~Version Information
VERS.                      2.0: CWLS Log ASCII Standard - VERSION 2.0
WRAP.                       NO: One line per depth step
~Well Information Block
STRT.FT               420.0000: 
STOP.FT              1527.5000: 
STEP.FT                 0.1000: 
NULL.                -999.2500: 
COMP.          Evergreen Operating Corporation: COMPANY
WELL.              Chase 21-10: WELL
FLD.           Purgatoire River: FIELD
LOC.           1122' FNL & 1544' FWL: LOCATION
PROV.                       CO: PROVINCE
CNTY.               Las Animas: COUNTRY
SRVC.                         : SERVICE COMPANY
DATE.          Tue May 25 08:18:37 2004: LOG DATE
UWI.           05 071 08006 00: UNIQUE WELL ID
~Curve Information Block
DEPT.FT            0 000 00 00: Depth
DCAL.in                       : CDL Caliper
RHOB.g/cc                     : CDL Bulk Density
RHOC.g/cc                     : CDL Density Correction
DPOR.pu                       : CDL Density Porosity
GR.GAPI                       : Gamma Ray
NPOR.pu                       : Neutron Porosity
~Parameter Information Block
~A  Depth       DCAL        RHOB        RHOC        DPOR         GR         NPOR    
# ...
  1514.4000      7.8175      2.5671      0.0515      5.0233   -999.2500   -999.2500
  1514.5000      7.8597      2.5576      0.0997      5.5977   -999.2500   -999.2500
  1514.6000      7.8597      2.5505      0.0720      6.0285   -999.2500   -999.2500
  1514.7000      7.8597      2.5409      0.0762      6.6118   -999.2500   -999.2500
  1514.8000      7.8286      2.5452      0.0323      6.3501   -999.2500   -999.2500
  1514.9000      7.8286      2.5849      0.0780      3.9438   -999.2500   -999.2500
  1515.0000      7.8515      2.6581      0.1705     -0.4905   -999.2500   -999.2500
  1515.1000      7.8515      2.7217      0.2139     -4.3466   -999.2500   -999.2500
  1515.2000      7.8515      2.7307      0.1876     -4.8918   -999.2500   -999.2500
  1515.3000      7.8141      2.6841      0.1643     -2.0643   -999.2500   -999.2500
  1515.4000      7.8141      2.6246      0.0634      1.5388   -999.2500   -999.2500
  1515.5000      7.8013      2.5965      0.0836      3.2439   -999.2500   -999.2500
  1515.6000      7.8013      2.5987      0.1189      3.1099   -999.2500   -999.2500
  1515.7000      7.8013      2.5973      0.1696      3.1939   -999.2500   -999.2500
  1515.8000      7.8054      2.5859      0.0668      3.8819   -999.2500   -999.2500
  1515.9000      7.8054      2.5866      0.0974      3.8398   -999.2500   -999.2500
  1516.0000      7.8398      2.5971      0.1371      3.2076   -999.2500   -999.2500
  1516.1000      7.8398      2.6014      0.1480      2.9476   -999.2500   -999.2500
  1516.2000      7.8398      2.6060      0.1489      2.6691   -999.2500   -999.2500
  1516.3000      7.8484      2.6235      0.1534      1.6052   -999.2500   -999.2500
  1516.4000      7.8484      2.6450      0.1778      0.3017   -999.2500   -999.2500
  1516.5000      7.8396      2.6459      0.1096      0.2512   -999.2500   -999.2500
  1516.6000      7.8396      2.6158      0.1075      2.0743   -999.2500   -999.2500
  1516.7000      7.8396      2.5713     -0.0050      4.7682   -999.2500   -999.2500
  1516.8000      7.8193      2.5227      0.1097      7.7176   -999.2500   -999.2500
  1516.9000      7.8193      2.4608     -0.0028     11.4684   -999.2500   -999.2500
  1517.0000      7.8645      2.4113     -0.0304     14.4691   -999.2500   -999.2500
  1517.1000      7.8645      2.4263     -0.0714     13.5579   -999.2500   -999.2500
  1517.2000      7.8645      2.5008      0.0930      9.0438   -999.2500   -999.2500
  1517.3000      7.8434      2.5636      0.1251      5.2344   -999.2500   -999.2500
  1517.4000      7.8434      2.5773      0.0340      4.4051   -999.2500   -999.2500
  1517.5000      7.8888      2.5626      0.0696      5.2969   -999.2500   -999.2500
  1517.6000      7.8888      2.5451      0.0536      6.3588   -999.2500   -999.2500
  1517.7000      7.8888      2.5388      0.0247      6.7423   -999.2500   -999.2500
  1517.8000      7.8671      2.5433      0.0620      6.4657   -999.2500   -999.2500
  1517.9000      7.8671      2.5515      0.0551      5.9698   -999.2500   -999.2500
  1518.0000      7.8426      2.5654      0.0238      5.1296   -999.2500   -999.2500
  1518.1000      7.8426      2.5871      0.0534      3.8103   -999.2500   -999.2500
  1518.2000      7.8426      2.6101      0.0576      2.4178   -999.2500   -999.2500
  1518.3000      7.8554      2.6272      0.1081      1.3844   -999.2500   -999.2500
  1518.4000      7.8554      2.6318      0.0901      1.1011   -999.2500   -999.2500
  1518.5000      7.8712      2.6223      0.0706      1.6814   -999.2500   -999.2500
  1518.6000      7.8712      2.6042      0.0872      2.7742   -999.2500   -999.2500
  1518.7000      7.8712      2.5967     -0.0107      3.2308   -999.2500   -999.2500
  1518.8000      7.8733      2.6178      0.0571      1.9498   -999.2500   -999.2500
  1518.9000      7.8733      2.6467      0.1207      0.1987   -999.2500   -999.2500
  1519.0000      7.8374      2.6493      0.1133      0.0411   -999.2500   -999.2500
  1519.1000      7.8374      2.6302      0.0709      1.2006   -999.2500   -999.2500
  1519.2000      7.8374      2.6085      0.1375      2.5125   -999.2500   -999.2500
  1519.3000      7.8431      2.5837      0.0874      4.0185   -999.2500   -999.2500
  1519.4000      7.8431      2.5652     -0.0044      5.1406   -999.2500   -999.2500
  1519.5000      7.8674      2.5620      0.0763      5.3354   -999.2500   -999.2500
  1519.6000      7.8674      2.5606      0.0070      5.4207   -999.2500   -999.2500
  1519.7000      7.8674      2.5590      0.0464      5.5139   -999.2500   -999.2500
  1519.8000      7.8536      2.5586      0.0879      5.5410   -999.2500   -999.2500
  1519.9000      7.8536      2.5534      0.0599      5.8560   -999.2500   -999.2500
  1520.0000      7.8658      2.5409      0.1004      6.6113   -999.2500   -999.2500
  1520.1000      7.8658      2.5254      0.0811      7.5505   -999.2500   -999.2500
  1520.2000      7.8658      2.5315     -0.0085      7.1842   -999.2500   -999.2500
  1520.3000      7.8534      2.5742      0.1098      4.5921   -999.2500   -999.2500
  1520.4000      7.8534      2.6143      0.1622      2.1607   -999.2500   -999.2500
  1520.5000      7.8648      2.6064      0.1359      2.6402   -999.2500   -999.2500
  1520.6000      7.8648      2.5569      0.0934      5.6441   -999.2500   -999.2500
  1520.7000      7.8648      2.5059     -0.0065      8.7310   -999.2500   -999.2500
  1520.8000      7.8362      2.4912      0.0105      9.6234   -999.2500   -999.2500
  1520.9000      7.8362      2.5207      0.0372      7.8380   -999.2500   -999.2500
  1521.0000      7.8436      2.5731      0.0541      4.6622   -999.2500   -999.2500
  1521.1000      7.8436      2.6115      0.1086      2.3351   -999.2500   -999.2500
  1521.2000      7.8436      2.6099      0.0853      2.4286   -999.2500   -999.2500
  1521.3000      7.8403      2.5882      0.0434      3.7452   -999.2500   -999.2500
  1521.4000      7.8403      2.5735      0.1416      4.6334   -999.2500   -999.2500
  1521.5000      7.8478      2.5601      0.0996      5.4470   -999.2500   -999.2500
  1521.6000      7.8478      2.5498      0.0519      6.0740   -999.2500   -999.2500
  1521.7000      7.8478      2.5568      0.0709      5.6501   -999.2500   -999.2500
  1521.8000      7.8073      2.5775      0.0373      4.3937   -999.2500   -999.2500
  1521.9000      7.8073      2.6011      0.0853      2.9631   -999.2500   -999.2500
  1522.0000      7.8140      2.6155      0.1286      2.0928   -999.2500   -999.2500
  1522.1000      7.8140      2.6101      0.0888      2.4184   -999.2500   -999.2500
  1522.2000      7.8140      2.5849      0.0639      3.9448   -999.2500   -999.2500
  1522.3000      7.8672      2.5483      0.0673      6.1658   -999.2500   -999.2500
  1522.4000      7.8672      2.5209      0.0286      7.8213   -999.2500   -999.2500
  1522.5000      7.7961      2.5182      0.0876      7.9904   -999.2500   -999.2500
  1522.6000      7.7961      2.5278      0.0446      7.4053   -999.2500   -999.2500
  1522.7000      7.7961      2.5329      0.0531      7.0950   -999.2500   -999.2500
  1522.8000      7.8365      2.5362     -0.0013      6.8963   -999.2500   -999.2500
  1522.9000      7.8365      2.5471      0.0571      6.2388   -999.2500   -999.2500
  1523.0000      7.8183      2.5641      0.0426      5.2064   -999.2500   -999.2500
  1523.1000      7.8183      2.5827      0.0779      4.0794   -999.2500   -999.2500
  1523.2000      7.8183      2.5904      0.0876      3.6129   -999.2500   -999.2500
  1523.3000      7.8381      2.5721      0.1365      4.7213   -999.2500   -999.2500
  1523.4000      7.8381      2.5421      0.0174      6.5386   -999.2500   -999.2500
  1523.5000      7.8249      2.5309      0.0817      7.2178   -999.2500   -999.2500
  1523.6000      7.8249      2.5376      0.0867      6.8101   -999.2500   -999.2500
  1523.7000      7.8249      2.5440      0.0671      6.4263   -999.2500   -999.2500
  1523.8000      7.8089      2.5393      0.0880      6.7094   -999.2500   -999.2500
  1523.9000      7.8089      2.5234      0.0416      7.6715   -999.2500   -999.2500
