~Version Information
VERS.                      2.0: CWLS Log ASCII Standard - VERSION 2.0
WRAP.                       NO: One line per depth step
~Well Information Block
STRT.FT               270.0000: 
STOP.FT              1771.7000: 
STEP.FT                 0.1000: 
NULL.                -999.2500: 
COMP.          Pioneer Natural Resources: COMPANY
WELL.           Labrador 34-30: WELL
FLD.           Purgatoire River: FIELD
LOC.           926' FSL & 2080' FEL: LOCATION
PROV.                 Colorado: PROVINCE
CNTY.               Las Animas: COUNTRY
SRVC.                Patterson: SERVICE COMPANY
DATE.          Mon Dec 06 08:24:34 2004: LOG DATE
UWI.           05 071 08202 00: UNIQUE WELL ID
~Curve Information Block
DEPT.FT            0 000 00 00: Depth
DCAL.in                       : CDL Caliper
RHOB.g/cc                     : CDL Bulk Density
RHOC.g/cc                     : CDL Density Correction
DPOR.pu                       : CDL Density Porosity
NPOR.pu                       : Neutron Porosity
GR.GAPI                       : Gamma Ray
~Parameter Information Block
~A  Depth       DCAL        RHOB        RHOC        DPOR        NPOR         GR     
# ...
  1738.8000      7.8896      2.5215      0.0083      7.7863     13.2887    116.7225
  1738.9000      7.8896      2.5240      0.0356      7.6355     13.6526    112.2570
  1739.0000      7.8879      2.5176      0.0096      8.0238     14.3758    108.0951
  1739.1000      7.8879      2.5115     -0.0159      8.3932     14.6981    107.9064
  1739.2000      7.8879      2.5197     -0.0034      7.8992     14.7087    113.4588
  1739.3000      7.8910      2.5406      0.0173      6.6284     15.1610    120.0498
  1739.4000      7.8910      2.5543      0.0438      5.8019     16.2690    114.9336
  1739.5000      7.8897      2.5489      0.0387      6.1255     17.3775     87.1304
  1739.6000      7.8897      2.5381      0.0295      6.7815     17.8464     45.5085
  1739.7000      7.8897      2.5331      0.0379      7.0856     17.9291     14.6305
  1739.8000      7.8828      2.5287     -0.0008      7.3499     18.2024      2.6952
  1739.9000      7.8828      2.5192      0.0312      7.9281     18.5017      0.2731
  1740.0000      7.8801      2.5057      0.0138      8.7473     18.3411      0.0146
  1740.1000      7.8801      2.4962      0.0018      9.3199     17.6756      0.0000
  1740.2000      7.8801      2.4964      0.0387      9.3073     17.2144   -999.2500
  1740.3000      7.8803      2.5046      0.0232      8.8107     17.5314   -999.2500
  1740.4000      7.8803      2.5173      0.0325      8.0450     17.9935   -999.2500
  1740.5000      7.8788      2.5274      0.0360      7.4320     17.5950   -999.2500
  1740.6000      7.8788      2.5290      0.0385      7.3330     16.3882   -999.2500
  1740.7000      7.8788      2.5191      0.0536      7.9358     15.1220   -999.2500
  1740.8000      7.8776      2.4991     -0.0003      9.1430     14.4399   -999.2500
  1740.9000      7.8776      2.4835     -0.0343     10.0913     14.3378   -999.2500
  1741.0000      7.8766      2.4851     -0.0071      9.9945     14.3343   -999.2500
  1741.1000      7.8766      2.5036     -0.0080      8.8700     14.3426   -999.2500
  1741.2000      7.8766      2.5285      0.0453      7.3653     14.6770   -999.2500
  1741.3000      7.8756      2.5471      0.0416      6.2338     15.2963   -999.2500
  1741.4000      7.8756      2.5572      0.0453      5.6259     15.6467   -999.2500
  1741.5000      7.8737      2.5589      0.0471      5.5221     15.5322   -999.2500
  1741.6000      7.8737      2.5480      0.0547      6.1790     15.5459   -999.2500
  1741.7000      7.8737      2.5305     -0.0079      7.2419     15.8448   -999.2500
  1741.8000      7.8715      2.5218     -0.0063      7.7712     16.1371   -999.2500
  1741.9000      7.8715      2.5219      0.0276      7.7624     16.4566   -999.2500
  1742.0000      7.8750      2.5229      0.0147      7.7022     16.9129   -999.2500
  1742.1000      7.8750      2.5258      0.0289      7.5296     17.7095   -999.2500
  1742.2000      7.8750      2.5305      0.0181      7.2428     18.7680   -999.2500
  1742.3000      7.8781      2.5341      0.0462      7.0252     19.4080   -999.2500
  1742.4000      7.8781      2.5366      0.0170      6.8754     19.1859   -999.2500
  1742.5000      7.8668      2.5327      0.0572      7.1070     18.4103   -999.2500
  1742.6000      7.8668      2.5210      0.0222      7.8207     17.7740   -999.2500
  1742.7000      7.8668      2.5206      0.0107      7.8426     17.7434   -999.2500
  1742.8000      7.8501      2.5410      0.0533      6.6048     18.1664   -999.2500
  1742.9000      7.8501      2.5597      0.1012      5.4716     18.4683   -999.2500
  1743.0000      7.8430      2.5594      0.0635      5.4939     18.4807   -999.2500
  1743.1000      7.8430      2.5553      0.0291      5.7400     18.4471   -999.2500
  1743.2000      7.8430      2.5653      0.0505      5.1335     18.2164   -999.2500
  1743.3000      7.8450      2.5784      0.0819      4.3380     17.6626   -999.2500
  1743.4000      7.8450      2.5734      0.0531      4.6426     17.3408   -999.2500
  1743.5000      7.8539      2.5507      0.0375      6.0190     17.7000   -999.2500
  1743.6000      7.8539      2.5302      0.0144      7.2612     18.3585   -999.2500
  1743.7000      7.8539      2.5250      0.0048      7.5751     18.7271   -999.2500
  1743.8000      7.8647      2.5293      0.0261      7.3127     18.9340   -999.2500
  1743.9000      7.8647      2.5336     -0.0112      7.0528     19.2704   -999.2500
  1744.0000      7.8697      2.5327      0.0253      7.1073     19.5634   -999.2500
  1744.1000      7.8697      2.5244     -0.0118      7.6094     19.5023   -999.2500
  1744.2000      7.8697      2.5187      0.0070      7.9606     19.2018   -999.2500
  1744.3000      7.8696      2.5189      0.0277      7.9483     19.1061   -999.2500
  1744.4000      7.8696      2.5183      0.0188      7.9847     19.3313   -999.2500
  1744.5000      7.8692      2.5230      0.0146      7.6974     19.4353   -999.2500
  1744.6000      7.8692      2.5304      0.0625      7.2468     19.1574   -999.2500
  1744.7000      7.8692      2.5214      0.0442      7.7936     18.8297   -999.2500
  1744.8000      7.8680      2.5011     -0.0090      9.0239     19.0813   -999.2500
  1744.9000      7.8680      2.4919      0.0016      9.5826     21.6319   -999.2500
  1745.0000      7.8654      2.4958      0.0038      9.3449     29.4177   -999.2500
  1745.1000      7.8654      2.4991      0.0123      9.1441     41.1104   -999.2500
  1745.2000      7.8654      2.4899      0.0355      9.7045     49.3842   -999.2500
  1745.3000      7.8593      2.4704      0.0218     10.8851     52.3402   -999.2500
  1745.4000      7.8593      2.4601      0.0023     11.5084     52.9179   -999.2500
  1745.5000      7.8489      2.4671      0.0412     11.0860     52.9791   -999.2500
  1745.6000      7.8489      2.4756      0.0714     10.5691     52.9826   -999.2500
  1745.7000      7.8489      2.4788      0.0562     10.3730   -999.2500   -999.2500
  1745.8000      7.8422      2.4837      0.0809     10.0815   -999.2500   -999.2500
  1745.9000      7.8422      2.4940      0.0584      9.4521   -999.2500   -999.2500
  1746.0000      7.8417      2.5095      0.0870      8.5161   -999.2500   -999.2500
  1746.1000      7.8417      2.5214      0.0862      7.7969   -999.2500   -999.2500
  1746.2000      7.8417      2.5229      0.0829      7.7060   -999.2500   -999.2500
  1746.3000      7.8462      2.5153      0.0837      8.1638   -999.2500   -999.2500
  1746.4000      7.8462      2.5032      0.0318      8.8991   -999.2500   -999.2500
  1746.5000      7.8553      2.4922      0.0560      9.5610   -999.2500   -999.2500
  1746.6000      7.8553      2.4874      0.0053      9.8562   -999.2500   -999.2500
  1746.7000      7.8553      2.4886      0.0214      9.7837   -999.2500   -999.2500
  1746.8000      7.8644      2.4885      0.0406      9.7882   -999.2500   -999.2500
  1746.9000      7.8644      2.4848      0.0240     10.0093   -999.2500   -999.2500
  1747.0000      7.8683      2.4815      0.0320     10.2107   -999.2500   -999.2500
  1747.1000      7.8683      2.4803      0.0074     10.2865   -999.2500   -999.2500
  1747.2000      7.8683      2.4839      0.0180     10.0672   -999.2500   -999.2500
  1747.3000      7.8654      2.4907      0.0544      9.6531   -999.2500   -999.2500
  1747.4000      7.8654      2.4944      0.0269      9.4323   -999.2500   -999.2500
  1747.5000      7.8573      2.4926      0.0290      9.5369   -999.2500   -999.2500
  1747.6000      7.8573      2.4822      0.0506     10.1723   -999.2500   -999.2500
  1747.7000      7.8573      2.4664      0.0121     11.1288   -999.2500   -999.2500
  1747.8000      7.8519      2.4652      0.0030     11.1997   -999.2500   -999.2500
  1747.9000      7.8519      2.4875      0.0216      9.8510   -999.2500   -999.2500
  1748.0000      7.8513      2.5201      0.0143      7.8750   -999.2500   -999.2500
  1748.1000      7.8513      2.5502      0.0248      6.0467   -999.2500   -999.2500
  1748.2000      7.8513      2.5684      0.0577      4.9467   -999.2500   -999.2500
  1748.3000      7.8512      2.5677      0.0593      4.9893   -999.2500   -999.2500
