~Version Information
VERS.                      2.0: CWLS Log ASCII Standard - VERSION 2.0
WRAP.                       NO: One line per depth step
~Well Information Block
STRT.FT               483.0000: 
STOP.FT              1701.5000: 
STEP.FT                 0.1000: 
NULL.                -999.2500: 
COMP.          Pioneer Natural Resources: COMPANY
WELL.            Mad Dog 42-31: WELL
FLD.           Purgatorie River: FIELD
LOC.           2064' FNL & 479' FEL: LOCATION
PROV.                 Colorado: PROVINCE
CNTY.               Las Animas: COUNTRY
SRVC.                         : SERVICE COMPANY
DATE.          Sun Oct 10 04:38:02 2004: LOG DATE
UWI.           05 071 08195 00: UNIQUE WELL ID
~Curve Information Block
DEPT.FT            0 000 00 00: Depth
LTEN.lb                       : Surface Line Tension
DCAL.in                       : CDL Caliper
RHOB.g/cc                     : CDL Bulk Density
RHOC.g/cc                     : CDL Density Correction
DPOR.pu                       : CDL Density Porosity
GR.GAPI                       : Gamma Ray
NPOR.pu                       : Neutron Porosity
~Parameter Information Block
~A  Depth       LTEN        DCAL        RHOB        RHOC        DPOR         GR         NPOR    
# ...
  1289.4000    966.8960      7.8760      2.5298      0.0125      7.2850    101.1776     29.2971
  1289.5000   1002.1703      7.8568      2.5269     -0.0008      7.4624    102.0964     29.4949
  1289.6000   1002.1703      7.8568      2.5412      0.0477      6.5927    100.0762     29.6606
  1289.7000   1002.1703      7.8568      2.5502      0.0133      6.0477    100.4209     30.0473
  1289.8000    979.7193      7.8725      2.5490      0.0437      6.1223    101.6951     30.5764
  1289.9000    979.7193      7.8725      2.5367      0.0633      6.8638    103.0314     30.3046
  1290.0000    988.5992      7.9017      2.5096      0.0419      8.5107    106.2520     28.9330
  1290.1000    988.5992      7.9017      2.4780      0.0145     10.4232    107.8514     27.8998
  1290.2000    988.5992      7.9017      2.4672      0.0101     11.0815    105.5665     28.2049
  1290.3000    989.1406      7.9309      2.4881      0.0342      9.8128    104.9006     28.8511
  1290.4000    989.1406      7.9309      2.5170      0.0809      8.0592    107.8921     29.1567
  1290.5000    965.1787      7.9241      2.5227      0.0885      7.7144    109.4580     29.8421
  1290.6000    965.1787      7.9241      2.4985      0.0475      9.1796    109.7658     31.1072
  1290.7000    965.1787      7.9241      2.4682     -0.0397     11.0200    112.6789     31.9765
  1290.8000    996.8842      7.9205      2.4603     -0.0145     11.4985    117.2565     31.7822
  1290.9000    996.8842      7.9205      2.4692      0.0140     10.9554    118.8274     31.1005
  1291.0000    971.1797      7.9301      2.4660      0.0464     11.1489    115.1639     30.5161
  1291.1000    971.1797      7.9301      2.4449      0.0175     12.4312    111.6892     30.2237
  1291.2000    971.1797      7.9301      2.4283     -0.0359     13.4376    112.9799     30.3169
  1291.3000    976.9704      7.9446      2.4173      0.0471     14.1018    114.0388     30.6504
  1291.4000    976.9704      7.9446      2.3932      0.0023     15.5622    109.0431     30.8734
  1291.5000    999.0676      7.9448      2.3626     -0.0202     17.4201    100.9586     30.5629
  1291.6000    999.0676      7.9448      2.3443     -0.0561     18.5292     97.0882     29.7251
  1291.7000    999.0676      7.9448      2.3432     -0.0913     18.5945     96.1105     29.2040
  1291.8000    982.5479      7.9571      2.3451      0.0021     18.4767     93.0079     29.3570
  1291.9000    982.5479      7.9571      2.3323     -0.0203     19.2548     90.4137     29.4822
  1292.0000    993.6317      7.9613      2.3119     -0.0415     20.4937     89.6604     29.3593
  1292.1000    993.6317      7.9613      2.3037     -0.0231     20.9851     87.9966     29.1193
  1292.2000    993.6317      7.9613      2.3194     -0.0424     20.0380     85.6143     28.8339
  1292.3000   1020.9882      7.9332      2.3543      0.0336     17.9208     84.3902     29.0089
  1292.4000   1020.9882      7.9332      2.3737      0.0969     16.7480     81.7466     29.8023
  1292.5000   1015.9846      7.8889      2.3350      0.1029     19.0886     75.7913     30.3122
  1292.6000   1015.9846      7.8889      2.2340      0.0075     25.2111     70.5671     29.8650
  1292.7000   1015.9846      7.8889      2.1009     -0.0351     33.2798     68.7641     29.2932
  1292.8000   1002.9774      7.8736      1.9642     -0.0396     41.5619     67.5562     29.4198
  1292.9000   1002.9774      7.8736      1.8366     -0.0682     49.2941     64.3533     29.7296
  1293.0000   1006.8770      7.8679      1.7263     -0.1209     55.9791     59.9566     29.7703
  1293.1000   1006.8770      7.8679      1.6438     -0.0906     60.9845     57.1105     29.9165
  1293.2000   1006.8770      7.8679      1.5984     -0.0654     63.7362     58.8011     30.3514
  1293.3000    988.3131      7.8795      1.6022     -0.0623     63.5000     62.6011     30.8403
  1293.4000    988.3131      7.8795      1.6640      0.0048     59.7572     62.6765     31.2389
  1293.5000    970.6205      7.9024      1.7712      0.1200     53.2606     60.9058     31.4502
  1293.6000    970.6205      7.9024      1.8936      0.1821     45.8398     62.7940     31.3748
  1293.7000    970.6205      7.9024      2.0103      0.1790     38.7726     69.6096     31.2741
  1293.8000    990.7365      7.9158      2.1254      0.1785     31.7946     79.5107     31.4577
  1293.9000    990.7365      7.9158      2.2522      0.2224     24.1109     87.4850     31.6793
  1294.0000    998.7321      7.9158      2.3827      0.2251     16.2014     93.4784     31.4987
  1294.1000    998.7321      7.9158      2.4883      0.2289      9.8011    101.6574     30.7636
  1294.2000    998.7321      7.9158      2.5499      0.1846      6.0666    107.3639     29.9097
  1294.3000    990.8159      7.8976      2.5745      0.1317      4.5781    105.7210     29.5882
  1294.4000    990.8159      7.8976      2.5778      0.1515      4.3779    102.1267     29.7534
  1294.5000    990.6686      7.8915      2.5645      0.1172      5.1841     98.8513     29.8334
  1294.6000    990.6686      7.8915      2.5332      0.0712      7.0772     93.6909     29.6376
  1294.7000    990.6686      7.8915      2.4920      0.0216      9.5777     89.4798     29.5158
  1294.8000    981.8269      7.8921      2.4574      0.0342     11.6699     87.6932     29.4785
  1294.9000    981.8269      7.8921      2.4440     -0.0190     12.4827     86.3583     29.4264
  1295.0000   1004.6729      7.8931      2.4535      0.0184     11.9075     87.0182     29.5568
  1295.1000   1004.6729      7.8931      2.4762     -0.0082     10.5307     90.2173     29.6562
  1295.2000   1004.6729      7.8931      2.4999      0.0462      9.0970     93.9658     29.1197
  1295.3000    976.6415      7.8894      2.5091      0.0705      8.5413     99.0706     27.9983
  1295.4000    976.6415      7.8894      2.5048      0.0429      8.8002    103.8323     27.1471
  1295.5000    990.3337      7.8957      2.5072      0.0849      8.6520    103.5379     27.0894
  1295.6000    990.3337      7.8957      2.5173      0.1271      8.0422     96.7979     27.3388
  1295.7000    990.3337      7.8957      2.5112      0.1283      8.4119     89.9759     27.1979
  1295.8000   1019.6854      7.8947      2.4796      0.0658     10.3287     89.5704     26.6756
  1295.9000   1019.6854      7.8947      2.4450     -0.0123     12.4223     95.3726     26.3815
  1296.0000    960.4582      7.8963      2.4346     -0.0016     13.0520    102.9985     26.7099
  1296.1000    960.4582      7.8963      2.4524      0.0054     11.9759    107.8802     27.3835
  1296.2000    960.4582      7.8963      2.4799      0.0510     10.3106    107.9950     27.8931
  1296.3000   1025.5751      7.8819      2.4974      0.0494      9.2506    103.9090     28.0226
  1296.4000   1025.5751      7.8819      2.5068      0.0726      8.6785     99.7865     27.9847
  1296.5000    979.9677      7.8755      2.5167      0.0962      8.0792    100.2874     28.0384
  1296.6000    979.9677      7.8755      2.5223      0.0765      7.7419    103.4608     27.8132
  1296.7000    979.9677      7.8755      2.5250      0.0760      7.5731    106.4167     27.0319
  1296.8000    974.7279      7.8699      2.5378      0.0504      6.7973    110.2134     26.3168
  1296.9000    974.7279      7.8699      2.5586      0.0708      5.5387    114.0645     26.2166
  1297.0000    994.0165      7.8673      2.5718      0.0745      4.7386    112.5307     26.4688
  1297.1000    994.0165      7.8673      2.5754      0.0574      4.5210    102.8773     26.5527
  1297.2000    994.0165      7.8673      2.5736      0.1107      4.6278     89.3760     26.4235
  1297.3000    957.2284      7.8672      2.5652      0.0608      5.1395     78.9642     26.3206
  1297.4000    957.2284      7.8672      2.5603      0.0544      5.4335     79.5745     26.4497
  1297.5000   1020.7802      7.8676      2.5650      0.1414      5.1495     92.0381     26.8242
  1297.6000   1020.7802      7.8676      2.5686      0.0418      4.9350    101.7208     27.0717
  1297.7000   1020.7802      7.8676      2.5682      0.0585      4.9581     99.5696     26.7527
