~Version Information
VERS.                      2.0: CWLS Log ASCII Standard - VERSION 2.0
WRAP.                       NO: One line per depth step
~Well Information Block
STRT.FT               954.4000: 
STOP.FT              2380.0000: 
STEP.FT                 0.1000: 
NULL.                -999.2500: 
COMP.          Petrogulf Corporation: COMPANY
WELL.             State 16-24V: WELL
FLD.           Purgatorie River: FIELD
LOC.           481' FSL & 2419' FWL: LOCATION
CNTY.               Las Animas: COUNTY
SRVC.                         : SERVICE COMPANY
DATE.          Tue May 04 07:31:25 2004: LOG DATE
UWI.           05 071 08014 00: UNIQUE WELL ID
STAT.                 Colorado: STATE
~Curve Information Block
DEPT.FT            0 000 00 00: Depth
DCAL.in                       : CDL Caliper
RHOB.g/cc                     : CDL Bulk Density
RHOC.g/cc                     : CDL Density Correction
DPOR.pu                       : CDL Density Porosity
GR.GAPI                       : Gamma Ray
~Parameter Information Block
~A  Depth       DCAL        RHOB        RHOC        DPOR         GR     
# ...
   965.6000      8.0279   -999.2500     -0.5271   -999.2500     76.0882
   965.7000      8.0279   -999.2500     -0.4969   -999.2500     81.1897
   965.8000      8.0332   -999.2500     -0.5114   -999.2500     87.0026
   965.9000      8.0332      1.7790     -0.6820     52.7879     93.8686
   966.0000      8.0353      1.7643     -0.6894     53.6781     96.1082
   966.1000      8.0353      1.7843     -0.6892     52.4697     89.8563
   966.2000      8.0353      1.8376     -0.6222     49.2352     83.1325
   966.3000      8.0389      1.8953     -0.5246     45.7413     82.4720
   966.4000      8.0389      1.9121     -0.4811     44.7184     88.3408
   966.5000      8.0512      1.8797     -0.4781     46.6832    101.3291
   966.6000      8.0512      1.8387     -0.5687     49.1677    110.4547
   966.7000      8.0512      1.8440     -0.6181     48.8490    103.4525
   966.8000      8.0644      1.8910     -0.4697     46.0000     87.6907
   966.9000      8.0644      1.9287     -0.5189     43.7178     76.6080
   967.0000      8.0871      1.9436     -0.4750     42.8137     78.6856
   967.1000      8.0871      1.9380     -0.4184     43.1486     92.0268
   967.2000      8.0871      1.9105     -0.5290     44.8173    104.1972
   967.3000      8.0961      1.8920     -0.5979     45.9412    103.7688
   967.4000      8.0961      1.9099     -0.4885     44.8543     96.9793
   967.5000      8.1002      1.9534     -0.5126     42.2187     97.1473
   967.6000      8.1002      1.9985     -0.4162     39.4833    102.2240
   967.7000      8.1002      2.0208     -0.4310     38.1304    107.7634
   967.8000      8.1103      2.0207     -0.4946     38.1407    113.8415
   967.9000      8.1103      2.0225     -0.3405     38.0287    115.6417
   968.0000      8.1131      2.0331     -0.4837     37.3855    111.4823
   968.1000      8.1131      2.0407     -0.4348     36.9282    103.8985
   968.2000      8.1131      2.0379     -0.4499     37.0981     93.9549
   968.3000      8.1232      2.0426     -0.4495     36.8091     84.5098
   968.4000      8.1232      2.0672     -0.3560     35.3211     79.8916
   968.5000      8.1186      2.0837     -0.3683     34.3188     83.9986
   968.6000      8.1186      2.0633     -0.3781     35.5596     97.6694
   968.7000      8.1186      2.0227     -0.4243     38.0154    119.0062
   968.8000      8.1178      1.9964     -0.4524     39.6113    134.3096
   968.9000      8.1178      1.9752     -0.4092     40.8952    130.3230
   969.0000      8.1243      1.9359     -0.5168     43.2810    119.2863
   969.1000      8.1243      1.8993     -0.5470     45.4998    115.5755
   969.2000      8.1243      1.9037     -0.5526     45.2332    113.5590
   969.3000      8.1233      1.9575     -0.5587     41.9700    108.0877
   969.4000      8.1233      2.0294     -0.3960     37.6147    105.4312
   969.5000      8.1234      2.0670     -0.2705     35.3308    105.4910
   969.6000      8.1234      2.0573     -0.5493     35.9196     99.3213
   969.7000      8.1234      2.0410     -0.4604     36.9111     89.9001
   969.8000      8.1191      2.0372     -0.3947     37.1386     84.7095
   969.9000      8.1191      2.0360     -0.4055     37.2117     83.1581
   970.0000      8.1223      2.0438     -0.4537     36.7372     84.3912
   970.1000      8.1223      2.0623     -0.4276     35.6155     88.6644
   970.2000      8.1223      2.0702     -0.4350     35.1411     94.8388
   970.3000      8.1213      2.0574     -0.4382     35.9150    100.2668
   970.4000      8.1213      2.0331     -0.4499     37.3870    100.7419
   970.5000      8.1178      2.0046     -0.4525     39.1140     97.2372
   970.6000      8.1178      1.9739     -0.4719     40.9739     97.1962
   970.7000      8.1178      1.9564     -0.5733     42.0335     99.1460
   970.8000      8.1209      1.9759     -0.5804     40.8552     97.3987
   970.9000      8.1209      2.0082     -0.3846     38.8948     90.8927
   971.0000      8.1203      1.9983     -0.4120     39.4969     78.5681
   971.1000      8.1203      1.9630     -0.6209     41.6366     64.0724
   971.2000      8.1203      1.9499     -0.4173     42.4304     60.5406
   971.3000      8.1242      1.9499     -0.4586     42.4281     74.8688
   971.4000      8.1242      1.9547     -0.4958     42.1424     92.1330
   971.5000      8.1126      1.9675     -0.5434     41.3651    100.8473
   971.6000      8.1126      1.9607     -0.4627     41.7772    108.6879
   971.7000      8.1126      1.9330     -0.6387     43.4529    116.8727
   971.8000      8.1146      1.9273     -0.4885     43.8020    113.8400
   971.9000      8.1146      1.9489     -0.4786     42.4925     99.1397
   972.0000      8.1210      1.9662     -0.4834     41.4396     92.3452
   972.1000      8.1210      1.9683     -0.4429     41.3125    105.6987
   972.2000      8.1210      1.9755     -0.5099     40.8766    121.6017
   972.3000      8.1225      1.9876     -0.4469     40.1429    121.1022
   972.4000      8.1225      1.9745     -0.4100     40.9418    113.5953
   972.5000      8.1206      1.9482     -0.5875     42.5306    113.9576
   972.6000      8.1206      1.9448     -0.4647     42.7409    121.2745
   972.7000      8.1206      1.9413     -0.4214     42.9532    124.8437
   972.8000      8.1203      1.9129     -0.5443     44.6737    122.0640
   972.9000      8.1203      1.8930     -0.5866     45.8784    120.7189
   973.0000      8.1273      1.9221     -0.6230     44.1143    120.6193
   973.1000      8.1273      1.9896     -0.4605     40.0267    115.3168
   973.2000      8.1273      2.0409     -0.3829     36.9160    105.9821
   973.3000      8.1291      2.0566     -0.4896     35.9623     99.3596
   973.4000      8.1291      2.0638     -0.3960     35.5280     92.6983
   973.5000      8.1219      2.0522     -0.2930     36.2321     85.2549
   973.6000      8.1219      2.0041     -0.4642     39.1431     85.4842
   973.7000      8.1219      1.9640     -0.5822     41.5753     91.4820
   973.8000      8.1235      1.9736     -0.5669     40.9924     97.7996
   973.9000      8.1235      2.0284     -0.5159     37.6744    102.9630
   974.0000      8.1224      2.0990     -0.4224     33.3916    100.4242
   974.1000      8.1224      2.1346     -0.3556     31.2386     89.3737
   974.2000      8.1224      2.1026     -0.4261     33.1764     81.0492
   974.3000      8.1237      2.0372     -0.5549     37.1407     78.9508
   974.4000      8.1237      2.0002     -0.5776     39.3795     79.5753
   974.5000      8.1148      2.0029     -0.4431     39.2159     81.0075
   974.6000      8.1148      2.0028     -0.3714     39.2216     78.1918
   974.7000      8.1148      1.9833     -0.4574     40.4031     74.6042
   974.8000      8.1182      1.9827     -0.5704     40.4406     79.9395
   974.9000      8.1182      2.0192     -0.3658     38.2290     89.1214
   975.0000      8.1236      2.0524     -0.4350     36.2183     92.9126
   975.1000      8.1236      2.0594     -0.5267     35.7962     94.3384
   975.2000      8.1236      2.0569     -0.4698     35.9426     96.0966
   975.3000      8.1172      2.0517     -0.5146     36.2595     96.2119
   975.4000      8.1172      2.0446     -0.4730     36.6915     97.3017
   975.5000      8.1200      2.0575     -0.5425     35.9077     99.2360
   975.6000      8.1200      2.0894     -0.3845     33.9766    100.3357
   975.7000      8.1200      2.0999     -0.4207     33.3391    102.4901
   975.8000      8.1135      2.0766     -0.4851     34.7501    104.3127
   975.9000      8.1135      2.0420     -0.4917     36.8468    102.6825
   976.0000      8.1176      2.0063     -0.4189     39.0151    100.0800
   976.1000      8.1176      1.9707     -0.5640     41.1694    100.1790
   976.2000      8.1176      1.9449     -0.5226     42.7347     99.6164
   976.3000      8.1123      1.9376     -0.5578     43.1787     95.1695
   976.4000      8.1123      1.9610     -0.5804     41.7583     94.4348
   976.5000      8.1112      2.0158     -0.5471     38.4387    100.5927
   976.6000      8.1112      2.0710     -0.3927     35.0908    103.7410
   976.7000      8.1112      2.0846     -0.3782     34.2653     97.2139
