~Version Information
VERS.                      2.0: CWLS Log ASCII Standard - VERSION 2.0
WRAP.                       NO: One line per depth step
~Well Information Block
STRT.FT               300.0000: 
STOP.FT               871.2000: 
STEP.FT                 0.1000: 
NULL.                -999.2500: 
COMP.          Pioneer Natural Resources: COMPANY
WELL.            Hustler 12-17: WELL
FLD.           Purgatoire River: FIELD
LOC.           2150' FNL & 450' FWL: LOCATION
PROV.                 Colorado: PROVINCE
CNTY.               Las Animas: COUNTRY
SRVC.                Patterson: SERVICE COMPANY
DATE.          Mon Dec 20 11:14:19 2004: LOG DATE
UWI.           05 071 08236 00: UNIQUE WELL ID
~Curve Information Block
DEPT.FT            0 000 00 00: Depth
DCAL.in                       : CDL Caliper
RHOB.g/cc                     : CDL Bulk Density
RHOC.g/cc                     : CDL Density Correction
DPOR.pu                       : CDL Density Porosity
NPOR.pu                       : Neutron Porosity
GR.GAPI                       : Gamma Ray
~Parameter Information Block
~A  Depth       DCAL        RHOB        RHOC        DPOR        NPOR         GR     
# ...
   511.2000      8.0125      2.5033      0.0979      8.8902     22.1130    109.0349
   511.3000      8.0102      2.5091      0.0817      8.5381     23.4858    109.5037
   511.4000      8.0102      2.5041      0.0407      8.8413     24.5420    103.3632
   511.5000      8.0110      2.5003      0.0259      9.0739     24.8860     97.5327
   511.6000      8.0110      2.5020      0.0597      8.9712     24.7880     97.0230
   511.7000      8.0110      2.5059      0.0296      8.7358     24.8401     97.5337
   511.8000      8.0105      2.5088      0.0437      8.5588     25.3242     97.1873
   511.9000      8.0105      2.5011      0.0886      9.0218     25.7096    100.8128
   512.0000      8.0056      2.4819      0.0062     10.1849     25.2936    108.7114
   512.1000      8.0056      2.4698      0.0282     10.9223     24.2724    113.2403
   512.2000      8.0056      2.4678      0.0719     11.0414     23.5639    110.9731
   512.3000      8.0017      2.4595      0.0732     11.5479     23.5120    106.1245
   512.4000      8.0017      2.4434      0.0416     12.5201     23.4668    102.9715
   512.5000      8.0087      2.4304      0.0140     13.3074     23.0406    105.3032
   512.6000      8.0087      2.4156      0.0452     14.2066     22.4718    113.2799
   512.7000      8.0087      2.3915      0.0108     15.6678     21.9178    120.5887
   512.8000      8.0245      2.3672     -0.0045     17.1422     21.4098    122.3359
   512.9000      8.0245      2.3430     -0.0167     18.6076     20.9790    119.8862
   513.0000      8.0509      2.3063     -0.0341     20.8295     20.6189    115.6161
   513.1000      8.0509      2.2605     -0.0288     23.6056     20.4484    109.4426
   513.2000      8.0509      2.2257     -0.0183     25.7126     20.3597    102.0530
   513.3000      8.0822      2.2189     -0.0043     26.1278     19.9537     98.3532
   513.4000      8.0822      2.2367      0.0299     25.0473     19.2519     99.7765
   513.5000      8.1039      2.2505      0.1101     24.2108     18.6434    101.6698
   513.6000      8.1039      2.2408      0.0200     24.8017     18.3414    102.9277
   513.7000      8.1039      2.2291     -0.0150     25.5087     18.3295    103.9854
   513.8000      8.1151      2.2416      0.0346     24.7493     18.5354    103.5105
   513.9000      8.1151      2.2757      0.0361     22.6868     18.7074    102.1366
   514.0000      8.1120      2.3214      0.0377     19.9136     18.7814    102.2433
   514.1000      8.1120      2.3745      0.0951     16.6971     18.9772    105.3934
   514.2000      8.1120      2.4250      0.0825     13.6391     19.3645    109.5160
   514.3000      8.0914      2.4623      0.1097     11.3753     19.9362    111.4315
   514.4000      8.0914      2.4825      0.0361     10.1516     20.5842    112.1618
   514.5000      8.0566      2.4901      0.0242      9.6888     21.2011    113.4208
   514.6000      8.0566      2.4878      0.0709      9.8316     21.6610    114.6094
   514.7000      8.0566      2.4770      0.0329     10.4827     21.7575    116.3305
   514.8000      8.0235      2.4705      0.0060     10.8782     21.8174    120.2392
   514.9000      8.0235      2.4705      0.0476     10.8763     22.3161    123.2558
   515.0000      8.0101      2.4672      0.0320     11.0800     22.9356    121.4833
   515.1000      8.0101      2.4646      0.0448     11.2349     23.2807    116.9206
   515.2000      8.0101      2.4718      0.0293     10.7990     23.3975    111.7169
   515.3000      8.0082      2.4868      0.0355      9.8887     23.1865    106.0257
   515.4000      8.0082      2.5019      0.0452      8.9745     22.7921    101.5036
   515.5000      8.0091      2.5097      0.0320      8.5030     22.6653    100.4202
   515.6000      8.0091      2.5077      0.0522      8.6227     22.8855    104.0408
   515.7000      8.0091      2.5017      0.0121      8.9870     23.2173    109.0950
   515.8000      8.0110      2.4975      0.0760      9.2418     23.4118    110.0246
   515.9000      8.0110      2.4944      0.0295      9.4290     23.4185    108.4227
   516.0000      8.0115      2.4944      0.0464      9.4309     23.4477    109.2245
   516.1000      8.0115      2.5009      0.0278      9.0371     23.5892    111.9821
   516.2000      8.0115      2.5069      0.0560      8.6720     23.5981    116.2276
   516.3000      8.0076      2.4947      0.0366      9.4129     23.2908    122.5499
   516.4000      8.0076      2.4624      0.0030     11.3714     22.8628    124.8619
   516.5000      8.0031      2.4366     -0.0147     12.9342     22.6678    121.8379
   516.6000      8.0031      2.4383     -0.0160     12.8275     22.7636    121.8518
   516.7000      8.0031      2.4564      0.0380     11.7358     23.0636    127.2789
   516.8000      8.0057      2.4684      0.0394     11.0059     23.4192    131.2128
   516.9000      8.0057      2.4692      0.0596     10.9590     23.7195    130.3266
   517.0000      8.0100      2.4629      0.0187     11.3415     24.1490    127.1241
   517.1000      8.0100      2.4498      0.0436     12.1362     24.7000    123.2682
   517.2000      8.0100      2.4298      0.0340     13.3470     24.8321    120.4359
   517.3000      8.0125      2.4103      0.0138     14.5293     24.4103    120.8101
   517.4000      8.0125      2.3960      0.0333     15.3940     24.1293    124.6720
   517.5000      8.0131      2.3844     -0.0028     16.0956     24.3494    129.4023
   517.6000      8.0131      2.3800      0.0101     16.3634     24.5658    130.0655
   517.7000      8.0131      2.3815      0.0131     16.2706     24.3069    126.5904
   517.8000      8.0098      2.3695      0.0655     17.0021     23.6279    123.7670
   517.9000      8.0098      2.3309      0.0419     19.3384     22.7315    121.6774
   518.0000      8.0070      2.2742      0.0269     22.7735     21.9804    118.0769
   518.1000      8.0070      2.2036      0.0233     27.0545     21.5809    115.7793
   518.2000      8.0070      2.1117     -0.0268     32.6268     21.1161    115.0623
   518.3000      8.0166      2.0054     -0.0570     39.0683     20.2627    112.3573
   518.4000      8.0166      1.9031     -0.0971     45.2675     19.0892    107.4710
   518.5000      8.0418      1.8078     -0.0826     51.0404     17.5563    102.2074
   518.6000      8.0418      1.7073     -0.1091     57.1314     15.6694     95.5913
   518.7000      8.0418      1.5978     -0.1502     63.7694     13.6862     87.6106
   518.8000      8.0898      1.4914     -0.1715     70.2197     11.7598     81.2900
   518.9000      8.0898      1.4076     -0.1808     75.3000      9.9819     77.2620
   519.0000      8.1601      1.3578     -0.1231     78.3139      8.5633     74.3410
   519.1000      8.1601      1.3348     -0.0207     79.7070      7.6258     73.4753
   519.2000      8.1601      1.3311     -0.0022     79.9304      6.9475     75.3182
   519.3000      8.2186      1.3543      0.0678     78.5290      6.3356     76.2116
   519.4000      8.2186      1.4057      0.1461     75.4104      6.0122     74.4079
   519.5000      8.2520      1.4724      0.1839     71.3689      6.2677     72.4030
   519.6000      8.2520      1.5417      0.1983     67.1696      6.8113     69.8615
   519.7000      8.2520      1.6137      0.1868     62.8041      7.1252     65.7772
   519.8000      8.2407      1.7025      0.1790     57.4219      7.3273     64.7355
   519.9000      8.2407      1.8223      0.2298     50.1657      7.6928     68.2097
   520.0000      8.1716      1.9705      0.3095     41.1826      8.3379     72.4957
   520.1000      8.1716      2.1236      0.3984     31.9009      9.3495     76.5476
   520.2000      8.1716      2.2478      0.4395     24.3763     10.5654     79.6140
   520.3000      8.1078      2.3303      0.3212     19.3779     11.6714     81.3502
   520.4000      8.1078      2.3878      0.3072     15.8934     12.4321     81.7806
   520.5000      8.0631      2.4278      0.2835     13.4644     13.0828     81.8090
   520.6000      8.0631      2.4427      0.1923     12.5612     14.1114     85.1801
   520.7000      8.0631      2.4377      0.1484     12.8693     15.5168     91.3796
