~Version Information
VERS.                      2.0: CWLS Log ASCII Standard - VERSION 2.0
WRAP.                       NO: One line per depth step
~Well Information Block
STRT.FT               745.0000: 
STOP.FT              2945.7000: 
STEP.FT                 0.1000: 
NULL.                -999.2500: 
COMP.          Pioneer Natural Resources: COMPANY
WELL.          Old Yeller 31-32: WELL
FLD.           Purgatoire River: FIELD
LOC.           1832' FEL & 793' FNL--: LOCATION
STAT.                 Colorado: State
CNTY.               Las Animas: COUNTY
CTRY. USA : Country
SECT. 32 : Section
TOWN. 32S : Township
RANG. 67W : Range
SRVC.                Patterson: SERVICE COMPANY
DATE.          Mon Aug 29 11:12:35 2005: LOG DATE
API.           05 071 08356 00: UNIQUE WELL ID
~Curve Information Block
DEPT.FT            0 000 00 00: Depth
DCAL.in                       : CDL Caliper
RHOB.g/cc                     : CDL Bulk Density
RHOC.g/cc                     : CDL Density Correction
DPOR.pu                       : CDL Density Porosity
NPOR.pu                       : Neutron Porosity
GR.GAPI                       : Gamma Ray
~Parameter Information Block
~A  Depth       DCAL        RHOB        RHOC        DPOR        NPOR         GR     
# ...
  1465.0000      8.1390      2.4749      0.0504     10.6138     18.8415     80.5366
  1465.1000      8.1390      2.4867      0.0099      9.8996     19.1617     77.5262
  1465.2000      8.1390      2.5127      0.0668      8.3196     19.8538     76.9424
  1465.3000      8.1435      2.5406      0.0799      6.6296     20.7872     81.3046
  1465.4000      8.1435      2.5600      0.0618      5.4533     21.9638     89.9868
  1465.5000      8.1514      2.5663      0.1263      5.0702     23.3921     97.3232
  1465.6000      8.1514      2.5530      0.0750      5.8797     24.9299    100.1498
  1465.7000      8.1514      2.5244      0.0598      7.6096     26.3278    103.0500
  1465.8000      8.1600      2.4888      0.0431      9.7709     27.2738    109.1667
  1465.9000      8.1600      2.4411      0.0304     12.6597     28.2528    115.4449
  1466.0000      8.1629      2.3719      0.0212     16.8541     29.7748    117.7723
  1466.1000      8.1629      2.2789     -0.0274     22.4897     31.4057    115.6208
  1466.2000      8.1629      2.1668     -0.0815     29.2857     32.5604    113.7332
  1466.3000      8.1612      2.0431     -0.0967     36.7840     33.5247    115.0965
  1466.4000      8.1612      1.9176     -0.1344     44.3894     34.6684    115.1353
  1466.5000      8.1629      1.8005     -0.1775     51.4856     35.4645    110.7450
  1466.6000      8.1629      1.6969     -0.1501     57.7655     35.7579    101.6544
  1466.7000      8.1629      1.6053     -0.1570     63.3145     35.8437     88.4558
  1466.8000      8.1773      1.5247     -0.1192     68.1994     35.5824     76.0505
  1466.9000      8.1773      1.4580     -0.1117     72.2430     35.0711     71.1256
  1467.0000      8.2011      1.4107     -0.0456     75.1113     34.8292     71.0078
  1467.1000      8.2011      1.3828     -0.0161     76.8012     34.8724     67.5667
  1467.2000      8.2011      1.3709      0.0210     77.5212     34.9357     61.8857
  1467.3000      8.2099      1.3705      0.0298     77.5471     35.1731     60.0379
  1467.4000      8.2099      1.3756      0.0320     77.2384     35.4539     61.2820
  1467.5000      8.1891      1.3806      0.0314     76.9344     35.5393     62.4400
  1467.6000      8.1891      1.3781      0.0351     77.0844     35.5212     62.8832
  1467.7000      8.1891      1.3640     -0.0100     77.9372     35.3699     61.0766
  1467.8000      8.1535      1.3448     -0.0195     79.1031     35.1785     56.7328
  1467.9000      8.1535      1.3305     -0.0395     79.9725     35.1787     51.8638
  1468.0000      8.1314      1.3233     -0.0204     80.4052     35.3027     47.2271
  1468.1000      8.1314      1.3164      0.0037     80.8261     35.1768     42.5019
  1468.2000      8.1314      1.3079     -0.0198     81.3400     34.6361     39.0218
  1468.3000      8.1233      1.3066     -0.0017     81.4193     33.8771     38.1876
  1468.4000      8.1233      1.3240     -0.0297     80.3650     33.3442     38.8095
  1468.5000      8.1212      1.3674      0.0192     77.7359     33.3853     40.2210
  1468.6000      8.1212      1.4270      0.0399     74.1190     33.8299     41.4652
  1468.7000      8.1212      1.4776      0.0924     71.0531     34.3714     41.4455
  1468.8000      8.1210      1.4982      0.1016     69.8042     34.7239     42.7286
  1468.9000      8.1210      1.4923      0.0786     70.1611     34.7769     48.0438
  1469.0000      8.1129      1.4813      0.0584     70.8332     34.8956     55.3451
  1469.1000      8.1129      1.4787      0.0721     70.9870     35.1133     60.5205
  1469.2000      8.1129      1.4861      0.0283     70.5375     35.1899     62.1213
  1469.3000      8.0912      1.4998      0.0409     69.7096     35.1625     60.6637
  1469.4000      8.0912      1.5007      0.0262     69.6574     35.1257     57.3583
  1469.5000      8.0676      1.4665     -0.0304     71.7292     35.1565     54.7541
  1469.6000      8.0676      1.4085     -0.1163     75.2410     35.0916     55.5414
  1469.7000      8.0676      1.3704     -0.1122     77.5508     34.6593     54.1977
  1469.8000      8.0580      1.3827      0.0036     76.8074     33.9523     46.2038
  1469.9000      8.0580      1.4446      0.0381     73.0541     33.4848     39.0704
  1470.0000      8.0572      1.5458      0.0856     66.9184     33.4786     38.6589
  1470.1000      8.0572      1.6705      0.1445     59.3625     33.3314     42.1659
  1470.2000      8.0572      1.7992      0.1367     51.5654     32.4137     45.4724
  1470.3000      8.0576      1.9226      0.1663     44.0822     30.8337     49.5512
  1470.4000      8.0576      2.0436      0.1992     36.7508     29.0846     56.8989
  1470.5000      8.0586      2.1745      0.2464     28.8196     27.4021     64.9367
  1470.6000      8.0586      2.3228      0.2884     19.8286     25.8083     68.3683
  1470.7000      8.0586      2.4684      0.3356     11.0034     24.3886     66.0278
  1470.8000      8.0607      2.5712      0.3280      4.7757     23.4434     62.7597
  1470.9000      8.0607      2.6129      0.2011      2.2497     22.9358     62.6531
  1471.0000      8.0640      2.6120      0.1378      2.3031     22.1090     65.8422
  1471.1000      8.0640      2.5974      0.0591      3.1874     21.0019     70.7556
  1471.2000      8.0640      2.5950      0.0533      3.3349     20.4707     75.2547
  1471.3000      8.0667      2.6151      0.0286      2.1145     20.7477     76.0970
  1471.4000      8.0667      2.6386      0.1165      0.6890     21.2596     73.2838
  1471.5000      8.0676      2.6440      0.0321      0.3610     21.2465     73.3285
  1471.6000      8.0676      2.6356      0.0761      0.8723     20.7408     76.9617
  1471.7000      8.0676      2.6177      0.0677      1.9560     20.2928     78.2513
  1471.8000      8.0670      2.5949      0.0278      3.3404     20.3204     76.6977
  1471.9000      8.0670      2.5798      0.0479      4.2521     21.1254     74.6631
  1472.0000      8.0681      2.5763      0.0225      4.4693     22.1940     73.0988
  1472.1000      8.0681      2.5781      0.0254      4.3594     22.5989     72.7762
  1472.2000      8.0681      2.5743      0.0485      4.5889     22.4134     73.5395
  1472.3000      8.0688      2.5638     -0.0071      5.2262     21.9273     73.2079
  1472.4000      8.0688      2.5593      0.0001      5.4983     21.2473     72.0793
  1472.5000      8.0680      2.5608      0.0531      5.4042     20.8788     72.3087
  1472.6000      8.0680      2.5577      0.0029      5.5950     21.1197     73.6248
  1472.7000      8.0680      2.5580     -0.0016      5.5739     21.6148     75.5264
  1472.8000      8.0674      2.5666      0.0548      5.0569     21.8419     79.3747
  1472.9000      8.0674      2.5708      0.0477      4.8014     21.7787     83.5564
  1473.0000      8.0681      2.5683      0.0268      4.9503     21.6318     84.3194
  1473.1000      8.0681      2.5667      0.0111      5.0488     21.4295     82.5927
  1473.2000      8.0681      2.5696      0.0169      4.8726     21.3172     79.9916
  1473.3000      8.0687      2.5814      0.0108      4.1597     21.1387     78.1131
  1473.4000      8.0687      2.6075      0.0283      2.5779     20.8650     81.3615
  1473.5000      8.0685      2.6366      0.0747      0.8137     20.8972     86.2707
  1473.6000      8.0685      2.6528      0.0442     -0.1690     21.2776     84.4807
  1473.7000      8.0685      2.6599      0.0707     -0.6000     21.4673     77.8125
  1473.8000      8.0667      2.6594      0.0815     -0.5702     21.2600     73.4899
  1473.9000      8.0667      2.6418      0.0849      0.4958     20.7884     71.3429
  1474.0000      8.0658      2.6148      0.0412      2.1306     20.1881     68.1305
  1474.1000      8.0658      2.6024      0.0228      2.8875     19.8300     66.2792
  1474.2000      8.0658      2.6143      0.0400      2.1661     19.8005     67.0619
  1474.3000      8.0671      2.6383      0.0977      0.7119     19.8839     65.3583
  1474.4000      8.0671      2.6555      0.0246     -0.3313     20.0124     62.1567
  1474.5000      8.0698      2.6557      0.0483     -0.3434     20.2821     63.6247
