~Version Information
VERS.                      2.0: CWLS Log ASCII Standard - VERSION 2.0
WRAP.                       NO: One line per depth step
~Well Information Block
STRT.FT                -8.2500: 
STOP.FT              1119.7500: 
STEP.FT                 0.2500: 
NULL.                -999.2500: 
COMP.          Pioneer Natural Resources: COMPANY
WELL.             Linda T 32-3: WELL
FLD.           Purgatorie River: FIELD
LOC.           1350' FNL & 2290' FEL------: LOCATION
PROV.                       CO: PROVINCE
CNTY.               Las Animas: COUNTRY
SRVC.                         : SERVICE COMPANY
DATE.          Thu Feb 10 08:20:40 2005: LOG DATE
UWI.          005 071 08215   : UNIQUE WELL ID
~Curve Information Block
DEPT.FT            0 000 00 00: Depth
CCL.                          : Casing Collar Locator
TT3.usec                      : CBL 3' Travel Time
AMP3.mV                       : CBL 3' Amplitude
GR.GAPI                       : Gamma Ray
~Parameter Information Block
~A  Depth       CCL         TT3         AMP3         GR     
    -8.2500   -999.2500   -999.2500   -999.2500   -999.2500
    -8.0000   -999.2500   -999.2500   -999.2500   -999.2500
    -7.7500   -999.2500   -999.2500   -999.2500    115.5239
    -7.5000   -999.2500   -999.2500   -999.2500    117.8447
    -7.2500   -999.2500   -999.2500   -999.2500    119.4208
    -7.0000   -999.2500   -999.2500   -999.2500    120.0844
    -6.7500   -999.2500   -999.2500   -999.2500    120.5842
    -6.5000   -999.2500   -999.2500   -999.2500    121.5066
    -6.2500   -999.2500   -999.2500   -999.2500    122.5279
    -6.0000   -999.2500   -999.2500   -999.2500    122.6177
    -5.7500   -999.2500   -999.2500   -999.2500    120.9032
    -5.5000   -999.2500   -999.2500   -999.2500    117.8490
    -5.2500   -999.2500   -999.2500   -999.2500    115.6804
    -5.0000   -999.2500   -999.2500   -999.2500    116.7883
    -4.7500   -999.2500   -999.2500   -999.2500    121.0863
    -4.5000   -999.2500   -999.2500   -999.2500    125.6627
    -4.2500   -999.2500   -999.2500   -999.2500    127.7208
    -4.0000   -999.2500   -999.2500   -999.2500    127.1450
    -3.7500   -999.2500   -999.2500   -999.2500    125.3714
    -3.5000   -999.2500   -999.2500   -999.2500    122.6991
    -3.2500   -999.2500   -999.2500   -999.2500    118.2798
    -3.0000   -999.2500   -999.2500   -999.2500    112.5219
    -2.7500   -999.2500   -999.2500   -999.2500    107.8039
    -2.5000   -999.2500    798.0000      1.0521    106.2228
    -2.2500   -999.2500    798.0000      1.0401    107.5233
    -2.0000   -999.2500    798.0000      1.0487    109.6544
    -1.7500   -999.2500    798.0000      1.0733    110.6773
    -1.5000   -999.2500    798.0000      1.1025    109.8238
    -1.2500   -999.2500    798.0000      1.1243    107.1566
    -1.0000   -999.2500    798.0000      1.1323    102.8978
    -0.7500   -999.2500    798.0000      1.1250     97.3743
    -0.5000   -999.2500    798.0000      1.1056     91.3466
    -0.2500   -999.2500    798.0000      1.0819     85.8592
     0.0000   -999.2500    798.0000      1.0646     77.9362
     0.2500   -999.2500    798.0000      1.0682     73.9773
     0.5000   -999.2500    798.0000      1.0620     68.5718
     0.7500   -999.2500    798.0000      1.0442     61.5821
     1.0000   -999.2500    798.0000      1.0206     54.2431
     1.2500   -999.2500    798.0000      1.0013     48.6299
     1.5000   -999.2500    798.0000      0.9932     46.2131
     1.7500   -999.2500    798.0000      0.9973     46.8494
     2.0000   -999.2500    798.0000      1.0106     49.2968
     2.2500   -999.2500    797.9645      1.0333     52.4347
     2.5000      0.0000    797.7335      1.0797     55.6104
     2.7500      0.0000    796.5603      1.2319     58.1769
     3.0000      0.0000    791.9205      1.7730     59.4216
     3.2500      0.0000    777.6296      3.3977     59.0913
     3.5000      0.0000    743.3506      7.2720     57.6573
     3.7500      0.0000    679.3152     14.5186     55.9740
     4.0000      0.0000    586.1544     25.1231     54.8274
     4.2500      0.0000    480.6002     37.2645     54.7541
     4.5000      0.0000    387.4532     48.1554     55.9637
     4.7500      0.0000    323.4251     55.8340     58.2132
     5.0000      0.0000    289.1304     60.1223     60.7278
     5.2500      0.0000    274.8037     62.0639     62.4029
     5.5000      0.0000    270.1206     62.8386     62.4484
     5.7500      0.0000    268.9027     63.1962     61.0297
     6.0000      0.0000    268.6214     63.4746     59.0521
     6.2500      0.0000    268.5286     63.7880     57.0932
     6.5000      0.0000    268.4738     64.1412     54.7540
     6.7500      0.0000    268.4365     64.4797     51.3723
     7.0000      0.0000    268.4212     64.7392     47.3109
     7.2500      0.0000    268.4164     64.9049     44.2187
     7.5000      0.0000    268.4081     65.0306     43.9053
     7.7500      0.0000    268.3969     65.2109     46.9782
     8.0000      0.0000    268.3951     65.5338     52.4363
     8.2500      0.0000    268.4100     66.0331     58.4255
     8.5000      0.0000    268.4309     66.6540     63.3953
     8.7500      2.0000    268.4373     67.2600     66.7953
     9.0000      2.0000    268.4165     67.6966     68.9344
     9.2500      0.0000    268.3785     67.8612     70.2933
     9.5000      0.0000    268.3556     67.7074     70.9509
     9.7500      0.0000    268.3826     67.1980     70.6693
    10.0000      0.0000    268.4683     66.3014     69.4474
    10.2500      0.0000    268.5843     65.0562     67.6778
    10.5000      0.0000    268.6851     63.6099     65.6453
    10.7500      0.0000    268.7408     62.1630     63.1803
    11.0000      0.0000    268.7507     60.8805     60.0572
    11.2500      0.0000    268.7338     59.8671     56.5450
    11.5000      0.0000    268.7116     59.1954     53.3729
    11.7500      0.0000    268.6975     58.9068     51.2574
    12.0000      0.0000    268.6940     58.9580     50.6401
    12.2500      0.0000    268.6968     59.1835     51.7172
    12.5000      0.0000    268.7039     59.3399     54.2620
    12.7500      0.0000    268.7217     59.2194     57.3906
    13.0000      0.0000    268.7579     58.7478     59.8509
    13.2500      0.0000    268.8080     57.9875     60.7226
    13.5000      0.0000    268.8535     57.0617     59.8681
    13.7500      0.0000    268.8776     56.0871     57.8681
    14.0000      0.0000    268.8819     55.1621     55.5314
    14.2500      0.0000    268.8825     54.3781     53.4564
    14.5000      0.0000    268.8897     53.8161     52.0342
    14.7500      0.0000    268.8969     53.5250     51.4032
    15.0000      0.0000    268.8926     53.4927     51.1205
    15.2500      0.0000    268.8766     53.6423     50.3532
    15.5000      0.0000    268.8583     53.8751     48.7385
    15.7500      0.0000    268.8431     54.1351     46.7004
    16.0000      0.0000    268.8254     54.4347     44.8027
    16.2500      0.0000    268.7958     54.8117     43.2250
    16.5000      0.0000    268.7533     55.2670     42.0034
    16.7500      0.0000    268.7079     55.7412     41.4674
    17.0000      0.0000    268.6729     56.1405     42.2830
    17.2500      0.0000    268.6534     56.3872     44.9346
    17.5000      0.0000    268.6454     56.4662     48.9146
    17.7500      0.0000    268.6415     56.4265     52.6149
    18.0000      0.0000    268.6337     56.3318     54.5157
    18.2500      0.0000    268.6104     56.2194     54.5507
    18.5000      0.0000    268.5591     56.1062     53.9216
    18.7500      0.0000    268.4777     56.0069     53.5880
    19.0000      0.0000    268.3817     55.9352     53.4710
    19.2500      0.0000    268.2937     55.9026     53.1049
    19.5000      0.0000    268.2266     55.9276     52.4451
    19.7500      0.0000    268.1809     56.0294     51.8408
    20.0000      0.0000    268.1547     56.2069     51.7001
    20.2500      0.0000    268.1486     56.4356     52.4717
    20.5000      0.0000    268.1612     56.6846     54.4824
    20.7500      0.0000    268.1833     56.9278     57.2862
    21.0000      0.0000    268.2019     57.1469     59.4461
    21.2500      0.0000    268.2089     57.3320     59.5756
    21.5000      0.0000    268.2054     57.4730     57.8184
    21.7500      0.0000    268.1967     57.5590     55.9971
    22.0000      0.0000    268.1829     57.6013     56.0435
    22.2500      0.0000    268.1577     57.6441     58.3281
    22.5000      0.0000    268.1200     57.7331     61.5817
    22.7500      0.0000    268.0790     57.8776     64.2837
    23.0000      0.0000    268.0502     58.0483     66.0129
    23.2500      0.0000    268.0449     58.2045     67.5381
    23.5000      0.0000    268.0652     58.3245     69.7326
    23.7500      0.0000    268.1017     58.4188     72.5374
    24.0000      0.0000    268.1382     58.5192     75.0858
    24.2500      0.0000    268.1589     58.6607     76.4605
    24.5000      0.0000    268.1576     58.8705     75.9742
    24.7500      0.0000    268.1399     59.1541     73.3571
    25.0000      0.0000    268.1165     59.4771     69.4478
