~Version Information
VERS.                      2.0: CWLS Log ASCII Standard - VERSION 2.0
WRAP.                       NO: One line per depth step
~Well Information Block
STRT.FT                10.0000: 
STOP.FT               859.0000: 
STEP.FT                 0.2500: 
NULL.                -999.2500: 
COMP.          Pioneer Natural Resources: COMPANY
WELL.          Prospector 12-19: WELL
FLD.           Purgatoire River: FIELD
LOC.           2262' FNL & 634' FWL: LOCATION
PROV.                 Colorado: PROVINCE
CNTY.               Las Animas: COUNTRY
SRVC.                Patterson: SERVICE COMPANY
DATE.          Tue May 10 11:52:48 2005: LOG DATE
UWI.           05 071 08191 00: UNIQUE WELL ID
~Curve Information Block
DEPT.FT            0 000 00 00: Depth
CCL.                          : Casing Collar Locator
TT3.usec                      : CBL 3' Travel Time
AMP3.mV                       : CBL 3' Amplitude
GR.GAPI                       : Gamma Ray
~Parameter Information Block
~A  Depth       CCL         TT3         AMP3         GR     
# ...
   278.0000      0.0000    993.6091      7.2288     80.4868
   278.2500      0.0000    958.9535      7.3469     77.9543
   278.5000      0.0000    938.6370      7.4657     75.9410
   278.7500      0.0000    925.7523      7.5547     76.2311
   279.0000      0.0000    913.8746      7.6050     79.9276
   279.2500      0.0000    901.1697      7.6335     85.9095
   279.5000      0.0000    892.5591      7.6618     91.4763
   279.7500      0.0000    897.8358      7.6982     94.6167
   280.0000      0.0000    925.5980      7.7358     95.3254
   280.2500      0.0000    975.9510      7.7589     94.7475
   280.5000      0.0000   1036.7310      7.7511     93.4703
   280.7500      0.0000   1086.9324      7.7046     90.9785
   281.0000      0.0000   1107.1221      7.6253     86.7086
   281.2500      0.0000   1091.2695      7.5259     81.2067
   281.5000      0.0000   1052.8813      7.4032     76.0026
   281.7500      0.0000   1020.2631      7.2157     72.5502
   282.0000      0.0000   1019.7036      6.9001     71.3688
   282.2500      0.0000   1055.0543      6.4352     71.8730
   282.5000      0.0000   1102.9534      5.8945     72.8492
   282.7500      0.0000   1133.3966      5.4155     73.4760
   283.0000      0.0000   1135.6029      5.1073     74.3246
   283.2500      0.0000   1120.1290      4.9918     77.3024
   283.5000      0.0000   1102.1115      5.0139     84.2189
   283.7500      0.0000   1093.0159      5.0903     94.9748
   284.0000      2.0000   1101.2115      5.1632    106.8550
   284.2500      0.0000   1124.1139      5.2448    115.6506
   284.5000      0.0000   1140.4825      5.4213    118.1452
   284.7500      0.0000   1124.9994      5.7884    114.3182
   285.0000      0.0000   1074.3215      6.3443    107.3263
   285.2500      0.0000   1011.6761      6.9506    101.0831
   285.5000      0.0000    965.7870      7.4299     97.7117
   285.7500      0.0000    952.1365      7.7058     97.1186
   286.0000      0.0000    973.0679      7.8301     98.3402
   286.2500      0.0000   1023.7490      7.8914    100.6325
   286.5000      0.0000   1090.8105      7.9334    103.4967
   286.7500      0.0000   1152.7134      7.9513    106.4905
   287.0000      0.0000   1193.9875      7.9336    109.3061
   287.2500      0.0000   1218.6604      7.8894    111.7791
   287.5000      0.0000   1241.1449      7.8423    113.8766
   287.7500      0.0000   1265.8077      7.8072    115.8013
   288.0000      0.0000   1285.1241      7.7764    117.9616
   288.2500      0.0000   1296.0190      7.7313    120.7589
   288.5000      0.0000   1307.5167      7.6647    124.2989
   288.7500      0.0000   1330.5634      7.5919    128.0149
   289.0000      0.0000   1365.8435      7.5401    130.6478
   289.2500      0.0000   1403.1842      7.5255    131.0498
   289.5000      0.0000   1429.9370      7.5374    128.9926
   289.7500      0.0000   1437.7245      7.5435    125.0665
   290.0000      0.0000   1423.0300      7.5176    120.2336
   290.2500      0.0000   1387.6329      7.4612    115.7490
   290.5000      0.0000   1343.1724      7.3966    112.9902
   290.7500      0.0000   1311.4336      7.3424    112.7605
   291.0000      0.0000   1311.4213      7.3008    114.7740
   291.2500      0.0000   1343.0876      7.2630    118.1242
   291.5000      0.0000   1387.2439      7.2251    122.2833
   291.7500      0.0000   1421.4058      7.1935    127.1151
   292.0000      0.0000   1432.3102      7.1777    131.8434
   292.2500      0.0000   1415.9508      7.1742    134.9616
   292.5000      0.0000   1375.6814      7.1676    135.7230
   292.7500      0.0000   1326.0100      7.1485    134.8826
   293.0000      0.0000   1292.0201      7.1252    133.4429
   293.2500      0.0000   1294.1390      7.1132    131.5503
   293.5000      0.0000   1330.2745      7.1199    129.1090
   293.7500      0.0000   1376.5250      7.1403    126.5330
   294.0000      0.0000   1404.7786      7.1601    124.3147
   294.2500      0.0000   1396.7318      7.1598    122.3836
   294.5000      0.0000   1346.7837      7.1210    120.3151
   294.7500      0.0000   1262.7793      7.0372    117.8604
   295.0000      0.0000   1166.8013      6.9223    115.0029
   295.2500      0.0000   1087.8440      6.8045    111.9311
   295.5000      0.0000   1047.6113      6.7094    109.4384
   295.7500      0.0000   1051.4768      6.6444    108.7975
   296.0000      0.0000   1089.6431      6.6001    110.3872
   296.2500      0.0000   1142.7427      6.5635    112.6355
   296.5000      0.0000   1188.1494      6.5259    113.1383
   296.7500      0.0000   1207.9244      6.4839    110.9791
   297.0000      0.0000   1196.4601      6.4392    107.4293
   297.2500      0.0000   1162.4471      6.3983    104.2630
   297.5000      0.0000   1122.5250      6.3678    101.9971
   297.7500      0.0000   1090.7416      6.3491    100.0489
   298.0000      0.0000   1072.0208      6.3372     98.0175
   298.2500      0.0000   1064.0303      6.3238     96.2421
   298.5000      0.0000   1063.4851      6.2988     95.4535
   298.7500      0.0000   1071.1913      6.2540     96.2429
   299.0000      0.0000   1092.9989      6.1880     98.5941
   299.2500      0.0000   1135.1155      6.1111    101.6419
   299.5000      0.0000   1194.7646      6.0434    104.0424
   299.7500      0.0000   1255.1265      6.0044    104.7298
   300.0000      0.0000   1294.9966      6.0040    103.3890
   300.2500      0.0000   1306.0115      6.0393    100.4972
   300.5000      0.0000   1296.3179      6.0991     97.1076
   300.7500      0.0000   1277.7611      6.1690     94.2782
   301.0000      0.0000   1258.3876      6.2332     92.2530
   301.2500      0.0000   1248.3403      6.2771     90.2590
   301.5000      0.0000   1259.0870      6.2887     87.4023
   301.7500      0.0000   1289.2905      6.2623     83.8286
   302.0000      0.0000   1320.6104      6.2051     80.9776
   302.2500      0.0000   1333.1566      6.1406     80.6554
   302.5000      0.0000   1318.6161      6.0975     83.7181
   302.7500      0.0000   1278.1432      6.0948     89.4492
   303.0000      0.0000   1220.4686      6.1332     96.1728
   303.2500      0.0000   1167.8416      6.1989    102.4916
   303.5000      0.0000   1151.3531      6.2711    107.8948
   303.7500      0.0000   1188.0537      6.3284    112.2139
   304.0000      0.0000   1264.1112      6.3545    114.8345
   304.2500      0.0000   1345.4011      6.3428    114.8175
   304.5000      0.0000   1402.3817      6.2983    111.8154
   304.7500      0.0000   1421.8826      6.2333    106.7096
   305.0000      0.0000   1400.5916      6.1606    101.2432
   305.2500      0.0000   1337.9705      6.0886     96.8016
   305.5000      0.0000   1240.6169      6.0198     93.4077
   305.7500      0.0000   1129.5426      5.9542     90.0364
   306.0000      0.0000   1036.0970      5.8982     85.9416
   306.2500      0.0000    987.9420      5.8628     81.4716
   306.5000      0.0000    998.2822      5.8516     77.6273
   306.7500      0.0000   1062.8981      5.8562     75.1058
   307.0000      0.0000   1160.9248      5.8682     73.9423
   307.2500      0.0000   1259.9491      5.8875     73.9018
   307.5000      0.0000   1329.5951      5.9136     74.9897
   307.7500      0.0000   1358.3086      5.9391     77.4723
   308.0000      0.0000   1359.5074      5.9565     81.4206
   308.2500      0.0000   1359.2316      5.9666     86.5596
   308.5000      0.0000   1374.5908      5.9767     92.7106
   308.7500      0.0000   1403.0973      5.9928     99.8791
   309.0000      0.0000   1431.4808      6.0133    107.5011
   309.2500      0.0000   1450.4541      6.0286    114.1730
   309.5000      0.0000   1459.6023      6.0244    118.7702
   309.7500      0.0000   1462.8881      5.9892    121.4632
   310.0000      0.0000   1463.7474      5.9186    123.1818
   310.2500      0.0000   1463.7136      5.8170    124.3314
   310.5000      0.0000   1462.6342      5.6966    124.4021
   310.7500      0.0000   1458.2385      5.5770    122.8630
   311.0000      0.0000   1444.7218      5.4797    120.2598
   311.2500      0.0000   1412.4138      5.4206    118.0775
