~Version Information
VERS.                      2.0: CWLS Log ASCII Standard - VERSION 2.0
WRAP.                       NO: One line per depth step
~Well Information Block
STRT.FT               750.0000: 
STOP.FT              2431.5000: 
STEP.FT                 0.1000: 
NULL.                -999.2500: 
COMP.          Petrogulf Corporation: COMPANY
WELL.           McDaniel 9-34V: WELL
FLD.           Purgatorie River: FIELD
LOC.           620' FSL & 1800' FEL: LOCATION
PROV.                 Colorado: PROVINCE
CNTY.               Las Animas: COUNTRY
SRVC.                Patterson: SERVICE COMPANY
DATE.          Wed Sep 28 07:18:04 2005: LOG DATE
UWI.                          : UNIQUE WELL ID
~Curve Information Block
DEPT.FT            0 000 00 00: Depth
DCAL.in                       : CDL Caliper
RHOB.g/cc                     : CDL Bulk Density
RHOC.g/cc                     : CDL Density Correction
DPOR.pu                       : CDL Density Porosity
GR.GAPI                       : Gamma Ray
NPOR.pu                       : Neutron Porosity
~Parameter Information Block
~A  Depth       DCAL        RHOB        RHOC        DPOR         GR         NPOR    
# ...
  1412.4000      7.9644      2.5036     -0.0169      8.8708    167.4544     24.0856
  1412.5000      7.9696      2.4944      0.0009      9.4293    168.4270     23.7125
  1412.6000      7.9696      2.4956      0.0041      9.3602    168.9024     23.3634
  1412.7000      7.9696      2.5105      0.0546      8.4557    168.6523     23.8372
  1412.8000      7.9666      2.5360      0.0822      6.9085    166.7072     24.8671
  1412.9000      7.9666      2.5635      0.0841      5.2407    162.9813     25.6784
  1413.0000      7.9622      2.5857      0.1524      3.8966    160.5084     26.0060
  1413.1000      7.9622      2.6069      0.1177      2.6140    160.1354     26.1193
  1413.2000      7.9622      2.6354      0.1669      0.8833    160.4334     26.3921
  1413.3000      7.9628      2.6616      0.1668     -0.7045    160.2891     26.6748
  1413.4000      7.9628      2.6709      0.1796     -1.2675    157.2158     26.5309
  1413.5000      7.9636      2.6656      0.1372     -0.9462    151.8651     26.1489
  1413.6000      7.9636      2.6639      0.0501     -0.8399    147.5938     25.9139
  1413.7000      7.9636      2.6724      0.0976     -1.3586    145.7628     25.6833
  1413.8000      7.9603      2.6726      0.0183     -1.3725    146.6133     25.1422
  1413.9000      7.9603      2.6522      0.0338     -0.1315    147.1659     24.3600
  1414.0000      7.9576      2.6181     -0.0226      1.9356    144.3240     23.4419
  1414.1000      7.9576      2.5896     -0.0425      3.6597    138.6875     22.5639
  1414.2000      7.9576      2.5783     -0.0202      4.3479    131.9495     22.1117
  1414.3000      7.9548      2.5813      0.0101      4.1614    125.9798     22.0365
  1414.4000      7.9548      2.6024      0.0272      2.8852    119.2211     21.9656
  1414.5000      7.9515      2.6423      0.0430      0.4687    109.6348     21.6876
  1414.6000      7.9515      2.6749      0.0734     -1.5076    101.1816     21.1669
  1414.7000      7.9515      2.6710      0.0686     -1.2704     98.6370     20.5930
  1414.8000      7.9526      2.6406      0.0017      0.5725     99.2210     20.2002
  1414.9000      7.9526      2.6186     -0.0183      1.9051     97.6881     19.6662
  1415.0000      7.9553      2.6180     -0.0150      1.9419     94.2022     18.4971
  1415.1000      7.9553      2.6298     -0.0223      1.2230     91.5040     16.7652
  1415.2000      7.9553      2.6453      0.0141      0.2829     89.3463     15.3216
  1415.3000      7.9511      2.6539      0.0139     -0.2365     86.7872     14.9533
  1415.4000      7.9511      2.6432      0.0331      0.4140     84.5322     15.5427
  1415.5000      7.9490      2.6164     -0.0167      2.0364     84.0055     16.3479
  1415.6000      7.9490      2.5874     -0.0288      3.7945     85.0940     16.9051
  1415.7000      7.9490      2.5578      0.0003      5.5876     86.4307     17.1130
  1415.8000      7.9598      2.5356     -0.0646      6.9355     88.2465     17.0696
  1415.9000      7.9598      2.5409     -0.0469      6.6145     91.3469     17.2430
  1416.0000      7.9600      2.5672      0.0237      5.0191     94.8229     18.0740
  1416.1000      7.9600      2.5885      0.0513      3.7247     98.7143     19.2222
  1416.2000      7.9600      2.6022      0.0586      2.8955    104.0777     19.9257
  1416.3000      7.9578      2.6150      0.0942      2.1218    111.1350     20.2529
  1416.4000      7.9578      2.6145      0.1311      2.1504    118.2045     20.7813
  1416.5000      7.9585      2.5975      0.0591      3.1824    122.5864     21.4058
  1416.6000      7.9585      2.5843      0.0796      3.9845    125.4383     21.5289
  1416.7000      7.9585      2.5895      0.0415      3.6649    129.5221     21.2742
  1416.8000      7.9663      2.6093      0.0932      2.4650    133.4265     21.5248
  1416.9000      7.9663      2.6254      0.1334      1.4881    135.9283     22.5403
  1417.0000      7.9706      2.6254      0.0930      1.4890    138.6725     23.7672
  1417.1000      7.9706      2.6146      0.0788      2.1456    141.7094     24.7896
  1417.2000      7.9706      2.5980      0.0941      3.1537    145.8998     25.4695
  1417.3000      7.9644      2.5741      0.0479      4.6028    151.9214     25.8548
  1417.4000      7.9644      2.5492      0.0272      6.1097    156.7657     26.2408
  1417.5000      7.9594      2.5323      0.0513      7.1333    157.6366     26.7063
  1417.6000      7.9594      2.5226      0.0235      7.7238    156.2023     26.9608
  1417.7000      7.9594      2.5142      0.0244      8.2330    158.2572     26.9704
  1417.8000      7.9594      2.5042      0.0323      8.8347    164.2700     26.8579
  1417.9000      7.9594      2.4978      0.0374      9.2221    166.5742     26.7220
  1418.0000      7.9653      2.4984      0.0464      9.1860    163.9013     26.8286
  1418.1000      7.9653      2.5009      0.0416      9.0350    163.1468     27.1623
  1418.2000      7.9653      2.5027      0.0643      8.9294    166.1187     27.1610
  1418.3000      7.9778      2.5002      0.0712      9.0800    167.6859     26.6827
  1418.4000      7.9778      2.4830      0.0963     10.1183    164.4186     26.3066
  1418.5000      7.9775      2.4467      0.0547     12.3234    159.2494     26.5189
  1418.6000      7.9775      2.4044      0.0537     14.8837    156.8091     26.8851
  1418.7000      7.9775      2.3755      0.0195     16.6335    157.1889     26.7154
  1418.8000      7.9838      2.3634      0.0268     17.3707    157.1600     26.3902
  1418.9000      7.9838      2.3557      0.0554     17.8373    156.1030     26.4651
  1419.0000      7.9765      2.3488      0.0320     18.2552    156.2978     26.6967
  1419.1000      7.9765      2.3569      0.0377     17.7641    158.9494     26.6695
  1419.2000      7.9765      2.3861      0.0716     15.9939    160.9396     26.5835
  1419.3000      7.9959      2.4291      0.1388     13.3886    158.7323     26.8835
  1419.4000      7.9959      2.4794      0.1312     10.3409    155.9679     27.2455
  1419.5000      7.9922      2.5204      0.1155      7.8553    155.5491     27.1920
  1419.6000      7.9922      2.5324      0.0478      7.1297    154.1836     26.8264
  1419.7000      7.9922      2.5268      0.0010      7.4691    148.2406     26.3037
  1419.8000      7.9898      2.5270      0.0396      7.4550    139.5518     25.7106
  1419.9000      7.9898      2.5373      0.0033      6.8289    133.5953     25.2239
  1420.0000      7.9975      2.5537      0.0343      5.8385    130.8661     24.7789
  1420.1000      7.9975      2.5703      0.0409      4.8333    127.7100     24.1202
  1420.2000      7.9975      2.5850      0.0407      3.9385    124.3242     23.2596
  1420.3000      7.9737      2.5950      0.0838      3.3361    121.3911     22.4631
  1420.4000      7.9737      2.5942      0.0551      3.3845    117.6718     21.8522
  1420.5000      7.9597      2.5893      0.0380      3.6798    114.8224     21.2835
  1420.6000      7.9597      2.5875      0.1033      3.7884    113.8849     20.8134
  1420.7000      7.9597      2.5846      0.0506      3.9658    110.7104     20.7986
  1420.8000      7.9617      2.5845      0.0194      3.9688    103.9439     21.2540
  1420.9000      7.9617      2.5896      0.0545      3.6622     97.6462     21.5765
  1421.0000      7.9585      2.5898      0.0335      3.6492     92.3679     21.4891
  1421.1000      7.9585      2.5861     -0.0216      3.8739     85.8134     21.1547
  1421.2000      7.9585      2.5833      0.0391      4.0414     79.0086     20.4659
  1421.3000      7.9598      2.5797      0.0329      4.2623     75.0390     19.2684
  1421.4000      7.9598      2.5778      0.0443      4.3786     74.9973     17.8400
  1421.5000      7.9513      2.5774     -0.0045      4.4029     73.5562     16.6655
  1421.6000      7.9513      2.5733      0.0243      4.6496     66.6382     15.9339
  1421.7000      7.9513      2.5678      0.0100      4.9807     59.8820     15.5715
  1421.8000      7.9531      2.5697      0.0030      4.8689     58.4639     15.4102
  1421.9000      7.9531      2.5784      0.0506      4.3420     60.1930     15.3612
