~Version Information
 VERS.                                  2.0 : CWLS LAS VERSION
 WRAP.                                   NO : WRAPING MODE
 SWARE .                 MController 2.5.0N : SOFTWARE VERSION
~Well Information
 WELL.                     Commander 43-25Tr : WELL
 COMP.    Pioneer Natural Resources USA Inc : COMPANY
 FLD.                      Purgatoire River : FIELD
 LOC.                NE/SE Sec 26 T32S R67W : LOCATION
 DATE.                              4/14/05 : DATE(S) LOGGED
 SRVC.       Blanco Geological Services LLC : SERVICE COMPANY
 STAT.                                   CO : STATE
 CNTY.                           Las Animas : COUNTY
 CTRY.                                  USA : COUNTRY
 API.                       05-071-08341-00 : API NUMBER
 STRT.FT                             275.00 : START DEPTH
 STOP.FT                            1979.00 : STOP DEPTH
 STEP.FT                               1.00 : DEPTH INCREMENT
 NULL.                                -9999 : NULL VALUE
~Curve information
 DEPTH.FT                                   :
 ROP.MIN/FT                                 :
 GAS.UNITS                                  :
~ASCII Log data
# ...
      1875.0         0.23        496.4 
      1876.0         0.23        493.8 
      1877.0         0.17        494.8 
      1878.0         0.17        440.0 
      1879.0         0.30        440.0 
      1880.0         0.27        440.0 
      1881.0         0.33        440.0 
      1882.0         0.33        477.5 
      1883.0         0.20        441.5 
      1884.0         0.15        440.0 
      1885.0         0.53        440.0 
      1886.0         3.95       2264.4 
      1887.0         0.60       2611.1 
      1888.0         0.33       2603.3 
      1889.0         0.27       2372.3 
      1890.0         0.27       1978.1 
      1891.0         0.23       1542.0 
      1892.0         0.23       1241.0 
      1893.0         0.35       1011.0 
      1894.0         0.30        799.1 
      1895.0         0.33        683.6 
      1896.0         0.30        596.9 
      1897.0         0.20        556.0 
      1898.0         0.13        543.2 
      1899.0         0.13        534.7 
      1900.0         0.23        529.5 
      1901.0         0.30        524.2 
      1902.0         0.30        516.4 
      1903.0         0.27        518.4 
      1904.0         0.33        521.0 
      1905.0         0.27        519.3 
      1906.0         0.28        511.2 
      1907.0         0.27        504.0 
      1908.0         0.20        491.5 
      1909.0         0.17        489.6 
      1910.0         0.23        532.4 
      1911.0         0.27        523.9 
      1912.0         0.23        486.6 
      1913.0         0.23        487.3 
      1914.0         0.27        477.8 
      1915.0         0.23        484.7 
      1916.0         4.57       2008.2 
      1917.0         0.33       2408.6 
      1918.0         0.43       2637.0 
      1919.0         0.33       2640.9 
      1920.0         0.37       2449.5 
      1921.0         0.33       1928.0 
      1922.0         0.30       1447.5 
      1923.0         0.40       1102.6 
      1924.0         0.47        793.5 
      1925.0         0.32        609.0 
      1926.0         0.37        541.9 
      1927.0         0.33        539.3 
      1928.0         0.30        610.0 
      1929.0         0.33        698.0 
      1930.0         0.23        743.4 
      1931.0         0.23        781.4 
      1932.0         0.17        808.2 
      1933.0         0.17        833.1 
      1934.0         0.23        850.1 
      1935.0         0.20        864.5 
      1936.0         0.17        872.3 
      1937.0         0.17        882.1 
      1938.0         0.13        888.0 
      1939.0         0.25        891.6 
      1940.0         0.23        897.2 
      1941.0         0.23        951.5 
      1942.0         0.23        954.4 
      1943.0         0.17        938.7 
      1944.0         0.17        901.5 
      1945.0         0.13        869.4 
      1946.0         4.02       3114.3 
      1947.0         0.27       3164.7 
      1948.0         0.30       3155.2 
      1949.0         0.27       2934.7 
      1950.0         0.27       2638.3 
      1951.0         0.20       2210.0 
      1952.0         0.42       1881.6 
      1953.0         0.30       1402.6 
      1954.0         0.30       1233.8 
      1955.0         0.33       1135.4 
      1956.0         0.30       1099.4 
      1957.0         0.33       1116.7 
      1958.0         0.37       1145.5 
      1959.0         0.30       1168.7 
      1960.0         0.30       1177.6 
      1961.0         0.30       1183.8 
      1962.0         0.28       1180.2 
      1963.0         0.37       1168.1 
      1964.0         0.23       1141.9 
      1965.0         0.27       1133.4 
      1966.0         0.33       1119.3 
      1967.0         0.33       1104.3 
      1968.0         0.30       1087.6 
      1969.0         0.27       1083.0 
      1970.0         0.30       1089.6 
      1971.0         0.20       1089.6 
      1972.0         0.27       1145.2 
      1973.0         0.20       1184.4 
      1974.0         0.25       1206.7 
      1975.0         0.23       1206.7 
      1976.0         5.32      -9999.0 
      1977.0         0.10      -9999.0 
      1978.0         0.23      -9999.0 
      1979.0         0.10      -9999.0 
