~Version Information
VERS.                      2.0: CWLS Log ASCII Standard - VERSION 2.0
WRAP.                       NO: One line per depth step
~Well Information Block
STRT.FT               528.0000: 
STOP.FT              2250.0000: 
STEP.FT                 0.1000: 
NULL.                -999.2500: 
COMP.          Pioneer Natural Resources: COMPANY
WELL.           Parklane 43-34: WELL
FLD.           Purgatorie River: FIELD
LOC.           1704' FSL & 1119' FEL: LOCATION
PROV.                 Colorado: PROVINCE
CNTY.               Las Animas: COUNTRY
SRVC.                         : SERVICE COMPANY
DATE.          Thu Oct 07 08:21:17 2004: LOG DATE
UWI.           05 071 08162 00: UNIQUE WELL ID
~Curve Information Block
DEPT.FT            0 000 00 00: Depth
LTEN.lb                       : Surface Line Tension
DCAL.in                       : CDL Caliper
RHOB.g/cc                     : CDL Bulk Density
RHOC.g/cc                     : CDL Density Correction
DPOR.pu                       : CDL Density Porosity
GR.GAPI                       : Gamma Ray
NPOR.pu                       : Neutron Porosity
~Parameter Information Block
~A  Depth       LTEN        DCAL        RHOB        RHOC        DPOR         GR         NPOR    
# ...
  2124.0000   1253.4431      7.8555      2.6270      0.1100      1.3914    107.3940     17.7753
  2124.1000   1253.4431      7.8555      2.6532      0.1522     -0.1909    111.9720     18.2044
  2124.2000   1253.4431      7.8555      2.6565      0.1617     -0.3948    109.1086     19.0983
  2124.3000   1249.3949      7.8444      2.6373      0.1148      0.7670    100.2945     19.5388
  2124.4000   1249.3949      7.8444      2.6121      0.1175      2.2969     92.2387     18.8201
  2124.5000   1255.5160      7.8438      2.5865      0.1057      3.8473     85.1361     17.6897
  2124.6000   1255.5160      7.8438      2.5646      0.0680      5.1738     78.4366     16.9626
  2124.7000   1255.5160      7.8438      2.5518      0.0594      5.9540     73.5485     16.6708
  2124.8000   1250.5453      7.8570      2.5429      0.0653      6.4898     70.2431     16.4990
  2124.9000   1250.5453      7.8570      2.5384      0.0224      6.7608     67.4733     15.9691
  2125.0000   1237.3040      7.8729      2.5442      0.0509      6.4116     67.6311     14.9054
  2125.1000   1237.3040      7.8729      2.5500      0.0529      6.0598     70.2633     13.9345
  2125.2000   1237.3040      7.8729      2.5427      0.0266      6.5002     68.5203     13.3914
  2125.3000   1276.1771      7.8808      2.5257      0.0458      7.5359     63.7447     13.2510
  2125.4000   1276.1771      7.8808      2.5082      0.0070      8.5926     65.0120     13.5546
  2125.5000   1256.7988      7.8733      2.4972      0.0043      9.2582     70.1259     14.0251
  2125.6000   1256.7988      7.8733      2.4980     -0.0223      9.2148     72.4268     14.4091
  2125.7000   1256.7988      7.8733      2.5070      0.0737      8.6653     73.7504     14.6837
  2125.8000   1271.8165      7.8680      2.5102      0.0471      8.4722     76.3616     14.7697
  2125.9000   1271.8165      7.8680      2.5047      0.0412      8.8031     79.0888     14.6987
  2126.0000   1268.3152      7.8703      2.4997      0.0485      9.1064     83.7348     14.6182
  2126.1000   1268.3152      7.8703      2.4977      0.0416      9.2306     90.6425     14.6135
  2126.2000   1268.3152      7.8703      2.4977      0.0397      9.2332     93.5783     14.6529
  2126.3000   1237.3466      7.8733      2.5033      0.0480      8.8902     88.3854     15.1711
  2126.4000   1237.3466      7.8733      2.5131      0.0754      8.2953     79.3467     16.4658
  2126.5000   1297.0039      7.8744      2.5189      0.0705      7.9470     74.4290     17.8803
  2126.6000   1297.0039      7.8744      2.5166      0.0622      8.0848     78.8960     18.7109
  2126.7000   1297.0039      7.8744      2.5052      0.0804      8.7754     89.8444     18.7075
  2126.8000   1257.7089      7.8770      2.4894      0.0410      9.7344     97.9230     18.0847
  2126.9000   1257.7089      7.8770      2.4881      0.0006      9.8100     95.5870     17.1940
  2127.0000   1267.2975      7.8801      2.5132      0.0588      8.2910     88.6359     16.2670
  2127.1000   1267.2975      7.8801      2.5484      0.0812      6.1554     88.2203     15.9071
  2127.2000   1267.2975      7.8801      2.5719      0.0942      4.7326     93.5577     16.5437
  2127.3000   1257.0577      7.8768      2.5770      0.0935      4.4255     98.7911     17.6838
  2127.4000   1257.0577      7.8768      2.5716      0.0683      4.7493    102.5081     18.4570
  2127.5000   1258.4100      7.8744      2.5649      0.0694      5.1560    103.9384     18.1924
  2127.6000   1258.4100      7.8744      2.5530      0.0738      5.8765    100.0934     17.0971
  2127.7000   1258.4100      7.8744      2.5295      0.0632      7.3040     91.2132     16.2977
  2127.8000   1257.8893      7.8719      2.5050      0.0073      8.7863     84.7556     16.0408
  2127.9000   1257.8893      7.8719      2.4991      0.0661      9.1445     86.0639     15.7189
  2128.0000   1263.9023      7.8627      2.5129      0.0728      8.3065     92.6510     15.8259
  2128.1000   1263.9023      7.8627      2.5332      0.0620      7.0798     97.7527     17.1170
  2128.2000   1263.9023      7.8627      2.5459      0.0853      6.3064     97.2877     18.6576
  2128.3000   1239.7996      7.8606      2.5427      0.0776      6.5021     95.3724     18.9954
  2128.4000   1239.7996      7.8606      2.5331      0.0545      7.0878     95.7342     17.8968
  2128.5000   1234.4502      7.8723      2.5345      0.0756      7.0005     93.5277     16.3363
  2128.6000   1234.4502      7.8723      2.5446      0.0868      6.3871     85.2918     15.2818
  2128.7000   1234.4502      7.8723      2.5466      0.1036      6.2689     76.9697     14.6666
  2128.8000   1234.7374      7.8798      2.5355      0.0853      6.9419     73.1966     14.5176
  2128.9000   1234.7374      7.8798      2.5210      0.0896      7.8154     71.2185     15.3870
  2129.0000   1250.6421      7.8670      2.5101      0.0786      8.4811     68.4341     16.5252
  2129.1000   1250.6421      7.8670      2.5036      0.0634      8.8748     66.4099     16.2288
  2129.2000   1250.6421      7.8670      2.5041      0.0674      8.8453     67.7111     14.9994
  2129.3000   1250.4574      7.8513      2.5126      0.0725      8.3284     71.3009     14.4365
  2129.4000   1250.4574      7.8513      2.5217      0.1021      7.7732     73.5262     14.6476
  2129.5000   1256.1293      7.8442      2.5250      0.0895      7.5786     73.2990     15.1295
  2129.6000   1256.1293      7.8442      2.5267      0.1000      7.4728     72.2864     15.4059
  2129.7000   1256.1293      7.8442      2.5315      0.0948      7.1826     69.2530     15.2297
  2129.8000   1250.1072      7.8440      2.5383      0.1019      6.7674     64.3659     14.9262
  2129.9000   1250.1072      7.8440      2.5432      0.0843      6.4709     63.1275     15.0720
  2130.0000   1265.4261      7.8467      2.5417      0.1011      6.5619     65.8493     15.8367
  2130.1000   1265.4261      7.8467      2.5349      0.0738      6.9776     66.8972     16.6478
  2130.2000   1265.4261      7.8467      2.5231      0.0965      7.6904     64.8769     16.7415
  2130.3000   1246.0388      7.8464      2.5007      0.0834      9.0483     64.7733     16.1748
  2130.4000   1246.0388      7.8464      2.4744      0.0510     10.6431     69.7108     15.9044
  2130.5000   1262.2825      7.8469      2.4658      0.0490     11.1623     74.3025     16.4296
  2130.6000   1262.2825      7.8469      2.4837      0.0334     10.0774     74.5923     16.7919
  2130.7000   1262.2825      7.8469      2.5082      0.0768      8.5945     76.5012     16.4062
  2130.8000   1242.4163      7.8487      2.5177      0.0600      8.0193     84.6082     16.2800
  2130.9000   1242.4163      7.8487      2.5190      0.0396      7.9408     92.1308     16.7910
  2131.0000   1247.2649      7.8413      2.5236      0.0835      7.6635     91.7131     17.1968
  2131.1000   1247.2649      7.8413      2.5268      0.0806      7.4646     88.1772     17.4587
  2131.2000   1247.2649      7.8413      2.5237      0.1115      7.6555     88.5187     17.9650
  2131.3000   1250.3123      7.8204      2.5178      0.0694      8.0145     94.7212     18.3057
  2131.4000   1250.3123      7.8204      2.5155      0.0787      8.1512    104.3353     18.3502
  2131.5000   1262.3156      7.8002      2.5215      0.0914      7.7853    109.3180     18.8622
  2131.6000   1262.3156      7.8002      2.5426      0.0670      6.5116    110.3625     20.0295
  2131.7000   1262.3156      7.8002      2.5729      0.1371      4.6725    114.1558     21.0018
  2131.8000   1272.8660      7.8026      2.5844      0.1914      3.9788    115.7624     21.2245
  2131.9000   1272.8660      7.8026      2.5723      0.1068      4.7110    111.7651     20.8792
  2132.0000   1253.9404      7.8259      2.5671      0.1261      5.0215    108.5499     20.4446
  2132.1000   1253.9404      7.8259      2.5730      0.1532      4.6658    107.5160     20.3440
  2132.2000   1253.9404      7.8259      2.5685      0.1026      4.9408    105.7779     20.0673
  2132.3000   1257.1250      7.8482      2.5551      0.0957      5.7502    106.0323     19.2711
