~Version Information
VERS.                      2.0: CWLS Log ASCII Standard - VERSION 2.0
WRAP.                       NO: One line per depth step
~Well Information Block
STRT.FT               860.0000: 
STOP.FT              2733.7500: 
STEP.FT                 0.2500: 
NULL.                -999.2500: 
COMP.          Pioneer Natural Resources: COMPANY
WELL.          Beacon 11-18 Tr: WELL
FLD.           Purgatoire River: FIELD
LOC.           409' FNL & 203' FWL: LOCATION
PROV.                 Colorado: PROVINCE
CNTY.               Las Animas: COUNTRY
SRVC.                Patterson: SERVICE COMPANY
DATE.          Sun Jan 16 19:36:19 2005: LOG DATE
UWI.           05 071 08251 00: UNIQUE WELL ID
~Curve Information Block
DEPT.FT            0 000 00 00: Depth
SN.Ohm-m                      : IEL Short Normal
SP.mV                         : IEL Spontaneous Potential
DIR.Ohm-m                     : IEL Induction Resistivity
GR.GAPI                       : Gamma Ray
~Parameter Information Block
~A  Depth        SN          SP         DIR          GR     
   860.0000   2000.0000   2000.0000 100000.0000    116.1330
   860.2500   2000.0000   2000.0000 100000.0000    115.3148
   860.5000   2000.0000   2000.0000 100000.0000    114.5374
   860.7500   2000.0000   2000.0000 100000.0000    113.8651
   861.0000   2000.0000   2000.0000 100000.0000    112.3892
   861.2500   2000.0000   2000.0000 100000.0000    111.4601
   861.5000   2000.0000   2000.0000 100000.0000    110.8882
   861.7500   2000.0000   2000.0000 100000.0000    111.1686
   862.0000   2000.0000   2000.0000 100000.0000    112.3044
   862.2500   2000.0000   2000.0000 100000.0000    113.2508
   862.5000   2000.0000   2000.0000 100000.0000    114.3635
   862.7500   2000.0000   2000.0000 100000.0000    114.6402
   863.0000   2000.0000   2000.0000 100000.0000    114.5218
   863.2500   2000.0000   2000.0000 100000.0000    114.5519
   863.5000   2000.0000   2000.0000 100000.0000    115.3486
   863.7500   2000.0000   2000.0000 100000.0000    116.1118
   864.0000   2000.0000   2000.0000 100000.0000    116.4924
   864.2500   2000.0000   2000.0000 100000.0000    116.0266
   864.5000   2000.0000   2000.0000 100000.0000    115.3432
   864.7500   2000.0000   2000.0000 100000.0000    115.7572
   865.0000   2000.0000   2000.0000 100000.0000    117.8095
   865.2500   2000.0000   2000.0000 100000.0000    119.1899
   865.5000   2000.0000   2000.0000 100000.0000    119.1972
   865.7500   2000.0000   2000.0000 100000.0000    117.2132
   866.0000   2000.0000   2000.0000 100000.0000    111.7004
   866.2500   2000.0000   2000.0000 100000.0000    107.1271
   866.5000   2000.0000   2000.0000 100000.0000    100.5085
   866.7500   2000.0000   2000.0000 100000.0000     97.1019
   867.0000   2000.0000   2000.0000 100000.0000     94.3323
   867.2500   2000.0000   2000.0000 100000.0000     93.9696
   867.5000   2000.0000   2000.0000 100000.0000     94.8669
   867.7500   2000.0000   2000.0000 100000.0000     95.9996
   868.0000   2000.0000   2000.0000 100000.0000     98.1708
   868.2500   2000.0000   2000.0000 100000.0000     99.8384
   868.5000   2000.0000   2000.0000 100000.0000    102.3038
   868.7500   2000.0000   2000.0000 100000.0000    103.6228
   869.0000   2000.0000   2000.0000 100000.0000    104.9699
   869.2500   2000.0000   2000.0000 100000.0000    105.8178
   869.5000   2000.0000   2000.0000 100000.0000    107.9901
   869.7500   2000.0000   2000.0000 100000.0000    110.1860
   870.0000   2000.0000   2000.0000 100000.0000    113.5467
   870.2500   2000.0000   2000.0000 100000.0000    114.9289
   870.5000   2000.0000   2000.0000 100000.0000    115.1212
   870.7500   2000.0000   2000.0000 100000.0000    114.4084
   871.0000   2000.0000   2000.0000 100000.0000    113.2349
   871.2500   2000.0000   2000.0000 100000.0000    112.8513
   871.5000   2000.0000   2000.0000 100000.0000    113.1617
   871.7500   2000.0000   2000.0000 100000.0000    113.8888
   872.0000   2000.0000   2000.0000 100000.0000    115.2845
   872.2500   2000.0000   2000.0000 100000.0000    115.9604
   872.5000   2000.0000   2000.0000 100000.0000    115.7310
   872.7500   2000.0000   2000.0000 100000.0000    114.5023
   873.0000   2000.0000   2000.0000 100000.0000    111.6887
   873.2500   2000.0000   2000.0000 100000.0000    110.0350
   873.5000   2000.0000   2000.0000 100000.0000     72.6235
   873.7500   2000.0000   2000.0000 100000.0000     72.6506
   874.0000   2000.0000   2000.0000 100000.0000     72.8864
   874.2500   2000.0000   2000.0000 100000.0000     73.0778
   874.5000   2000.0000   2000.0000 100000.0000     73.8187
   874.7500   2000.0000   2000.0000 100000.0000     74.8361
   875.0000   2000.0000   2000.0000 100000.0000     76.9679
   875.2500   2000.0000   2000.0000 100000.0000     78.4697
   875.5000   2000.0000   2000.0000 100000.0000     80.5420
   875.7500   2000.0000   2000.0000 100000.0000     81.8980
   876.0000   2000.0000   2000.0000 100000.0000     83.9991
   876.2500   2000.0000   2000.0000 100000.0000     85.1939
   876.5000   2000.0000   2000.0000 100000.0000     86.1527
   876.7500   2000.0000   2000.0000    149.2421     86.4098
   877.0000   2000.0000   2000.0000      6.5056     87.3739
   877.2500   2000.0000   2000.0000      3.4077     88.9011
   877.5000   2000.0000   2000.0000      2.6936     92.0479
   877.7500   2000.0000   2000.0000      2.7927     93.8811
   878.0000   2000.0000   2000.0000      3.7235     95.0897
   878.2500   2000.0000   2000.0000      6.8344     94.8094
   878.5000   2000.0000   2000.0000     28.4087     93.6328
   878.7500   2000.0000   2000.0000 100000.0000     93.0867
   879.0000   2000.0000   2000.0000 100000.0000     93.6551
   879.2500   2000.0000   2000.0000 100000.0000     95.1815
   879.5000   2000.0000   2000.0000 100000.0000     98.6752
   879.7500   2000.0000   2000.0000 100000.0000    101.0451
   880.0000   2000.0000   2000.0000     22.4399    103.2941
   880.2500   2000.0000   2000.0000     12.3047    103.6514
   880.5000   2000.0000   2000.0000      9.5775    103.4083
   880.7500   2000.0000   2000.0000      8.7642    103.7762
   881.0000   2000.0000   2000.0000      8.7918    106.4201
   881.2500   2000.0000   2000.0000      9.2930    109.4331
   881.5000   2000.0000   2000.0000     10.0622    114.2910
   881.7500   2000.0000   2000.0000     10.9056    116.8928
   882.0000   2000.0000   2000.0000     11.6158    119.4846
   882.2500   2000.0000   2000.0000     12.0517    120.5392
   882.5000   2000.0000   2000.0000     12.2559    121.0565
   882.7500   2000.0000   2000.0000     12.4534    120.3398
   883.0000   2000.0000   2000.0000     12.9261    117.4562
   883.2500   2000.0000   2000.0000     13.8908    114.8310
   883.5000   2000.0000   2000.0000     15.3942    111.3900
   883.7500   2000.0000   2000.0000     17.1524    110.1105
   884.0000   2000.0000   2000.0000     18.4734    109.6500
   884.2500   2000.0000   2000.0000     18.6965    109.6430
   884.5000   2000.0000   2000.0000     17.8849    108.8316
   884.7500   2000.0000   2000.0000     16.6867    107.4641
   885.0000   2000.0000   2000.0000     15.6694    104.5994
   885.2500   2000.0000   2000.0000     15.0830    102.6915
   885.5000   2000.0000   2000.0000     14.9663    100.7467
   885.7500   2000.0000   2000.0000     15.2558    100.4660
   886.0000   2000.0000   2000.0000     15.8240    101.9663
   886.2500   2000.0000   2000.0000     16.4955    104.1339
   886.5000   2000.0000   2000.0000     17.0875    108.0653
   886.7500   2000.0000   2000.0000     17.4715    110.2897
   887.0000   2000.0000   2000.0000     17.6144    112.2686
   887.2500   2000.0000   2000.0000     17.5635    112.8170
   887.5000   2000.0000   2000.0000     17.3964    112.9507
   887.7500   2000.0000   2000.0000     17.1796    112.6529
   888.0000   2000.0000   2000.0000     16.9547    111.7152
   888.2500   2000.0000   2000.0000     16.7426    111.0880
   888.5000   2000.0000   2000.0000     16.5514    110.9091
   888.7500   2000.0000   2000.0000     16.3793    111.4235
   889.0000   2000.0000   2000.0000     16.2151    112.4474
   889.2500   2000.0000   2000.0000     16.0441    112.6357
   889.5000   2000.0000   2000.0000     15.8590    111.4669
   889.7500   2000.0000   2000.0000     15.6669    109.8293
   890.0000   2000.0000   2000.0000     15.4853    106.9974
   890.2500   2000.0000   2000.0000     15.3284    105.4287
   890.5000   2000.0000   2000.0000     15.1969    103.9074
   890.7500   2000.0000   2000.0000     15.0787    103.3038
   891.0000   2000.0000   2000.0000     14.9607    102.8134
   891.2500   2000.0000   2000.0000     14.8374    102.9673
   891.5000   2000.0000   2000.0000     14.7098    104.6937
   891.7500   2000.0000   2000.0000     14.5774    107.1460
   892.0000   2000.0000   2000.0000     14.4358    112.2429
   892.2500   2000.0000   2000.0000     14.2827    115.5810
   892.5000   2000.0000   2000.0000     14.1242    118.7311
   892.7500   2000.0000   2000.0000     13.9747    119.4458
   893.0000   2000.0000   2000.0000     13.8501    120.0051
   893.2500   2000.0000   2000.0000     13.7599    121.0892
