~Version Information
VERS.                      2.0: CWLS Log ASCII Standard - VERSION 2.0
WRAP.                       NO: One line per depth step
~Well Information Block
STRT.FT               630.0000: 
STOP.FT              1156.0000: 
STEP.FT                 0.2500: 
NULL.                -999.2500: 
COMP.          Pioneer Natural Resources: COMPANY
WELL.          Drewmeister 34-34: WELL
FLD.           Purgatoire River: FIELD
LOC.           958' FSL & 1857' FEL: LOCATION
STAT.                 Colorado: State
CNTY.               Las Animas: COUNTY
CTRY. USA : Country
SECT. 34 : Section
TOWN. 32S : Township
RANG. 65W : Range
SRVC.                Patterson: SERVICE COMPANY
DATE.          Mon Oct 03 23:24:37 2005: LOG DATE
API.           05 071 08131 00: UNIQUE WELL ID
~Curve Information Block
DEPT.FT            0 000 00 00: Depth
SN.Ohm-m                      : IEL Short Normal
SP.mV                         : IEL Spontaneous Potential
DIR.Ohm-m                     : IEL Induction Resistivity
GR.GAPI                       : Gamma Ray
~Parameter Information Block
~A  Depth        SN          SP         DIR          GR     
# ...
   898.0000     33.1932    799.9761     21.8814    100.0218
   898.2500     45.7398    799.9761     22.2572     95.0876
   898.5000     68.5987    799.9761     22.5959     89.8060
   898.7500    106.2758    799.9761     22.9434     88.3458
   899.0000    166.6528    799.9761     23.3506     89.3452
   899.2500    258.1233    799.9761     23.8936     91.7398
   899.5000    370.8116    799.9761     24.6789     96.7832
   899.7500    455.0088    799.9748     25.8139    100.2042
   900.0000    450.0735    799.9618     27.3453    103.5456
   900.2500    352.7586    799.8876     29.1826    103.6556
   900.5000    225.1455    799.5573     31.0552    100.0745
   900.7500    130.1794    798.3889     32.5714     95.4050
   901.0000     85.1530    795.0885     33.3825     85.6658
   901.2500     73.8869    787.6376     33.3267     77.7714
   901.5000     78.0229    774.2366     32.4419     64.8012
   901.7500     94.5815    755.2638     30.9086     56.2451
   902.0000    138.5929    734.8719     28.9995     45.4014
   902.2500    227.6879    720.1502     27.0186     40.5755
   902.5000    355.0651    717.4090     25.2189     38.1516
   902.7500    474.4657    728.0272     23.7437     39.8782
   903.0000    516.9424    747.3718     22.6192     46.8388
   903.2500    443.9545    767.9019     21.7822     53.7090
   903.5000    294.4808    783.7842     21.1234     65.8844
   903.7500    153.2421    793.2594     20.5310     74.3277
   904.0000     69.2666    797.7039     19.9280     86.2283
   904.2500     34.5745    799.3541     19.2848     93.2847
   904.5000     23.6982    799.8398     18.6066    102.2461
   904.7500     20.9592    799.9531     17.9119    106.8338
   905.0000     20.6663    799.9737     17.2223    110.9876
   905.2500     21.1629    799.9761     16.5649    111.8820
   905.5000     21.8324    799.9761     15.9757    111.2156
   905.7500     22.3683    799.9761     15.4934    110.1163
   906.0000     22.3737    799.9761     15.1472    108.1646
   906.2500     21.2627    799.9761     14.9479    106.6671
   906.5000     19.0293    799.9761     14.8872    104.1425
   906.7500     16.7034    799.9761     14.9443    102.6285
   907.0000     15.5321    799.9761     15.0951    101.2855
   907.2500     16.1941    799.9761     15.3217    100.8071
   907.5000     18.8206    799.9761     15.6204     99.4199
   907.7500     22.7837    799.9761     16.0040     97.6133
   908.0000     26.5170    799.9761     16.4978     94.4621
   908.2500     28.6176    799.9761     17.1306     92.9941
   908.5000     29.0716    799.9761     17.9239     92.2236
   908.7500     28.8300    799.9761     18.8802     92.0464
   909.0000     28.6632    799.9761     19.9789     90.7298
   909.2500     28.6967    799.9761     21.1819     88.5825
   909.5000     28.5798    799.9761     22.4536     83.5246
   909.7500     28.3068    799.9761     23.7760     79.5548
   910.0000     29.7201    799.9761     25.1484     74.3845
   910.2500     37.9727    799.9761     26.5778     72.4529
   910.5000     61.6883    799.9761     28.0918     72.9630
   910.7500    108.2600    799.9761     29.7768     75.5985
   911.0000    174.7247    799.9742     31.8096     81.4671
   911.2500    244.9445    799.9561     34.4487     84.9774
   911.5000    293.5620    799.8489     37.9908     86.8380
   911.7500    296.0647    799.3632     42.6993     85.1543
   912.0000    255.1340    797.6025     48.6917     79.1327
   912.2500    207.1159    792.4575     55.7515     73.6911
   912.5000    181.3841    780.2723     63.1103     64.1696
   912.7500    174.3867    756.7618     69.4175     57.0519
   913.0000    173.1393    719.6302     73.1698     45.9801
   913.2500    187.7951    671.4509     73.4730     39.2193
   913.5000    255.7897    620.0869     70.5121     31.5428
   913.7500    401.7566    575.6183     65.3466     28.5589
   914.0000    587.9942    546.0892     59.3099     27.1758
   914.2500    738.4054    535.3129     53.4915     27.8826
   914.5000    815.4210    543.4155     48.5133     30.6976
   914.7500    832.1219    568.2169     44.5533     33.6198
   915.0000    799.2233    605.7579     41.4888     39.6292
   915.2500    700.0037    650.2228     39.0531     44.6319
   915.5000    526.2991    694.5470     36.9726     52.8978
   915.7500    322.8888    732.2703     35.0552     58.1359
   916.0000    162.1036    759.7437     33.2102     64.1960
   916.2500     75.5003    777.0753     31.4041     66.7783
   916.5000     43.3249    787.0119     29.6147     69.5185
   916.7500     35.4038    792.6988     27.8272     71.6513
   917.0000     34.2652    796.1489     26.0606     76.5176
   917.2500     32.9941    798.2188     24.3812     80.9204
   917.5000     30.1594    799.3069     22.8779     88.6741
   917.7500     26.8791    799.7709     21.6189     94.1440
   918.0000     24.2948    799.9262     20.6242    101.7787
   918.2500     22.5477    799.9666     19.8702    105.7367
   918.5000     21.2741    799.9748     19.3133    108.8984
   918.7500     20.2279    799.9761     18.9125    109.0249
   919.0000     19.5129    799.9761     18.6359    107.0511
   919.2500     19.3770    799.9761     18.4534    105.1095
   919.5000     19.7825    799.9761     18.3311    102.5915
   919.7500     20.3534    799.9761     18.2397    101.6351
   920.0000     20.7407    799.9761     18.1720    101.2394
   920.2500     20.8602    799.9761     18.1484    101.1699
   920.5000     20.8377    799.9761     18.2009    100.1412
   920.7500     20.9152    799.9761     18.3484     98.2856
   921.0000     21.3773    799.9761     18.5859     93.6949
   921.2500     22.1840    799.9761     18.8962     90.0510
   921.5000     22.7358    799.9761     19.2743     85.4340
   921.7500     22.6651    799.9761     19.7437     83.7251
   922.0000     22.4280    799.9761     20.3484     83.2355
   922.2500     22.4767    799.9761     21.1246     83.4337
   922.5000     22.7231    799.9761     22.0712     82.4229
   922.7500     23.0239    799.9761     23.1395     80.0088
   923.0000     23.3729    799.9761     24.2566     73.7868
   923.2500     23.7534    799.9761     25.3665     68.7017
   923.5000     24.2229    799.9761     26.4552     61.4021
   923.7500     25.0039    799.9761     27.5392     57.4727
   924.0000     26.3539    799.9761     28.6341     53.5147
   924.2500     28.2889    799.9761     29.7336     52.2211
   924.5000     30.4204    799.9761     30.8068     52.1586
   924.7500     32.1132    799.9761     31.8041     53.1819
   925.0000     33.0039    799.9761     32.6665     55.8214
   925.2500     33.3257    799.9761     33.3499     57.9006
   925.5000     33.4906    799.9761     33.8578     60.5782
   925.7500     33.7056    799.9761     34.2539     61.5335
   926.0000     34.1166    799.9761     34.6231     61.0803
   926.2500     34.9302    799.9761     35.0065     59.3687
   926.5000     36.4383    799.9761     35.3666     54.9493
   926.7500     38.8552    799.9761     35.6222     51.3724
   927.0000     41.4501    799.9761     35.7294     46.8348
   927.2500     42.2374    799.9761     35.7393     45.3703
   927.5000     40.1270    799.9761     35.7729     46.0302
   927.7500     36.7016    799.9761     35.9322     47.7565
   928.0000     34.2870    799.9761     36.2169     50.3839
   928.2500     33.5333    799.9761     36.5100     51.2021
   928.5000     33.6081    799.9761     36.6537     50.4133
   928.7500     33.5483    799.9761     36.5690     48.8608
   929.0000     33.0640    799.9761     36.3108     46.2076
   929.2500     32.4356    799.9761     36.0211     44.8808
   929.5000     32.1135    799.9761     35.8412     43.9626
   929.7500     32.9458    799.9761     35.8643     43.8483
   930.0000     37.2727    799.9761     36.1320     43.7114
   930.2500     49.5514    799.9761     36.6331     43.3502
   930.5000     72.5104    799.9761     37.2962     42.4548
   930.7500    100.3192    799.9761     38.0017     41.9522
   931.0000    122.7006    799.9761     38.6328     42.0389
   931.2500    139.0239    799.9761     39.1332     42.8748
