~Version Information
VERS.                      2.0: CWLS Log ASCII Standard - VERSION 2.0
WRAP.                       NO: One line per depth step
~Well Information Block
STRT.FT                -7.0000: 
STOP.FT              1863.5000: 
STEP.FT                 0.2500: 
NULL.                -999.2500: 
COMP.          Pioneer Natural Resources: COMPANY
WELL.            Formula 23-11: WELL
FLD.           Purgatorie River: FIELD
LOC.           1976' FSL & 1935' FWL--: LOCATION
PROV.                       CO: PROVINCE
CNTY.               Las Animas: COUNTRY
SRVC.          Patterson Wireline: SERVICE COMPANY
DATE.          Wed Jun 15 14:44:40 2005: LOG DATE
UWI.           05 071 08399 00: UNIQUE WELL ID
~Curve Information Block
DEPT.FT            0 000 00 00: Depth
CCL.                          : Casing Collar Locator
TT3.usec                      : CBL 3' Travel Time
AMP3.mV                       : CBL 3' Amplitude
GR.GAPI                       : Gamma Ray
~Parameter Information Block
~A  Depth       CCL         TT3         AMP3         GR     
# ...
  1701.5000      0.0000    813.4872      5.6914    110.1755
  1701.7500      0.0000    806.1855      5.3783    109.3628
  1702.0000      0.0000    794.8237      5.0027    111.0567
  1702.2500      0.0000    781.1993      4.6605    114.3408
  1702.5000      0.0000    768.2571      4.4407    117.1216
  1702.7500      0.0000    758.3536      4.3996    118.9574
  1703.0000      0.0000    752.5009      4.5299    121.7585
  1703.2500      0.0000    749.3635      4.7687    127.4725
  1703.5000      0.0000    743.9575      5.0453    135.9620
  1703.7500      0.0000    729.8713      5.3108    145.3822
  1704.0000      0.0000    705.7469      5.5289    153.7799
  1704.2500      0.0000    678.5137      5.6700    159.9219
  1704.5000      0.0000    658.6191      5.7299    163.3284
  1704.7500      0.0000    653.1876      5.7402    164.2240
  1705.0000      0.0000    664.0455      5.7480    163.3116
  1705.2500      0.0000    689.1035      5.7793    161.3993
  1705.5000      0.0000    723.3056      5.8203    159.2207
  1705.7500      0.0000    759.5750      5.8297    157.2129
  1706.0000      0.0000    790.8793      5.7667    155.2442
  1706.2500      0.0000    812.5765      5.6068    152.9770
  1706.5000      0.0000    823.9379      5.3451    150.3871
  1706.7500      0.0000    827.6562      5.0090    147.4635
  1707.0000      0.0000    827.0385      4.6765    143.7636
  1707.2500      0.0000    823.3961      4.4539    139.0156
  1707.5000      0.0000    816.5547      4.4001    134.0947
  1707.7500      0.0000    806.9346      4.4726    130.7762
  1708.0000      0.0000    795.9084      4.5678    130.2251
  1708.2500      0.0000    784.1339      4.6268    131.8557
  1708.5000      0.0000    770.9736      4.6968    133.8464
  1708.7500      0.0000    756.3509      4.8693    134.8247
  1709.0000      0.0000    742.9100      5.1528    134.9887
  1709.2500      0.0000    734.7457      5.4366    135.5386
  1709.5000      0.0000    733.4659      5.5985    137.0841
  1709.7500      0.0000    737.1210      5.6099    138.7187
  1710.0000      0.0000    743.3959      5.5174    138.6390
  1710.2500      0.0000    751.6813      5.3720    135.8544
  1710.5000      2.0000    761.3317      5.2122    131.5201
  1710.7500      2.0000    769.7604      5.0778    128.4262
  1711.0000      0.0000    773.7529      5.0023    128.6481
  1711.2500      0.0000    773.0060      4.9899    131.6307
  1711.5000      0.0000    771.8560      5.0081    134.9170
  1711.7500      0.0000    775.9511      5.0001    136.5417
  1712.0000      0.0000    786.3539      4.9141    136.1902
  1712.2500      0.0000    798.0893      4.7472    134.3292
  1712.5000      0.0000    805.2665      4.5702    131.0642
  1712.7500      0.0000    806.4675      4.4886    126.3036
  1713.0000      0.0000    804.8226      4.5570    120.8873
  1713.2500      0.0000    803.9715      4.7238    117.0293
  1713.5000      0.0000    804.6390      4.8668    117.1219
  1713.7500      0.0000    804.7026      4.8850    122.0009
  1714.0000      0.0000    801.7199      4.7682    130.3022
  1714.2500      0.0000    794.1080      4.5960    139.2374
  1714.5000      0.0000    779.5103      4.4781    146.0264
  1714.7500      0.0000    754.0994      4.4816    149.1209
  1715.0000      0.0000    716.7929      4.5962    148.5193
  1715.2500      0.0000    675.0797      4.7604    145.1703
  1715.5000      0.0000    643.4669      4.9147    140.4284
  1715.7500      0.0000    631.3621      5.0275    136.0835
  1716.0000      0.0000    631.7738      5.0815    134.1595
  1716.2500      0.0000    625.7324      5.0665    135.8608
  1716.5000      0.0000    599.8332      5.0036    140.6029
  1716.7500      0.0000    557.7891      4.9612    146.3572
  1717.0000      0.0000    515.0312      5.0155    150.8976
  1717.2500      0.0000    485.6324      5.1832    152.8064
  1717.5000      0.0000    475.5887      5.4023    151.7602
  1717.7500      0.0000    483.5587      5.5863    148.1616
  1718.0000      0.0000    502.2858      5.6917    142.3034
  1718.2500      0.0000    520.7379      5.7289    133.8106
  1718.5000      0.0000    531.7639      5.7266    122.2320
  1718.7500      0.0000    539.9751      5.7015    108.3052
  1719.0000      0.0000    557.4205      5.6601     94.2491
  1719.2500      0.0000    588.4996      5.6099     82.5414
  1719.5000      0.0000    622.7581      5.5613     74.5324
  1719.7500      0.0000    645.5019      5.5280     70.1411
  1720.0000      0.0000    652.9548      5.5303     68.5480
  1720.2500      0.0000    653.8896      5.5857     69.0915
  1720.5000      0.0000    658.1824      5.6824     71.6445
  1720.7500      0.0000    667.8488      5.7690     76.2756
  1721.0000      0.0000    679.3643      5.7945     82.6180
  1721.2500      0.0000    690.4453      5.7669     89.6522
  1721.5000      0.0000    701.9473      5.7534     95.9794
  1721.7500      0.0000    714.6134      5.8092    100.0936
  1722.0000      0.0000    726.2260      5.9177    100.5834
  1722.2500      0.0000    732.5491      6.0086     96.9342
  1722.5000      0.0000    730.8965      6.0086     90.6065
  1722.7500      0.0000    722.7286      5.8592     84.7269
  1723.0000      0.0000    712.9829      5.5165     81.9898
  1723.2500      0.0000    706.8421      4.9807     82.7087
  1723.5000      0.0000    706.7951      4.3360     84.8904
  1723.7500      0.0000    712.1395      3.7431     86.1129
  1724.0000      0.0000    720.7335      3.3644     85.6499
  1724.2500      0.0000    730.7912      3.2763     85.1456
  1724.5000      0.0000    741.0548      3.4322     86.9192
  1724.7500      0.0000    750.3464      3.7031     91.2844
  1725.0000      0.0000    758.3056      3.9635     96.0346
  1725.2500      0.0000    766.2108      4.1501     99.0235
  1725.5000      0.0000    775.4033      4.2481    100.6643
  1725.7500      0.0000    784.7357      4.2400    103.2987
  1726.0000      0.0000    791.2632      4.0980    108.5969
  1726.2500      0.0000    793.7982      3.8355    116.2056
  1726.5000      0.0000    794.3137      3.5441    124.4941
  1726.7500      0.0000    795.4740      3.3547    131.9196
  1727.0000      0.0000    798.0883      3.3620    137.7713
  1727.2500      0.0000    801.4647      3.5787    142.0175
  1727.5000      0.0000    805.0941      3.9392    144.8410
  1727.7500      0.0000    809.1529      4.3392    146.6237
  1728.0000      0.0000    813.9503      4.6867    148.1559
  1728.2500      0.0000    819.4950      4.9367    150.2313
  1728.5000      0.0000    825.4353      5.0917    152.9444
  1728.7500      0.0000    831.1064      5.1784    155.9199
  1729.0000      0.0000    835.5772      5.2297    159.1390
  1729.2500      0.0000    837.9492      5.2694    162.8846
  1729.5000      0.0000    837.8484      5.2947    166.7855
  1729.7500      0.0000    835.3440      5.2771    169.3996
  1730.0000      0.0000    830.1332      5.1896    169.1016
  1730.2500      0.0000    821.4830      5.0359    165.3649
  1730.5000      0.0000    809.7721      4.8528    158.6806
  1730.7500      0.0000    797.7106      4.6835    149.2210
  1731.0000      0.0000    789.1695      4.5361    136.9347
  1731.2500      0.0000    786.4642      4.3669    123.4928
  1731.5000      0.0000    788.8052      4.1288    112.3648
  1731.7500      0.0000    793.2241      3.8447    105.7019
  1732.0000      0.0000    797.0699      3.6133    102.4236
  1732.2500      0.0000    799.8325      3.5333    100.3238
  1732.5000      0.0000    802.4071      3.6291     98.6592
  1732.7500      0.0000    804.6575      3.8308     97.7773
  1733.0000      0.0000    804.6161      4.0110     97.5366
  1733.2500      0.0000    800.6368      4.0609     97.3060
  1733.5000      0.0000    793.7008      3.9601     96.9590
  1733.7500      0.0000    786.8416      3.7772     97.1993
  1734.0000      0.0000    782.2798      3.6032     99.1359
  1734.2500      0.0000    779.5750      3.4981    103.6680
  1734.5000      0.0000    776.7433      3.4949    110.7211
  1734.7500      0.0000    772.6760      3.6069    118.7635
