~Version Information
VERS.                      2.0: CWLS Log ASCII Standard - VERSION 2.0
WRAP.                       NO: One line per depth step
~Well Information Block
STRT.FT               450.0000: 
STOP.FT              1739.2500: 
STEP.FT                 0.2500: 
NULL.                -999.2500: 
COMP.          Pioneer Natural Resources: COMPANY
WELL.            Harlee L 34-9: WELL
FLD.           Purgatoire River: FIELD
LOC.           600' FSL & 2125' FEL: LOCATION
PROV.                 Colorado: PROVINCE
CNTY.               Las Animas: COUNTRY
SRVC.                Patterson: SERVICE COMPANY
DATE.          Wed Jan 26 02:00:08 2005: LOG DATE
UWI.           05 071 08009 00: UNIQUE WELL ID
~Curve Information Block
DEPT.FT            0 000 00 00: Depth
SN.Ohm-m                      : IEL Short Normal
SP.mV                         : IEL Spontaneous Potential
DIR.Ohm-m                     : IEL Induction Resistivity
GR.GAPI                       : Gamma Ray
~Parameter Information Block
~A  Depth        SN          SP         DIR          GR     
# ...
   684.5000   2000.0000   2000.0000     10.6405    139.6579
   684.7500   2000.0000   2000.0000     10.7213    140.8446
   685.0000   2000.0000   2000.0000     10.7958    140.8243
   685.2500   2000.0000   2000.0000     10.8304    138.5575
   685.5000   2000.0000   2000.0000     10.7940    131.8004
   685.7500   2000.0000   2000.0000     10.6699    126.5166
   686.0000   2000.0000   2000.0000     10.4618    120.9289
   686.2500   2000.0000   2000.0000     10.1894    120.0333
   686.5000   2000.0000   2000.0000      9.8763    122.6690
   686.7500   2000.0000   2000.0000      9.5400    126.0851
   687.0000   2000.0000   2000.0000      9.1887    132.0690
   687.2500   2000.0000   2000.0000      8.8252    135.9005
   687.5000   2000.0000   2000.0000      8.4554    140.2361
   687.7500   2000.0000   2000.0000      8.0931    141.7775
   688.0000   2000.0000   2000.0000      7.7600    142.6319
   688.2500   2000.0000   2000.0000      7.4818    143.1105
   688.5000   2000.0000   2000.0000      7.2826    144.5750
   688.7500   2000.0000   2000.0000      7.1805    145.6274
   689.0000   2000.0000   2000.0000      7.1842    145.7488
   689.2500   2000.0000   2000.0000      7.2910    144.3239
   689.5000   2000.0000   2000.0000      7.4869    140.2618
   689.7500   2000.0000   2000.0000      7.7495    136.8093
   690.0000   2000.0000   2000.0000      8.0528    131.3422
   690.2500   2000.0000   2000.0000      8.3731    127.9724
   690.5000   2000.0000   2000.0000      8.6910    124.2608
   690.7500   2000.0000   2000.0000      8.9915    123.1633
   691.0000   2000.0000   2000.0000      9.2628    123.9930
   691.2500   2000.0000   2000.0000      9.4967    126.1081
   691.5000   2000.0000   2000.0000      9.6931    130.7467
   691.7500   2000.0000   2000.0000      9.8623    133.8438
   692.0000   2000.0000   2000.0000     10.0227    136.6579
   692.2500   2000.0000   2000.0000     10.1932    136.7501
   692.5000   2000.0000   2000.0000     10.3867    134.5916
   692.7500   2000.0000   2000.0000     10.6115    132.2746
   693.0000   2000.0000   2000.0000     10.8785    128.5042
   693.2500   2000.0000   2000.0000     11.2083    126.1419
   693.5000   2000.0000   2000.0000     11.6338    122.8265
   693.7500   2000.0000   2000.0000     12.1974    120.4101
   694.0000   2000.0000   2000.0000     12.9444    115.7773
   694.2500   2000.0000   2000.0000     13.9129    111.9225
   694.5000   2000.0000   2000.0000     15.1213    105.3074
   694.7500   2000.0000   2000.0000     16.5544    100.5318
   695.0000   2000.0000   2000.0000     18.1543     93.1812
   695.2500   2000.0000   2000.0000     19.8230     88.6080
   695.5000   2000.0000   2000.0000     21.4420     83.1189
   695.7500   2000.0000   2000.0000     22.9029     80.4145
   696.0000   2000.0000   2000.0000     24.1342     76.7951
   696.2500   2000.0000   2000.0000     25.1062     74.0522
   696.5000   2000.0000   2000.0000     25.8190     69.4857
   696.7500   2000.0000   2000.0000     26.2920     66.7834
   697.0000   2000.0000   2000.0000     26.5662     64.3536
   697.2500   2000.0000   2000.0000     26.7069     64.0459
   697.5000   2000.0000   2000.0000     26.7896     65.2648
   697.7500   2000.0000   2000.0000     26.8728     66.8299
   698.0000   2000.0000   2000.0000     26.9667     69.5058
   698.2500   2000.0000   2000.0000     27.0146     70.9938
   698.5000   2000.0000   2000.0000     26.9023     72.2352
   698.7500   2000.0000   2000.0000     26.5056     72.5951
   699.0000   2000.0000   2000.0000     25.7612     73.6799
   699.2500   2000.0000   2000.0000     24.7120     75.6018
   699.5000   2000.0000   2000.0000     23.4879     80.9789
   699.7500   2000.0000   2000.0000     22.2432     86.0571
   700.0000   2000.0000   2000.0000     21.0971     94.8956
   700.2500   2000.0000   2000.0000     20.1097    100.7294
   700.5000   2000.0000   2000.0000     19.2864    107.7177
   700.7500   2000.0000   2000.0000     18.5996    110.4983
   701.0000   2000.0000   2000.0000     18.0165    111.9432
   701.2500   2000.0000   2000.0000     17.5214    111.9326
   701.5000   2000.0000   2000.0000     17.1245    112.0932
   701.7500   2000.0000   2000.0000     16.8559    112.5608
   702.0000   2000.0000   2000.0000     16.7519    112.6470
   702.2500   2000.0000   2000.0000     16.8397    111.3181
   702.5000   2000.0000   2000.0000     17.1280    106.4457
   702.7500   2000.0000   2000.0000     17.6012    101.5805
   703.0000   2000.0000   2000.0000     18.2166     93.3734
   703.2500   2000.0000   2000.0000     18.9045     88.4728
   703.5000   2000.0000   2000.0000     19.5719     84.0135
   703.7500   2000.0000   2000.0000     20.1171     83.9010
   704.0000   2000.0000   2000.0000     20.4543     88.7728
   704.2500   2000.0000   2000.0000     20.5378     95.1486
   704.5000   2000.0000   2000.0000     20.3715    107.6538
   704.7500   2000.0000   2000.0000     20.0037    116.2604
   705.0000   2000.0000   2000.0000     19.5187    126.6447
   705.2500   2000.0000   2000.0000     19.0249    131.0461
   705.5000   2000.0000   2000.0000     18.6353    134.5503
   705.7500   2000.0000   2000.0000     18.4432    135.7224
   706.0000   2000.0000   2000.0000     18.5019    136.0450
   706.2500   2000.0000   2000.0000     18.8095    134.4219
   706.5000   2000.0000   2000.0000     19.3038    127.3404
   706.7500   2000.0000   2000.0000     19.8751    119.2539
   707.0000   2000.0000   2000.0000     20.4107    103.7415
   707.2500   2000.0000   2000.0000     20.8511     92.9491
   707.5000   2000.0000   2000.0000     21.2125     79.4013
   707.7500   2000.0000   2000.0000     21.5518     73.6976
   708.0000   2000.0000   2000.0000     21.9146     71.4704
   708.2500   2000.0000   2000.0000     22.3161     73.8977
   708.5000   2000.0000   2000.0000     22.7514     81.0252
   708.7500   2000.0000   2000.0000     23.2020     86.1461
   709.0000   2000.0000   2000.0000     23.6125     91.6539
   709.2500   2000.0000   2000.0000     23.8663     93.3192
   709.5000   2000.0000   2000.0000     23.8081     93.6446
   709.7500   2000.0000   2000.0000     23.3342     93.3599
   710.0000   2000.0000   2000.0000     22.4816     93.4784
   710.2500   2000.0000   2000.0000     21.4184     94.3002
   710.5000   2000.0000   2000.0000     20.3418     96.8941
   710.7500   2000.0000   2000.0000     19.3863     99.5580
   711.0000   2000.0000   2000.0000     18.5994    104.6096
   711.2500   2000.0000   2000.0000     17.9673    108.0347
   711.5000   2000.0000   2000.0000     17.4498    111.5195
   711.7500   2000.0000   2000.0000     17.0009    111.9153
   712.0000   2000.0000   2000.0000     16.5720    109.7221
   712.2500   2000.0000   2000.0000     16.1129    107.4578
   712.5000   2000.0000   2000.0000     15.5820    105.3182
   712.7500   2000.0000   2000.0000     14.9642    105.6837
   713.0000   2000.0000   2000.0000     14.2804    108.7947
   713.2500   2000.0000   2000.0000     13.5766    111.8306
   713.5000   2000.0000   2000.0000     12.9001    116.9668
   713.7500   2000.0000   2000.0000     12.2811    120.8016
   714.0000   2000.0000   2000.0000     11.7305    127.1189
   714.2500   2000.0000   2000.0000     11.2483    131.2793
   714.5000   2000.0000   2000.0000     10.8330    136.5954
   714.7500   2000.0000   2000.0000     10.4847    139.2275
   715.0000   2000.0000   2000.0000     10.2032    141.2764
   715.2500   2000.0000   2000.0000      9.9856    140.9485
   715.5000   2000.0000   2000.0000      9.8269    137.6155
   715.7500   2000.0000   2000.0000      9.7239    133.9236
   716.0000   2000.0000   2000.0000      9.6782    127.7556
   716.2500   2000.0000   2000.0000      9.6981    124.1797
   716.5000   2000.0000   2000.0000      9.7950    120.3662
   716.7500   2000.0000   2000.0000      9.9787    118.5097
   717.0000   2000.0000   2000.0000     10.2535    115.3440
   717.2500   2000.0000   2000.0000     10.6184    112.3906
   717.5000   2000.0000   2000.0000     11.0724    106.8055
   717.7500   2000.0000   2000.0000     11.6201    102.6662
