~Version Information
VERS.                      2.0: CWLS Log ASCII Standard - VERSION 2.0
WRAP.                       NO: One line per depth step
~Well Information Block
STRT.FT               665.0000: 
STOP.FT              1972.5000: 
STEP.FT                 0.1000: 
NULL.                -999.2500: 
COMP.          Petrogulf Corporation: COMPANY
WELL.          Great Plains 22-21V: WELL
FLD.           Purgatorie River: FIELD
LOC.           63' FNL & 1895' FWL: LOCATION
PROV.                 Colorado: PROVINCE
CNTY.               Las Animas: COUNTRY
SRVC.                Patterson: SERVICE COMPANY
DATE.          Thu Sep 01 07:39:43 2005: LOG DATE
UWI.                          : UNIQUE WELL ID
~Curve Information Block
DEPT.FT            0 000 00 00: Depth
DCAL.in                       : CDL Caliper
RHOB.g/cc                     : CDL Bulk Density
RHOC.g/cc                     : CDL Density Correction
DPOR.pu                       : CDL Density Porosity
GR.GAPI                       : Gamma Ray
NPOR.pu                       : Neutron Porosity
~Parameter Information Block
~A  Depth       DCAL        RHOB        RHOC        DPOR         GR         NPOR    
# ...
  1269.8000      8.2543      2.4564      0.0404     11.7342     85.9893     24.5058
  1269.9000      8.2543      2.4496      0.0936     12.1449     86.8752     24.8784
  1270.0000      8.2848      2.4401      0.0622     12.7238     86.4051     25.0964
  1270.1000      8.2848      2.4309      0.0552     13.2803     86.2645     25.0407
  1270.2000      8.2848      2.4317      0.0397     13.2278     85.9375     24.7691
  1270.3000      8.3106      2.4494      0.0796     12.1549     85.5345     24.4669
  1270.4000      8.3106      2.4743      0.0812     10.6490     86.5733     24.1304
  1270.5000      8.3080      2.4923      0.1003      9.5601     88.3524     23.8752
  1270.6000      8.3080      2.4986      0.0942      9.1735     88.5292     23.8668
  1270.7000      8.3080      2.4932      0.0929      9.5029     87.9773     24.1476
  1270.8000      8.2649      2.4760      0.0963     10.5457     89.2657     24.5877
  1270.9000      8.2649      2.4524      0.0535     11.9780     91.4501     24.6764
  1271.0000      8.2500      2.4331      0.0478     13.1455     91.0929     24.2213
  1271.1000      8.2500      2.4233      0.0386     13.7388     86.2281     23.8749
  1271.2000      8.2500      2.4201      0.0457     13.9358     79.8408     23.9902
  1271.3000      8.2412      2.4206      0.0573     13.9050     75.4037     24.2388
  1271.4000      8.2412      2.4239      0.0523     13.7025     73.1907     24.2765
  1271.5000      8.2569      2.4285      0.0478     13.4234     72.4978     24.0875
  1271.6000      8.2569      2.4341      0.0621     13.0842     73.4845     23.8116
  1271.7000      8.2569      2.4406      0.0844     12.6893     74.5598     23.6015
  1271.8000      8.2336      2.4480      0.0677     12.2411     72.9536     23.6194
  1271.9000      8.2336      2.4561      0.0705     11.7493     71.4072     23.8066
  1272.0000      8.2497      2.4616      0.0718     11.4169     73.4579     23.9204
  1272.1000      8.2497      2.4628      0.0955     11.3477     77.7985     23.9151
  1272.2000      8.2497      2.4592      0.1172     11.5641     81.9491     23.9231
  1272.3000      8.2532      2.4487      0.0934     12.2014     84.5425     24.0920
  1272.4000      8.2532      2.4333      0.0750     13.1346     86.4765     24.5055
  1272.5000      8.2409      2.4226      0.0646     13.7804     87.3230     25.0740
  1272.6000      8.2409      2.4238      0.0758     13.7096     83.5912     25.3913
  1272.7000      8.2409      2.4293      0.0945     13.3756     78.4653     25.1322
  1272.8000      8.2410      2.4245      0.1150     13.6680     76.2442     24.7012
  1272.9000      8.2410      2.4089      0.0386     14.6111     74.5346     24.5642
  1273.0000      8.2240      2.3950      0.0673     15.4538     72.0618     24.4101
  1273.1000      8.2240      2.3837      0.0532     16.1394     71.2354     23.8467
  1273.2000      8.2240      2.3674      0.0786     17.1265     72.9105     23.1884
  1273.3000      8.2066      2.3477      0.0524     18.3214     74.5724     22.8659
  1273.4000      8.2066      2.3321      0.0409     19.2657     72.7959     22.7601
  1273.5000      8.1877      2.3219      0.0627     19.8849     68.2987     22.7201
  1273.6000      8.1877      2.3177      0.0304     20.1375     65.7671     22.8663
  1273.7000      8.1877      2.3253      0.0336     19.6789     66.6826     23.2465
  1273.8000      8.1850      2.3395      0.0705     18.8181     68.1297     23.6581
  1273.9000      8.1850      2.3447      0.1016     18.5011     69.3891     23.7276
  1274.0000      8.2666      2.3459      0.0641     18.4276     70.3654     23.3338
  1274.1000      8.2666      2.3642      0.1281     17.3226     69.4559     22.8649
  1274.2000      8.2666      2.3963      0.2333     15.3733     67.0957     22.4852
  1274.3000      8.3517      2.4261      0.1955     13.5701     65.2693     22.0929
  1274.4000      8.3517      2.4520      0.1921     11.9979     65.7049     21.8404
  1274.5000      8.4003      2.4736      0.2115     10.6898     68.4146     21.8259
  1274.6000      8.4003      2.4882      0.1979      9.8064     71.0639     21.6994
  1274.7000      8.4003      2.5048      0.1854      8.8021     72.4125     21.1406
  1274.8000      8.4482      2.5265      0.2748      7.4853     73.6271     20.6112
  1274.9000      8.4482      2.5380      0.2676      6.7868     75.3141     20.7228
  1275.0000      8.3563      2.5325      0.2243      7.1236     76.0056     21.2172
  1275.1000      8.3563      2.5191      0.1855      7.9315     74.7564     21.3629
  1275.2000      8.3563      2.5051      0.1817      8.7809     72.8643     21.0079
  1275.3000      8.2964      2.4951      0.1194      9.3868     71.8624     20.5903
  1275.4000      8.2964      2.4974      0.0929      9.2491     70.5050     20.6507
  1275.5000      8.2217      2.5095      0.1235      8.5163     69.4954     21.2774
  1275.6000      8.2217      2.5199      0.1014      7.8824     71.4116     21.8199
  1275.7000      8.2217      2.5232      0.1024      7.6850     74.1717     21.6161
  1275.8000      8.1965      2.5172      0.0937      8.0505     74.9851     20.8823
  1275.9000      8.1965      2.4999      0.1165      9.0997     77.0404     20.3570
  1276.0000      8.2181      2.4758      0.0882     10.5570     81.6430     20.3854
  1276.1000      8.2181      2.4644      0.0341     11.2479     85.0522     20.6567
  1276.2000      8.2181      2.4747      0.1061     10.6218     87.0996     20.7844
  1276.3000      8.2035      2.4851      0.1107      9.9922     90.3190     20.7926
  1276.4000      8.2035      2.4828      0.0813     10.1347     94.4221     20.7870
  1276.5000      8.1801      2.4828      0.0527     10.1342     97.1934     20.9631
  1276.6000      8.1801      2.4902      0.1052      9.6851     99.1547     21.5586
  1276.7000      8.1801      2.4899      0.1017      9.7025    101.2209     22.1885
  1276.8000      8.2195      2.4801      0.0759     10.2999    102.8423     22.5593
  1276.9000      8.2195      2.4753      0.0383     10.5870    104.7842     22.6348
  1277.0000      8.2099      2.4882      0.0258      9.8086    105.5537     22.3114
  1277.1000      8.2099      2.5127      0.0802      8.3223    103.0032     22.0479
  1277.2000      8.2099      2.5285      0.0830      7.3661    100.9979     22.2165
  1277.3000      8.1722      2.5310      0.0881      7.2119    102.6111     22.5609
  1277.4000      8.1722      2.5372      0.0422      6.8383    103.7289     22.7484
  1277.5000      8.1818      2.5530      0.1344      5.8817    102.1576     22.8038
  1277.6000      8.1818      2.5640      0.1030      5.2141    102.6375     23.1003
  1277.7000      8.1818      2.5621      0.0889      5.3261    109.1319     23.5927
  1277.8000      8.1954      2.5509      0.0913      6.0056    118.1327     23.8912
  1277.9000      8.1954      2.5346      0.0504      6.9957    123.8058     24.2029
  1278.0000      8.1961      2.5195      0.0336      7.9091    129.4306     24.7041
  1278.1000      8.1961      2.5121      0.0606      8.3550    140.2498     25.1243
  1278.2000      8.1961      2.5140      0.0587      8.2411    149.7753     25.4065
  1278.3000      8.1911      2.5280      0.0429      7.3956    152.0160     25.7250
  1278.4000      8.1911      2.5552      0.1012      5.7447    149.9603     26.1416
  1278.5000      8.2045      2.5812      0.1550      4.1721    146.4999     26.4678
  1278.6000      8.2045      2.5902      0.1232      3.6263    145.0392     26.5429
  1278.7000      8.2045      2.5867      0.1006      3.8378    149.4600     26.4655
  1278.8000      8.2231      2.5775      0.1538      4.3909    158.3464     26.1625
  1278.9000      8.2231      2.5589      0.1254      5.5211    163.9853     25.7825
  1279.0000      8.2158      2.5364      0.0908      6.8828    159.0562     25.8083
  1279.1000      8.2158      2.5242      0.0595      7.6214    147.2521     26.2222
  1279.2000      8.2158      2.5258      0.0768      7.5265    140.6228     26.6746
  1279.3000      8.2144      2.5324      0.0647      7.1253    144.2887     27.0912
