~Version Information
VERS.                      2.0: CWLS Log ASCII Standard - VERSION 2.0
WRAP.                       NO: One line per depth step
~Well Information Block
STRT.FT               -19.5000: 
STOP.FT              2456.0000: 
STEP.FT                 0.2500: 
NULL.                -999.2500: 
COMP.          Petrogulf Corporation: COMPANY
WELL.           Montoya 12-44V: WELL
FLD.           Purgatorie River: FIELD
LOC.           698' FSL & 599' FEL: LOCATION
CNTY.               Las Animas: COUNTY
SRVC.                         : SERVICE COMPANY
DATE.          Mon Sep 13 13:44:10 2004: LOG DATE
UWI.           05-071-08094-00: UNIQUE WELL ID
STAT.                 Colorado: STATE
~Curve Information Block
DEPT.FT            0 000 00 00: Depth
TT3.usec                      : CBL 3' Travel Time
AMP3.mV                       : CBL 3' Amplitude
GR.GAPI                       : Gamma Ray
CCL.                          : Casing Collar Locator
~Parameter Information Block
~A  Depth       TT3         AMP3         GR         CCL     
# ...
  1923.5000    769.0264      4.0163     60.4477      0.0000
  1923.7500    763.8682      3.5304     59.4212      0.0000
  1924.0000    756.0289      3.1283     58.7528      0.0000
  1924.2500    753.5439      2.8146     58.6389      0.0000
  1924.5000    758.6078      2.5726     58.9400      0.0000
  1924.7500    768.6962      2.3950     59.0658      0.0000
  1925.0000    776.9261      2.2767     58.3934      0.0000
  1925.2500    775.4894      2.2029     56.7728      0.0000
  1925.5000    763.0615      2.1607     54.5613      0.0000
  1925.7500    748.1454      2.1619     52.2356      0.0000
  1926.0000    741.4132      2.2315     50.0955      0.0000
  1926.2500    742.2781      2.3711     48.2656      0.0000
  1926.5000    740.6209      2.5540     46.8271      0.0000
  1926.7500    733.0023      2.7620     45.9336      0.0000
  1927.0000    723.0518      3.0030     45.7822      0.0000
  1927.2500    706.9203      3.2940     46.3192      0.0000
  1927.5000    682.2632      3.6523     47.0278      0.0000
  1927.7500    659.5018      4.0989     47.2843      0.0000
  1928.0000    633.4922      4.6424     47.0127      0.0000
  1928.2500    578.0736      5.2494     46.7953      0.0000
  1928.5000    494.1690      5.8619     47.2471      0.0000
  1928.7500    416.5926      6.4494     48.4106      0.0000
  1929.0000    368.4720      7.0037     49.8392      0.0000
  1929.2500    346.2346      7.5073     51.1644      0.0000
  1929.5000    338.0494      7.9382     52.6140      0.0000
  1929.7500    335.6420      8.2869     55.1107      0.0000
  1930.0000    335.0569      8.5718     59.7081      0.0000
  1930.2500    334.8330      8.8283     66.5369      0.0000
  1930.5000    334.5710      9.0601     74.1542      0.0000
  1930.7500    334.3526      9.2053     80.1117      0.0000
  1931.0000    334.7032      9.1745     82.4403      0.0000
  1931.2500    337.5893      8.9334     80.7701      0.0000
  1931.5000    349.3869      8.5419     76.1468      0.0000
  1931.7500    381.1281      8.0908     69.9868      0.0000
  1932.0000    436.2390      7.6102     63.4348      0.0000
  1932.2500    501.1266      7.0638     57.5470      0.0000
  1932.5000    564.7150      6.4239     53.3880      0.0000
  1932.7500    630.0309      5.7271     51.4946      0.0000
  1933.0000    693.0421      5.0553     51.4768      0.0000
  1933.2500    740.2130      4.4722     52.4085      0.0000
  1933.5000    766.0128      3.9903     53.6007      0.0000
  1933.7500    774.2163      3.5964     55.1457      0.0000
  1934.0000    766.3653      3.2796     57.9346      0.0000
  1934.2500    734.5080      3.0366     63.1458      0.0000
  1934.5000    673.0988      2.8724     71.4558      0.0000
  1934.7500    601.2608      2.7912     82.3543      0.0000
  1935.0000    555.3953      2.7732     93.9160      0.0000
  1935.2500    556.3789      2.7753    103.2656      0.0000
  1935.5000    597.7036      2.7733    107.6315      0.0000
  1935.7500    653.7438      2.7915    105.5080      0.0000
  1936.0000    696.9250      2.8728     97.3999      0.0000
  1936.2500    719.4479      3.0315     85.7859      0.0000
  1936.5000    730.4182      3.2420     74.1288      0.0000
  1936.7500    735.8148      3.4571     65.2891      0.0000
  1937.0000    734.7399      3.6338     60.2673      0.0000
  1937.2500    727.7651      3.7549     58.1909      0.0000
  1937.5000    720.8083      3.8363     57.5335      0.0000
  1937.7500    720.7322      3.9134     57.3279      0.0000
  1938.0000    727.5295      4.0038     57.2190      0.0000
  1938.2500    734.2611      4.0809     56.8838      0.0000
  1938.5000    734.7325      4.0983     56.1026      0.0000
  1938.7500    728.7821      4.0421     55.3593      0.0000
  1939.0000    721.1813      3.9523     55.7255      0.0000
  1939.2500    711.5168      3.8853     57.9955      0.0000
  1939.5000    685.0169      3.8706     62.1849      0.0000
  1939.7500    629.7437      3.9005     67.7162      0.0000
  1940.0000    565.3318      3.9394     73.6599      0.0000
  1940.2500    532.1492      3.9611     79.0101      0.0000
  1940.5000    545.8461      3.9862     83.3975      0.0000
  1940.7500    577.0558      4.0540     87.5582      0.0000
  1941.0000    587.6466      4.1575     92.6441      0.0000
  1941.2500    581.4326      4.2410     98.9524      0.0000
  1941.5000    592.0568      4.2681    105.4041      0.0000
  1941.7500    626.2277      4.2714    110.2567      0.0000
  1942.0000    655.9387      4.3140    112.3465      0.0000
  1942.2500    658.5369      4.4080    111.7847      0.0000
  1942.5000    639.4695      4.5080    109.5518      0.0000
  1942.7500    622.0206      4.5769    106.5149      0.0000
  1943.0000    617.5317      4.5882    102.9384      0.0000
  1943.2500    617.3333      4.4815     98.8635      0.0000
  1943.5000    622.0560      4.2336     94.5740      0.0000
  1943.7500    641.6069      3.9793     90.3911      0.0000
  1944.0000    667.6885      3.8662     86.1625      0.0000
  1944.2500    685.0763      3.7758     81.3821      0.0000
  1944.5000    694.5528      3.5046     75.9209      0.0000
  1944.7500    703.0079      3.1408     70.3832      0.0000
  1945.0000    705.3657      2.8918     65.6905      0.0000
  1945.2500    693.4017      2.7698     62.5174     -4.5105
  1945.5000    675.7764      2.6744     61.1760      3.5690
  1945.7500    669.5109      2.5614     61.7221      2.5375
  1946.0000    676.5779      2.4489     63.7176      0.0000
  1946.2500    683.9744      2.3759     65.9371      0.0000
  1946.5000    683.8290      2.3781     66.8904      0.0000
  1946.7500    682.9754      2.4326     66.0066      0.0000
  1947.0000    691.7278      2.4402     64.0122      0.0000
  1947.2500    711.6131      2.3607     61.9546      0.0000
  1947.5000    735.3776      2.2806     60.2315      0.0000
  1947.7500    754.3682      2.2562     58.7055      0.0000
  1948.0000    765.3887      2.2467     57.1909      0.0000
  1948.2500    768.7662      2.2177     55.4908      0.0000
  1948.5000    762.0950      2.1825     53.5222      0.0000
  1948.7500    742.6280      2.1652     51.7737      0.0000
  1949.0000    713.9852      2.1796     51.2213      0.0000
  1949.2500    685.6177      2.2301     52.5686      0.0000
  1949.5000    666.0432      2.3115     55.8490      0.0000
  1949.7500    656.9640      2.4220     60.7028      0.0000
  1950.0000    654.3491      2.5787     66.5579      0.0000
  1950.2500    653.9116      2.8057     72.4118      0.0000
  1950.5000    653.7332      3.1097     76.7688      0.0000
  1950.7500    653.4446      3.4799     78.2421      0.0000
  1951.0000    653.0508      3.9062     76.4695      0.0000
  1951.2500    652.5726      4.3841     72.4318      0.0000
  1951.5000    651.9504      4.8854     67.8481      0.0000
  1951.7500    650.2110      5.3432     64.2470      0.0000
  1952.0000    643.2403      5.6856     62.2652      0.0000
  1952.2500    622.4452      5.8730     61.3085      0.0000
  1952.5000    581.9190      5.9107     59.9415      0.0000
  1952.7500    531.1636      5.8349     57.1604      0.0000
  1953.0000    490.3247      5.6858     53.4334      0.0000
  1953.2500    468.9874      5.5013     50.2761      0.0000
  1953.5000    461.3103      5.3163     48.9404      0.0000
  1953.7500    458.8799      5.1460     49.6782      0.0000
  1954.0000    457.8228      4.9850     51.8514      0.0000
  1954.2500    457.1382      4.8209     54.3129      0.0000
  1954.5000    456.5386      4.6448     55.9235      0.0000
  1954.7500    455.8877      4.4588     56.2321      0.0000
  1955.0000    455.0987      4.2772     55.8080      0.0000
  1955.2500    454.2336      4.1138     55.7971      0.0000
  1955.5000    453.5829      3.9699     57.0936      0.0000
  1955.7500    453.3068      3.8409     59.7246      0.0000
  1956.0000    453.3047      3.7245     62.7411      0.0000
  1956.2500    454.6428      3.6218     64.9183      0.0000
  1956.5000    462.9370      3.5298     66.1464      0.0000
  1956.7500    490.1673      3.4330     68.1162      0.0000
