~Version Information
VERS.                      2.0: CWLS Log ASCII Standard - VERSION 2.0
WRAP.                       NO: One line per depth step
~Well Information Block
STRT.FT               480.0000: 
STOP.FT              1625.5000: 
STEP.FT                 0.1000: 
NULL.                -999.2500: 
COMP.          Pioneer Natural Resources: COMPANY
WELL.          Dude Canyon 22-32 Tr: WELL
FLD.           Purgatoire River: FIELD
LOC.           1741' FNL & 2331' FWL: LOCATION
PROV.                 Colorado: PROVINCE
CNTY.               Las Animas: COUNTRY
SRVC.                Patterson: SERVICE COMPANY
DATE.          Mon Jul 11 10:33:06 2005: LOG DATE
UWI.           05 071 08421 00: UNIQUE WELL ID
~Curve Information Block
DEPT.FT            0 000 00 00: Depth
DCAL.in                       : CDL Caliper
RHOB.g/cc                     : CDL Bulk Density
RHOC.g/cc                     : CDL Density Correction
DPOR.pu                       : CDL Density Porosity
GR.GAPI                       : Gamma Ray
NPOR.pu                       : Neutron Porosity
~Parameter Information Block
~A  Depth       DCAL        RHOB        RHOC        DPOR         GR         NPOR    
# ...
  1536.0000      7.9201      2.7216      0.0444     -4.3407    114.7251     23.7816
  1536.1000      7.9201      2.7009      0.0487     -3.0852    107.3925     23.3712
  1536.2000      7.9201      2.7077      0.0328     -3.4986     95.9902     22.5926
  1536.3000      7.9175      2.7115      0.0168     -3.7267     86.4181     21.9386
  1536.4000      7.9175      2.6917     -0.0974     -2.5260     80.6688     22.2057
  1536.5000      7.9235      2.6721     -0.0825     -1.3401     79.0357     23.2312
  1536.6000      7.9235      2.6719     -0.0573     -1.3258     79.0215     24.4970
  1536.7000      7.9235      2.6966     -0.0831     -2.8238     77.9006     25.2389
  1536.8000      7.9481      2.7503      0.0012     -6.0800     76.2089     24.8838
  1536.9000      7.9481      2.8080      0.0918     -9.5755     73.3661     24.1574
  1537.0000      7.9406      2.8410      0.0822    -11.5748     68.3988     23.9197
  1537.1000      7.9406      2.8718      0.0758    -13.4415     65.7131     23.9218
  1537.2000      7.9406      2.9241      0.2386    -16.6123     70.1721     23.6721
  1537.3000      7.9384      2.9719      0.2021    -19.5110     78.7545     22.7141
  1537.4000      7.9384      2.9834      0.2208    -20.2071     84.1209     21.5646
  1537.5000      7.8900      2.9509      0.1755    -18.2353     83.3507     21.1683
  1537.6000      7.8900      2.8829      0.1628    -14.1152     78.5481     21.3408
  1537.7000      7.8900      2.8033      0.0204     -9.2881     72.2996     21.8759
  1537.8000      7.8409      2.7394      0.0413     -5.4155     66.4682     22.6923
  1537.9000      7.8409      2.6975      0.0064     -2.8805     65.8256     23.0159
  1538.0000      7.8660      2.6710      0.0425     -1.2731     73.1303     22.5270
  1538.1000      7.8660      2.6480      0.0177      0.1217     81.6323     22.2249
  1538.2000      7.8660      2.6340      0.0290      0.9668     83.3200     22.6305
  1538.3000      7.8918      2.6447      0.1202      0.3195     76.7882     22.8629
  1538.4000      7.8918      2.6601      0.1553     -0.6125     66.9615     21.8349
  1538.5000      7.9712      2.6548      0.1065     -0.2913     60.1248     19.9781
  1538.6000      7.9712      2.6349      0.0414      0.9156     57.9425     18.8164
  1538.7000      7.9712      2.6147      0.0841      2.1364     59.3442     18.9763
  1538.8000      7.9839      2.6042      0.0636      2.7730     62.1295     19.8200
  1538.9000      7.9839      2.6027      0.1093      2.8641     64.4835     20.3388
  1539.0000      7.9773      2.6004      0.0731      3.0076     68.2933     20.0910
  1539.1000      7.9773      2.6009      0.0349      2.9763     72.2336     19.5992
  1539.2000      7.9773      2.6066      0.1017      2.6329     72.2111     19.6043
  1539.3000      7.9774      2.6062      0.0538      2.6559     67.8479     20.1217
  1539.4000      7.9774      2.6068      0.0444      2.6156     63.2935     20.4407
  1539.5000      7.9668      2.6187      0.0514      1.8956     61.4539     20.0275
  1539.6000      7.9668      2.6315      0.0445      1.1199     60.6089     19.0864
  1539.7000      7.9668      2.6372      0.0390      0.7766     60.3280     17.9483
  1539.8000      7.9744      2.6347      0.1179      0.9256     61.7300     16.8178
  1539.9000      7.9744      2.6190      0.1240      1.8806     62.8832     16.0422
  1540.0000      7.9744      2.5958      0.0518      3.2844     63.7268     15.8865
  1540.1000      7.9744      2.5855      0.0413      3.9115     65.5643     16.2539
  1540.2000      7.9744      2.5970      0.1108      3.2104     66.9837     16.9060
  1540.3000      7.9474      2.6216      0.1061      1.7233     66.8768     17.8604
  1540.4000      7.9474      2.6417      0.1409      0.5036     63.8488     18.7488
  1540.5000      7.9309      2.6448      0.1081      0.3167     59.0005     18.7323
  1540.6000      7.9309      2.6378      0.0910      0.7398     55.1882     18.0816
  1540.7000      7.9309      2.6377      0.0582      0.7448     51.5575     18.3143
  1540.8000      7.9154      2.6535      0.0976     -0.2101     48.7264     19.9014
  1540.9000      7.9154      2.6691      0.1258     -1.1604     49.5109     21.2650
  1541.0000      7.9108      2.6605      0.1038     -0.6375     49.9253     21.2269
  1541.1000      7.9108      2.6285      0.1228      1.3053     46.8500     20.7516
  1541.2000      7.9108      2.5903      0.0752      3.6198     45.4215     21.0503
  1541.3000      7.9355      2.5669      0.0505      5.0376     47.8387     21.9515
  1541.4000      7.9355      2.5627      0.0959      5.2921     50.3224     22.8728
  1541.5000      7.9518      2.5573      0.0973      5.6160     51.5051     23.7776
  1541.6000      7.9518      2.5399      0.0819      6.6723     52.8254     24.2587
  1541.7000      7.9518      2.5299      0.0347      7.2793     55.2167     23.9674
  1541.8000      7.9591      2.5471      0.0547      6.2374     59.1072     23.6885
  1541.9000      7.9591      2.5746      0.0899      4.5701     64.3091     23.7415
  1542.0000      7.9572      2.5831      0.0924      4.0528     68.4402     23.3897
  1542.1000      7.9572      2.5720      0.1008      4.7261     69.1627     22.3134
  1542.2000      7.9572      2.5594      0.0912      5.4925     67.4434     21.1217
  1542.3000      7.9608      2.5592      0.1009      5.5051     66.1508     20.9943
  1542.4000      7.9608      2.5732      0.0732      4.6539     70.3181     21.8591
  1542.5000      7.9513      2.5828      0.0834      4.0706     79.9577     22.1586
  1542.6000      7.9513      2.5636      0.0693      5.2339     86.9666     21.5951
  1542.7000      7.9513      2.5272      0.0561      7.4450     88.4372     21.3918
  1542.8000      7.8966      2.5108      0.0167      8.4370     88.6606     21.7489
  1542.9000      7.8966      2.5228      0.0913      7.7085     87.3261     21.4472
  1543.0000      7.9579      2.5367      0.0942      6.8657     80.8582     20.0112
  1543.1000      7.9579      2.5332      0.0637      7.0777     73.1349     18.9468
  1543.2000      7.9579      2.5230      0.0652      7.6973     71.8022     19.3536
  1543.3000      7.9750      2.5275      0.0742      7.4254     74.1856     21.0126
  1543.4000      7.9750      2.5542      0.0635      5.8076     73.1489     23.3141
  1543.5000      7.9620      2.5938      0.0801      3.4073     70.1293     25.4702
  1543.6000      7.9620      2.6263      0.1766      1.4366     67.6298     26.8340
  1543.7000      7.9620      2.6371      0.1004      0.7802     67.3856     27.1994
  1543.8000      7.9782      2.6224      0.2063      1.6739     70.9472     26.6116
  1543.9000      7.9782      2.5868      0.1015      3.8306     76.2300     25.3205
  1544.0000      7.9330      2.5631      0.0477      5.2688     81.2695     23.4377
  1544.1000      7.9330      2.5699      0.1295      4.8527     84.0870     21.1650
  1544.2000      7.9330      2.5819      0.1191      4.1255     82.7329     19.3806
  1544.3000      7.9084      2.5864      0.0971      3.8561     77.9905     18.9864
  1544.4000      7.9084      2.5851      0.1091      3.9313     73.3456     19.9444
  1544.5000      7.9111      2.5715      0.1193      4.7567     71.4665     21.3062
  1544.6000      7.9111      2.5532      0.0712      5.8645     70.4512     22.0330
  1544.7000      7.9111      2.5481      0.0305      6.1778     69.4513     21.6689
  1544.8000      7.9107      2.5557      0.0905      5.7170     70.1579     21.0111
  1544.9000      7.9107      2.5708      0.1004      4.8016     70.4080     20.7828
  1545.0000      7.9331      2.5993      0.0693      3.0698     67.9011     20.5954
  1545.1000      7.9331      2.6338      0.1434      0.9806     65.8009     20.4808
  1545.2000      7.9331      2.6544      0.0972     -0.2648     64.2018     20.6526
  1545.3000      7.8958      2.6552      0.1479     -0.3153     61.4171     20.3764
  1545.4000      7.8958      2.6337      0.1075      0.9896     59.4176     19.2825
  1545.5000      7.8938      2.5890      0.0961      3.6943     59.5623     18.0732
