~Version Information
VERS.                      2.0: CWLS Log ASCII Standard - VERSION 2.0
WRAP.                       NO: One line per depth step
~Well Information Block
STRT.FT                37.7500: 
STOP.FT              1898.5000: 
STEP.FT                 0.2500: 
NULL.                -999.2500: 
COMP.          Petrogulf Corporation: COMPANY
WELL.           Montoya 12-41R: WELL
FLD.           Purgatorie River: FIELD
LOC.           1086' FNL & 610' FEL--: LOCATION
PROV.                       CO: PROVINCE
CNTY.               Las Animas: COUNTRY
SRVC.                         : SERVICE COMPANY
DATE.          Wed Feb 09 11:45:45 2005: LOG DATE
UWI.         005 071 08241 : UNIQUE WELL ID
~Curve Information Block
DEPT.FT            0 000 00 00: Depth
CCL.                          : Casing Collar Locator
TT3.usec                      : CBL 3' Travel Time
AMP3.mV                       : CBL 3' Amplitude
GR.GAPI                       : Gamma Ray
~Parameter Information Block
~A  Depth       CCL         TT3         AMP3         GR     
# ...
   774.7500      0.0000    266.7648     66.9202    144.8034
   775.0000      0.0000    266.7560     67.2337    146.4357
   775.2500      0.0000    266.7548     67.6406    152.7393
   775.5000      0.0000    266.7571     67.9844    161.8219
   775.7500      0.0000    266.7589     68.1151    171.3159
   776.0000      0.0000    266.7590     68.0274    179.1572
   776.2500      0.0000    266.7602     67.8629    183.2893
   776.5000      0.0000    266.7664     67.7717    182.2086
   776.7500      0.0000    266.7786     67.8032    176.5142
   777.0000      0.0000    266.7938     67.9159    169.3047
   777.2500      0.0000    266.8057     68.0503    164.3368
   777.5000      0.0000    266.8064     68.1850    163.3975
   777.7500      0.0000    266.7898     68.3449    165.1441
   778.0000      0.0000    266.7579     68.5632    166.2612
   778.2500      0.0000    266.7210     68.8348    163.8473
   778.5000      0.0000    266.6913     69.1097    157.0167
   778.7500      0.0000    266.6761     69.3233    147.0044
   779.0000      0.0000    266.6774     69.4285    136.3887
   779.2500      0.0000    266.6966     69.4108    127.7806
   779.5000      0.0000    266.7346     69.2941    122.2140
   779.7500      0.0000    266.7879     69.1365    118.6153
   780.0000      0.0000    266.8438     69.0078    115.3291
   780.2500      0.0000    266.8861     68.9497    112.1039
   780.5000      0.0000    266.9053     68.9547    110.2811
   780.7500      0.0000    266.9030     68.9847    111.2312
   781.0000      0.0000    266.8880     69.0058    114.7056
   781.2500      0.0000    266.8693     69.0049    118.4401
   781.5000      0.0000    266.8528     68.9849    119.6492
   781.7500      0.0000    266.8405     68.9521    117.4979
   782.0000      0.0000    266.8327     68.9026    113.9115
   782.2500      0.0000    266.8320     68.8153    111.7530
   782.5000      0.0000    266.8427     68.6668    112.5680
   782.7500      0.0000    266.8659     68.4611    116.0240
   783.0000      0.0000    266.8962     68.2398    120.6541
   783.2500      0.0000    266.9232     68.0543    124.8229
   783.5000      0.0000    266.9368     67.9254    127.5611
   783.7500      0.0000    266.9336     67.8303    128.8900
   784.0000      0.0000    266.9188     67.7331    129.3288
   784.2500      0.0000    266.9013     67.6313    129.3344
   784.5000      0.0000    266.8871     67.5705    129.4649
   784.7500      0.0000    266.8769     67.6047    130.5175
   785.0000      0.0000    266.8687     67.7368    132.7492
   785.2500      0.0000    266.8605     67.9043    135.2438
   785.5000      0.0000    266.8526     68.0277    136.6665
   785.7500      0.0000    266.8481     68.0767    136.5114
   786.0000      0.0000    266.8484     68.0902    135.4810
   786.2500      0.0000    266.8497     68.1404    134.9292
   786.5000      0.0000    266.8439     68.2769    135.9088
   786.7500      0.0000    266.8257     68.4911    138.5284
   787.0000      0.0000    266.7970     68.7230    142.2921
   787.2500      0.0000    266.7653     68.9050    146.9149
   787.5000      0.0000    266.7397     69.0051    152.2382
   787.7500      0.0000    266.7283     69.0377    157.2589
   788.0000      0.0000    266.7371     69.0381    160.1231
   788.2500      0.0000    266.7669     69.0312    159.7135
   788.5000      0.0000    266.8108     69.0194    156.6855
   788.7500      0.0000    266.8545     68.9904    152.4414
   789.0000      0.0000    266.8847     68.9301    147.7331
   789.2500      0.0000    266.8977     68.8364    142.7952
   789.5000      0.0000    266.9015     68.7338    138.1766
   789.7500      0.0000    266.9071     68.6711    134.7210
   790.0000      0.0000    266.9196     68.6861    132.9270
   790.2500      0.0000    266.9355     68.7675    132.7756
   790.5000      0.0000    266.9463     68.8591    134.0714
   790.7500      0.0000    266.9467     68.9019    136.2704
   791.0000      0.0000    266.9390     68.8700    137.8121
   791.2500      0.0000    266.9303     68.7731    136.6321
   791.5000      0.0000    266.9251     68.6406    132.2360
   791.7500      0.0000    266.9227     68.4993    126.7561
   792.0000      0.0000    266.9220     68.3571    123.3551
   792.2500      0.0000    266.9264     68.2091    123.8691
   792.5000      0.0000    266.9409     68.0679    128.0280
   792.7500      0.0000    266.9640     67.9794    134.4363
   793.0000      0.0000    266.9855     67.9905    142.0569
   793.2500      0.0000    266.9962     68.0954    150.6910
   793.5000      0.0000    266.9971     68.2276    159.8765
   793.7500      0.0000    266.9971     68.3098    167.7372
   794.0000      0.0000    267.0006     68.3083    171.7312
   794.2500      0.0000    267.0032     68.2452    170.6937
   794.5000      0.0000    266.9991     68.1671    165.7219
   794.7500      0.0000    266.9892     68.1091    159.1996
   795.0000      0.0000    266.9807     68.0867    153.3489
   795.2500      0.0000    266.9780     68.1072    149.2316
   795.5000      0.0000    266.9783     68.1766    146.4083
   795.7500      0.0000    266.9754     68.2911    143.6382
   796.0000      0.0000    266.9681     68.4268    140.3592
   796.2500      0.0000    266.9652     68.5342    137.3966
   796.5000      0.0000    266.9893     68.5141    136.0257
   796.7500      0.0000    267.0874     68.1780    136.5865
   797.0000      0.0000    267.3504     67.2253    138.3322
   797.2500      0.0000    267.9070     65.3345    140.4470
   797.5000      0.0000    268.8524     62.4035    142.6416
   797.7500      0.0000    270.1451     58.7472    144.5396
   798.0000      0.0000    271.5808     54.9846    144.9915
   798.2500      0.0000    272.8927     51.6870    142.7886
   798.5000      0.0000    273.8900     49.1590    138.2151
   798.7500      0.0000    274.5211     47.4670    133.2840
   799.0000      0.0000    274.8463     46.5114    130.0377
   799.2500      2.0000    274.9662     46.0890    129.0520
   799.5000      2.0000    274.9538     46.0098    129.7615
   799.7500      0.0000    274.8134     46.1919    131.3376
   800.0000      0.0000    274.4719     46.6234    132.7492
   800.2500      0.0000    273.8102     47.2713    132.8364
   800.5000      0.0000    272.7487     48.1264    131.2806
   800.7500      0.0000    271.3531     49.4035    129.1821
   801.0000      0.0000    269.8554     51.5557    128.1408
   801.2500      0.0000    268.5343     54.8472    128.9845
   801.5000      0.0000    267.5610     58.8749    131.4655
   801.7500      0.0000    266.9525     62.7014    134.6826
   802.0000      0.0000    266.6320     65.5273    137.7062
   802.2500      0.0000    266.4988     67.1719    140.0836
   802.5000      0.0000    266.4647     67.9609    141.7726
   802.7500      0.0000    266.4669     68.3188    142.8376
   803.0000      0.0000    266.4708     68.5063    143.6797
   803.2500      0.0000    266.4646     68.6110    145.1979
   803.5000      0.0000    266.4467     68.6412    147.9248
   803.7500      0.0000    266.4189     68.5980    151.1182
   804.0000      0.0000    266.3857     68.5015    153.3756
   804.2500      0.0000    266.3550     68.3891    153.9962
   804.5000      0.0000    266.3335     68.2966    153.1105
   804.7500      0.0000    266.3228     68.2483    150.7819
   805.0000      0.0000    266.3207     68.2693    146.9223
   805.2500      0.0000    266.3240     68.3828    141.9834
   805.5000      0.0000    266.3297     68.5765    136.9559
   805.7500      0.0000    266.3330     68.7910    132.7936
   806.0000      0.0000    266.3278     68.9641    130.1357
   806.2500      0.0000    266.3103     69.0786    128.9757
   806.5000      0.0000    266.2835     69.1572    128.3315
   806.7500      0.0000    266.2537     69.2293    127.0509
   807.0000      0.0000    266.2247     69.3111    125.1828
   807.2500      0.0000    266.1967     69.4017    123.7942
   807.5000      0.0000    266.1698     69.4878    123.3219
   807.7500      0.0000    266.1477     69.5505    122.8634
   808.0000      0.0000    266.1363     69.5687    121.1954
