~Version Information
VERS.                      2.0: CWLS Log ASCII Standard - VERSION 2.0
WRAP.                       NO: One line per depth step
~Well Information Block
STRT.FT               920.0000: 
STOP.FT              3300.2000: 
STEP.FT                 0.1000: 
NULL.                -999.2500: 
COMP.          Pioneer Natural Resources: COMPANY
WELL.              Vespar 43-7: WELL
FLD.           Purgatoire River: FIELD
LOC.           2338' FSL & 1141' FEL: LOCATION
PROV.                 Colorado: PROVINCE
CNTY.               Las Animas: COUNTRY
SRVC.                Patterson: SERVICE COMPANY
DATE.          Wed Jan 26 13:38:02 2005: LOG DATE
UWI.           05 071 07955 00: UNIQUE WELL ID
~Curve Information Block
DEPT.FT            0 000 00 00: Depth
DCAL.in                       : CDL Caliper
RHOB.g/cc                     : CDL Bulk Density
RHOC.g/cc                     : CDL Density Correction
DPOR.pu                       : CDL Density Porosity
NPOR.pu                       : Neutron Porosity
GR.GAPI                       : Gamma Ray
~Parameter Information Block
~A  Depth       DCAL        RHOB        RHOC        DPOR        NPOR         GR     
# ...
  1236.8000      8.0787      2.4505      0.1039     12.0928     22.3123    114.3860
  1236.9000      8.0787      2.4460      0.0709     12.3639     23.2752    110.2819
  1237.0000      8.0709      2.4929      0.1702      9.5208     24.2930    108.5496
  1237.1000      8.0709      2.5548      0.2744      5.7672     25.1933    108.1019
  1237.2000      8.0709      2.5795      0.2828      4.2699     25.6152    110.0610
  1237.3000      8.0726      2.5680      0.1776      4.9674     25.6708    113.2629
  1237.4000      8.0726      2.5678      0.1840      4.9838     25.9917    112.9823
  1237.5000      8.0769      2.5998      0.2221      3.0449     26.7159    109.9448
  1237.6000      8.0769      2.6346      0.2338      0.9327     27.1703    107.5626
  1237.7000      8.0769      2.6414      0.1683      0.5222     27.1071    106.3676
  1237.8000      8.0774      2.6251      0.1051      1.5085     26.9662    107.2423
  1237.9000      8.0774      2.6089      0.0982      2.4904     26.9805    109.1093
  1238.0000      8.0769      2.6052      0.0708      2.7171     26.9636    110.3437
  1238.1000      8.0769      2.6026      0.0931      2.8699     26.6825    111.5869
  1238.2000      8.0769      2.5774      0.0820      4.3973     26.0723    111.3745
  1238.3000      8.0757      2.5366      0.0121      6.8715     25.3729    108.7085
  1238.4000      8.0757      2.5192      0.0185      7.9249     25.3289    105.4761
  1238.5000      8.0748      2.5315      0.0896      7.1790     25.7989    102.0602
  1238.6000      8.0748      2.5381      0.0711      6.7817     25.9082     98.7077
  1238.7000      8.0748      2.5233      0.0332      7.6816     25.9977     98.0867
  1238.8000      8.0755      2.5104     -0.0567      8.4605     26.7228    102.4661
  1238.9000      8.0755      2.5133      0.0713      8.2855     27.6195    111.0164
  1239.0000      8.0786      2.5146      0.0808      8.2054     27.7921    118.9728
  1239.1000      8.0786      2.5151      0.0287      8.1731     27.1769    120.1067
  1239.2000      8.0786      2.5283      0.0519      7.3732     26.6093    115.2242
  1239.3000      8.0816      2.5426      0.0754      6.5084     26.4919    111.7516
  1239.4000      8.0816      2.5460      0.0463      6.3003     26.1189    112.8279
  1239.5000      8.0799      2.5439      0.0543      6.4281     25.0714    117.2816
  1239.6000      8.0799      2.5354      0.0343      6.9452     24.0916    122.2808
  1239.7000      8.0799      2.5188      0.0426      7.9545     23.7844    121.8301
  1239.8000      8.0774      2.5145      0.0036      8.2096     23.8095    113.0044
  1239.9000      8.0774      2.5441      0.0422      6.4172     23.6051    102.1262
  1240.0000      8.0772      2.5831      0.1122      4.0557     23.3729     97.6546
  1240.1000      8.0772      2.5854      0.0785      3.9171     23.5533     99.8849
  1240.2000      8.0772      2.5525      0.0677      5.9118     23.8527    101.6658
  1240.3000      8.0778      2.5204      0.0147      7.8531     23.7037     99.3673
  1240.4000      8.0778      2.5069      0.0267      8.6750     23.0118     96.2317
  1240.5000      8.0785      2.5101      0.0211      8.4782     22.3563     94.2048
  1240.6000      8.0785      2.5269      0.0125      7.4609     22.1410     91.8105
  1240.7000      8.0785      2.5471      0.0425      6.2370     21.9842     91.5864
  1240.8000      8.0779      2.5572      0.0161      5.6249     21.5577     94.3170
  1240.9000      8.0779      2.5607      0.0358      5.4118     21.1757     93.1469
  1241.0000      8.0759      2.5658      0.0504      5.1048     21.1566     84.7213
  1241.1000      8.0759      2.5689      0.0553      4.9140     21.2543     75.6806
  1241.2000      8.0759      2.5709      0.0761      4.7956     21.0266     72.6292
  1241.3000      8.0746      2.5779      0.0676      4.3683     20.4524     74.6114
  1241.4000      8.0746      2.5868      0.1164      3.8331     20.0065     78.0235
  1241.5000      8.0741      2.5908      0.0836      3.5893     19.8342     79.7750
  1241.6000      8.0741      2.5880      0.1012      3.7547     19.7184     78.8435
  1241.7000      8.0741      2.5748      0.1027      4.5564     19.5796     77.7199
  1241.8000      8.0740      2.5576      0.0664      5.6026     19.5126     77.8019
  1241.9000      8.0740      2.5490      0.0692      6.1236     19.5564     77.2555
  1242.0000      8.0744      2.5447      0.0807      6.3837     19.6586     74.9358
  1242.1000      8.0744      2.5383      0.0407      6.7693     19.8288     71.9309
  1242.2000      8.0744      2.5371      0.0583      6.8424     19.8606     69.5360
  1242.3000      8.0749      2.5404      0.0693      6.6410     19.5623     70.2408
  1242.4000      8.0749      2.5410      0.0434      6.6064     19.3271     75.7943
  1242.5000      8.0753      2.5388      0.0559      6.7418     19.6004     81.6515
  1242.6000      8.0753      2.5347      0.0479      6.9862     20.0206     82.6775
  1242.7000      8.0753      2.5249      0.0720      7.5792     19.9489     80.2368
  1242.8000      8.0757      2.5087      0.0476      8.5622     19.2385     79.6980
  1242.9000      8.0757      2.4887      0.0606      9.7749     18.3230     80.9044
  1243.0000      8.0762      2.4664      0.0201     11.1299     17.8403     78.3370
  1243.1000      8.0762      2.4441      0.0220     12.4771     17.7817     71.7734
  1243.2000      8.0762      2.4231      0.0069     13.7539     17.5190     65.9966
  1243.3000      8.0768      2.4129     -0.0207     14.3687     16.7786     64.2730
  1243.4000      8.0768      2.4167      0.0439     14.1419     15.9220     65.5437
  1243.5000      8.0764      2.4145      0.0416     14.2739     15.1672     66.2559
  1243.6000      8.0764      2.4006      0.0216     15.1147     14.4681     65.3968
  1243.7000      8.0764      2.3949     -0.0185     15.4621     14.1026     63.6383
  1243.8000      8.0758      2.4083     -0.0130     14.6494     14.2859     61.3830
  1243.9000      8.0758      2.4279      0.0713     13.4614     14.7913     60.9617
  1244.0000      8.0766      2.4442      0.0185     12.4708     15.1957     61.9568
  1244.1000      8.0766      2.4646      0.0616     11.2349     15.2854     60.5628
  1244.2000      8.0766      2.4907      0.0671      9.6536     15.2617     58.3533
  1244.3000      8.0778      2.5196      0.0658      7.9019     15.4927     60.3461
  1244.4000      8.0778      2.5445      0.0961      6.3923     15.9553     66.5600
  1244.5000      8.0778      2.5501      0.1089      6.0552     16.4768     71.7182
  1244.6000      8.0778      2.5409      0.0241      6.6133     17.1993     72.7687
  1244.7000      8.0778      2.5398      0.0588      6.6774     17.9970     71.1011
  1244.8000      8.0762      2.5413      0.0573      6.5884     18.5773     68.5909
  1244.9000      8.0762      2.5206      0.0824      7.8414     19.1712     65.6104
  1245.0000      8.0732      2.4843     -0.0475     10.0396     19.9807     63.0344
  1245.1000      8.0732      2.4613     -0.0149     11.4356     20.8168     62.1852
  1245.2000      8.0732      2.4553      0.0064     11.7984     21.3330     64.4210
  1245.3000      8.0756      2.4557     -0.0007     11.7736     21.1545     69.1898
  1245.4000      8.0756      2.4602     -0.0193     11.5007     20.4057     72.3570
  1245.5000      8.0852      2.4635      0.0096     11.3017     19.4879     70.6132
  1245.6000      8.0852      2.4582      0.0060     11.6248     18.5150     64.6160
  1245.7000      8.0852      2.4523      0.0019     11.9846     17.4489     57.6527
  1245.8000      8.0947      2.4576      0.0269     11.6576     16.3689     54.0410
  1245.9000      8.0947      2.4647      0.0870     11.2298     15.5632     55.9929
  1246.0000      8.0997      2.4633      0.0336     11.3180     15.1665     60.6369
  1246.1000      8.0997      2.4561      0.0799     11.7515     14.7352     62.8976
  1246.2000      8.0997      2.4376      0.0622     12.8714     13.9742     60.0572
  1246.3000      8.1022      2.4142     -0.0028     14.2911     13.2928     53.4434
