~Version Information
VERS.                      2.0: CWLS Log ASCII Standard - VERSION 2.0
WRAP.                       NO: One line per depth step
~Well Information Block
STRT.FT               675.0000: 
STOP.FT              2373.5000: 
STEP.FT                 0.2500: 
NULL.                -999.2500: 
COMP.          Pioneer Natural Resources: COMPANY
WELL.            Harrier 44-33: WELL
FLD.           Purgatoire River: FIELD
LOC.           456' FSL & 930' FEL: LOCATION
PROV.                 Colorado: PROVINCE
CNTY.               Las Animas: COUNTRY
SRVC.                Patterson: SERVICE COMPANY
DATE.          Mon Jun 20 07:40:56 2005: LOG DATE
UWI.           05 071 08398 00: UNIQUE WELL ID
~Curve Information Block
DEPT.FT            0 000 00 00: Depth
SN.Ohm-m                      : IEL Short Normal
SP.mV                         : IEL Spontaneous Potential
DIR.Ohm-m                     : IEL Induction Resistivity
GR.GAPI                       : Gamma Ray
~Parameter Information Block
~A  Depth        SN          SP         DIR          GR     
# ...
  1010.0000   2000.0000   2000.0000     10.2382    141.1953
  1010.2500   2000.0000   2000.0000     10.1726    142.6882
  1010.5000   2000.0000   2000.0000     10.0750    143.0815
  1010.7500   2000.0000   2000.0000      9.9590    141.9899
  1011.0000   2000.0000   2000.0000      9.8421    138.7369
  1011.2500   2000.0000   2000.0000      9.7417    136.0824
  1011.5000   2000.0000   2000.0000      9.6722    132.6920
  1011.7500   2000.0000   2000.0000      9.6427    131.5155
  1012.0000   2000.0000   2000.0000      9.6548    131.8295
  1012.2500   2000.0000   2000.0000      9.7014    133.0830
  1012.5000   2000.0000   2000.0000      9.7680    135.1895
  1012.7500   2000.0000   2000.0000      9.8381    135.8983
  1013.0000   2000.0000   2000.0000      9.9019    134.9470
  1013.2500   2000.0000   2000.0000      9.9609    132.8977
  1013.5000   2000.0000   2000.0000     10.0242    128.5590
  1013.7500   2000.0000   2000.0000     10.0979    125.6891
  1014.0000   2000.0000   2000.0000     10.1794    122.8604
  1014.2500   2000.0000   2000.0000     10.2601    122.4993
  1014.5000   2000.0000   2000.0000     10.3328    124.2664
  1014.7500   2000.0000   2000.0000     10.3955    126.3900
  1015.0000   2000.0000   2000.0000     10.4484    129.4897
  1015.2500   2000.0000   2000.0000     10.4902    130.8459
  1015.5000   2000.0000   2000.0000     10.5151    131.5452
  1015.7500   2000.0000   2000.0000     10.5143    131.3939
  1016.0000   2000.0000   2000.0000     10.4806    131.1873
  1016.2500   2000.0000   2000.0000     10.4131    131.6579
  1016.5000   2000.0000   2000.0000     10.3200    133.6927
  1016.7500   2000.0000   2000.0000     10.2163    135.6026
  1017.0000   2000.0000   2000.0000     10.1187    138.0281
  1017.2500   2000.0000   2000.0000     10.0425    138.5977
  1017.5000   2000.0000   2000.0000      9.9998    137.3506
  1017.7500   2000.0000   2000.0000      9.9986    135.5167
  1018.0000   2000.0000   2000.0000     10.0414    132.7849
  1018.2500   2000.0000   2000.0000     10.1235    131.6542
  1018.5000   2000.0000   2000.0000     10.2327    130.6685
  1018.7500   2000.0000   2000.0000     10.3522    129.4839
  1019.0000   2000.0000   2000.0000     10.4664    124.9293
  1019.2500   2000.0000   2000.0000     10.5650    119.3713
  1019.5000   2000.0000   2000.0000     10.6425    107.8756
  1019.7500   2000.0000   2000.0000     10.6976     99.6877
  1020.0000   2000.0000   2000.0000     10.7327     90.4886
  1020.2500   2000.0000   2000.0000     10.7558     88.2553
  1020.5000   2000.0000   2000.0000     10.7799     91.6706
  1020.7500   2000.0000   2000.0000     10.8195     97.6491
  1021.0000   2000.0000   2000.0000     10.8838    109.3911
  1021.2500   2000.0000   2000.0000     10.9711    117.1994
  1021.5000   2000.0000   2000.0000     11.0655    126.2529
  1021.7500   2000.0000   2000.0000     11.1401    129.7918
  1022.0000   2000.0000   2000.0000     11.1681    131.7747
  1022.2500   2000.0000   2000.0000     11.1346    131.8107
  1022.5000   2000.0000   2000.0000     11.0421    131.8252
  1022.7500   2000.0000   2000.0000     10.9053    132.6355
  1023.0000   2000.0000   2000.0000     10.7424    135.2452
  1023.2500   2000.0000   2000.0000     10.5708    137.1358
  1023.5000   2000.0000   2000.0000     10.4064    138.1525
  1023.7500   2000.0000   2000.0000     10.2641    136.9185
  1024.0000   2000.0000   2000.0000     10.1555    132.7402
  1024.2500   2000.0000   2000.0000     10.0863    129.3725
  1024.5000   2000.0000   2000.0000     10.0538    125.0415
  1024.7500   2000.0000   2000.0000     10.0475    123.2328
  1025.0000   2000.0000   2000.0000     10.0552    122.5725
  1025.2500   2000.0000   2000.0000     10.0716    123.4265
  1025.5000   2000.0000   2000.0000     10.1037    125.9928
  1025.7500   2000.0000   2000.0000     10.1670    127.9532
  1026.0000   2000.0000   2000.0000     10.2735    130.1183
  1026.2500   2000.0000   2000.0000     10.4220    130.5413
  1026.5000   2000.0000   2000.0000     10.5978    129.5522
  1026.7500   2000.0000   2000.0000     10.7816    128.2451
  1027.0000   2000.0000   2000.0000     10.9609    126.1951
  1027.2500   2000.0000   2000.0000     11.1351    124.8733
  1027.5000   2000.0000   2000.0000     11.3123    122.3287
  1027.7500   2000.0000   2000.0000     11.5010    119.8235
  1028.0000   2000.0000   2000.0000     11.7051    114.7710
  1028.2500   2000.0000   2000.0000     11.9224    111.0391
  1028.5000   2000.0000   2000.0000     12.1469    106.5213
  1028.7500   2000.0000   2000.0000     12.3702    105.2506
  1029.0000   2000.0000   2000.0000     12.5825    106.8668
  1029.2500   2000.0000   2000.0000     12.7720    110.0807
  1029.5000   2000.0000   2000.0000     12.9274    116.9203
  1029.7500   2000.0000   2000.0000     13.0414    122.0228
  1030.0000   2000.0000   2000.0000     13.1153    129.1246
  1030.2500   2000.0000   2000.0000     13.1579    132.7647
  1030.5000   2000.0000   2000.0000     13.1821    135.9213
  1030.7500   2000.0000   2000.0000     13.1994    136.5290
  1031.0000   2000.0000   2000.0000     13.2176    135.5574
  1031.2500   2000.0000   2000.0000     13.2427    133.9383
  1031.5000   2000.0000   2000.0000     13.2814    130.9866
  1031.7500   2000.0000   2000.0000     13.3445    129.3829
  1032.0000   2000.0000   2000.0000     13.4467    128.2126
  1032.2500   2000.0000   2000.0000     13.6038    128.1307
  1032.5000   2000.0000   2000.0000     13.8293    128.4880
  1032.7500   2000.0000   2000.0000     14.1304    128.8649
  1033.0000   2000.0000   2000.0000     14.5048    129.5641
  1033.2500   2000.0000   2000.0000     14.9386    129.9196
  1033.5000   2000.0000   2000.0000     15.4077    129.3680
  1033.7500   2000.0000   2000.0000     15.8882    127.6203
  1034.0000   2000.0000   2000.0000     16.3732    122.4117
  1034.2500   2000.0000   2000.0000     16.8826    117.5672
  1034.5000   2000.0000   2000.0000     17.4560    109.7002
  1034.7500   2000.0000   2000.0000     18.1332    104.9560
  1035.0000   2000.0000   2000.0000     18.9373     99.6140
  1035.2500   2000.0000   2000.0000     19.8662     97.4945
  1035.5000   2000.0000   2000.0000     20.8927     96.3218
  1035.7500   2000.0000   2000.0000     21.9690     96.3414
  1036.0000   2000.0000   2000.0000     23.0334     96.2360
  1036.2500   2000.0000   2000.0000     24.0181     95.5834
  1036.5000   2000.0000   2000.0000     24.8631     93.9840
  1036.7500   2000.0000   2000.0000     25.5328     93.0743
  1037.0000   2000.0000   2000.0000     26.0244     92.8922
  1037.2500   2000.0000   2000.0000     26.3560     93.9104
  1037.5000   2000.0000   2000.0000     26.5496     97.2463
  1037.7500   2000.0000   2000.0000     26.6292    100.2780
  1038.0000   2000.0000   2000.0000     26.6347    104.6556
  1038.2500   2000.0000   2000.0000     26.6271    106.6944
  1038.5000   2000.0000   2000.0000     26.6718    108.0348
  1038.7500   2000.0000   2000.0000     26.8154    108.0866
  1039.0000   2000.0000   2000.0000     27.0718    107.7206
  1039.2500   2000.0000   2000.0000     27.4252    107.5005
  1039.5000   2000.0000   2000.0000     27.8449    107.0719
  1039.7500   2000.0000   2000.0000     28.3010    106.2168
  1040.0000   2000.0000   2000.0000     28.7741    103.0061
  1040.2500   2000.0000   2000.0000     29.2603     99.3099
  1040.5000   2000.0000   2000.0000     29.7769     92.0640
  1040.7500   2000.0000   2000.0000     30.3586     86.9286
  1041.0000   2000.0000   2000.0000     31.0343     80.0876
  1041.2500   2000.0000   2000.0000     31.7916     76.3807
  1041.5000   2000.0000   2000.0000     32.5601     71.6983
  1041.7500   2000.0000   2000.0000     33.2423     68.8449
  1042.0000   2000.0000   2000.0000     33.7723     65.1270
  1042.2500   2000.0000   2000.0000     34.1490     63.4487
  1042.5000   2000.0000   2000.0000     34.4092     62.3987
  1042.7500   2000.0000   2000.0000     34.5704     62.2231
  1043.0000   2000.0000   2000.0000     34.6005     61.4838
  1043.2500   2000.0000   2000.0000     34.4360     60.1990
