~Version Information
VERS.                      2.0: CWLS Log ASCII Standard - VERSION 2.0
WRAP.                       NO: One line per depth step
~Well Information Block
STRT.FT                15.0000: 
STOP.FT              2556.5000: 
STEP.FT                 0.2500: 
NULL.                -999.2500: 
COMP.          Pioneer Natural Resources: COMPANY
WELL.              Quack 22-24: WELL
FLD.           Purgatoire River: FIELD
LOC.           2492' FNL & 2459' FWL: LOCATION
PROV.                 Colorado: PROVINCE
CNTY.               Las Animas: COUNTRY
SRVC.                Patterson: SERVICE COMPANY
DATE.          Tue Jul 26 07:02:30 2005: LOG DATE
UWI.           05 071 08402 00: UNIQUE WELL ID
~Curve Information Block
DEPT.FT            0 000 00 00: Depth
GR.GAPI                       : Gamma Ray
CCL.                          : Casing Collar Locator
TT3.usec                      : CBL 3' Travel Time
AMP3.mV                       : CBL 3' Amplitude
~Parameter Information Block
~A  Depth        GR         CCL         TT3         AMP3    
# ...
   517.5000    137.6346      0.0000    258.3972     47.3644
   517.7500    139.0716      0.0000    261.0351     47.0782
   518.0000    139.5576      0.0000    264.2710     46.7818
   518.2500    139.2737      0.0000    267.6501     46.5022
   518.5000    138.3432      0.0000    271.0849     46.2597
   518.7500    136.9093      0.0000    274.6405     46.0567
   519.0000    135.2128      0.0000    277.5734     45.9058
   519.2500    133.2945      0.0000    278.2546     45.8423
   519.5000    130.9350      0.0000    275.6430     45.8876
   519.7500    128.0869      0.0000    270.5636     46.0125
   520.0000    125.2574      0.0000    265.1299     46.1543
   520.2500    123.3705      0.0000    261.0699     46.2644
   520.5000    123.0787      0.0000    258.8073     46.3347
   520.7500    124.0582      0.0000    257.8287     46.3895
   521.0000    125.2254      0.0000    257.4612     46.4582
   521.2500    125.8952      0.0000    257.2881     46.5501
   521.5000    126.4900      0.0000    257.1528     46.6520
   521.7500    127.8985      0.0000    257.0238     46.7495
   522.0000    130.4159      0.0000    256.9005     46.8417
   522.2500    133.4653      0.0000    256.7830     46.9332
   522.5000    136.0666      0.0000    256.6706     47.0215
   522.7500    137.4649      0.0000    256.5628     47.0961
   523.0000    137.5848      0.0000    256.4710     47.1383
   523.2500    136.9500      0.0000    256.4346     47.1213
   523.5000    136.0850      0.0000    256.5424     47.0222
   523.7500    135.0809      0.0000    256.9840     46.8407
   524.0000    133.7496      0.0000    258.1544     46.6022
   524.2500    132.0296      0.0000    260.6934     46.3399
   524.5000    130.1825      0.0000    265.2007     46.0703
   524.7500    128.6440      0.0000    271.6042     45.7905
   525.0000    127.7722      0.0000    278.7834     45.5010
   525.2500    127.8375      0.0000    285.0967     45.2274
   525.5000    129.1368      0.0000    289.4495     45.0087
   525.7500    131.7142      0.0000    291.8155     44.8528
   526.0000    134.9272      0.0000    292.8486     44.7063
   526.2500    137.5319      0.0000    293.2317     44.4852
   526.5000    138.2790      0.0000    293.3731     44.1485
   526.7500    136.4843      0.0000    293.4451     43.7339
   527.0000    132.2336      0.0000    293.5056     43.3131
   527.2500    126.1069      0.0000    293.5712     42.9267
   527.5000    118.8072      0.0000    293.6423     42.5732
   527.7500    111.2053      0.0000    293.7116     42.2375
   528.0000    104.3746      0.0000    293.7740     41.9016
   528.2500     99.0347      0.0000    293.8313     41.5381
   528.5000     95.2285      0.0000    293.8870     41.1192
   528.7500     92.9247      0.0000    293.9410     40.6357
   529.0000     92.3114      0.0000    293.9964     40.0981
   529.2500     92.9729      0.0000    294.0659     39.5289
   529.5000     93.5426      0.0000    294.1667     38.9598
   529.7500     92.8937      0.0000    294.3080     38.4234
   530.0000     91.1853      0.0000    294.4813     37.9393
   530.2500     89.2384      0.0000    294.6614     37.5147
   530.5000     87.4334      0.0000    294.8140     37.1632
   530.7500     85.6736      0.0000    294.9105     36.9186
   531.0000     84.0063      0.0000    294.9442     36.8230
   531.2500     82.7128      0.0000    294.9317     36.8971
   531.5000     81.8516      0.0000    294.8975     37.1141
   531.7500     81.1257      0.0000    294.8527     37.4039
   532.0000     80.4090      0.0000    294.7927     37.6918
   532.2500     80.1222      0.0000    294.7177     37.9359
   532.5000     80.7206      0.0000    294.6483     38.1320
   532.7500     81.8952      0.0000    294.6144     38.2910
   533.0000     82.6199      0.0000    294.6322     38.4207
   533.2500     82.0777      0.0000    294.6964     38.5283
   533.5000     80.4864      0.0000    294.7834     38.6355
   533.7500     79.0394      0.0000    294.8549     38.7853
   534.0000     78.9768      0.0000    294.8723     39.0130
   534.2500     80.6124      0.0000    294.8272     39.2879
   534.5000     83.2062      0.0000    294.7603     39.4947
   534.7500     85.5685      0.0000    294.7352     39.4973
   535.0000     86.6062      0.0000    294.8143     39.2295
   535.2500     85.5219      0.0000    295.0914     38.7173
   535.5000     82.0385      0.0000    295.7908     38.0190
   535.7500     76.7005      0.0000    297.2695     37.1634
   536.0000     70.8144      0.0000    299.9611     36.1485
   536.2500     65.8538      0.0000    304.6719     34.9593
   536.5000     62.6773      0.0000    313.8888     33.5341
   536.7500     61.1224      0.0000    332.7997     31.7172
   537.0000     60.3002      0.0000    366.7323     29.3584
   537.2500     59.4143      0.0000    414.1462     26.5826
   537.5000     58.4630      0.0000    461.5409     23.9179
   537.7500     58.2668      0.0000    488.7111     21.9959
   538.0000     59.8886      0.0000    482.9864     21.0886
   538.2500     64.0139      0.0000    449.4223     21.0254
   538.5000     70.7172      0.0000    406.2220     21.4973
   538.7500     79.6621      0.0000    370.2592     22.3065
   539.0000     90.4861      0.0000    347.4064     23.3653
   539.2500    102.8064     -2.2829    334.4827     24.6198
   539.5000    115.6276     -2.0407    326.5239     26.0259
   539.7500    127.0274      0.0000    320.8178     27.6359
   540.0000    135.0566      0.0000    316.0812     29.7478
   540.2500    139.0422      0.0000    310.5544     32.8523
   540.5000    139.6756      0.0000    302.3954     37.1653
   540.7500    137.9240      0.0000    291.4438     42.1562
   541.0000    134.2852      0.0000    279.5879     46.7626
   541.2500    129.2289      0.0000    269.2083     50.1423
   541.5000    123.9491      0.0000    261.7019     52.1121
   541.7500    120.2447      0.0000    257.1872     52.9760
   542.0000    119.6422      0.0000    254.9601     53.1674
   542.2500    122.7401      0.0000    254.0886     53.0396
   542.5000    129.1081      0.0000    253.8405     52.8030
   542.7500    137.3722      0.0000    253.8147     52.5343
   543.0000    145.3315      0.0000    253.8558     52.2179
   543.2500    150.3639      0.0000    253.9214     51.8114
   543.5000    150.4510      0.0000    254.0030     51.3092
   543.7500    145.6670      0.0000    254.0881     50.7738
   544.0000    138.7181      0.0000    254.1618     50.2962
   544.2500    133.1841      0.0000    254.2160     49.9301
   544.5000    130.7583      0.0000    254.2546     49.6628
   544.7500    130.2914      0.0000    254.2883     49.4458
   545.0000    129.4565      0.0000    254.3235     49.2520
   545.2500    127.1471      0.0000    254.3571     49.1018
   545.5000    124.2737      0.0000    254.3818     49.0272
   545.7500    122.3634      0.0000    254.3974     49.0127
   546.0000    121.7151      0.0000    254.4129     48.9879
   546.2500    121.2503      0.0000    254.4357     48.8938
   546.5000    119.9098      0.0000    254.4622     48.7525
   546.7500    117.5792      0.0000    254.4780     48.6620
   547.0000    114.8315      0.0000    254.4704     48.7188
   547.2500    112.5764      0.0000    254.4367     48.9475
   547.5000    111.8850      0.0000    254.3856     49.2962
   547.7500    113.3069      0.0000    254.3302     49.6879
   548.0000    116.1470      0.0000    254.2820     50.0705
   548.2500    118.7803      0.0000    254.2483     50.4282
   548.5000    119.6820      0.0000    254.2294     50.7689
   548.7500    118.1230      0.0000    254.2165     51.1127
   549.0000    114.3845      0.0000    254.1946     51.4829
   549.2500    109.7304      0.0000    254.1502     51.8976
   549.5000    105.7141      0.0000    254.0779     52.3625
   549.7500    102.8919      0.0000    253.9834     52.8637
   550.0000    100.5254      0.0000    253.8808     53.3765
   550.2500     98.0045      0.0000    253.7841     53.8953
   550.5000     96.0667      0.0000    253.6973     54.4510
   550.7500     96.0437      0.0000    253.6130     55.0715
