~Version Information
VERS.                      2.0: CWLS Log ASCII Standard - VERSION 2.0
WRAP.                       NO: One line per depth step
~Well Information Block
STRT.FT               480.0000: 
STOP.FT              1994.2000: 
STEP.FT                 0.1000: 
NULL.                -999.2500: 
COMP.          Evergreen Operating Corporation: COMPANY
WELL.          McCullough 34-32 Tr: WELL
FLD.           Purgatoire River: FIELD
LOC.           394' FSL & 2077' FEL: LOCATION
PROV.                 Colorado: PROVINCE
CNTY.               Las Animas: COUNTRY
SRVC.                Patterson: SERVICE COMPANY
DATE.          Mon Sep 20 07:30:00 2004: LOG DATE
UWI.           05 071 08157 00: UNIQUE WELL ID
~Curve Information Block
DEPT.FT            0 000 00 00: Depth
DCAL.in                       : CDL Caliper
RHOB.g/cc                     : CDL Bulk Density
RHOC.g/cc                     : CDL Density Correction
DPOR.pu                       : CDL Density Porosity
NPOR.pu                       : Neutron Porosity
GR.GAPI                       : Gamma Ray
~Parameter Information Block
~A  Depth       DCAL        RHOB        RHOC        DPOR        NPOR         GR     
# ...
  1872.0000      7.8869      2.5387      0.0340      6.7443     14.3177     32.5312
  1872.1000      7.8869      2.5545      0.1029      5.7869     13.8034     31.3398
  1872.2000      7.8869      2.5549      0.0677      5.7647     13.0077     32.4087
  1872.3000      7.8945      2.5522      0.0670      5.9300     12.8392     33.9453
  1872.4000      7.8945      2.5567      0.0617      5.6547     13.5985     36.1718
  1872.5000      7.8988      2.5579      0.0932      5.5814     14.6995     38.9686
  1872.6000      7.8988      2.5508      0.0322      6.0129     15.2601     38.7770
  1872.7000      7.8988      2.5417      0.0427      6.5607     15.2922     35.2736
  1872.8000      7.8998      2.5351      0.0103      6.9632     15.4201     32.5778
  1872.9000      7.8998      2.5421     -0.0071      6.5403     15.7329     32.5418
  1873.0000      7.8989      2.5665      0.0621      5.0634     16.1764     33.5373
  1873.1000      7.8989      2.5871      0.0567      3.8095     16.7575     35.3898
  1873.2000      7.8989      2.5854      0.0859      3.9132     16.8743     37.6492
  1873.3000      7.8983      2.5705      0.0351      4.8158     16.3764     38.3225
  1873.4000      7.8983      2.5661      0.0359      5.0832     16.1331     38.1179
  1873.5000      7.8997      2.5762      0.0830      4.4741     16.3502     39.2668
  1873.6000      7.8997      2.5874      0.0472      3.7938     16.4240     41.0671
  1873.7000      7.8997      2.5899      0.0704      3.6440     16.1963     41.5772
  1873.8000      7.9013      2.5771      0.0709      4.4166     16.0740     40.5828
  1873.9000      7.9013      2.5553      0.0051      5.7397     16.1544     39.6008
  1874.0000      7.9021      2.5389      0.0068      6.7360     15.9559     39.8825
  1874.1000      7.9021      2.5297      0.0425      7.2937     15.3048     40.7652
  1874.2000      7.9021      2.5297     -0.0010      7.2884     14.5827     39.7263
  1874.3000      7.9014      2.5434      0.0417      6.4634     14.0712     35.3591
  1874.4000      7.9014      2.5593      0.0304      5.4970     13.6807     29.9230
  1874.5000      7.8989      2.5642      0.0525      5.2026     13.1667     27.6292
  1874.6000      7.8989      2.5536      0.0405      5.8439     12.6107     31.0645
  1874.7000      7.8989      2.5348      0.0216      6.9813     12.5152     37.1470
  1874.8000      7.8942      2.5204      0.0060      7.8548     12.9585     38.6575
  1874.9000      7.8942      2.5136      0.0260      8.2643     13.2150     33.6958
  1875.0000      7.8899      2.5143      0.0259      8.2235     12.7166     29.4887
  1875.1000      7.8899      2.5253      0.0363      7.5572     12.0387     31.2771
  1875.2000      7.8899      2.5455      0.0341      6.3317     11.9751     35.9935
  1875.3000      7.8883      2.5656      0.0707      5.1171     12.2416     37.6293
  1875.4000      7.8883      2.5734      0.0575      4.6408     12.2750     33.7519
  1875.5000      7.8890      2.5695      0.0412      4.8780     12.2451     28.5273
  1875.6000      7.8890      2.5573      0.0719      5.6203     12.3340     27.4829
  1875.7000      7.8890      2.5323      0.0449      7.1317     12.2477     30.4052
  1875.8000      7.8912      2.5056     -0.0067      8.7491     12.0007     33.5028
  1875.9000      7.8912      2.4967      0.0313      9.2930     12.2574     35.6953
  1876.0000      7.8915      2.5082      0.0322      8.5939     13.1428     38.4395
  1876.1000      7.8915      2.5351      0.0241      6.9634     13.7727     41.3079
  1876.2000      7.8915      2.5629      0.0809      5.2787     13.6250     41.4137
  1876.3000      7.8901      2.5649      0.0813      5.1549     13.0056     39.7207
  1876.4000      7.8901      2.5426      0.0448      6.5063     12.3475     38.4288
  1876.5000      7.8881      2.5303      0.0014      7.2539     12.0731     38.0021
  1876.6000      7.8881      2.5352      0.0666      6.9606     12.2757     39.2761
  1876.7000      7.8881      2.5337      0.0388      7.0498     12.4567     40.6497
  1876.8000      7.8876      2.5293      0.0304      7.3152     12.4047     40.3161
  1876.9000      7.8876      2.5399      0.0113      6.6750     12.4812     40.5027
  1877.0000      7.8918      2.5567      0.0331      5.6562     12.4794     41.7326
  1877.1000      7.8918      2.5641      0.0379      5.2086     12.3264     43.4540
  1877.2000      7.8918      2.5648      0.0315      5.1659     12.6682     46.1699
  1877.3000      7.8921      2.5617      0.0283      5.3539     13.3275     47.2137
  1877.4000      7.8921      2.5528      0.0240      5.8895     13.4260     44.5868
  1877.5000      7.8780      2.5457      0.0055      6.3222     13.1132     41.5601
  1877.6000      7.8780      2.5474      0.0236      6.2169     13.0464     41.2507
  1877.7000      7.8780      2.5511      0.0560      5.9947     13.2811     41.3695
  1877.8000      7.8614      2.5526      0.0290      5.9027     13.5030     38.8689
  1877.9000      7.8614      2.5629      0.0554      5.2786     13.6768     35.7483
  1878.0000      7.8523      2.5794      0.0939      4.2795     14.0342     36.1002
  1878.1000      7.8523      2.5799      0.0925      4.2506     14.2705     40.7755
  1878.2000      7.8523      2.5655      0.0457      5.1199     13.9782     46.1289
  1878.3000      7.8515      2.5653      0.0307      5.1361     13.5005     46.1509
  1878.4000      7.8515      2.5832      0.0932      4.0473     13.1111     39.4403
  1878.5000      7.8616      2.5972      0.0845      3.1970     12.5666     32.8504
  1878.6000      7.8616      2.6052      0.0707      2.7139     11.9396     32.7268
  1878.7000      7.8616      2.6129      0.1098      2.2506     11.4817     36.3431
  1878.8000      7.8804      2.6081      0.1024      2.5399     11.2692     37.4568
  1878.9000      7.8804      2.5829      0.0410      4.0664     11.5364     35.0639
  1879.0000      7.8945      2.5481      0.0454      6.1747     12.2453     32.5809
  1879.1000      7.8945      2.5254     -0.0231      7.5488     12.8426     31.6168
  1879.2000      7.8945      2.5236      0.0459      7.6612     13.1556     31.8299
  1879.3000      7.9006      2.5290     -0.0005      7.3313     13.4631     33.4506
  1879.4000      7.9006      2.5363      0.0086      6.8882     13.5516     35.2111
  1879.5000      7.9026      2.5469      0.0675      6.2470     13.1144     36.9087
  1879.6000      7.9026      2.5519      0.0408      5.9464     12.6547     39.4765
  1879.7000      7.9026      2.5437      0.0292      6.4410     12.8200     40.5591
  1879.8000      7.9014      2.5294      0.0142      7.3089     13.2013     39.0979
  1879.9000      7.9014      2.5234      0.0305      7.6741     12.9450     37.4507
  1880.0000      7.8981      2.5287      0.0533      7.3497     12.2962     36.8398
  1880.1000      7.8981      2.5360      0.0215      6.9084     12.2080     36.5289
  1880.2000      7.8981      2.5339      0.0479      7.0347     12.7823     35.2578
  1880.3000      7.8955      2.5151      0.0317      8.1776     13.2932     32.7647
  1880.4000      7.8955      2.4886      0.0410      9.7836     13.4711     31.0497
  1880.5000      7.8936      2.4777     -0.0036     10.4408     13.3552     30.9289
  1880.6000      7.8936      2.4861      0.0222      9.9353     12.9607     32.2302
  1880.7000      7.8936      2.4923      0.0317      9.5559     12.6765     34.5438
  1880.8000      7.8950      2.4934     -0.0063      9.4938     12.9541     35.4639
  1880.9000      7.8950      2.5030      0.0331      8.9068     13.6934     34.2850
  1881.0000      7.8990      2.5138      0.0697      8.2527     14.4513     32.4203
  1881.1000      7.8990      2.5136      0.0310      8.2691     14.8455     30.9897
  1881.2000      7.8990      2.5121      0.0570      8.3602     14.7769     30.9171
  1881.3000      7.8989      2.5204      0.0149      7.8539     14.4113     32.4238
  1881.4000      7.8989      2.5317      0.0704      7.1703     13.8230     35.1342
  1881.5000      7.8950      2.5331      0.0255      7.0870     13.2461     37.9801
