~Version Information
VERS.                      2.0: CWLS Log ASCII Standard - VERSION 2.0
WRAP.                       NO: One line per depth step
~Well Information Block
STRT.FT               550.0000: 
STOP.FT              2042.5000: 
STEP.FT                 0.2500: 
NULL.                -999.2500: 
COMP.          Petrogulf Corporation: COMPANY
WELL.          Robinson 15-12V: WELL
FLD.           Purgatorie River: FIELD
LOC.           1788' FNL & 466' FWL: LOCATION
PROV.                 Colorado: PROVINCE
CNTY.               Las Animas: COUNTRY
SRVC.                Patterson: SERVICE COMPANY
DATE.          Mon Sep 12 10:04:59 2005: LOG DATE
UWI.                          : UNIQUE WELL ID
~Curve Information Block
DEPT.FT            0 000 00 00: Depth
SP.mV                         : DIL Spontaneous Potential
RILD.Ohm-m                    : DIL Deep Resistivity
RILM.Ohm-m                    : DIL Medium Resistivity
RLL3.Ohm-m                    : DIL Shallow Resistivity
GR.GAPI                       : Gamma Ray
~Parameter Information Block
~A  Depth        SP         RILD        RILM        RLL3         GR     
# ...
  1810.0000    228.3255     18.4769     26.8610    726.1901     28.6320
  1810.2500    229.9574     18.3507     30.8925    902.0878     22.4114
  1810.5000    232.2332     18.6308     31.7961   1140.7844     22.9293
  1810.7500    234.1842     18.3236     32.8567   1194.6273     25.6386
  1811.0000    236.9384     18.4316     33.2015   1197.8557     26.6817
  1811.2500    239.7668     17.7379     31.7814   1157.2303     30.2090
  1811.5000    242.8833     16.5306     28.4162    808.6492     39.2733
  1811.7500    246.6503     15.7442     24.3344    380.1830     39.1225
  1812.0000    249.6525     15.6028     19.4183    140.3753     55.2999
  1812.2500    253.6088     14.8318     16.1852     45.7643     67.6401
  1812.5000    257.0364     14.2617     14.1292     15.3626     78.7078
  1812.7500    260.6984     13.7812     12.9438     10.7624     91.5518
  1813.0000    263.2102     12.3317     12.2054     10.6183     97.5787
  1813.2500    264.9586     11.9727     11.9069     11.9074     93.9390
  1813.5000    266.7256     11.0094     11.7287     15.3918     91.7805
  1813.7500    268.0504     10.7696     11.2016     20.1161     97.3475
  1814.0000    269.4918     10.4087     10.9887     18.1822     93.9290
  1814.2500    270.1969      9.6125     10.1541     12.7983     92.8030
  1814.5000    270.6928      9.1711      9.6970     11.6468    104.1237
  1814.7500    271.0035      9.1081      9.3126     11.5656    111.8508
  1815.0000    271.0884      9.2201      8.8652     11.6562    105.6254
  1815.2500    271.2072      9.3809      9.0486     11.8776    107.3963
  1815.5000    271.2573      9.4195      9.2328     13.0481    105.6014
  1815.7500    271.2309      9.4510      9.4207     13.6013    112.4154
  1816.0000    271.4152      9.3172      9.6665     14.5230    113.0134
  1816.2500    271.4726      9.4176      9.7348     15.0557    105.6458
  1816.5000    271.4233      9.3191      9.6484     15.5873    107.5370
  1816.7500    271.1979      9.3316      9.8498     15.0170    100.4963
  1817.0000    270.8658      9.3433      9.7810     13.4763    109.5974
  1817.2500    270.3590      9.1966      9.7983     12.3989    109.1682
  1817.5000    269.7431      9.1603      9.6832     12.6509    111.8659
  1817.7500    269.1902      9.1147      9.5561     14.0402    109.4361
  1818.0000    268.1650      9.1666      9.5206     14.6233    105.5422
  1818.2500    266.9978      9.1955      9.4176     13.9877    113.3511
  1818.5000    265.3788      9.1527      9.2883     13.1936    104.6012
  1818.7500    263.7661      9.4724      9.1719     13.1379    100.5474
  1819.0000    262.4200      9.4804      9.3641     13.0340    103.5717
  1819.2500    260.9684      9.5529      9.5559     12.9888     99.9582
  1819.5000    259.7657      9.6127      9.8431     12.5568    106.6991
  1819.7500    258.3404      9.4969      9.9151     12.5047    104.6159
  1820.0000    257.1966      9.6852      9.8696     12.8145    105.3773
  1820.2500    255.7098      9.5718      9.9297     13.2724    110.9176
  1820.5000    254.4032      9.6748      9.9615     13.4830    109.3843
  1820.7500    253.1529      9.7309     10.1227     13.6945    102.2312
  1821.0000    251.3367      9.8050     10.2789     14.5383     85.1676
  1821.2500    249.6081      9.7425     10.5448     14.9417     84.7328
  1821.5000    247.8556      9.6905     10.7967     14.2696     99.5830
  1821.7500    246.3241      9.5603     10.8319     14.5935    103.7704
  1822.0000    244.9058      9.4821     10.6946     15.0465    104.7184
  1822.2500    243.9817      9.5784     10.5529     14.7930    105.9245
  1822.5000    242.7062      9.6867     10.1577     12.4435    109.1359
  1822.7500    241.5517      9.5741     10.0504     11.5884    103.6770
  1823.0000    240.2607      9.7698      9.9929     11.5760    102.7346
  1823.2500    238.8287      9.7235      9.9650     12.0917    102.7732
  1823.5000    237.5009      9.6194     10.0207     12.7249    110.9295
  1823.7500    235.9130      9.7750      9.9194     13.9832    111.5197
  1824.0000    234.4528      9.8648     10.0190     13.8955    108.5557
  1824.2500    232.8075      9.7457      9.9383     13.8469    107.3555
  1824.5000    231.3017      9.6826      9.9718     13.5925    114.7803
  1824.7500    229.7129      9.4146      9.9650     14.0439    110.8211
  1825.0000    228.1862      9.4456      9.9747     14.5125    100.7071
  1825.2500    226.8739      9.5100     10.1127     14.1969     91.9975
  1825.5000    225.6594      9.4541     10.3448     14.2042     91.7262
  1825.7500    224.6956      9.3661     10.3740     15.2083     90.4478
  1826.0000    224.1472      9.3746     10.2164     18.0978     81.3248
  1826.2500    224.2190      9.3433     10.0053     18.5494     84.9801
  1826.5000    224.7067      9.1996      9.7876     16.8700     94.2419
  1826.7500    224.9626      9.2608      9.5346     15.4144     95.1020
  1827.0000    225.0444      9.3655      9.1134     14.9010     96.7826
  1827.2500    224.6269      9.7864      8.9700     14.1010    104.2931
  1827.5000    224.0938     10.0407      8.7551     13.0128    120.3712
  1827.7500    223.5655     10.5988      8.7475     11.0561    115.8363
  1828.0000    223.1567     10.8262      9.0395     10.7670    103.7672
  1828.2500    223.0233     11.2467      9.6046     11.2142    103.5084
  1828.5000    223.1660     11.4541     10.5201     12.4223     89.4203
  1828.7500    224.1128     11.6094     12.0032     15.9047     86.1777
  1829.0000    225.3324     11.8107     13.1383     24.9832     80.6307
  1829.2500    227.7790     12.0208     14.8677     52.0844     76.3909
  1829.5000    230.4130     12.0385     16.1028    167.6128     58.9055
  1829.7500    233.5427     11.6140     17.2166    216.1664     50.2702
  1830.0000    237.2118     11.9474     17.8296    255.6732     51.4601
  1830.2500    240.1763     12.1264     17.7448    222.1685     46.7004
  1830.5000    244.0886     12.5874     17.2376    172.4706     41.5947
  1830.7500    246.9311     12.9915     16.7516     96.0199     58.9090
  1831.0000    250.3428     13.3194     15.1840     32.8590     89.5153
  1831.2500    253.2117     13.6006     14.4667     14.1520    100.1183
  1831.5000    256.0010     13.5185     13.8813     10.6178    114.3218
  1831.7500    257.9864     13.1832     13.5152      9.9591    113.5344
  1832.0000    258.7544     13.1477     13.6633     10.7485    118.6679
  1832.2500    259.4151     12.5655     13.5428     13.5516    110.4546
  1832.5000    259.5260     12.0183     13.5274     14.2140    100.4438
  1832.7500    259.7871     11.6658     13.3591     13.3565    100.6187
  1833.0000    259.7339     11.0179     12.9001     13.7438    113.1048
  1833.2500    259.6993     10.9372     12.4042     14.3705    108.6824
  1833.5000    259.7357     10.6107     12.7275     15.4045    115.7675
  1833.7500    259.7307     10.3924     11.8497     15.4847    108.6105
  1834.0000    259.8080     10.5769     11.7161     15.1949    110.5739
  1834.2500    259.8513     10.5051     11.3199     14.1802    102.1903
  1834.5000    260.0405     10.4499     10.9609     12.9031    100.2059
  1834.7500    260.0759     10.8228     10.8879     12.6410    105.1807
  1835.0000    260.0877     11.0475     10.9986     12.4811    103.8918
  1835.2500    259.9675     11.0911     11.0426     12.4639     98.8643
  1835.5000    259.5995     10.9815     11.2703     12.6905     91.5478
  1835.7500    259.2579     11.2114     11.3091     12.7338     93.4035
  1836.0000    258.7567     11.0909     11.6675     12.9880    101.8895
  1836.2500    258.0385     10.7268     11.7422     14.2819     93.7084
  1836.5000    257.2245     10.9351     11.8692     15.0629     96.2860
  1836.7500    256.0361     10.7593     12.0021     17.3846     86.3993
  1837.0000    254.6454     10.9338     11.9332     18.1564     78.0303
  1837.2500    253.0208     10.8280     11.9156     16.8521     82.3062
  1837.5000    250.8150     11.5237     11.9262     16.4343     89.9703
  1837.7500    249.0021     11.7593     12.0082     15.2629     90.5555
