~Version Information
VERS.                      2.0: CWLS Log ASCII Standard - VERSION 2.0
WRAP.                       NO: One line per depth step
~Well Information Block
STRT.FT                -8.2500: 
STOP.FT               836.2500: 
STEP.FT                 0.2500: 
NULL.                -999.2500: 
COMP.          Pioneer Natural Res.: COMPANY
WELL.            Hustler 12-17: WELL
FLD.           Purgatorie River: FIELD
LOC.           2150' FNL & 450' FWL----------: LOCATION
PROV.                       CO: PROVINCE
CNTY.               Las Animas: COUNTRY
SRVC.                Patterson: SERVICE COMPANY
DATE.          Wed Dec 29 13:37:10 2004: LOG DATE
UWI.           05 071 08236 00: UNIQUE WELL ID
~Curve Information Block
DEPT.FT            0 000 00 00: Depth
AMP3.mV                       : CBL 3' Amplitude
CCL.                          : Casing Collar Locator
GR.GAPI                       : Gamma Ray
TT3.usec                      : CBL 3' Travel Time
~Parameter Information Block
~A  Depth       AMP3        CCL          GR         TT3     
# ...
   527.7500      4.7781      0.0000     92.7941    823.3875
   528.0000      5.1718      0.0000     99.0178    813.2612
   528.2500      5.5214      0.0000    103.3436    808.9353
   528.5000      5.8031      0.0000    104.8247    808.6971
   528.7500      5.9868      0.0000    104.2315    808.7515
   529.0000      6.0653      0.0000    103.5215    806.1476
   529.2500      6.0736      0.0000    104.7217    799.7215
   529.5000      6.0563      0.0000    108.6737    789.3776
   529.7500      6.0137      0.0000    114.0714    776.2612
   530.0000      5.9039      0.0000    117.9984    762.7290
   530.2500      5.7085      0.0000    118.1407    750.5914
   530.5000      5.4818      0.0000    114.5705    739.7956
   530.7500      5.3184      0.0000    109.3858    729.5833
   531.0000      5.2715      0.0000    105.0458    720.4307
   531.2500      5.3122      0.0000    103.2034    714.1685
   531.5000      5.3705      0.0000    104.4335    712.3683
   531.7500      5.4095      0.0000    108.2149    715.0906
   532.0000      5.4601      0.0000    112.9859    721.2796
   532.2500      5.5847      0.0000    116.9252    729.9626
   532.5000      5.7984      0.0000    119.1843    740.5831
   532.7500      6.0292      0.0000    120.1239    752.2403
   533.0000      6.1658      0.0000    120.2615    763.2742
   533.2500      6.1566      0.0000    119.4486    772.1028
   533.5000      6.0615      0.0000    117.1331    778.4376
   533.7500      6.0022      0.0000    113.1836    783.5006
   534.0000      6.0571      0.0000    108.5357    788.9272
   534.2500      6.1945      0.0000    104.9730    795.2691
   534.5000      6.3066      0.0000    103.8887    801.3201
   534.7500      6.3081      0.0000    105.2970    804.9304
   535.0000      6.2063      0.0000    108.1516    804.7708
   535.2500      6.0877      0.0000    111.1046    801.3413
   535.5000      6.0423      0.0000    112.6387    796.0058
   535.7500      6.0847      0.0000    111.3084    789.1864
   536.0000      6.1369      0.0000    106.9856    780.3811
   536.2500      6.1048      0.0000    101.8127    770.2076
   536.5000      5.9819      0.0000     98.8838    761.4506
   536.7500      5.8597      0.0000     99.5522    757.3931
   537.0000      5.8222      0.0000    102.4069    759.3149
   537.2500      5.8480      0.0000    104.9162    765.6822
   537.5000      5.8331      0.0000    105.6654    773.6674
   537.7500      5.7031      0.0000    105.0206    781.5880
   538.0000      5.4944      0.0000    104.0243    789.6445
   538.2500      5.3276      0.0000    103.0117    798.0770
   538.5000      5.3040      0.0000    101.6345    805.3571
   538.7500      5.4175      0.0000    100.0941    808.9349
   539.0000      5.5580      0.0000     99.4619    807.5080
   539.2500      5.6057      0.0000    100.4206    802.4084
   539.5000      5.5335      0.0000    102.4326    796.9016
   539.7500      5.4205      0.0000    104.5731    793.6842
   540.0000      5.3675      0.0000    106.6404    792.5710
   540.2500      5.4012      0.0000    109.0738    790.8524
   540.5000      5.4559      0.0000    112.1626    785.9340
   540.7500      5.4379      0.0000    115.5948    777.2831
   541.0000      5.3104      0.0000    118.6467    766.3339
   541.2500      5.1277      0.0000    120.6268    755.2442
   541.5000      4.9933      0.0000    121.0157    745.5163
   541.7500      4.9729      0.0000    119.3586    737.3622
   542.0000      5.0376      0.0000    115.7018    730.2856
   542.2500      5.0860      0.0000    111.3398    724.0479
   542.5000      5.0269      0.0000    108.4283    718.9359
   542.7500      4.8539      0.0000    108.2489    715.4114
   543.0000      4.6505      0.0000    110.0668    713.7961
   543.2500      4.5217      0.0000    111.9487    714.3640
   543.5000      4.5138      0.0000    112.3951    717.6863
   543.7500      4.5969      0.0000    111.0509    724.6544
   544.0000      4.7126      0.0000    108.4396    735.8205
   544.2500      4.8242      0.0000    105.4906    750.6619
   544.5000      4.9194      0.0000    103.1223    767.2963
   544.7500      4.9871      0.0000    101.8935    782.7858
   545.0000      5.0101      0.0000    101.8961    794.2784
   545.2500      4.9841      0.0000    102.8376    800.4270
   545.5000      4.9388      0.0000    104.2574    801.6253
   545.7500      4.9306      0.0000    105.8409    798.7828
   546.0000      4.9980      0.0000    107.6146    792.4891
   546.2500      5.1288      0.0000    109.8341    783.8126
   546.5000      5.2830      0.0000    112.7475    775.1091
   546.7500      5.4421      0.0000    116.4631    768.8154
   547.0000      5.6157      0.0000    120.8993    765.4112
   547.2500      5.8048      0.0000    125.6201    763.2516
   547.5000      5.9843      0.0000    129.6841    760.4081
   547.7500      6.1259      0.0000    131.9392    756.4214
   548.0000      6.2158      0.0000    131.9072    752.5043
   548.2500      6.2411      0.0000    130.3596    750.5327
   548.5000      6.1856      0.0000    128.5700    751.8391
   548.7500      6.0660      0.0000    126.9401    756.3528
   549.0000      5.9563      0.0000    124.7245    762.4342
   549.2500      5.9457      0.0000    121.0204    767.8914
   549.5000      6.0606      0.0000    115.6928    771.6478
   549.7500      6.2336      0.0000    109.5173    774.1690
   550.0000      6.3468      0.0000    103.8336    776.3003
   550.2500      6.3083      0.0000     99.8464    778.4138
   550.5000      6.1053      0.0000     97.7115    780.6187
   550.7500      5.8122      0.0000     96.2900    782.9332
   551.0000      5.5505      0.0000     94.3045    785.2306
   551.2500      5.4198      0.0000     91.8785    787.5237
   551.5000      5.4439      0.0000     90.4456    790.2579
   551.7500      5.5632      0.0000     90.8360    793.8137
   552.0000      5.6855      0.0000     91.8578    797.3994
   552.2500      5.7522      0.0000     91.1258    798.9704
   552.5000      5.7542      0.0000     87.2382    797.2991
   552.7500      5.6907      0.0000     81.0802    794.0403
   553.0000      5.5609      0.0000     74.9761    792.2604
   553.2500      5.4203      0.0000     70.5103    792.4627
   553.5000      5.3857      0.0000     67.3023    791.7086
   553.7500      5.5242      0.0000     64.0532    787.5853
   554.0000      5.7595      0.0000     60.4412    781.8751
   554.2500      5.9333     -2.0000     57.3883    779.0831
   554.5000      5.9541      0.0000     55.5901    781.6188
   554.7500      5.8710      0.0000     54.6356    787.2644
   555.0000      5.8159      0.0000     53.8364    791.2358
   555.2500      5.8819      0.0000     53.2851    789.9811
   555.5000      6.0407      0.0000     53.7726    783.1866
   555.7500      6.1668      0.0000     55.9861    773.2134
   556.0000      6.1505      0.0000     59.8753    763.3460
   556.2500      5.9887      0.0000     64.4871    756.1811
   556.5000      5.7655      0.0000     68.2772    752.5849
   556.7500      5.5753      0.0000     69.9263    751.4623
   557.0000      5.4767      0.0000     69.3468    750.7256
   557.2500      5.4893      0.0000     67.9790    749.0158
   557.5000      5.5947      0.0000     67.7689    746.6702
   557.7500      5.7320      0.0000     69.5142    745.0565
   558.0000      5.8107      0.0000     72.1189    745.2161
   558.2500      5.7609      0.0000     73.5336    747.0601
   558.5000      5.5826      0.0000     72.5202    749.3833
   558.7500      5.3459      0.0000     69.5344    750.6262
   559.0000      5.1467      0.0000     65.9692    750.0470
   559.2500      5.0612      0.0000     62.8570    748.2455
   559.5000      5.1236      0.0000     60.5508    746.4032
   559.7500      5.3170      0.0000     59.2912    745.1885
   560.0000      5.5704      0.0000     59.3918    744.5341
   560.2500      5.7717      0.0000     60.7236    744.1204
   560.5000      5.8152      0.0000     62.3240    743.7584
   560.7500      5.6656      0.0000     62.7169    743.4171
   561.0000      5.3833      0.0000     60.7990    743.1454
