~Version Information
 VERS.                                  2.0 : CWLS LAS VERSION
 WRAP.                                   NO : WRAPING MODE
 SWARE .                 MController 2.5.0J : SOFTWARE VERSION
~Well Information
 WELL.                         State 16-41R : WELL
 COMP.                Petrogulf Corporation : COMPANY
 FLD.                      Purgatoire River : FIELD
 LOC.               NE/NE Sec 16 T33S R67W  : LOCATION
 DATE.                          10/17-18/05 : DATE(S) LOGGED
 SRVC.       BLANCO Geological Services LLC : SERVICE COMPANY
 STAT.                                   CO : STATE
 CNTY.                           Las Animas : COUNTY
 CTRY.                                  USA : COUNTRY
 API.                       05-071-08410-00 : API NUMBER
 STRT.FT                              11.00 : START DEPTH
 STOP.FT                            1635.00 : STOP DEPTH
 STEP.FT                               1.00 : DEPTH INCREMENT
 NULL.                                -9999 : NULL VALUE
~Curve information
 DEPTH.FT                                   :
 ROP.MIN/FT                                 :
 GAS.UNITS                                  :
~ASCII Log data
# ...
      1411.0         0.30        598.7 
      1412.0         0.30        589.2 
      1413.0         0.33        585.7 
      1414.0         0.33        578.4 
      1415.0         0.27        572.7 
      1416.0         0.23        573.3 
      1417.0         0.27        568.9 
      1418.0         0.20        570.5 
      1419.0         0.23        578.1 
      1420.0         0.17        581.9 
      1421.0         0.17        582.2 
      1422.0         0.25        581.3 
      1423.0         0.30        578.4 
      1424.0         0.30        570.5 
      1425.0         0.20        572.1 
      1426.0         0.20        574.6 
      1427.0         0.23        578.7 
      1428.0         0.20        584.1 
      1429.0         0.17        591.8 
      1430.0         0.30        599.4 
      1431.0         0.40        596.2 
      1432.0         0.43        541.6 
      1433.0         0.30        611.4 
      1434.0         0.32        759.0 
      1435.0         0.30        975.2 
      1436.0         2.77       1282.4 
      1437.0         0.22        643.5 
      1438.0         0.37        643.5 
      1439.0         0.23        637.8 
      1440.0         0.20        632.4 
      1441.0         0.27        630.5 
      1442.0         0.23        628.9 
      1443.0         0.30        628.3 
      1444.0         0.30        627.9 
      1445.0         0.27        616.5 
      1446.0         0.27        607.9 
      1447.0         0.23        599.7 
      1448.0         0.20        593.7 
      1449.0         0.20        590.5 
      1450.0         0.28        585.7 
      1451.0         0.20        588.9 
      1452.0         0.27        593.7 
      1453.0         0.17        596.5 
      1454.0         0.20        596.5 
      1455.0         0.23        598.4 
      1456.0         0.40        608.3 
      1457.0         0.27        604.1 
      1458.0         0.27        596.2 
      1459.0         0.27        596.5 
      1460.0         0.27        586.0 
      1461.0         0.23        552.7 
      1462.0         0.35        564.8 
      1463.0         0.30        634.3 
      1464.0         0.27        747.3 
      1465.0         0.23        872.0 
      1466.0         3.38       1471.9 
      1467.0         0.43        655.9 
      1468.0         0.23        633.3 
      1469.0         0.23        625.1 
      1470.0         0.27        623.8 
      1471.0         0.23        620.3 
      1472.0         0.20        618.4 
      1473.0         0.23        616.8 
      1474.0         0.23        617.1 
      1475.0         0.28        617.8 
      1476.0         0.33        615.2 
      1477.0         0.23        606.0 
      1478.0         0.23        599.7 
      1479.0         0.20        592.4 
      1480.0         0.23        587.0 
      1481.0         0.20        587.3 
      1482.0         0.20        589.8 
      1483.0         0.23        595.2 
      1484.0         0.20        601.3 
      1485.0         0.33        607.3 
      1486.0         0.20        607.9 
      1487.0         0.27        602.5 
      1488.0         0.23        568.3 
      1489.0         0.28        571.4 
      1490.0         0.23        627.0 
      1491.0         0.23        720.6 
      1492.0         0.20        834.2 
      1493.0         0.30       1028.5 
      1494.0         0.27       1261.1 
      1495.0         0.33       1350.3 
      1496.0         2.15       1295.1 
      1497.0         0.27        667.6 
      1498.0         0.40        664.8 
      1499.0         0.40        646.7 
      1500.0         0.37        633.3 
      1501.0         0.40        633.3 
      1502.0         0.27        630.5 
      1503.0         0.27        634.9 
      1504.0         0.28        635.6 
      1505.0         0.23        634.0 
      1506.0         0.33        631.7 
      1507.0         0.23        625.1 
      1508.0         0.20        617.5 
      1509.0         0.17        614.3 
      1510.0         0.17        609.8 
      1511.0         0.20        601.9 
      1512.0         0.20        596.5 
      1513.0         0.20        599.7 
      1514.0         0.20        607.6 
      1515.0         0.23        614.0 
      1516.0         0.17        612.4 
      1517.0         0.23        596.2 
      1518.0         0.17        569.9 
      1519.0         0.20        565.4 
      1520.0         0.18        578.4 
      1521.0         0.20        605.4 
      1522.0         0.20        660.6 
      1523.0         0.20        731.7 
      1524.0         0.27        892.6 
      1525.0         0.33       1145.6 
      1526.0         2.68       1716.6 
      1527.0         0.40        670.5 
      1528.0         0.47        660.9 
      1529.0         0.53        667.9 
      1530.0         0.43        674.6 
      1531.0         0.40        687.0 
      1532.0         0.38        684.1 
      1533.0         0.27        671.4 
      1534.0         0.17        664.4 
      1535.0         0.13        658.7 
      1536.0         0.23        652.1 
      1537.0         0.27        646.3 
      1538.0         0.23        646.3 
      1539.0         0.20        645.1 
      1540.0         0.23        638.1 
      1541.0         0.30        634.6 
      1542.0         0.33        646.0 
      1543.0         0.27        820.0 
      1544.0         0.30        886.3 
      1545.0         0.28        879.0 
      1546.0         0.17        824.1 
      1547.0         0.20        789.8 
      1548.0         0.17        753.0 
      1549.0         0.20        709.2 
      1550.0         0.30        658.1 
      1551.0         0.40        612.1 
      1552.0         0.17        641.6 
      1553.0         0.17        694.6 
      1554.0         0.20        787.9 
      1555.0         0.23        930.4 
      1556.0         2.55       1688.0 
      1557.0         0.43       1130.4 
      1558.0         0.27       1019.6 
      1559.0         0.30       1009.7 
      1560.0         0.23        945.6 
      1561.0         0.33        907.9 
      1562.0         0.32        898.0 
      1563.0         0.30        875.5 
      1564.0         0.27        852.0 
      1565.0         0.30        839.3 
      1566.0         0.40        826.6 
      1567.0         0.27        808.5 
      1568.0         0.23        797.7 
      1569.0         0.27        791.7 
      1570.0         0.23        782.5 
      1571.0         0.27        777.7 
      1572.0         0.23        771.1 
      1573.0         0.28        763.8 
      1574.0         0.27        755.5 
      1575.0         0.27        756.5 
      1576.0         0.27        754.9 
      1577.0         0.27        750.4 
      1578.0         0.27        747.9 
      1579.0         0.23        738.1 
      1580.0         0.23        696.8 
      1581.0         0.27        662.5 
      1582.0         0.23        679.0 
      1583.0         0.23        732.0 
      1584.0         0.23        833.9 
      1585.0         0.27       1017.7 
      1586.0         2.98       2226.6 
      1587.0         0.43        848.5 
      1588.0         0.38        825.0 
      1589.0         0.43        916.1 
      1590.0         0.43       1040.9 
      1591.0         0.30       1067.2 
      1592.0         0.27       1068.1 
      1593.0         0.30       1055.5 
      1594.0         0.30       1033.2 
      1595.0         0.30        982.1 
      1596.0         0.37        937.4 
      1597.0         0.38        951.3 
      1598.0         0.40        954.8 
      1599.0         0.47        938.7 
      1600.0         0.37        905.3 
      1601.0         0.33        904.4 
      1602.0         0.37        887.6 
      1603.0         0.37        905.0 
      1604.0         0.33        925.0 
      1605.0         0.33        928.5 
      1606.0         0.28        922.8 
      1607.0         0.30        908.2 
      1608.0         0.33        897.1 
      1609.0         0.33        873.6 
      1610.0         0.27        782.8 
