~Version Information
VERS.                      2.0: CWLS Log ASCII Standard - VERSION 2.0
WRAP.                       NO: One line per depth step
~Well Information Block
STRT.FT                12.0000: 
STOP.FT              1671.7500: 
STEP.FT                 0.2500: 
NULL.                -999.2500: 
COMP.          Pioneer Natural Resources: COMPANY
WELL.          Scott Canyon 11-18 Tr: WELL
FLD.           Purgatoire River: FIELD
LOC.           411' FNL & 580' FWL: LOCATION
PROV.                 Colorado: PROVINCE
CNTY.               Las Animas: COUNTRY
SRVC.                Patterson: SERVICE COMPANY
DATE.          Tue Feb 22 09:52:18 2005: LOG DATE
UWI.           05 071 08286 00: UNIQUE WELL ID
~Curve Information Block
DEPT.FT            0 000 00 00: Depth
GR.GAPI                       : Gamma Ray
CCL.                          : Casing Collar Locator
TT3.usec                      : CBL 3' Travel Time
AMP3.mV                       : CBL 3' Amplitude
~Parameter Information Block
~A  Depth        GR         CCL         TT3         AMP3    
# ...
   983.5000     74.8327      0.0000   1112.6427     21.3856
   983.7500     66.1258      0.0000   1140.3997     21.6362
   984.0000     59.4570      0.0000   1187.5468     21.9893
   984.2500     55.1614      0.0000   1242.9171     22.4370
   984.5000     53.2263      0.0000   1283.7555     22.9674
   984.7500     53.3765      0.0000   1290.8372     23.5731
   985.0000     55.2507      0.0000   1262.7102     24.2374
   985.2500     58.7946      0.0000   1215.7738     24.9166
   985.5000     64.4254      0.0000   1171.5637     25.5415
   985.7500     72.4706      0.0000   1143.2640     26.0382
   986.0000     82.2566      0.0000   1131.2003     26.3505
   986.2500     91.7566      0.0000   1127.4976     26.4488
   986.5000     98.2738      0.0000   1124.0291     26.3281
   986.7500     99.8257      0.0000   1118.1207     26.0083
   987.0000     96.3326      0.0000   1113.0195     25.5400
   987.2500     89.7079      0.0000   1113.7229     25.0018
   987.5000     82.6454      0.0000   1122.4573     24.4785
   987.7500     76.9807      0.0000   1137.8840     24.0277
   988.0000     73.0505      0.0000   1157.4110     23.6565
   988.2500     70.5044      0.0000   1180.0304     23.3264
   988.5000     69.2792      0.0000   1208.1316     22.9891
   988.7500     69.4856      0.0000   1245.8556     22.6254
   989.0000     70.8280      0.0000   1292.9507     22.2522
   989.2500     72.7454      0.0000   1339.5648     21.8940
   989.5000     75.0170      0.0000   1369.7351     21.5512
   989.7500     77.8236      0.0000   1373.3651     21.2027
   990.0000     81.2491      0.0000   1356.6074     20.8408
   990.2500     85.0340      0.0000   1339.7522     20.4937
   990.5000     88.9379      0.0000   1341.9529     20.2092
   990.7500     93.1588      0.0000   1365.9451     20.0188
   991.0000     98.0838      0.0000   1397.7623     19.9211
   991.2500    103.4584      0.0000   1419.6799     19.8929
   991.5000    108.1449      0.0000   1421.4891     19.9002
   991.7500    111.0879      0.0000   1403.2323     19.9044
   992.0000    112.4498      0.0000   1374.1324     19.8733
   992.2500    113.4886      0.0000   1349.5104     19.7958
   992.5000    115.2908      0.0000   1342.3361     19.6844
   992.7500    117.7764      0.0000   1353.3376     19.5625
   993.0000    120.0752      0.0000   1369.7467     19.4505
   993.2500    121.7544      0.0000   1374.1821     19.3632
   993.5000    123.2091      0.0000   1355.3098     19.3167
   993.7500    124.7695      0.0000   1313.7487     19.3302
   994.0000    126.0496      0.0000   1261.3082     19.4109
   994.2500    126.5231      0.0000   1213.5803     19.5412
   994.5000    126.2333      0.0000   1180.5360     19.6906
   994.7500    125.6483      0.0000   1162.8163     19.8419
   995.0000    125.3184      0.0000   1155.3900     19.9986
   995.2500    125.9243      0.0000   1152.9174     20.1621
   995.5000    127.9699      0.0000   1152.0685     20.3086
   995.7500    130.8528      0.0000   1151.0143     20.3995
   996.0000    132.7416      0.0000   1148.1681     20.4157
   996.2500    131.9239      0.0000   1141.6115     20.3777
   996.5000    128.0977      0.0000   1129.8937     20.3265
   996.7500    122.0413      0.0000   1114.0211     20.2887
   997.0000    114.3516      0.0000   1098.4768     20.2671
   997.2500    105.1109      0.0000   1089.0707     20.2542
   997.5000     94.9808      0.0000   1088.9795     20.2385
   997.7500     86.1266      0.0000   1097.0956     20.1944
   998.0000     81.3268      0.0000   1109.8722     20.0843
   998.2500     81.9528      0.0000   1123.6720     19.8814
   998.5000     87.1976      0.0000   1135.6670     19.5919
   998.7500     95.3974      0.0000   1144.2635     19.2533
   999.0000    105.4547      0.0000   1149.7644     18.9138
   999.2500    116.5060      0.0000   1154.6603     18.6033
   999.5000    126.8312      0.0000   1163.6238     18.3049
   999.7500    134.1216      0.0000   1183.0525     17.9263
  1000.0000    137.0015      0.0000   1218.4874     17.3137
  1000.2500    135.8972      0.0000   1269.7092     16.3594
  1000.5000    132.5831      0.0000   1328.0481     15.1330
  1000.7500    129.3599      0.0000   1380.6346     13.8586
  1001.0000    128.1282      0.0000   1418.4471     12.7401
  1001.2500    129.0090      0.0000   1440.0204     11.8661
  1001.5000    129.8361      0.0000   1448.2467     11.2716
  1001.7500    128.2039      0.0000   1445.0402     10.9756
  1002.0000    124.4674      0.0000   1429.2955     10.9395
  1002.2500    121.8471      0.0000   1400.1968     11.0893
  1002.5000    123.0238      0.0000   1363.0148     11.4202
  1002.7500    127.1451      0.0000   1329.1111     12.0725
  1003.0000    130.5747      0.0000   1306.2306     13.2816
  1003.2500    130.1016      0.0000   1290.3589     15.1784
  1003.5000    125.0611      0.0000   1273.4288     17.5517
  1003.7500    116.9775      0.0000   1258.6959     19.8601
  1004.0000    108.1639      0.0000   1261.0652     21.5980
  1004.2500    100.9315      0.0000   1289.9316     22.6348
  1004.5000     97.3111      0.0000   1336.6984     23.1610
  1004.7500     98.3902      0.0000   1381.2085     23.4110
  1005.0000    103.4107      0.0000   1406.3475     23.5158
  1005.2500    109.8997      0.0000   1404.3390     23.5285
  1005.5000    115.2319      0.0000   1373.9786     23.4767
  1005.7500    118.2205      0.0000   1318.7726     23.3772
  1006.0000    119.4055      0.0000   1248.7560     23.2355
  1006.2500    120.1687      0.0000   1179.3872     23.0491
  1006.5000    121.4123      0.0000   1125.0050     22.8097
  1006.7500    122.6638      0.0000   1092.5536     22.5095
  1007.0000    122.6117      0.0000   1080.0637     22.1469
  1007.2500    120.7568      0.0000   1078.6969     21.7355
  1007.5000    118.0848      0.0000   1076.9780     21.3076
  1007.7500    115.6528      0.0000   1066.8610     20.9116
  1008.0000    112.9456      0.0000   1048.3062     20.5975
  1008.2500    108.4457      0.0000   1027.7162     20.3974
  1008.5000    101.7462      0.0000   1011.5848     20.3191
  1008.7500     94.3166      0.0000   1002.0731     20.3563
  1009.0000     88.0011      0.0000    997.6783     20.4936
  1009.2500     83.4035      0.0000    996.1037     20.7015
  1009.5000     79.9295      0.0000    995.8463     20.9355
  1009.7500     76.7734      0.0000    996.1861     21.1526
  1010.0000     73.5047      0.0000    996.7604     21.3303
  1010.2500     70.0938      0.0000    997.3519     21.4705
  1010.5000     66.8724      0.0000    997.8618     21.5878
  1010.7500     64.4759      0.0000    998.3502     21.6976
  1011.0000     63.6331      0.0000    999.1001     21.8095
  1011.2500     64.8819      0.0000   1000.7260     21.9278
  1011.5000     68.2450      0.0000   1004.1726     22.0516
  1011.7500     72.8994      0.0000   1010.2938     22.1711
  1012.0000     77.3439      0.0000   1019.0054     22.2691
  1012.2500     80.3384      0.0000   1028.7947     22.3289
  1012.5000     81.7562      0.0000   1037.4286     22.3427
  1012.7500     82.3227      0.0000   1043.3892     22.3138
  1013.0000     82.4934      0.0000   1046.6060     22.2525
  1013.2500     81.8520      0.0000   1047.9652     22.1688
  1013.5000     79.8810      0.0000   1048.4119     22.0635
  1013.7500     77.1768      0.0000   1048.4922     21.9314
  1014.0000     75.3095      0.0000   1048.4027     21.7795
  1014.2500     75.1829      0.0000   1048.2063     21.6372
  1014.5000     76.0379      0.0000   1047.9595     21.5402
  1014.7500     76.4254      0.0000   1047.7229     21.5063
  1015.0000     75.7007      0.0000   1047.5408     21.5357
  1015.2500     74.3060      0.0000   1047.4521     21.6302
  1015.5000     73.1789      0.0000   1047.4987     21.8041
  1015.7500     73.1982      0.0000   1047.6971     22.0760
  1016.0000     74.6535      0.0000   1047.9957     22.4552
  1016.2500     76.7506      0.0000   1048.2816     22.9339
  1016.5000     77.8980      0.0000   1048.4514     23.4849
  1016.7500     77.0271      0.0000   1048.4751     24.0687
