~Version Information
VERS.                      2.0: CWLS Log ASCII Standard - VERSION 2.0
WRAP.                       NO: One line per depth step
~Well Information Block
STRT.FT               -12.0000: 
STOP.FT              2137.5000: 
STEP.FT                 0.2500: 
NULL.                -999.2500: 
COMP.          Pioneer Natural Resources: COMPANY
WELL.           Ogallela 44-12: WELL
FLD.           Purgatorie River: FIELD
LOC.           610' FSL & 671' FEL------------: LOCATION
PROV.                       CO: PROVINCE
CNTY.               Las Animas: COUNTRY
SRVC.          Patterson Wireline: SERVICE COMPANY
DATE.          Thu Apr 07 14:25:46 2005: LOG DATE
UWI.           05 071 08283 00: UNIQUE WELL ID
~Curve Information Block
DEPT.FT            0 000 00 00: Depth
CCL.                          : Casing Collar Locator
TT3.usec                      : CBL 3' Travel Time
AMP3.mV                       : CBL 3' Amplitude
ATT3.db/ft                    : CBL 3' Attenuation
GR.GAPI                       : Gamma Ray
~Parameter Information Block
~A  Depth       CCL         TT3         AMP3        ATT3         GR     
# ...
   828.0000      0.0000    741.9872      6.8602     -7.6034    140.1119
   828.2500      0.0000    760.9999      7.1565     -7.4810    133.7666
   828.5000      0.0000    797.4726      7.3627     -7.3988    129.3265
   828.7500      0.0000    837.7224      7.3750     -7.3940    128.7981
   829.0000      0.0000    868.6545      7.1491     -7.4840    131.7330
   829.2500      0.0000    888.2395      6.7473     -7.6515    135.7961
   829.5000      0.0000    904.6013      6.2879     -7.8557    138.8532
   829.7500      0.0000    927.0981      5.8357     -8.0718    140.2702
   830.0000      0.0000    957.4534      5.3659     -8.3148    140.0717
   830.2500      0.0000    986.6220      4.8516     -8.6065    137.4901
   830.5000      0.0000   1000.0128      4.3422     -8.9277    131.3260
   830.7500      0.0000    988.8178      3.9230     -9.2216    121.7783
   831.0000      0.0000    958.6401      3.6310     -9.4455    111.1076
   831.2500      0.0000    926.5812      3.4394     -9.6025    102.0110
   831.5000      2.0000    907.9010      3.3032     -9.7195     95.6332
   831.7500      0.0000    903.8682      3.1938     -9.8170     91.5017
   832.0000      0.0000    902.0554      3.1029     -9.9006     89.0666
   832.2500      0.0000    888.7657      3.0353     -9.9644     88.6442
   832.5000      0.0000    861.3978      3.0013     -9.9970     90.6903
   832.7500      0.0000    828.9164      3.0081     -9.9904     94.6492
   833.0000      0.0000    801.9005      3.0582     -9.9426     98.9001
   833.2500      0.0000    784.8669      3.1528     -9.8544    101.7610
   833.5000      0.0000    777.9565      3.2919     -9.7294    102.6506
   833.7500      0.0000    781.2404      3.4712     -9.5759    102.6539
   834.0000      0.0000    793.6249      3.6856     -9.4023    104.0524
   834.2500      0.0000    809.9821      3.9367     -9.2115    108.8639
   834.5000      0.0000    823.4700      4.2269     -9.0056    117.2814
   834.7500      0.0000    830.6026      4.5436     -8.7963    127.3848
   835.0000      0.0000    832.1622      4.8538     -8.6052    136.5969
   835.2500      0.0000    830.2258      5.1214     -8.4498    143.4467
   835.5000      0.0000    826.3821      5.3320     -8.3331    147.7924
   835.7500      0.0000    822.1231      5.4945     -8.2462    149.8538
   836.0000      0.0000    819.0911      5.6242     -8.1786    149.7512
   836.2500      0.0000    818.3549      5.7285     -8.1254    148.0253
   836.5000      0.0000    819.4523      5.8081     -8.0855    146.2198
   836.7500      0.0000    820.0200      5.8624     -8.0585    146.7461
   837.0000      0.0000    816.4389      5.8931     -8.0434    151.7642
   837.2500      0.0000    805.6248      5.9062     -8.0370    161.3863
   837.5000      0.0000    787.5855      5.9095     -8.0354    172.5866
   837.7500      0.0000    767.2945      5.9084     -8.0359    180.5426
   838.0000      0.0000    753.3659      5.9070     -8.0366    182.0410
   838.2500      0.0000    752.5710      5.9138     -8.0332    177.8891
   838.5000      0.0000    763.8818      5.9450     -8.0180    171.7507
   838.7500      0.0000    778.2860      6.0185     -7.9825    166.6105
   839.0000      0.0000    786.3178      6.1457     -7.9219    162.5367
   839.2500      0.0000    786.3705      6.3263     -7.8380    157.5807
   839.5000      0.0000    784.6929      6.5448     -7.7397    150.2047
   839.7500      0.0000    787.6277      6.7702     -7.6417    140.7514
   840.0000      0.0000    795.6423      6.9635     -7.5602    131.0179
   840.2500      0.0000    804.4993      7.0904     -7.5079    122.8237
   840.5000      0.0000    809.1706      7.1298     -7.4919    117.1323
   840.7500      0.0000    805.5731      7.0782     -7.5129    114.4821
   841.0000      0.0000    791.4738      6.9536     -7.5643    115.6590
   841.2500      0.0000    768.9972      6.7939     -7.6316    121.1559
   841.5000      0.0000    745.6490      6.6422     -7.6970    129.9916
   841.7500      0.0000    730.0170      6.5254     -7.7483    139.8229
   842.0000      0.0000    725.2146      6.4461     -7.7837    148.6008
   842.2500      0.0000    727.0754      6.3926     -7.8078    155.8435
   842.5000      0.0000    727.7686      6.3547     -7.8251    162.0707
   842.7500      0.0000    719.7103      6.3278     -7.8374    167.3577
   843.0000      0.0000    698.5363      6.3074     -7.8467    170.8335
   843.2500      0.0000    666.9214      6.2837     -7.8576    171.4965
   843.5000      0.0000    636.0132      6.2483     -7.8740    169.2331
   843.7500      0.0000    619.6399      6.2022     -7.8954    164.9187
   844.0000      0.0000    624.1890      6.1551     -7.9175    159.5498
   844.2500      0.0000    643.0692      6.1179     -7.9350    153.4819
   844.5000      0.0000    661.1345      6.0961     -7.9453    146.6222
   844.7500      0.0000    666.0751      6.0830     -7.9516    139.2344
   845.0000      0.0000    657.5269      6.0560     -7.9645    132.3891
   845.2500      0.0000    645.5717      5.9845     -7.9989    127.5531
   845.5000      0.0000    640.1688      5.8508     -8.0643    125.6622
   845.7500      0.0000    642.6414      5.6667     -8.1568    126.5280
   846.0000      0.0000    647.6630      5.4697     -8.2593    129.0315
   846.2500      0.0000    652.1810      5.3020     -8.3494    131.8291
   846.5000      0.0000    659.5989      5.1910     -8.4107    133.9105
   846.7500      0.0000    673.9479      5.1450     -8.4365    134.6848
   847.0000      0.0000    692.7866      5.1642     -8.4257    133.9529
   847.2500      0.0000    709.1517      5.2474     -8.3794    132.2165
   847.5000      0.0000    719.8099      5.3825     -8.3058    130.7096
   847.7500      0.0000    729.2584      5.5332     -8.2258    130.3743
   848.0000      0.0000    745.3140      5.6484     -8.1662    130.8385
   848.2500      0.0000    771.4480      5.6947     -8.1426    131.1240
   848.5000      0.0000    803.2388      5.6861     -8.1470    131.2333
   848.7500      0.0000    831.7813      5.6850     -8.1475    132.1038
   849.0000      0.0000    850.1806      5.7745     -8.1023    133.8567
   849.2500      0.0000    856.7418      6.0168     -7.9833    135.0484
   849.5000      0.0000    853.0461      6.4192     -7.7958    134.1656
   849.7500      0.0000    840.6563      6.9284     -7.5748    131.2921
   850.0000      0.0000    820.5093      7.4532     -7.3634    127.8715
   850.2500      0.0000    795.5568      7.9043     -7.1933    125.3304
   850.5000      0.0000    773.3120      8.2282     -7.0770    124.4065
   850.7500      0.0000    763.8856      8.4199     -7.0103    125.2300
   851.0000      0.0000    773.2168      8.5062     -6.9808    127.1801
   851.2500      0.0000    797.3681      8.5173     -6.9770    128.9162
   851.5000      0.0000    824.4906      8.4620     -6.9959    129.4755
   851.7500      0.0000    843.3615      8.3212     -7.0445    129.3059
   852.0000      0.0000    850.2045      8.0658     -7.1347    129.4724
   852.2500      0.0000    848.3301      7.6876     -7.2738    130.0208
   852.5000      0.0000    843.1896      7.2213     -7.4549    130.0514
   852.7500      0.0000    838.2525      6.7416     -7.6540    129.5055
   853.0000      0.0000    834.0178      6.3374     -7.8330    129.9252
   853.2500      0.0000    829.0754      6.0722     -7.9567    132.9454
   853.5000      0.0000    821.3172      5.9533     -8.0140    138.5614
   853.7500      0.0000    808.3238      5.9367     -8.0221    145.2791
   854.0000      0.0000    787.3688      5.9634     -8.0091    151.4381
   854.2500      0.0000    756.8275      5.9945     -7.9940    155.8547
   854.5000      0.0000    719.4099      6.0159     -7.9837    157.5702
   854.7500      0.0000    683.6808      6.0237     -7.9799    155.8774
   855.0000      0.0000    659.9768      6.0181     -7.9827    151.0328
   855.2500      0.0000    653.3714      6.0056     -7.9887    144.6010
   855.5000      0.0000    660.7178      5.9968     -7.9929    138.5392
   855.7500      0.0000    674.0965      5.9958     -7.9934    133.7493
