~Version Information
VERS.                      2.0: CWLS Log ASCII Standard - VERSION 2.0
WRAP.                       NO: One line per depth step
~Well Information Block
STRT.FT               530.0000: 
STOP.FT              1825.0000: 
STEP.FT                 0.1000: 
NULL.                -999.2500: 
COMP.          Pioneer Natural Resources: COMPANY
WELL.          Vision 31-11 Tr: WELL
FLD.           Purgatoire River: FIELD
LOC.           742' FNL & 1593' FEL: LOCATION
STAT.                 Colorado: State
CNTY.               Las Animas: COUNTY
CTRY. USA : Country
SECT. 11 : Section
TOWN. 32S : Township
RANG. 66W : Range
SRVC.                Patterson: SERVICE COMPANY
DATE.          Mon Oct 10 07:17:32 2005: LOG DATE
API.           05 071 08305 00: UNIQUE WELL ID
~Curve Information Block
DEPT.FT            0 000 00 00: Depth
DCAL.in                       : CDL Caliper
RHOB.g/cc                     : CDL Bulk Density
RHOC.g/cc                     : CDL Density Correction
DPOR.pu                       : CDL Density Porosity
GR.GAPI                       : Gamma Ray
NPOR.pu                       : Neutron Porosity
~Parameter Information Block
~A  Depth       DCAL        RHOB        RHOC        DPOR         GR         NPOR    
# ...
   616.4000      8.2727      2.5228      0.0011      7.7108     98.3962     26.8912
   616.5000      8.2868      2.5305      0.0905      7.2453    106.6991     26.5892
   616.6000      8.2868      2.5326      0.0450      7.1131    112.1967     26.2998
   616.7000      8.2868      2.5269      0.0338      7.4576    115.9781     26.3746
   616.8000      8.2750      2.5200      0.0448      7.8791    118.4865     26.8337
   616.9000      8.2750      2.5203      0.0159      7.8610    122.4091     27.4885
   617.0000      8.2893      2.5348      0.0402      6.9815    127.7742     28.2235
   617.1000      8.2893      2.5516      0.0639      5.9613    129.1329     29.0744
   617.2000      8.2893      2.5474      0.0435      6.2168    124.4118     29.8659
   617.3000      8.2600      2.5191      0.0237      7.9349    117.1302     30.4068
   617.4000      8.2600      2.4879      0.0401      9.8248    115.7700     30.6456
   617.5000      8.2476      2.4755     -0.0071     10.5747    123.9617     30.4337
   617.6000      8.2476      2.4874      0.0191      9.8570    135.4735     29.7063
   617.7000      8.2476      2.5098      0.0854      8.4994    143.2126     28.8531
   617.8000      8.2671      2.5257      0.0789      7.5326    143.8432     28.2578
   617.9000      8.2671      2.5308      0.0813      7.2245    139.3938     27.7186
   618.0000      8.2631      2.5263      0.0614      7.4986    134.5186     27.0493
   618.1000      8.2631      2.5128      0.0407      8.3159    127.9750     26.6686
   618.2000      8.2631      2.4981      0.0100      9.2079    119.0258     26.6913
   618.3000      8.2610      2.4850      0.0667      9.9986    113.8182     26.7606
   618.4000      8.2610      2.4681      0.0020     11.0231    114.9252     26.6382
   618.5000      8.1918      2.4573      0.0138     11.6785    115.7360     26.1699
   618.6000      8.1918      2.4683     -0.0113     11.0140    111.0466     25.4208
   618.7000      8.1918      2.4924      0.0798      9.5486    105.9637     24.6957
   618.8000      8.1563      2.5035      0.0998      8.8802    105.9004     24.4422
   618.9000      8.1563      2.4986      0.0192      9.1746    109.4354     24.7725
   619.0000      8.1291      2.4991      0.0946      9.1475    112.3275     25.0251
   619.1000      8.1291      2.5122      0.0213      8.3492    111.6838     24.5960
   619.2000      8.1291      2.5288      0.1100      7.3449    108.3223     23.9786
   619.3000      8.1112      2.5439      0.0762      6.4276    108.1115     24.0513
   619.4000      8.1112      2.5640      0.0768      5.2125    110.9043     24.7042
   619.5000      8.1302      2.5848      0.1156      3.9496    111.4080     25.0487
   619.6000      8.1302      2.5924      0.1026      3.4887    110.1724     24.7478
   619.7000      8.1302      2.5797      0.1249      4.2616    109.5996     24.5093
   619.8000      8.1359      2.5490      0.0776      6.1219    110.6117     24.9401
   619.9000      8.1359      2.5174      0.0154      8.0358    111.6877     25.6612
   620.0000      8.1464      2.5036      0.0366      8.8743    109.8084     26.2235
   620.1000      8.1464      2.5037      0.0466      8.8680    106.5041     26.6546
   620.2000      8.1464      2.5067      0.0162      8.6852    106.0322     26.7545
   620.3000      8.1716      2.5134      0.0397      8.2802    110.3870     26.4707
   620.4000      8.1716      2.5216      0.0212      7.7822    116.5883     26.2191
   620.5000      8.2061      2.5243      0.0541      7.6197    118.9339     26.2137
   620.6000      8.2061      2.5207      0.0501      7.8356    118.7745     26.4130
   620.7000      8.2061      2.5202      0.0590      7.8689    121.8699     26.6337
   620.8000      8.2016      2.5314      0.0639      7.1869    128.7075     26.7372
   620.9000      8.2016      2.5448      0.1026      6.3781    132.9332     26.5958
   621.0000      8.2123      2.5399      0.0875      6.6730    130.8193     26.0073
   621.1000      8.2123      2.5202      0.0693      7.8647    127.5389     25.0430
   621.2000      8.2123      2.5087      0.0291      8.5622    126.3983     24.2302
   621.3000      8.1780      2.5140      0.0552      8.2428    123.2961     23.7595
   621.4000      8.1780      2.5281      0.0768      7.3874    115.8541     23.3339
   621.5000      8.1554      2.5453      0.0475      6.3450    109.3780     23.0816
   621.6000      8.1554      2.5586      0.0837      5.5389    108.7231     23.2381
   621.7000      8.1554      2.5564      0.0896      5.6707    108.3691     23.3056
   621.8000      8.1496      2.5359      0.0511      6.9178    101.1239     22.7810
   621.9000      8.1496      2.5124      0.0170      8.3420     91.1053     21.8835
   622.0000      8.1585      2.5078      0.0331      8.6189     89.9710     21.2976
   622.1000      8.1585      2.5228      0.0382      7.7089     97.3343     21.5567
   622.2000      8.1585      2.5424      0.0405      6.5216    102.1914     22.4999
   622.3000      8.1887      2.5519      0.0877      5.9459    101.0453     23.5910
   622.4000      8.1887      2.5443      0.0367      6.4044     95.2433     24.4851
   622.5000      8.1995      2.5349      0.0002      6.9750     88.7915     25.2412
   622.6000      8.1995      2.5416      0.0343      6.5723     87.8784     26.0155
   622.7000      8.1995      2.5619      0.0491      5.3413     90.9519     26.4851
   622.8000      8.1868      2.5856      0.0825      3.9022     92.8031     26.2520
   622.9000      8.1868      2.6004      0.1236      3.0032     95.0957     25.8163
   623.0000      8.2083      2.6021      0.0315      2.9034    100.3201     26.0404
   623.1000      8.2083      2.5964      0.0804      3.2504    106.1899     26.8466
   623.2000      8.2083      2.5789      0.0606      4.3088    111.6922     27.3405
   623.3000      8.1756      2.5458      0.0552      6.3151    117.4651     26.9899
   623.4000      8.1756      2.5154      0.0029      8.1581    120.8768     26.2828
   623.5000      8.1562      2.5080      0.0060      8.6064    117.2407     25.9498
   623.6000      8.1562      2.5189      0.0289      7.9431    106.5373     25.8834
   623.7000      8.1562      2.5315      0.0362      7.1846     96.6947     25.7236
   623.8000      8.1466      2.5360      0.0763      6.9103     93.6929     25.6438
   623.9000      8.1466      2.5387      0.0246      6.7430     94.4765     25.7330
   624.0000      8.1486      2.5506      0.0436      6.0249     93.0681     25.8381
   624.1000      8.1486      2.5628      0.0815      5.2869     89.7306     25.9601
   624.2000      8.1486      2.5603      0.0574      5.4374     89.2686     26.0131
   624.3000      8.1644      2.5445      0.0462      6.3933     92.9065     26.0228
   624.4000      8.1644      2.5244      0.0835      7.6103     98.4898     26.2620
   624.5000      8.1905      2.5123     -0.0114      8.3459    101.4164     26.9074
   624.6000      8.1905      2.5186      0.0266      7.9637    100.0797     27.7689
   624.7000      8.1905      2.5352      0.0215      6.9577    100.6271     28.1012
   624.8000      8.1765      2.5488      0.0596      6.1353    104.7004     27.5926
   624.9000      8.1765      2.5622      0.0186      5.3184    108.0872     27.0059
   625.0000      8.1215      2.5866      0.0437      3.8398    108.4485     26.5643
   625.1000      8.1215      2.6179      0.1319      1.9472    105.4556     25.7672
   625.2000      8.1215      2.6376      0.1331      0.7489    101.9810     24.9506
   625.3000      8.1074      2.6312      0.1126      1.1399    102.1190     24.5710
   625.4000      8.1074      2.5917      0.1094      3.5349    104.8844     24.1556
   625.5000      8.0865      2.5300     -0.0081      7.2754    105.2650     23.5892
   625.6000      8.0865      2.4798     -0.0082     10.3172    101.7069     23.7185
   625.7000      8.0865      2.4735     -0.0801     10.6947     96.7285     24.6686
   625.8000      8.0926      2.5112     -0.0313      8.4136     94.1217     25.4505
   625.9000      8.0926      2.5545      0.0479      5.7865     93.9498     25.4489
