~Version Information
 VERS.                                  2.0 : CWLS LAS VERSION
 WRAP.                                   NO : WRAPING MODE
 SWARE .                 MController 2.5.0J : SOFTWARE VERSION
~Well Information
 WELL.                       Costello 44-24 : WELL
 COMP.    Pioneer Natural Resources USA Inc : COMPANY
 FLD.                      Purgatoire River : FIELD
 LOC.                SE/SE Sec 24 T32S R67W : LOCATION
 DATE.                            7/10/2005 : DATE(S) LOGGED
 SRVC.       BLANCO Geological Services LLC : SERVICE COMPANY
 STAT.                                   CO : STATE
 CNTY.                           Las Animas : COUNTY
 CTRY.                                  USA : COUNTRY
 API.                       05-071-08413-00 : API NUMBER
 STRT.FT                             305.00 : START DEPTH
 STOP.FT                            2545.00 : STOP DEPTH
 STEP.FT                               1.00 : DEPTH INCREMENT
 NULL.                                 999 : NULL VALUE
~Curve information
 DEPTH.FT                                   :
 ROP.MIN/FT                                 :
 GAS.UNITS                                  :
~ASCII Log data
# ...
      1505.0         0.22        462.5 
      1506.0         0.13        462.2 
      1507.0         0.13        447.2 
      1508.0         0.13        417.9 
      1509.0         0.30        413.0 
      1510.0         0.27        362.4 
      1511.0         0.23        319.6 
      1512.0         0.33        290.2 
      1513.0         0.27        259.0 
      1514.0         0.23        249.6 
      1515.0         0.23        244.8 
      1516.0         0.17        233.7 
      1517.0         0.20        232.5 
      1518.0         0.17        223.0 
      1519.0         0.13        223.0 
      1520.0         0.20        217.9 
      1521.0         0.18        213.1 
      1522.0         0.20        209.0 
      1523.0         0.20        207.7 
      1524.0         0.20        198.6 
      1525.0         0.27        198.1 
      1526.0       203.32        823.8 
      1527.0         2.33        343.3 
      1528.0         0.23        176.6 
      1529.0         0.25        177.9 
      1530.0         0.23        206.6 
      1531.0         0.23        252.6 
      1532.0         0.13        261.4 
      1533.0         0.13        263.0 
      1534.0         0.10        264.7 
      1535.0         0.07        263.2 
      1536.0         0.10        259.6 
      1537.0         0.17        252.7 
      1538.0         0.17        247.0 
      1539.0         0.13        234.5 
      1540.0         0.10        224.5 
      1541.0         0.10        223.0 
      1542.0         0.13        223.0 
      1543.0         0.10        223.0 
      1544.0         0.13        222.2 
      1545.0         0.20        219.3 
      1546.0         0.20        209.8 
      1547.0         0.13        204.6 
      1548.0         0.10        194.8 
      1549.0         0.13        194.8 
      1550.0         0.37        192.9 
      1551.0         0.35        187.1 
      1552.0         0.30        166.1 
      1553.0         0.47        135.3 
      1554.0         0.37        168.4 
      1555.0         0.23        168.4 
      1556.0         6.90       1122.4 
      1557.0         0.33       1019.0 
      1558.0         0.27        820.6 
      1559.0         0.23        737.1 
      1560.0         0.23        655.5 
      1561.0         0.23        645.7 
      1562.0         0.25        561.0 
      1563.0         0.27        522.9 
      1564.0         0.33        452.7 
      1565.0         0.33        222.1 
      1566.0         0.33        198.9 
      1567.0         0.27        185.6 
      1568.0         0.40        183.1 
      1569.0         0.37        180.1 
      1570.0         0.27        172.7 
      1571.0         0.30        167.0 
      1572.0         0.23        166.8 
      1573.0         0.25        152.5 
      1574.0         0.30        146.8 
      1575.0         0.27        149.6 
      1576.0         0.27        160.6 
      1577.0         0.20        165.0 
      1578.0         0.20        168.3 
      1579.0         0.17        173.0 
      1580.0         0.13        178.2 
      1581.0         0.17        180.9 
      1582.0         0.20        176.9 
      1583.0         0.20        162.8 
      1584.0         0.20        172.0 
      1585.0         0.57        178.4 
      1586.0         3.28       1140.8 
      1587.0         0.17       1144.0 
      1588.0         0.30        986.9 
      1589.0         0.28        956.1 
      1590.0         0.37        709.2 
      1591.0         0.33        598.1 
      1592.0         0.43        568.6 
      1593.0         0.27        511.5 
      1594.0         0.30        483.2 
      1595.0         0.23        440.0 
      1596.0         0.20        222.4 
      1597.0         0.33        208.1 
      1598.0         0.33        206.4 
      1599.0         0.35        201.8 
      1600.0         0.27        198.5 
      1601.0         0.23        193.6 
      1602.0         0.30        192.0 
      1603.0         0.23        189.4 
      1604.0         0.20        187.0 
      1605.0         0.17        184.5 
      1606.0         0.23        179.7 
      1607.0         0.17        176.3 
      1608.0         0.20        172.6 
      1609.0         0.27        169.5 
      1610.0         0.17        166.4 
      1611.0         0.17        162.8 
      1612.0         0.17        161.9 
      1613.0         0.13        157.0 
      1614.0         0.17        157.0 
      1615.0         0.17        149.8 
      1616.0         3.60       1045.0 
      1617.0         0.50        937.4 
      1618.0         0.70        662.5 
      1619.0         0.33        617.1 
      1620.0         0.37        494.3 
      1621.0         0.20        440.0 
      1622.0         0.27        237.3 
      1623.0         0.20        229.2 
      1624.0         0.17        223.7 
      1625.0         0.23        215.9 
      1626.0         0.28        212.4 
      1627.0         0.17        200.7 
      1628.0         0.23        200.2 
      1629.0         0.20        197.4 
      1630.0         0.30        198.1 
      1631.0         0.23        197.0 
      1632.0         0.20        193.5 
      1633.0         0.20        190.9 
      1634.0         0.23        185.0 
      1635.0         0.20        182.7 
      1636.0         0.20        179.7 
      1637.0         0.23        176.7 
      1638.0         0.20        173.3 
      1639.0         0.20        168.9 
      1640.0         0.20        166.0 
      1641.0         0.17        166.0 
      1642.0         0.18        166.5 
      1643.0         0.23        165.8 
      1644.0         0.33        168.5 
      1645.0         0.20        169.4 
      1646.0         2.33        353.3 
      1647.0         0.28        481.4 
      1648.0         0.43        893.9 
      1649.0         0.40        800.0 
      1650.0         0.47        740.9 
      1651.0         0.37        643.2 
      1652.0         0.40        571.8 
      1653.0         0.23        440.0 
      1654.0         0.20        440.0 
      1655.0         0.20        215.1 
      1656.0         0.17        189.4 
      1657.0         0.17        185.3 
      1658.0         0.12        186.1 
      1659.0         0.10        190.6 
      1660.0         0.20        195.0 
      1661.0         0.17        193.4 
      1662.0         0.10        193.4 
      1663.0         0.10        189.5 
      1664.0         0.17        191.5 
      1665.0         0.17        194.8 
      1666.0         0.20        209.0 
      1667.0         0.17        209.0 
      1668.0         0.17        224.4 
      1669.0         0.13        231.6 
      1670.0         0.13        244.4 
      1671.0         0.20        245.5 
      1672.0         0.20        245.5 
      1673.0         0.17        245.0 
      1674.0         0.23        230.2 
      1675.0         0.30        226.1 
      1676.0         0.23        224.5 
      1677.0         3.83       1410.0 
      1678.0         0.40        806.0 
      1679.0         0.60        754.6 
      1680.0         0.27        545.1 
      1681.0         0.13        545.1 
      1682.0         0.20        538.1 
      1683.0         0.22        485.1 
      1684.0         0.23        440.0 
      1685.0         0.33        227.7 
      1686.0         0.23        221.2 
      1687.0         0.17        217.0 
      1688.0         0.27        209.7 
      1689.0         0.20        207.4 
      1690.0         0.13        206.6 
      1691.0         0.13        206.2 
      1692.0         0.17        204.9 
      1693.0         0.17        204.5 
      1694.0         0.17        200.0 
      1695.0         0.13        198.3 
      1696.0         0.20        197.4 
      1697.0         0.20        197.0 
      1698.0         0.20        197.1 
      1699.0         0.17        197.1 
      1700.0         0.13        197.2 
      1701.0         0.22        195.4 
      1702.0         0.37        193.5 
      1703.0         0.17        188.3 
      1704.0         0.17        183.8 
