~Version Information
VERS.                      2.0: CWLS Log ASCII Standard - VERSION 2.0
WRAP.                       NO: One line per depth step
~Well Information Block
STRT.FT               930.0000: 
STOP.FT              2783.2000: 
STEP.FT                 0.1000: 
NULL.                -999.2500: 
COMP.          Pioneer Natural Resources: COMPANY
WELL.           Desoto 13-7TR: WELL
FLD.           Purgatoire River: FIELD
LOC.           1404' FSL & 1115' FWL: LOCATION
PROV.                 Colorado: PROVINCE
CNTY.               Las Animas: COUNTRY
SRVC.                Patterson: SERVICE COMPANY
DATE.          Fri Jan 14 14:42:18 2005: LOG DATE
UWI.           05 071 08216 00: UNIQUE WELL ID
~Curve Information Block
DEPT.FT            0 000 00 00: Depth
DCAL.in                       : CDL Caliper
RHOB.g/cc                     : CDL Bulk Density
RHOC.g/cc                     : CDL Density Correction
DPOR.pu                       : CDL Density Porosity
NPOR.pu                       : Neutron Porosity
GR.GAPI                       : Gamma Ray
~Parameter Information Block
~A  Depth       DCAL        RHOB        RHOC        DPOR        NPOR         GR     
# ...
  2264.4000      9.8732      2.2469      0.3994     24.4313     31.1945    128.9727
  2264.5000      9.9538      2.2250      0.3688     25.7579     31.9473    142.8916
  2264.6000      9.9538      2.1923      0.3120     27.7386     32.6078    151.4175
  2264.7000      9.9538      2.1594      0.2588     29.7361     32.8885    149.3830
  2264.8000     10.0236      2.1195      0.2219     32.1506     33.2182    140.0589
  2264.9000     10.0236      2.0521      0.2100     36.2337     33.2252    130.6760
  2265.0000     10.1412      1.9669      0.1220     41.4019     32.7506    128.5332
  2265.1000     10.1412      1.9121      0.1659     44.7233     32.3812    134.0358
  2265.2000     10.1412      1.9071      0.2838     45.0237     32.3424    137.4429
  2265.3000     10.2518      1.9291      0.2884     43.6894     32.6392    133.4808
  2265.4000     10.2518      1.9730      0.2792     41.0286     33.2016    129.0208
  2265.5000     10.2958      2.0526      0.3150     36.2043     33.6175    132.2827
  2265.6000     10.2958      2.1523      0.3603     30.1657     33.3600    139.8276
  2265.7000     10.2958      2.2348      0.3784     25.1656     32.9264    141.2862
  2265.8000     10.1567      2.2923      0.3837     21.6789     33.0587    136.6472
  2265.9000     10.1567      2.3450      0.4122     18.4861     33.1656    133.9950
  2266.0000      9.8437      2.3952      0.4501     15.4425     32.7230    136.9731
  2266.1000      9.8437      2.4156      0.4285     14.2063     32.6281    144.4140
  2266.2000      9.8437      2.3840      0.3307     16.1192     33.4874    149.6552
  2266.3000      9.5666      2.3125      0.2128     20.4567     34.5099    147.9230
  2266.4000      9.5666      2.2298      0.1107     25.4686     34.8827    143.9655
  2266.5000      9.4056      2.1476      0.1167     30.4471     34.6960    140.2539
  2266.6000      9.4056      2.0714      0.0327     35.0651     34.1944    135.5760
  2266.7000      9.4056      2.0266      0.0043     37.7842     33.4356    130.2093
  2266.8000      9.4004      2.0259      0.0423     37.8217     32.9329    126.2889
  2266.9000      9.4004      2.0529      0.0693     36.1857     33.1314    126.6527
  2267.0000      9.4590      2.0925      0.1261     33.7897     33.4692    130.0424
  2267.1000      9.4590      2.1359      0.2310     31.1563     33.3375    132.6772
  2267.2000      9.4590      2.1752      0.2772     28.7760     33.1494    134.2652
  2267.3000      9.3148      2.2136      0.3039     26.4483     33.2443    136.2515
  2267.4000      9.3148      2.2537      0.3323     24.0187     33.2300    135.2448
  2267.5000      8.9506      2.2765      0.3408     22.6378     32.8608    126.4159
  2267.6000      8.9506      2.2696      0.2235     23.0559     32.3365    116.1500
  2267.7000      8.9506      2.2551      0.1788     23.9334     31.7593    115.5704
  2267.8000      8.7005      2.2542      0.1999     23.9856     31.3781    120.8151
  2267.9000      8.7005      2.2695      0.1821     23.0618     31.5166    122.1662
  2268.0000      8.6319      2.3007      0.1723     21.1670     31.7324    121.4426
  2268.1000      8.6319      2.3401      0.1736     18.7834     31.3726    123.1451
  2268.2000      8.6319      2.3678      0.2354     17.1003     30.8761    126.0332
  2268.3000      8.6252      2.3727      0.2087     16.8087     30.8487    127.1505
  2268.4000      8.6252      2.3657      0.2083     17.2309     30.5707    127.4965
  2268.5000      8.6380      2.3695      0.1876     16.9980     29.5856    131.9244
  2268.6000      8.6380      2.3928      0.2461     15.5872     29.2250    140.8061
  2268.7000      8.6380      2.4182      0.2321     14.0460     29.9503    146.9902
  2268.8000      8.6748      2.4269      0.2458     13.5197     30.3341    145.0863
  2268.9000      8.6748      2.4138      0.2335     14.3144     30.0089    137.7590
  2269.0000      8.7121      2.3803      0.2253     16.3482     30.1351    131.9241
  2269.1000      8.7121      2.3380      0.1660     18.9064     30.7581    131.0992
  2269.2000      8.7121      2.3037      0.1746     20.9874     31.0844    134.0244
  2269.3000      8.6700      2.2774      0.1689     22.5833     31.3048    140.0125
  2269.4000      8.6700      2.2564      0.1243     23.8532     31.6135    144.5041
  2269.5000      8.5531      2.2488      0.0978     24.3167     31.6707    142.3353
  2269.6000      8.5531      2.2520      0.1185     24.1224     31.6771    139.8963
  2269.7000      8.5531      2.2459      0.1293     24.4883     31.9489    144.7036
  2269.8000      8.4772      2.2133      0.1144     26.4645     32.5431    153.5672
  2269.9000      8.4772      2.1550      0.0756     30.0024     33.4606    160.3013
  2270.0000      8.4598      2.0895      0.0400     33.9680     34.2017    164.2173
  2270.1000      8.4598      2.0396      0.1094     36.9965     34.1956    162.8268
  2270.2000      8.4598      2.0167      0.1359     38.3823     33.7665    154.8870
  2270.3000      8.4587      2.0203      0.1263     38.1618     33.3640    149.1861
  2270.4000      8.4587      2.0309      0.1358     37.5215     32.9819    152.0911
  2270.5000      8.4776      2.0153      0.1511     38.4689     32.9178    157.6163
  2270.6000      8.4776      1.9729      0.0542     41.0363     33.2227    161.2374
  2270.7000      8.4776      1.9403      0.0992     43.0107     33.2059    162.0304
  2270.8000      8.5655      1.9268      0.2002     43.8331     32.6862    155.7562
  2270.9000      8.5655      1.9037      0.2233     45.2326     32.4119    142.8685
  2271.0000      8.7186      1.8510      0.2284     48.4218     32.7531    132.3138
  2271.1000      8.7186      1.7775      0.1757     52.8804     33.1686    129.1912
  2271.2000      8.7186      1.7177      0.1134     56.5051     33.0199    129.6550
  2271.3000      8.8534      1.7187      0.0707     56.4429     32.2488    132.0465
  2271.4000      8.8534      1.8164      0.0784     50.5184     31.0943    137.6581
  2271.5000      8.9701      2.0026      0.2316     39.2388     29.5568    140.8241
  2271.6000      8.9701      2.2180      0.4018     26.1802     28.1173    137.9329
  2271.7000      8.9701      2.4056      0.4852     14.8109     27.5378    137.2593
  2271.8000      9.0001      2.5486      0.5003      6.1484     27.3808    143.6706
  2271.9000      9.0001      2.6504      0.5096     -0.0257     27.1027    147.8683
  2272.0000      8.7612      2.7116      0.4572     -3.7324     26.8694    142.0044
  2272.1000      8.7612      2.7305      0.4190     -4.8809     26.6459    130.2707
  2272.2000      8.7612      2.7132      0.3230     -3.8307     26.6431    120.7112
  2272.3000      8.3586      2.6759      0.2172     -1.5696     27.3663    118.9200
  2272.4000      8.3586      2.6317      0.1586      1.1065     28.4139    123.8565
  2272.5000      8.1026      2.5868      0.0147      3.8298     29.0122    127.2342
  2272.6000      8.1026      2.5409      0.0503      6.6142     28.8350    125.8660
  2272.7000      8.1026      2.4902     -0.0132      9.6827     27.9134    125.2308
  2272.8000      8.0287      2.4545     -0.0656     11.8511     26.7869    128.0778
  2272.9000      8.0287      2.4515     -0.0172     12.0308     26.0421    133.8763
  2273.0000      8.0140      2.4637      0.0249     11.2930     25.3828    141.3766
  2273.1000      8.0140      2.4732      0.0361     10.7126     24.9799    145.2262
  2273.2000      8.0140      2.4857     -0.0068      9.9575     25.4637    142.2159
  2273.3000      8.0044      2.5025      0.0256      8.9409     26.3950    136.2413
  2273.4000      8.0044      2.5111      0.0426      8.4174     27.1505    130.6283
  2273.5000      7.9965      2.5088      0.0542      8.5602     27.6618    126.2411
  2273.6000      7.9965      2.4932      0.0864      9.5052     27.8526    124.4637
  2273.7000      7.9965      2.4531      0.0433     11.9322     27.6767    125.3208
  2273.8000      7.9928      2.4023     -0.0553     15.0146     27.4225    128.5395
  2273.9000      7.9928      2.3724      0.0089     16.8231     27.5447    130.9087
