~Version Information
VERS.                      2.0: CWLS Log ASCII Standard - VERSION 2.0
WRAP.                       NO: One line per depth step
~Well Information Block
STRT.FT                -6.7500: 
STOP.FT              1181.0000: 
STEP.FT                 0.2500: 
NULL.                -999.2500: 
COMP.          Pioneer Natural Resources: COMPANY
WELL.          Pacheco 33-27 Tr: WELL
FLD.           Purgatorie River: FIELD
LOC.           2251' FSL & 2342' FEL--: LOCATION
PROV.                       CO: PROVINCE
CNTY.               Las Animas: COUNTRY
SRVC.          Patterson Wireline: SERVICE COMPANY
DATE.          Wed Jun 15 10:58:02 2005: LOG DATE
UWI.           05 071 08384 00: UNIQUE WELL ID
~Curve Information Block
DEPT.FT            0 000 00 00: Depth
CCL.                          : Casing Collar Locator
TT3.usec                      : CBL 3' Travel Time
AMP3.mV                       : CBL 3' Amplitude
GR.GAPI                       : Gamma Ray
~Parameter Information Block
~A  Depth       CCL         TT3         AMP3         GR     
    -6.7500   -999.2500   -999.2500   -999.2500     85.4607
    -6.5000   -999.2500   -999.2500   -999.2500     84.9537
    -6.2500   -999.2500   -999.2500   -999.2500     85.4286
    -6.0000   -999.2500   -999.2500   -999.2500     86.2815
    -5.7500   -999.2500   -999.2500   -999.2500     86.5491
    -5.5000   -999.2500   -999.2500   -999.2500     86.0877
    -5.2500   -999.2500   -999.2500   -999.2500     85.8388
    -5.0000   -999.2500   -999.2500   -999.2500     86.6649
    -4.7500   -999.2500   -999.2500   -999.2500     88.3048
    -4.5000   -999.2500   -999.2500   -999.2500     89.8297
    -4.2500   -999.2500   -999.2500   -999.2500     90.7054
    -4.0000   -999.2500   -999.2500   -999.2500     90.9399
    -3.7500   -999.2500   -999.2500   -999.2500     90.5030
    -3.5000   -999.2500   -999.2500   -999.2500     89.0855
    -3.2500   -999.2500   -999.2500   -999.2500     86.3934
    -3.0000   -999.2500   -999.2500   -999.2500     82.5812
    -2.7500   -999.2500   -999.2500   -999.2500     78.5719
    -2.5000   -999.2500   -999.2500   -999.2500     75.8795
    -2.2500   -999.2500   -999.2500   -999.2500     75.6925
    -2.0000   -999.2500   -999.2500   -999.2500     77.8677
    -1.7500   -999.2500   1170.0000      2.0911     80.9405
    -1.5000   -999.2500   1170.0000      2.1248     83.1370
    -1.2500   -999.2500   1170.0000      2.1226     80.8530
    -1.0000   -999.2500   1170.0000      2.0412     76.1311
    -0.7500   -999.2500   1170.0000      1.9292     69.9186
    -0.5000   -999.2500   1170.0000      1.8238     63.2816
    -0.2500   -999.2500   1170.0000      1.7476     57.0125
     0.0000   -999.2500   1170.0000      1.7037     51.6083
     0.2500   -999.2500   1170.0000      1.6848     47.5199
     0.5000   -999.2500   1170.0000      1.6813     44.8697
     0.7500   -999.2500   1170.0000      1.6831     42.9276
     1.0000   -999.2500   1170.0000      1.6815     40.4551
     1.2500   -999.2500   1170.0000      1.6712     36.9188
     1.5000   -999.2500   1170.0000      1.6522     33.2141
     1.7500   -999.2500   1170.0000      1.6308     31.0539
     2.0000   -999.2500   1170.0000      1.6156     31.7283
     2.2500   -999.2500   1170.0000      1.6112     35.3328
     2.5000   -999.2500   1170.0000      1.6148     40.8398
     2.7500   -999.2500   1170.0000      1.6189     46.7589
     3.0000   -999.2500   1170.0000      1.6183     51.9791
     3.2500   -999.2500   1170.0000      1.6132     56.2550
     3.5000      0.0000   1170.0000      1.6086     59.9430
     3.7500      0.0000   1170.0000      1.6088     63.2857
     4.0000      0.0000   1170.0000      1.6124     66.0471
     4.2500      0.0000   1170.0000      1.6134     67.7216
     4.5000      0.0000   1170.0000      1.6102     67.8817
     4.7500      0.0000   1169.9420      1.6110     66.4167
     5.0000      0.0000   1169.5618      1.6341     63.7386
     5.2500      0.0000   1167.6270      1.7333     60.8726
     5.5000      0.0000   1159.9563      2.0869     59.1093
     5.7500      0.0000   1136.2565      3.1465     59.2759
     6.0000      0.0000   1079.1809      5.6857     61.1631
     6.2500      0.0000    972.0153     10.4709     63.5532
     6.5000      0.0000    815.0927     17.5376     64.9797
     6.7500      0.0000    635.8249     25.7140     64.8668
     7.0000      0.0000    475.9763     33.1342     64.0477
     7.2500      0.0000    364.6577     38.4330     63.8709
     7.5000      0.0000    304.0616     41.4413     64.8129
     7.7500      0.0000    278.2429     42.8480     66.2853
     8.0000      0.0000    269.6059     43.4546     67.5977
     8.2500      0.0000    267.3125     43.7613     68.4981
     8.5000      0.0000    266.8032     43.9733     68.7979
     8.7500      0.0000    266.6905     44.1466     68.0499
     9.0000      0.0000    266.7190     44.2819     65.8890
     9.2500      0.0000    267.0247     44.3437     62.5576
     9.5000      0.0000    268.0944     44.2433     58.9535
     9.7500      0.0000    270.7261     43.8402     56.1599
    10.0000      0.0000    275.6553     42.9887     54.8597
    10.2500      0.0000    282.8146     41.6204     54.9643
    10.5000      0.0000    290.9223     39.7909     55.6613
    10.7500      0.0000    298.1099     37.6322     55.9327
    11.0000      0.0000    303.2020     35.2603     55.2569
    11.2500      0.0000    306.4463     32.7462     53.8721
    11.5000      0.0000    309.8116     30.1642     52.4720
    11.7500      0.0000    318.1707     27.6187     51.8586
    12.0000      0.0000    341.9983     25.1994     52.7834
    12.2500      0.0000    398.2119     22.9294     55.5116
    12.5000      0.0000    502.6617     20.7866     59.1196
    12.7500      0.0000    654.2874     18.7697     61.6114
    13.0000      0.0000    825.9025     16.9219     61.3703
    13.2500      0.0000    977.2193     15.2989     58.5308
    13.5000      0.0000   1080.9674     13.9358     54.6851
    13.7500      0.0000   1135.6986     12.8479     51.4731
    14.0000      0.0000   1156.3230     12.0422     49.7095
    14.2500      0.0000   1158.5234     11.5067     49.4428
    14.5000      0.0000   1152.4913     11.1871     50.2398
    14.7500      0.0000   1145.0966     10.9890     51.3786
    15.0000      0.0000   1141.8458     10.8139     52.1677
    15.2500      0.0000   1145.1541     10.5944     52.2254
    15.5000      0.0000   1152.9236     10.3051     51.3750
    15.7500      0.0000   1160.8597      9.9616     49.4851
    16.0000      0.0000   1166.1897      9.6132     46.7467
    16.2500      0.0000   1168.7629      9.3136     43.9117
    16.5000      0.0000   1169.6873      9.0884     41.8436
    16.7500      0.0000   1169.9384      8.9243     40.9323
    17.0000      0.0000   1169.9906      8.7756     41.1330
    17.2500      0.0000   1170.0000      8.5844     42.1740
    17.5000      0.0000   1170.0000      8.3234     43.3177
    17.7500      0.0000   1169.9904      8.0329     43.2320
    18.0000      0.0000   1169.9271      7.8005     40.7595
    18.2500      0.0000   1169.6058      7.6933     36.1341
    18.5000      0.0000   1168.3328      7.7102     31.2869
    18.7500      0.0000   1164.4133      7.7862     28.6823
    19.0000      0.0000   1155.0245      7.8332     29.6844
    19.2500      0.0000   1137.6230      7.7928     33.8694
    19.5000      0.0000   1112.9917      7.6756     39.5941
    19.7500      0.0000   1087.4102      7.5518     44.9734
    20.0000      0.0000   1070.6655      7.4946     48.4029
    20.2500      0.0000   1070.2111      7.5246     48.8066
    20.5000      0.0000   1085.8572      7.6050     46.1595
    20.7500      0.0000   1109.2188      7.6857     41.7804
    21.0000      0.0000   1128.2892      7.7441     37.5744
    21.2500      0.0000   1133.7059      7.7863     34.7903
    21.5000      0.0000   1122.6772      7.8163     33.5974
    21.7500      0.0000   1099.1870      7.8159     33.5670
    22.0000      0.0000   1071.2081      7.7660     34.1899
    22.2500      0.0000   1046.3800      7.6792     35.0705
    22.5000      0.0000   1028.7368      7.5919     36.0062
    22.7500      0.0000   1018.7301      7.5268     36.9664
    23.0000      0.0000   1015.4523      7.4866     37.9219
    23.2500      0.0000   1018.3008      7.4795     38.6876
    23.5000      0.0000   1027.1385      7.5218     39.0360
    23.7500      0.0000   1041.7197      7.6108     39.1317
    24.0000      0.0000   1060.8774      7.7164     39.8279
    24.2500      0.0000   1082.0715      7.7999     42.2163
    24.5000      0.0000   1101.5944      7.8266     46.6622
    24.7500      0.0000   1115.0813      7.7728     52.4944
    25.0000      0.0000   1119.2383      7.6445     58.8517
    25.2500      0.0000   1115.4053      7.4851     65.5660
    25.5000      0.0000   1110.9146      7.3547     72.7766
    25.7500      0.0000   1113.9932      7.3059     79.7373
    26.0000      0.0000   1126.4592      7.3713     84.5551
    26.2500      0.0000   1142.7867      7.5521     85.4891
    26.5000      0.0000   1155.9135      7.8098     82.4143
