~Version Information
VERS.                      2.0: CWLS Log ASCII Standard - VERSION 2.0
WRAP.                       NO: One line per depth step
~Well Information Block
STRT.FT               475.0000: 
STOP.FT              2336.7500: 
STEP.FT                 0.2500: 
NULL.                -999.2500: 
COMP.          Pioneer Natural Resources: COMPANY
WELL.              Bobsy 34-11: WELL
FLD.           Purgatoire River: FIELD
LOC.           1937' FEL & 451' FSL----: LOCATION
PROV.                 Colorado: PROVINCE
CNTY.               Las Animas: COUNTRY
SRVC.                Patterson: SERVICE COMPANY
DATE.          Fri Apr 08 05:21:25 2005: LOG DATE
UWI.           05 071 08330 00: UNIQUE WELL ID
~Curve Information Block
DEPT.FT            0 000 00 00: Depth
SN.Ohm-m                      : IEL Short Normal
SP.mV                         : IEL Spontaneous Potential
DIR.Ohm-m                     : IEL Induction Resistivity
GR.GAPI                       : Gamma Ray
~Parameter Information Block
~A  Depth        SN          SP         DIR          GR     
# ...
  1446.5000      9.7946   -174.4744     10.1110    132.0977
  1446.7500      9.8406   -174.4397     10.2209    131.3931
  1447.0000     10.1028   -174.4196     10.3855    127.7945
  1447.2500     10.6289   -174.4648     10.6174    124.2025
  1447.5000     11.4578   -174.6105     10.9367    118.9437
  1447.7500     12.6087   -174.8722     11.3663    116.2020
  1448.0000     14.0423   -175.2486     11.9223    112.8407
  1448.2500     15.6250   -175.7279     12.6042    110.5211
  1448.5000     17.1499   -176.2945     13.3873    106.5936
  1448.7500     18.4264   -176.9298     14.2243    103.9329
  1449.0000     19.3735   -177.6089     15.0575    100.3239
  1449.2500     20.0400   -178.2942     15.8357     98.2348
  1449.5000     20.5483   -178.9322     16.5278     95.7150
  1449.7500     21.0128   -179.4590     17.1242     94.6708
  1450.0000     21.4854   -179.8122     17.6313     94.2723
  1450.2500     21.9461   -179.9486     18.0639     94.5495
  1450.5000     22.3368   -179.8593     18.4353     94.8907
  1450.7500     22.6127   -179.5758     18.7507     94.6672
  1451.0000     22.7792   -179.1641     19.0106     93.8410
  1451.2500     22.8875   -178.7086     19.2220     93.4632
  1451.5000     22.9958   -178.2901     19.4088     93.5798
  1451.7500     23.1362   -177.9662     19.6064     93.7413
  1452.0000     23.3149   -177.7613     19.8452     93.0478
  1452.2500     23.5332   -177.6671     20.1357     91.7020
  1452.5000     23.8000   -177.6541     20.4671     88.8167
  1452.7500     24.1234   -177.6868     20.8169     86.7635
  1453.0000     24.4960   -177.7387     21.1618     83.9445
  1453.2500     24.8870   -177.7992     21.4805     82.3051
  1453.5000     25.2413   -177.8719     21.7487     80.1623
  1453.7500     25.4902   -177.9653     21.9328     78.8317
  1454.0000     25.5801   -178.0822     21.9944     76.7664
  1454.2500     25.5057   -178.2116     21.9056     75.5304
  1454.5000     25.3119   -178.3284     21.6662     75.1375
  1454.7500     25.0577   -178.4003     21.3055     76.6128
  1455.0000     24.7744   -178.3983     20.8691     81.1503
  1455.2500     24.4505   -178.3058     20.4000     84.4883
  1455.5000     24.0416   -178.1236     19.9279     87.7483
  1455.7500     23.4918   -177.8677     19.4676     88.3811
  1456.0000     22.7551   -177.5637     19.0235     88.1099
  1456.2500     21.8079   -177.2395     18.5892     88.1581
  1456.5000     20.6543   -176.9182     18.1454     89.7754
  1456.7500     19.3333   -176.6157     17.6597     91.8497
  1457.0000     17.9227   -176.3405     17.0995     95.3543
  1457.2500     16.5271   -176.0954     16.4503     97.2908
  1457.5000     15.2548   -175.8791     15.7284     99.5178
  1457.7500     14.1960   -175.6881     14.9751    101.2056
  1458.0000     13.4012   -175.5166     14.2382    105.4286
  1458.2500     12.8681   -175.3580     13.5540    109.6876
  1458.5000     12.5439   -175.2050     12.9391    117.4898
  1458.7500     12.3429   -175.0506     12.3921    122.7271
  1459.0000     12.1740   -174.8880     11.9019    129.2179
  1459.2500     11.9733   -174.7119     11.4578    132.2007
  1459.5000     11.7217   -174.5175     11.0553    134.5577
  1459.7500     11.4364   -174.3024     10.6969    134.8693
  1460.0000     11.1479   -174.0672     10.3895    133.8896
  1460.2500     10.8866   -173.8187     10.1398    132.6451
  1460.5000     10.6791   -173.5699      9.9522    130.6927
  1460.7500     10.5455   -173.3412      9.8270    129.7226
  1461.0000     10.4930   -173.1546      9.7610    128.8268
  1461.2500     10.5136   -173.0284      9.7479    128.2343
  1461.5000     10.5906   -172.9701      9.7798    126.6255
  1461.7500     10.7038   -172.9724      9.8482    124.9643
  1462.0000     10.8267   -173.0143      9.9435    121.9559
  1462.2500     10.9299   -173.0678     10.0550    119.7767
  1462.5000     10.9963   -173.1065     10.1712    116.0976
  1462.7500     11.0291   -173.1135     10.2817    113.2897
  1463.0000     11.0407   -173.0849     10.3803    108.9827
  1463.2500     11.0403   -173.0295     10.4668    106.5314
  1463.5000     11.0388   -172.9631     10.5465    104.1217
  1463.7500     11.0552   -172.9037     10.6272    103.5613
  1464.0000     11.1065   -172.8675     10.7142    104.6256
  1464.2500     11.1871   -172.8668     10.8066    106.8015
  1464.5000     11.2618   -172.9097     10.8948    112.0872
  1464.7500     11.2829   -173.0009     10.9630    116.2736
  1465.0000     11.2188   -173.1414     10.9942    121.7036
  1465.2500     11.0777   -173.3300     10.9777    124.0143
  1465.5000     10.9089   -173.5647     10.9154    125.9279
  1465.7500     10.7759   -173.8445     10.8224    127.0575
  1466.0000     10.7186   -174.1698     10.7216    129.2875
  1466.2500     10.7371   -174.5403     10.6339    130.6991
  1466.5000     10.8050   -174.9497     10.5714    131.6397
  1466.7500     10.8943   -175.3799     10.5353    131.3467
  1467.0000     10.9846   -175.7976     10.5176    129.9249
  1467.2500     11.0569   -176.1550     10.5046    128.5976
  1467.5000     11.0897   -176.3978     10.4803    126.7081
  1467.7500     11.0677   -176.4770     10.4295    126.0509
  1468.0000     10.9876   -176.3612     10.3387    126.4262
  1468.2500     10.8476   -176.0465     10.1963    127.2558
  1468.5000     10.6324   -175.5587      9.9932    128.1201
  1468.7500     10.3143   -174.9490      9.7258    127.8234
  1469.0000      9.8752   -174.2834      9.4003    126.0067
  1469.2500      9.3249   -173.6287      9.0343    124.4992
  1469.5000      8.7000   -173.0399      8.6517    123.1697
  1469.7500      8.0509   -172.5501      8.2754    123.2497
  1470.0000      7.4351   -172.1669      7.9232    124.1332
  1470.2500      6.9114   -171.8747      7.6060    124.4367
  1470.5000      6.5293   -171.6423      7.3305    123.6158
  1470.7500      6.3193   -171.4350      7.0998    122.3411
  1471.0000      6.2892   -171.2271      6.9142    120.1393
  1471.2500      6.4202   -171.0114      6.7719    118.8575
  1471.5000      6.6670   -170.8015      6.6700    117.5163
  1471.7500      6.9685   -170.6283      6.6059    117.1303
  1472.0000      7.2625   -170.5284      6.5773    117.3229
  1472.2500      7.4975   -170.5315      6.5817    117.7018
  1472.5000      7.6429   -170.6504      6.6138    117.9727
  1472.7500      7.6969   -170.8768      6.6653    117.7092
  1473.0000      7.6839   -171.1842      6.7248    116.3863
  1473.2500      7.6385   -171.5355      6.7809    114.6491
  1473.5000      7.5894   -171.8912      6.8253    110.7194
  1473.7500      7.5488   -172.2149      6.8549    107.8019
  1474.0000      7.5144   -172.4756      6.8711    104.4683
  1474.2500      7.4848   -172.6482      6.8780    103.3776
  1474.5000      7.4768   -172.7144      6.8800    103.2648
  1474.7500      7.5143   -172.6653      6.8810    104.1475
  1475.0000      7.5955   -172.5054      6.8843    107.4093
  1475.2500      7.6787   -172.2555      6.8932    111.1111
  1475.5000      7.7126   -171.9505      6.9115    118.3096
  1475.7500      7.6834   -171.6317      6.9433    123.1740
  1476.0000      7.6295   -171.3363      6.9934    128.4795
  1476.2500      7.6150   -171.0878      7.0677    129.9261
  1476.5000      7.6906   -170.8904      7.1722    129.1566
  1476.7500      7.8736   -170.7324      7.3130    127.3923
  1477.0000      8.1560   -170.5948      7.4952    123.8211
  1477.2500      8.5268   -170.4624      7.7228    120.9391
  1477.5000      8.9909   -170.3335      7.9999    115.9787
  1477.7500      9.5672   -170.2235      8.3322    112.6025
  1478.0000     10.2709   -170.1640      8.7281    108.0210
  1478.2500     11.0973   -170.1951      9.1978    104.9964
  1478.5000     12.0282   -170.3561      9.7521     98.7026
  1478.7500     13.0603   -170.6756     10.4004     92.2963
  1479.0000     14.2388   -171.1626     11.1515     79.5019
  1479.2500     15.6764   -171.8019     12.0163     70.1938
  1479.5000     17.5427   -172.5543     13.0130     57.9371
  1479.7500     20.0082   -173.3639     14.1688     51.9655
