~Version Information
VERS.                      2.0: CWLS Log ASCII Standard - VERSION 2.0
WRAP.                       NO: One line per depth step
~Well Information Block
STRT.FT               750.0000: 
STOP.FT              2431.5000: 
STEP.FT                 0.1000: 
NULL.                -999.2500: 
COMP.          Petrogulf Corporation: COMPANY
WELL.           McDaniel 9-34V: WELL
FLD.           Purgatorie River: FIELD
LOC.           620' FSL & 1800' FEL: LOCATION
PROV.                 Colorado: PROVINCE
CNTY.               Las Animas: COUNTRY
SRVC.                Patterson: SERVICE COMPANY
DATE.          Wed Sep 28 07:18:04 2005: LOG DATE
UWI.                          : UNIQUE WELL ID
~Curve Information Block
DEPT.FT            0 000 00 00: Depth
DCAL.in                       : CDL Caliper
RHOB.g/cc                     : CDL Bulk Density
RHOC.g/cc                     : CDL Density Correction
DPOR.pu                       : CDL Density Porosity
GR.GAPI                       : Gamma Ray
NPOR.pu                       : Neutron Porosity
~Parameter Information Block
~A  Depth       DCAL        RHOB        RHOC        DPOR         GR         NPOR    
# ...
  1527.6000      7.9569      2.6224     -0.0229      1.6741     88.8595     19.4876
  1527.7000      7.9569      2.6199     -0.0075      1.8233     84.4839     19.2368
  1527.8000      7.9520      2.6224      0.0266      1.6729     79.8294     18.5316
  1527.9000      7.9520      2.6108      0.0177      2.3733     77.2942     17.5690
  1528.0000      7.9473      2.5943     -0.0142      3.3733     77.6152     16.8740
  1528.1000      7.9473      2.5849      0.0167      3.9455     79.3485     16.7161
  1528.2000      7.9473      2.5752     -0.0206      4.5355     80.9136     17.0805
  1528.3000      7.9444      2.5651     -0.0099      5.1450     81.4283     17.8718
  1528.4000      7.9444      2.5668     -0.0157      5.0402     81.1959     18.7003
  1528.5000      7.9415      2.5845      0.0146      3.9669     81.0741     19.0994
  1528.6000      7.9415      2.6121      0.0283      2.2988     80.8556     18.9903
  1528.7000      7.9415      2.6513      0.0422     -0.0789     81.2620     18.6413
  1528.8000      7.9378      2.7024      0.1354     -3.1731     83.8945     18.3420
  1528.9000      7.9378      2.7358      0.1832     -5.1973     87.7289     18.3747
  1529.0000      7.9424      2.7216      0.1779     -4.3416     92.4051     19.0567
  1529.1000      7.9424      2.6755      0.0897     -1.5446     98.6299     20.2996
  1529.2000      7.9424      2.6365      0.0476      0.8191    103.4165     21.3659
  1529.3000      7.9434      2.6218      0.0271      1.7086    106.2453     21.7557
  1529.4000      7.9434      2.6108      0.0940      2.3745    111.8349     21.7484
  1529.5000      7.9460      2.5786      0.0191      4.3300    121.0477     21.7680
  1529.6000      7.9460      2.5417     -0.0608      6.5643    128.8593     21.8763
  1529.7000      7.9460      2.5275     -0.0245      7.4235    134.0123     21.8569
  1529.8000      7.9558      2.5273     -0.0074      7.4391    139.5643     21.7351
  1529.9000      7.9558      2.5248     -0.0346      7.5899    145.4396     22.1071
  1530.0000      7.9978      2.5158      0.0366      8.1313    149.2604     23.5267
  1530.1000      7.9978      2.4944      0.0242      9.4311    149.8576     25.3594
  1530.2000      7.9978      2.4712     -0.0151     10.8350    148.9722     26.2344
  1530.3000      8.0287      2.4793     -0.0597     10.3455    148.5575     25.9181
  1530.4000      8.0287      2.5254      0.0360      7.5532    148.4238     25.4191
  1530.5000      8.1051      2.5686      0.1049      4.9337    150.9764     25.3213
  1530.6000      8.1051      2.5779      0.0850      4.3673    157.7426     25.4823
  1530.7000      8.1051      2.5660      0.0637      5.0896    163.2193     25.9145
  1530.8000      8.1017      2.5569      0.0498      5.6423    163.2030     26.6147
  1530.9000      8.1017      2.5601      0.0559      5.4504    162.1938     27.2005
  1531.0000      8.0113      2.5693      0.0552      4.8923    164.4733     27.3290
  1531.1000      8.0113      2.5762      0.0084      4.4700    167.4555     27.1769
  1531.2000      8.0113      2.5809      0.0663      4.1863    167.8974     27.0593
  1531.3000      8.0099      2.5833      0.0364      4.0440    164.4651     27.0263
  1531.4000      8.0099      2.5772      0.0663      4.4117    158.1913     27.0238
  1531.5000      7.9925      2.5587     -0.0055      5.5307    153.3789     26.9384
  1531.6000      7.9925      2.5420     -0.0014      6.5445    151.8048     26.6578
  1531.7000      7.9925      2.5441      0.0487      6.4205    152.7135     26.1345
  1531.8000      7.9796      2.5672      0.0291      5.0155    156.9494     25.4838
  1531.9000      7.9796      2.5963      0.1198      3.2572    162.2889     25.1041
  1532.0000      7.9940      2.6055      0.1130      2.6989    164.8951     25.3226
  1532.1000      7.9940      2.5927      0.0696      3.4752    165.9780     26.0140
  1532.2000      7.9940      2.5800      0.0514      4.2413    168.3997     26.6732
  1532.3000      8.0072      2.5777      0.0825      4.3823    171.7242     26.9940
  1532.4000      8.0072      2.5816      0.0184      4.1458    172.8273     27.2521
  1532.5000      8.0077      2.5879      0.0768      3.7613    169.2624     27.4981
  1532.6000      8.0077      2.5903      0.0515      3.6185    160.8459     27.4364
  1532.7000      8.0077      2.5861      0.0836      3.8716    153.0147     27.2179
  1532.8000      8.0088      2.5793      0.0584      4.2836    151.7648     27.0567
  1532.9000      8.0088      2.5749      0.0491      4.5524    156.4158     26.9256
  1533.0000      8.0184      2.5748      0.0465      4.5599    162.3053     26.8475
  1533.1000      8.0184      2.5737      0.0927      4.6260    164.5528     26.8767
  1533.2000      8.0184      2.5618      0.0796      5.3456    163.2352     27.1638
  1533.3000      8.0224      2.5411      0.0313      6.5971    163.0794     27.7333
  1533.4000      8.0224      2.5209      0.0174      7.8251    163.4486     28.1665
  1533.5000      8.0279      2.5031      0.0020      8.9057    161.6712     28.1116
  1533.6000      8.0279      2.4908      0.0079      9.6510    159.2749     27.8149
  1533.7000      8.0279      2.4912     -0.0101      9.6262    157.5857     27.7631
  1533.8000      8.0269      2.5047      0.0333      8.8072    156.3294     28.0708
  1533.9000      8.0269      2.5264      0.0451      7.4892    154.7748     28.4873
  1534.0000      8.0153      2.5608      0.0517      5.4088    154.7204     28.8056
  1534.1000      8.0153      2.6129      0.0855      2.2478    156.4297     29.1483
  1534.2000      8.0153      2.6693      0.0889     -1.1722    155.4610     29.5024
  1534.3000      8.0198      2.7065      0.1114     -3.4239    152.9942     29.5426
  1534.4000      8.0198      2.7161      0.1097     -4.0089    151.7049     29.1780
  1534.5000      8.0187      2.7078      0.1060     -3.5037    149.4095     28.8397
  1534.6000      8.0187      2.6868      0.0472     -2.2297    149.2307     28.7927
  1534.7000      8.0187      2.6426      0.0623      0.4495    155.8515     28.6441
  1534.8000      8.0094      2.5710     -0.0708      4.7869    163.2818     28.2260
  1534.9000      8.0094      2.5028     -0.1564      8.9231    165.8795     28.0339
  1535.0000      8.0434      2.4710     -0.1013     10.8489    167.4248     28.3560
  1535.1000      8.0434      2.4753     -0.1001     10.5884    168.3432     28.7703
  1535.2000      8.0434      2.4952      0.0450      9.3820    166.6021     28.8214
  1535.3000      8.0410      2.5069      0.0581      8.6707    167.3930     28.5358
  1535.4000      8.0410      2.5058      0.0262      8.7398    173.8166     28.1554
  1535.5000      8.1032      2.5010      0.0606      9.0297    180.6341     28.1204
  1535.6000      8.1032      2.4955      0.0654      9.3622    180.2483     28.6285
  1535.7000      8.1032      2.4886      0.0890      9.7829    173.6360     29.3092
  1535.8000      8.0401      2.4808      0.0647     10.2575    169.1408     29.8488
  1535.9000      8.0401      2.4752      0.0454     10.5949    169.1461     30.0578
  1536.0000      8.0323      2.4644      0.0793     11.2474    171.8035     29.7819
  1536.1000      8.0323      2.4444     -0.0107     12.4629    175.6498     29.1173
  1536.2000      8.0323      2.4359     -0.0204     12.9750    177.2050     28.3891
  1536.3000      8.0328      2.4465      0.0455     12.3312    173.5074     28.0150
  1536.4000      8.0328      2.4669      0.0129     11.0980    167.4970     28.1583
  1536.5000      8.0459      2.5004      0.0278      9.0638    166.6525     28.6632
  1536.6000      8.0459      2.5408      0.1324      6.6180    170.2566     29.1185
  1536.7000      8.0459      2.5685      0.1463      4.9406    169.6626     29.1592
  1536.8000      8.1208      2.5792      0.1259      4.2883    165.3524     28.9781
  1536.9000      8.1208      2.5835      0.1250      4.0281    166.4818     28.9908
  1537.0000      8.0747      2.5888      0.1183      3.7094    171.5292     29.1629
  1537.1000      8.0747      2.5914      0.0788      3.5543    170.5186     29.2960
