~Version Information
VERS.                      2.0: CWLS Log ASCII Standard - VERSION 2.0
WRAP.                       NO: One line per depth step
~Well Information Block
STRT.FT               340.0000: 
STOP.FT              1542.5000: 
STEP.FT                 0.2500: 
NULL.                -999.2500: 
COMP.          Petrogulf Corporation: COMPANY
WELL.            Montoya 7-21R: WELL
FLD.           Purgatorie River: FIELD
LOC.           445' FNL & 1942' FWL: LOCATION
PROV.                 Colorado: PROVINCE
CNTY.               Las Animas: COUNTRY
SRVC.                Patterson: SERVICE COMPANY
DATE.          Thu Sep 15 10:37:42 2005: LOG DATE
UWI.                          : UNIQUE WELL ID
~Curve Information Block
DEPT.FT            0 000 00 00: Depth
SP.mV                         : DIL Spontaneous Potential
RILD.Ohm-m                    : DIL Deep Resistivity
RILM.Ohm-m                    : DIL Medium Resistivity
RLL3.Ohm-m                    : DIL Shallow Resistivity
GR.GAPI                       : Gamma Ray
~Parameter Information Block
~A  Depth        SP         RILD        RILM        RLL3         GR     
# ...
   648.0000   2000.0000     15.5478     15.6277   2000.0000    119.0480
   648.2500   2000.0000     15.1273     15.8727   2000.0000    123.5172
   648.5000   2000.0000     15.0572     15.9703   2000.0000    144.3704
   648.7500   2000.0000     14.7948     16.1322   2000.0000    135.5372
   649.0000   2000.0000     14.4745     15.8740   2000.0000    134.9368
   649.2500   2000.0000     14.0474     15.4186   2000.0000    126.4115
   649.5000   2000.0000     13.7824     14.5889   2000.0000    118.3333
   649.7500   2000.0000     13.4655     13.8886   2000.0000    118.2658
   650.0000   2000.0000     13.3495     13.1358   2000.0000    120.1979
   650.2500   2000.0000     13.3587     12.4807   2000.0000    131.7455
   650.5000   2000.0000     13.2574     11.9654   2000.0000    130.0232
   650.7500   2000.0000     13.2033     11.8563   2000.0000    143.8873
   651.0000   2000.0000     13.0100     11.8786   2000.0000    156.0381
   651.2500   2000.0000     13.1388     11.9188   2000.0000    165.0646
   651.5000   2000.0000     12.9370     12.0357   2000.0000    167.8008
   651.7500   2000.0000     12.9005     12.1617   2000.0000    169.9373
   652.0000   2000.0000     12.6384     12.4053   2000.0000    164.3581
   652.2500   2000.0000     12.4022     12.7364   2000.0000    158.4486
   652.5000   2000.0000     12.1982     12.8932   2000.0000    180.6911
   652.7500   2000.0000     12.1494     13.0633   2000.0000    155.6121
   653.0000   2000.0000     12.0959     13.0878   2000.0000    131.5991
   653.2500   2000.0000     12.1162     13.0992   2000.0000    156.5848
   653.5000   2000.0000     12.0721     12.9005   2000.0000    162.7205
   653.7500   2000.0000     12.3543     12.4954   2000.0000    160.6945
   654.0000   2000.0000     12.2893     12.0358   2000.0000    169.2866
   654.2500   2000.0000     12.4113     11.7932   2000.0000    174.6580
   654.5000   2000.0000     12.3315     11.3767   2000.0000    159.3304
   654.7500   2000.0000     12.5929     11.1954   2000.0000    169.5661
   655.0000   2000.0000     12.7424     11.1274   2000.0000    169.0748
   655.2500   2000.0000     12.8677     10.9802   2000.0000    169.4054
   655.5000   2000.0000     12.9816     11.0028   2000.0000    182.0286
   655.7500   2000.0000     13.2095     11.2319   2000.0000    172.5003
   656.0000   2000.0000     13.3382     11.6498   2000.0000    168.8590
   656.2500   2000.0000     13.4564     12.1124   2000.0000    169.7582
   656.5000   2000.0000     13.9580     12.6048   2000.0000    151.4380
   656.7500   2000.0000     14.5844     13.5423   2000.0000    168.3178
   657.0000   2000.0000     15.2092     14.7915   2000.0000    162.8685
   657.2500   2000.0000     15.7247     15.7617   2000.0000    149.8689
   657.5000   2000.0000     16.7384     17.2706   2000.0000    148.3808
   657.7500   2000.0000     18.5752     18.9668   2000.0000    139.6842
   658.0000   2000.0000     20.0368     21.1701   2000.0000    142.3393
   658.2500   2000.0000     19.5305     22.8523   2000.0000    143.7263
   658.5000   2000.0000     20.6601     24.9898   2000.0000    131.6051
   658.7500   2000.0000     21.1181     25.9107   2000.0000    132.1054
   659.0000   2000.0000     21.4918     26.5988   2000.0000    115.8175
   659.2500   2000.0000     22.2764     26.4391   2000.0000    113.4327
   659.5000   2000.0000     22.6624     26.1703   2000.0000    104.9191
   659.7500   2000.0000     22.5871     24.9116   2000.0000     98.7601
   660.0000   2000.0000     22.5033     23.7929   2000.0000    115.4090
   660.2500   2000.0000     22.0263     23.7983   2000.0000    144.7266
   660.5000   2000.0000     21.8866     23.0955   2000.0000    132.7387
   660.7500   2000.0000     21.4747     22.1899   2000.0000    124.0138
   661.0000   2000.0000     20.2013     21.5392   2000.0000    116.6827
   661.2500   2000.0000     19.6856     21.3122   2000.0000    120.0562
   661.5000   2000.0000     18.7246     22.2177   2000.0000    125.8772
   661.7500   2000.0000     17.7107     20.3960   2000.0000    117.6007
   662.0000   2000.0000     17.2140     17.2398   2000.0000    127.9536
   662.2500   2000.0000     17.1786     16.1445   2000.0000    120.5270
   662.5000   2000.0000     17.6844     15.6063   2000.0000    113.3296
   662.7500   2000.0000     17.8923     16.0798   2000.0000    109.7992
   663.0000   2000.0000     18.2381     15.5980   2000.0000    145.7210
   663.2500   2000.0000     18.8429     15.7174   2000.0000    148.5232
   663.5000   2000.0000     18.8960     16.5066   2000.0000    143.0429
   663.7500   2000.0000     19.5329     17.8928   2000.0000    134.1940
   664.0000   2000.0000     20.0400     19.3245   2000.0000    138.0915
   664.2500   2000.0000     20.6775     21.0567   2000.0000    123.7072
   664.5000   2000.0000     19.7708     23.2177   2000.0000    121.1828
   664.7500   2000.0000     19.2561     23.9461   2000.0000    117.7364
   665.0000   2000.0000     19.2941     24.3011   2000.0000    118.6293
   665.2500   2000.0000     19.1409     24.3691   2000.0000    122.4515
   665.5000   2000.0000     18.8708     24.5144   2000.0000    117.6871
   665.7500   2000.0000     19.2033     24.5144   2000.0000    117.5569
   666.0000   2000.0000     19.5023     22.2621   2000.0000    107.9144
   666.2500   2000.0000     19.6438     21.4460   2000.0000    103.0129
   666.5000   2000.0000     19.4890     20.0123   2000.0000    112.4565
   666.7500   2000.0000     19.4729     18.9651   2000.0000    116.6250
   667.0000   2000.0000     19.0446     18.6684   2000.0000    124.6901
   667.2500   2000.0000     18.4186     18.6465   2000.0000    146.4857
   667.5000   2000.0000     18.0635     18.3355   2000.0000    169.5484
   667.7500   2000.0000     17.3736     18.3141   2000.0000    170.3496
   668.0000   2000.0000     16.5917     17.7996   2000.0000    151.4020
   668.2500   2000.0000     16.2295     17.0145   2000.0000    132.5679
   668.5000   2000.0000     16.2452     16.1205   2000.0000    135.2358
   668.7500   2000.0000     15.7359     15.5336   2000.0000    137.2874
   669.0000   2000.0000     15.4323     15.1471   2000.0000    157.8467
   669.2500   2000.0000     15.1384     15.1685   2000.0000    143.8322
   669.5000   2000.0000     14.8269     15.2594   2000.0000    147.9294
   669.7500   2000.0000     14.3073     15.4443   2000.0000    132.3871
   670.0000   2000.0000     13.9819     15.3904   2000.0000    148.2380
   670.2500   2000.0000     13.5801     15.0475   2000.0000    155.9140
   670.5000   2000.0000     13.3956     14.3916   2000.0000    146.5087
   670.7500   2000.0000     13.0647     13.5702   2000.0000    141.7421
   671.0000   2000.0000     12.9138     12.9731   2000.0000    135.5260
   671.2500   2000.0000     12.8378     12.6034   2000.0000    132.8957
   671.5000   2000.0000     12.9822     12.3258   2000.0000    120.5027
   671.7500   2000.0000     13.1247     12.2875   2000.0000    135.3304
   672.0000   2000.0000     13.2540     12.3070   2000.0000    131.9129
   672.2500   2000.0000     13.0034     12.4669   2000.0000    138.7591
   672.5000   2000.0000     12.9400     12.3969   2000.0000    136.5101
   672.7500   2000.0000     12.7232     12.3876   2000.0000    127.9971
   673.0000   2000.0000     12.4988     12.6160   2000.0000    127.2834
   673.2500   2000.0000     12.4996     12.7014   2000.0000    141.8812
   673.5000   2000.0000     12.3565     12.6943   2000.0000    139.7684
   673.7500   2000.0000     12.2815     12.6473   2000.0000    139.2641
   674.0000   2000.0000     12.2163     12.5393   2000.0000    159.2739
   674.2500   2000.0000     12.3750     12.4539   2000.0000    135.8008
   674.5000   2000.0000     12.3823     12.3033   2000.0000    125.3476
   674.7500   2000.0000     12.8689     12.2787   2000.0000    126.5097
   675.0000   2000.0000     13.3259     12.2559   2000.0000    138.0446
   675.2500   2000.0000     13.4409     12.2642   2000.0000    149.0735
   675.5000   2000.0000     13.4815     12.2462   2000.0000    141.0099
   675.7500    168.6534     13.9218     12.5416     16.9087    155.3747
