~Version Information
VERS.                      2.0: CWLS Log ASCII Standard - VERSION 2.0
WRAP.                       NO: One line per depth step
~Well Information Block
STRT.FT               433.5000: 
STOP.FT              1880.2500: 
STEP.FT                 0.2500: 
NULL.                -999.2500: 
COMP.          Pioneer Natural Resources: COMPANY
WELL.           Buckhorn 12-21: WELL
FLD.           Purgatorie River: FIELD
LOC.           2450' FNL & 608' FWL--: LOCATION
PROV.                       CO: PROVINCE
CNTY.               Las Animas: COUNTRY
SRVC.                         : SERVICE COMPANY
DATE.          Fri Dec 03 14:13:08 2004: LOG DATE
UWI.          005 071 08129 : UNIQUE WELL ID
~Curve Information Block
DEPT.FT            0 000 00 00: Depth
NPOR.pu                       : Neutron Porosity
CCL.                          : Casing Collar Locator
TT3.usec                      : CBL 3' Travel Time
AMP3.mV                       : CBL 3' Amplitude
GR.GAPI                       : Gamma Ray
~Parameter Information Block
~A  Depth       NPOR        CCL         TT3         AMP3         GR     
# ...
  1665.5000     27.6755      0.0000    437.1273      1.5646    143.6812
  1665.7500     27.6178      0.0000    437.5850      1.5856    145.9626
  1666.0000     27.5961      0.0000    437.9695      1.5982    147.5525
  1666.2500     27.6321      0.0000    438.4414      1.6176    148.7518
  1666.5000     27.6053      0.0000    439.8905      1.6635    149.3958
  1666.7500     27.3304      0.0000    444.3742      1.7483    148.8448
  1667.0000     26.7418      0.0000    454.2915      1.8607    146.4814
  1667.2500     26.0160      0.0000    469.4791      1.9673    142.1602
  1667.5000     25.4674      0.0000    484.4581      2.0385    136.3162
  1667.7500     25.3088      0.0000    490.6360      2.0725    130.0265
  1668.0000     25.5337      0.0000    483.5706      2.0932    125.0811
  1668.2500     25.9975      0.0000    467.3084      2.1230    123.3370
  1668.5000     26.5392      0.0000    450.2397      2.1549    125.2717
  1668.7500     27.0127      0.0000    437.9821      2.1552    129.3493
  1669.0000     27.2762      0.0000    431.1895      2.1008    133.2882
  1669.2500     27.2107      0.0000    428.2430      2.0092    135.7383
  1669.5000     26.7595      0.0000    428.3418      1.9234    136.3529
  1669.7500     25.9616      0.0000    432.7473      1.8756    134.6798
  1670.0000     24.9784      0.0000    444.1839      1.8709    129.8677
  1670.2500     24.0709      0.0000    464.4549      1.8962    121.7436
  1670.5000     23.4731      0.0000    491.4403      1.9323    111.5938
  1670.7500     23.2284      0.0000    519.1556      1.9605    101.4156
  1671.0000     23.1574      0.0000    542.6608      1.9694     92.8152
  1671.2500     23.0084      0.0000    562.6628      1.9623     87.0153
  1671.5000     22.6386      0.0000    582.7464      1.9544     85.0745
  1671.7500     22.0687      0.0000    602.6209      1.9569     87.0403
  1672.0000     21.4190      0.0000    617.8783      1.9643     91.1146
  1672.2500     20.8323      0.0000    626.5826      1.9590     94.5902
  1672.5000     20.4259      0.0000    631.9092      1.9292     95.8250
  1672.7500     20.2637      0.0000    636.7785      1.8813     95.1165
  1673.0000     20.3464      0.0000    638.5000      1.8373     93.9843
  1673.2500     20.6168      0.0000    630.3274      1.8162     93.9166
  1673.5000     20.9892      0.0000    607.8900      1.8161     95.4688
  1673.7500     21.4085      0.0000    573.7365      1.8153     98.0556
  1674.0000     21.8962      0.0000    535.5269      1.7951    100.3745
  1674.2500     22.5124      0.0000    500.3889      1.7619    101.1429
  1674.5000     23.2587      0.0000    472.1522      1.7422     99.9547
  1674.7500     24.0316      0.0000    453.3133      1.7531     97.8496
  1675.0000     24.6949      0.0000    447.4941      1.7823     96.9793
  1675.2500     25.2000      0.0000    458.9432      1.8028     99.4088
  1675.5000     25.6383      0.0000    489.0637      1.8033    105.6578
  1675.7500     26.1857      0.0000    532.6634      1.7971    113.6965
  1676.0000     26.9823      0.0000    578.6060      1.8054    119.6417
  1676.2500     28.0451      0.0000    616.6804      1.8440    120.6911
  1676.5000     29.2880      0.0000    644.0331      1.9207    117.8199
  1676.7500     30.5878      0.0000    663.6108      2.0318    114.9485
  1677.0000     31.8095      0.0000    677.8909      2.1536    115.3421
  1677.2500     32.8189      0.0000    686.5392      2.2502    119.2503
  1677.5000     33.5183      0.0000    689.0980      2.2961    124.6772
  1677.7500     33.8475      0.0000    687.4664      2.2940    129.5636
  1678.0000     33.7367      0.0000    685.3315      2.2663    133.1873
  1678.2500     33.1118      0.0000    685.7202      2.2332    136.0178
  1678.5000     31.9878      0.0000    689.1174      2.2036    138.3203
  1678.7500     30.5425      0.0000    693.7887      2.1841    138.9842
  1679.0000     29.0790      0.0000    697.7141      2.1865    136.3256
  1679.2500     27.9089      0.0000    699.9935      2.2173    130.2857
  1679.5000     27.2330      0.0000    700.5215      2.2662    123.2018
  1679.7500     27.0770      0.0000    698.6345      2.3104    118.0760
  1680.0000     27.2874      0.0000    691.6938      2.3347    116.5273
  1680.2500     27.5909      0.0000    674.8704      2.3421    118.3533
  1680.5000     27.7169      0.0000    643.9365      2.3404    122.2024
  1680.7500     27.5324      0.0000    601.0119      2.3264    126.3975
  1681.0000     27.0895      0.0000    557.9537      2.2975    129.7756
  1681.2500     26.5367      0.0000    531.2462      2.2740    132.0984
  1681.5000     25.9708      0.0000    530.7972      2.2851    133.5203
  1681.7500     25.3768      0.0000    553.2516      2.3241    133.7283
  1682.0000     24.7231      0.0000    586.0137      2.3429    131.8831
  1682.2500     24.1127      0.0000    616.8646      2.3079    127.6083
  1682.5000     23.8111      0.0000    640.1244      2.2404    122.0979
  1682.7500     24.0875      0.0000    656.1845      2.1833    118.0270
  1683.0000     25.0131      0.0000    667.9698      2.1447    118.0414
  1683.2500     26.3967      0.0000    678.3209      2.0967    123.1852
  1683.5000     27.8970      0.0000    688.9648      2.0188    132.2397
  1683.7500     29.1974      0.0000    700.2898      1.9239    142.0296
  1684.0000     30.0954      0.0000    711.4500      1.8475    148.8043
  1684.2500     30.4779      0.0000    720.4922      1.8166    150.2538
  1684.5000     30.2861     -2.0000    724.8000      1.8227    146.4463
  1684.7500     29.5529      0.0000    722.6647      1.8302    138.8723
  1685.0000     28.4785      0.0000    715.0818      1.8249    129.0312
  1685.2500     27.4313      0.0000    705.7230      1.8430    118.0772
  1685.5000     26.8280      0.0000    698.5494      1.9254    107.1959
  1685.7500     26.9517      0.0000    695.0101      2.0505     97.6193
  1686.0000     27.8232      0.0000    693.3618      2.1370     90.1791
  1686.2500     29.2119      0.0000    690.7986      2.1122     84.9818
  1686.5000     30.7712      0.0000    686.3569      1.9642     81.3678
  1686.7500     32.2011      0.0000    681.9120      1.7439     78.0956
  1687.0000     33.3448      0.0000    680.4931      1.5298     73.9393
  1687.2500     34.1744      0.0000    683.5314      1.3769     68.5336
  1687.5000     34.7194      0.0000    689.6439      1.2875     62.7229
  1687.7500     35.0342      0.0000    695.9624      1.2332     58.0681
  1688.0000     35.2220      0.0000    700.3988      1.2010     55.9008
  1688.2500     35.4285      0.0000    702.5829      1.2015     56.6104
  1688.5000     35.7673      0.0000    703.1745      1.2402     59.5149
  1688.7500     36.2462      0.0000    702.9058      1.3021     63.4156
  1689.0000     36.7428      0.0000    702.2322      1.3679     67.5680
  1689.2500     37.0362      0.0000    701.3735      1.4326     72.2673
  1689.5000     36.9167      0.0000    700.3167      1.5008     78.3603
  1689.7500     36.3216      0.0000    698.8557      1.5744     86.2052
  1690.0000     35.3542      0.0000    696.9631      1.6513     95.3243
  1690.2500     34.1630      0.0000    695.2103      1.7314    104.9734
  1690.5000     32.8478      0.0000    694.4623      1.8150    114.7429
  1690.7500     31.5034      0.0000    694.7720      1.9000    124.5946
  1691.0000     30.2930      0.0000    694.7569      1.9856    134.4697
  1691.2500     29.4110      0.0000    692.5443      2.0726    143.8203
  1691.5000     28.9675      0.0000    687.5227      2.1542    151.5876
  1691.7500     28.9217      0.0000    681.1326      2.2140    156.8550
  1692.0000     29.1232      0.0000    675.8611      2.2386    159.4586
  1692.2500     29.4141      0.0000    673.3237      2.2283    159.8353
  1692.5000     29.7062      0.0000    673.1946      2.1953    158.4808
  1692.7500     29.9855      0.0000    674.0320      2.1582    155.7847
  1693.0000     30.2705      0.0000    675.1149      2.1339    152.2443
  1693.2500     30.5753      0.0000    677.1514      2.1280    148.6834
