~Version Information
 VERS.                                  2.0 : CWLS LAS VERSION
 WRAP.                                   NO : WRAPING MODE
 SWARE .                 MController 2.5.0J : SOFTWARE VERSION
~Well Information
 WELL.                         Norton 9-14V : WELL
 COMP.                       Petrogulf Corp : COMPANY
 FLD.                      Purgatoire River : FIELD
 LOC.                 SW/SW Sec 9 T33S R67W : LOCATION
 DATE.                             10/27/04 : DATE(S) LOGGED
 SRVC.      Blanco Geological Servivces LLC : SERVICE COMPANY
 STAT.                                   CO : STATE
 CNTY.                           Las Animas : COUNTY
 CTRY.                                  USA : COUNTRY
 API.                       05-071-07891-00 : API NUMBER
 STRT.FT                             752.00 : START DEPTH
 STOP.FT                            2427.00 : STOP DEPTH
 STEP.FT                               1.00 : DEPTH INCREMENT
 NULL.                                -9999 : NULL VALUE
~Curve information
 DEPTH.FT                                   :
 ROP.MIN/FT                                 :
 GAS.UNITS                                  :
~ASCII Log data
# ...
       952.0         0.20         12.3 
       953.0         0.20         11.7 
       954.0         0.17         11.7 
       955.0         0.17         11.6 
       956.0         0.37         11.6 
       957.0         0.27         11.6 
       958.0         0.30         12.2 
       959.0         0.27         12.1 
       960.0         0.37         12.5 
       961.0         0.33         11.3 
       962.0         0.27         11.6 
       963.0         0.23         11.6 
       964.0         0.13         11.5 
       965.0         0.13         11.5 
       966.0         0.27         12.4 
       967.0         0.23         12.2 
       968.0         0.25         12.0 
       969.0         0.20         12.9 
       970.0         0.20         13.0 
       971.0         0.17         12.1 
       972.0         0.20         12.1 
       973.0         0.17         12.4 
       974.0         0.13         12.4 
       975.0         0.10         12.1 
       976.0         0.13         12.1 
       977.0         0.23         12.0 
       978.0         0.17         11.7 
       979.0         0.17         11.4 
       980.0         0.20         11.4 
       981.0         0.20         11.1 
       982.0         0.20         11.4 
       983.0         0.20         11.8 
       984.0         0.20         12.1 
       985.0         0.23         11.5 
       986.0         0.18         11.2 
       987.0         0.37         11.3 
       988.0         0.27         11.8 
       989.0         0.28         11.7 
       990.0         0.27         11.9 
       991.0         0.23         11.6 
       992.0         0.23         12.6 
       993.0         0.23         12.2 
       994.0         0.23         12.8 
       995.0         0.17         12.8 
       996.0         0.30         13.7 
       997.0         0.40         13.2 
       998.0         0.30         13.3 
       999.0         0.30         12.4 
      1000.0         0.20         13.1 
      1001.0         0.13         12.2 
      1002.0         0.17         12.2 
      1003.0         0.10         13.2 
      1004.0         0.18         13.3 
      1005.0         0.17         13.3 
      1006.0         0.20         12.7 
      1007.0         0.23         12.4 
      1008.0         0.23         12.1 
      1009.0         0.23         12.3 
      1010.0         0.20         11.6 
      1011.0         0.20         11.5 
      1012.0         0.17         11.5 
      1013.0         0.20         11.3 
      1014.0         0.20         12.0 
      1015.0         0.27         12.1 
      1016.0         0.27         12.1 
      1017.0         0.27         12.5 
      1018.0         0.17         12.1 
      1019.0         0.27         12.0 
      1020.0         0.23         12.2 
      1021.0         0.37         13.9 
      1022.0         0.23         13.7 
      1023.0         0.23         12.9 
      1024.0         0.20         11.9 
      1025.0         0.23         12.0 
      1026.0         0.22         11.3 
      1027.0         0.20         11.4 
      1028.0         0.13         12.1 
      1029.0         0.10         12.1 
      1030.0         0.13         12.6 
      1031.0         0.20         11.9 
      1032.0         0.17         12.0 
      1033.0         0.20         12.7 
      1034.0         0.20         13.2 
      1035.0         0.17         13.2 
      1036.0         0.20         13.2 
      1037.0         0.20         13.1 
      1038.0         0.17         13.1 
      1039.0         0.13         13.2 
      1040.0         0.20         13.2 
      1041.0         0.20         12.9 
      1042.0         0.13         12.9 
      1043.0         0.17         13.6 
      1044.0         0.32         12.9 
      1045.0         0.20         12.4 
      1046.0         0.33         12.3 
      1047.0         0.37         12.8 
      1048.0         0.30         13.5 
      1049.0         0.30         13.1 
      1050.0         0.23         13.1 
      1051.0         0.23         12.2 
      1052.0         0.35         12.0 
      1053.0         0.37         12.7 
      1054.0         0.17         12.4 
      1055.0         0.23         11.7 
      1056.0         0.27         10.9 
      1057.0         0.23         11.0 
      1058.0         0.30         12.0 
      1059.0         0.30         12.4 
      1060.0         0.33         12.8 
      1061.0         0.20         12.4 
      1062.0         0.23         14.5 
      1063.0         0.20         14.0 
      1064.0         0.25         14.0 
      1065.0         0.20         14.0 
      1066.0         0.23         13.8 
      1067.0         0.27         13.5 
      1068.0         0.23         12.8 
      1069.0         0.23         12.3 
      1070.0         0.17         12.3 
      1071.0         0.20         12.7 
      1072.0         0.20         13.6 
      1073.0         0.17         14.1 
      1074.0         0.17         14.7 
      1075.0         0.23         15.2 
      1076.0         0.23         17.0 
      1077.0         0.27         17.9 
      1078.0         0.23         18.3 
      1079.0         0.33         17.1 
      1080.0         0.25         16.2 
      1081.0         0.13         15.5 
      1082.0         0.10         15.5 
      1083.0         0.17         15.3 
      1084.0         0.20         14.9 
      1085.0         0.10         14.4 
      1086.0         0.10         13.4 
      1087.0         0.13         13.3 
      1088.0         0.13         13.3 
      1089.0         0.10         13.4 
      1090.0         0.10         12.1 
      1091.0         0.27         12.6 
      1092.0         0.20         13.3 
      1093.0         0.13         13.0 
      1094.0         0.13         13.2 
      1095.0         0.27         13.7 
      1096.0         0.20         14.8 
      1097.0         0.20         14.8 
      1098.0         0.17         15.0 
      1099.0         0.20         14.5 
      1100.0         0.17         14.5 
      1101.0         0.18         13.8 
      1102.0         0.20         13.0 
      1103.0         0.13         12.8 
      1104.0         0.10         12.7 
      1105.0         0.20         12.4 
      1106.0         0.27         11.6 
      1107.0         0.40         12.1 
      1108.0         0.33         12.2 
      1109.0         0.23         12.0 
      1110.0         0.30         11.9 
      1111.0         0.28         11.9 
      1112.0         0.33         11.6 
      1113.0         0.17         11.8 
      1114.0         0.17         11.5 
      1115.0         0.33         12.2 
      1116.0         0.30         12.4 
      1117.0         0.37         11.9 
      1118.0         0.20         11.6 
      1119.0         0.17         11.6 
      1120.0         0.23         12.0 
      1121.0         0.33         12.0 
      1122.0         0.30         11.4 
      1123.0         0.32         12.4 
      1124.0         0.30         12.4 
      1125.0         0.27         12.7 
      1126.0         0.27         12.6 
      1127.0         0.23         12.1 
      1128.0         0.23         11.9 
      1129.0         0.23         12.5 
      1130.0         0.20         12.3 
      1131.0         0.27         11.5 
      1132.0         0.23         11.7 
      1133.0         0.20         12.2 
      1134.0         0.20         12.0 
      1135.0         0.13         12.1 
      1136.0         0.20         12.1 
      1137.0         0.33         12.3 
      1138.0         0.27         12.7 
      1139.0         0.33         12.9 
      1140.0         0.30         12.7 
      1141.0         0.23         12.9 
      1142.0         0.20         13.1 
      1143.0         0.23         14.2 
      1144.0         0.20         21.4 
      1145.0         0.17         19.8 
      1146.0         0.20         20.8 
      1147.0         0.17         23.7 
      1148.0         0.17         24.8 
      1149.0         0.17         24.8 
      1150.0         0.18         24.8 
      1151.0         0.17         24.6 
