~Version Information
VERS.                      2.0: CWLS Log ASCII Standard - VERSION 2.0
WRAP.                       NO: One line per depth step
~Well Information Block
STRT.FT               -12.0000: 
STOP.FT              2137.5000: 
STEP.FT                 0.2500: 
NULL.                -999.2500: 
COMP.          Pioneer Natural Resources: COMPANY
WELL.           Ogallela 44-12: WELL
FLD.           Purgatorie River: FIELD
LOC.           610' FSL & 671' FEL------------: LOCATION
PROV.                       CO: PROVINCE
CNTY.               Las Animas: COUNTRY
SRVC.          Patterson Wireline: SERVICE COMPANY
DATE.          Thu Apr 07 14:25:46 2005: LOG DATE
UWI.           05 071 08283 00: UNIQUE WELL ID
~Curve Information Block
DEPT.FT            0 000 00 00: Depth
CCL.                          : Casing Collar Locator
TT3.usec                      : CBL 3' Travel Time
AMP3.mV                       : CBL 3' Amplitude
ATT3.db/ft                    : CBL 3' Attenuation
GR.GAPI                       : Gamma Ray
~Parameter Information Block
~A  Depth       CCL         TT3         AMP3        ATT3         GR     
# ...
  1416.0000      0.0000    521.0339      4.8996     -8.5780    125.9670
  1416.2500      0.0000    514.4826      4.9756     -8.5334    121.6844
  1416.5000      0.0000    509.9380      5.1223     -8.4493    118.9810
  1416.7500      0.0000    507.8065      5.1916     -8.4104    118.0199
  1417.0000      0.0000    508.9225      5.0917     -8.4666    118.5061
  1417.2500      0.0000    516.2633      4.8562     -8.6037    120.1521
  1417.5000      0.0000    535.4008      4.6172     -8.7498    122.2673
  1417.7500      0.0000    571.6971      4.5115     -8.8169    123.7378
  1418.0000      0.0000    624.6473      4.5926     -8.7653    123.9455
  1418.2500      0.0000    684.6617      4.8126     -8.6298    123.5393
  1418.5000      0.0000    737.6347      5.0654     -8.4816    124.0136
  1418.7500      0.0000    774.0829      5.2372     -8.3851    126.2452
  1419.0000      0.0000    793.6609      5.2451     -8.3807    129.4335
  1419.2500      0.0000    801.9203      5.0757     -8.4758    131.7326
  1419.5000      0.0000    804.6799      4.8084     -8.6324    132.0316
  1419.7500      0.0000    805.2237      4.5848     -8.7703    131.0607
  1420.0000      0.0000    804.4885      4.5180     -8.8127    130.7919
  1420.2500      0.0000    802.4136      4.6108     -8.7539    132.6796
  1420.5000      0.0000    799.4170      4.7534     -8.6657    136.3060
  1420.7500      0.0000    797.1189      4.8020     -8.6362    139.7317
  1421.0000      0.0000    797.3524      4.6739     -8.7145    141.1256
  1421.2500      0.0000    800.2159      4.4023     -8.8879    139.9724
  1421.5000      0.0000    803.7548      4.1189     -9.0805    136.8475
  1421.7500      0.0000    806.2472      3.9711     -9.1863    132.4635
  1422.0000      0.0000    808.4843      4.0216     -9.1497    127.2625
  1422.2500      0.0000    813.0633      4.1997     -9.0242    121.7124
  1422.5000      0.0000    821.2745      4.3467     -8.9246    116.4573
  1422.7500      0.0000    831.3281      4.3362     -8.9317    111.9239
  1423.0000      0.0000    840.0441      4.1764     -9.0403    108.1238
  1423.2500      0.0000    845.6402      4.0023     -9.1636    105.1178
  1423.5000      0.0000    848.4380      3.9636     -9.1918    103.4154
  1423.7500      0.0000    849.6586      4.1149     -9.0833    103.5071
  1424.0000      0.0000    850.2482      4.4002     -8.8892    105.0595
  1424.2500      0.0000    850.5801      4.7230     -8.6843    106.8573
  1424.5000      0.0000    850.5963      5.0286     -8.5027    107.6825
  1424.7500      0.0000    850.0458      5.3415     -8.3280    107.3327
  1425.0000      0.0000    848.8951      5.7449     -8.1172    106.7168
  1425.2500      0.0000    847.6993      6.3115     -7.8448    107.0167
  1425.5000      0.0000    847.4041      7.0163     -7.5383    108.8655
  1425.7500      0.0000    848.5035      7.7093     -7.2656    112.0567
  1426.0000      0.0000    850.4985      8.1948     -7.0888    115.7777
  1426.2500      0.0000    852.3502      8.3559     -7.0324    119.2597
  1426.5000      0.0000    853.2841      8.2221     -7.0792    122.1334
  1426.7500      0.0000    853.0253      7.9290     -7.1842    124.1686
  1427.0000      0.0000    851.3833      7.5985     -7.3075    125.2864
  1427.2500      0.0000    847.7466      7.2376     -7.4484    126.1048
  1427.5000      0.0000    840.8981      6.7536     -7.6488    127.7406
  1427.7500      0.0000    829.4094      6.0720     -7.9568    130.5209
  1428.0000      0.0000    812.8146      5.2387     -8.3842    133.2601
  1428.2500      0.0000    793.4565      4.4227     -8.8744    134.2369
  1428.5000      0.0000    777.4313      3.8281     -9.2925    132.9150
  1428.7500      0.0000    772.1456      3.5751     -9.4905    130.6364
  1429.0000      0.0000    780.9635      3.6273     -9.4485    129.5163
  1429.2500      0.0000    800.0200      3.8241     -9.2955    130.5641
  1429.5000      0.0000    821.0862      3.9951     -9.1689    132.9986
  1429.7500      0.0000    837.5461      4.0626     -9.1203    135.3367
  1430.0000      0.0000    847.4920      4.0561     -9.1250    136.8018
  1430.2500      0.0000    852.3438      4.0483     -9.1306    137.6868
  1430.5000      0.0000    854.0551      4.0848     -9.1045    138.6868
  1430.7500      0.0000    853.6747      4.1599     -9.0518    139.8667
  1431.0000      0.0000    851.4838      4.2287     -9.0043    140.2236
  1431.2500      0.0000    847.7773      4.2332     -9.0013    138.6825
  1431.5000      0.0000    843.4177      4.1437     -9.0631    135.6142
  1431.7500      0.0000    839.8345      3.9999     -9.1653    132.7733
  1432.0000      0.0000    838.5195      3.8971     -9.2407    131.6132
  1432.2500      0.0000    840.1845      3.9101     -9.2311    132.3189
  1432.5000      0.0000    844.0571      4.0316     -9.1425    134.4636
  1432.7500      0.0000    848.2281      4.1866     -9.0333    137.6773
  1433.0000      0.0000    851.0248      4.3013     -8.9551    141.3719
  1433.2500      0.0000    852.0146      4.3586     -8.9167    144.3477
  1433.5000      0.0000    851.7197      4.3899     -8.8960    145.1271
  1433.7500      0.0000    850.7008      4.4087     -8.8836    142.8289
  1434.0000      0.0000    848.9195      4.3664     -8.9116    138.0012
  1434.2500      0.0000    845.5792      4.1904     -9.0307    132.7681
  1434.5000      0.0000    839.2219      3.8637     -9.2657    129.7891
  1434.7500      0.0000    828.0894      3.4564     -9.5882    130.3403
  1435.0000      0.0000    811.0994      3.0897     -9.9129    133.0931
  1435.2500      0.0000    789.5685      2.8750    -10.1215    135.1047
  1435.5000      0.0000    768.5561      2.8718    -10.1247    134.3771
  1435.7500      0.0000    755.6693      3.0726     -9.9290    131.4901
  1436.0000      0.0000    756.8951      3.4119     -9.6257    128.8668
  1436.2500      0.0000    772.3703      3.8031     -9.3114    128.5505
  1436.5000      0.0000    795.8572      4.1861     -9.0336    130.3380
  1436.7500      0.0000    818.7510      4.5460     -8.7949    131.8151
  1437.0000      0.0000    835.3100      4.8859     -8.5861    130.5825
  1437.2500      0.0000    844.8180      5.1920     -8.4102    126.6081
  1437.5000      0.0000    849.7689      5.4288     -8.2810    121.9530
  1437.7500      0.0000    852.6205      5.5622     -8.2107    118.1266
  1438.0000      0.0000    853.5862      5.5708     -8.2062    114.2998
  1438.2500      0.0000    850.2847      5.4407     -8.2747    108.2764
  1438.5000      0.0000    838.7989      5.1680     -8.4236     98.7565
  1438.7500      0.0000    815.6759      4.7874     -8.6451     86.5424
  1439.0000      0.0000    780.4927      4.3951     -8.8926     74.1157
  1439.2500      0.0000    738.3401      4.1231     -9.0775     64.3637
  1439.5000      0.0000    700.2520      4.0658     -9.1181     59.2994
  1439.7500      0.0000    679.1994      4.2162     -9.0129     59.4059
  1440.0000      0.0000    681.9938      4.4710     -8.8430     63.9659
  1440.2500      0.0000    703.4011      4.6977     -8.6998     71.8924
  1440.5000      0.0000    730.0814      4.8133     -8.6294     82.1592
  1440.7500      0.0000    751.6798      4.8243     -8.6228     93.7412
  1441.0000     -2.0000    766.5917      4.8041     -8.6350    105.5280
  1441.2500     -2.0000    778.2440      4.8277     -8.6207    116.2362
  1441.5000      0.0000    790.3320      4.9278     -8.5614    124.3293
  1441.7500      0.0000    805.7917      5.1063     -8.4583    128.5006
  1442.0000      0.0000    825.4039      5.3564     -8.3199    128.6905
  1442.2500      0.0000    845.0527      5.6458     -8.1675    126.4899
  1442.5000      0.0000    857.1955      5.9057     -8.0373    124.2506
  1442.7500      0.0000    857.6882      6.0716     -7.9570    123.6636
  1443.0000      0.0000    849.8392      6.1274     -7.9305    124.9011
  1443.2500      0.0000    839.8449      6.0815     -7.9523    126.7559
  1443.5000      0.0000    829.3491      5.9131     -8.0336    127.6963
  1443.7500      0.0000    814.5953      5.5726     -8.2053    127.1119
