~Version Information
VERS.                      2.0: CWLS Log ASCII Standard - VERSION 2.0
WRAP.                       NO: One line per depth step
~Well Information Block
STRT.FT               350.0000: 
STOP.FT              2264.0000: 
STEP.FT                 0.1000: 
NULL.                -999.2500: 
COMP.          Pioneer Natural Resources: COMPANY
WELL.             Warrior 32-1: WELL
FLD.           Purgatoire River: FIELD
LOC.           2624' FNL & 2392' FEL: LOCATION
PROV.                 Colorado: PROVINCE
CNTY.               Las Animas: COUNTRY
SRVC.                Patterson: SERVICE COMPANY
DATE.          Tue Oct 05 06:54:20 2004: LOG DATE
UWI.           05 071 08176 00: UNIQUE WELL ID
~Curve Information Block
DEPT.FT            0 000 00 00: Depth
DCAL.in                       : CDL Caliper
RHOB.g/cc                     : CDL Bulk Density
RHOC.g/cc                     : CDL Density Correction
DPOR.pu                       : CDL Density Porosity
NPOR.pu                       : Neutron Porosity
GR.GAPI                       : Gamma Ray
~Parameter Information Block
~A  Depth       DCAL        RHOB        RHOC        DPOR        NPOR         GR     
# ...
  1358.0000      8.1460      2.6543      0.3171     -0.2627     23.2877    128.4650
  1358.1000      8.1460      2.6536      0.2922     -0.2164     22.8461    116.9378
  1358.2000      8.1460      2.6350      0.2032      0.9109     22.5492    114.3501
  1358.3000      8.1453      2.6245      0.1708      1.5482     22.2362    116.4618
  1358.4000      8.1453      2.6329      0.1368      1.0375     22.0025    118.0165
  1358.5000      8.1433      2.6452      0.1261      0.2910     22.2159    119.1242
  1358.6000      8.1433      2.6448      0.0999      0.3169     22.5721    116.5646
  1358.7000      8.1433      2.6390      0.0613      0.6663     22.4835    109.5447
  1358.8000      8.1449      2.6397      0.0653      0.6254     22.1130    104.4910
  1358.9000      8.1449      2.6367      0.1086      0.8059     21.7770    101.8176
  1359.0000      8.1457      2.6135      0.0377      2.2115     21.6555     96.7991
  1359.1000      8.1457      2.5774      0.0384      4.3986     21.9128     92.3534
  1359.2000      8.1457      2.5553     -0.0169      5.7395     22.4806     92.4949
  1359.3000      8.1434      2.5628      0.0185      5.2862     23.0920     95.7546
  1359.4000      8.1434      2.5909      0.0272      3.5815     23.5428     97.9256
  1359.5000      8.1424      2.6229      0.0741      1.6440     23.3721     96.8508
  1359.6000      8.1424      2.6444      0.0283      0.3395     22.2763     95.2388
  1359.7000      8.1424      2.6478      0.0806      0.1323     21.0618     94.0050
  1359.8000      8.1437      2.6367      0.0572      0.8058     20.5818     91.4079
  1359.9000      8.1437      2.6234      0.0320      1.6101     20.4993     88.2467
  1360.0000      8.1441      2.6140      0.0041      2.1813     20.3293     87.5130
  1360.1000      8.1441      2.6037      0.0341      2.8042     20.3958     89.4010
  1360.2000      8.1441      2.5866      0.0585      3.8450     20.8923     92.4974
  1360.3000      8.1430      2.5668      0.0181      5.0405     21.4122     95.2275
  1360.4000      8.1430      2.5594      0.0093      5.4899     21.5506     95.7204
  1360.5000      8.1421      2.5673      0.0555      5.0136     21.4184     95.8059
  1360.6000      8.1421      2.5829      0.0200      4.0664     21.3240     97.8153
  1360.7000      8.1421      2.6078      0.0217      2.5577     21.3459    100.2366
  1360.8000      8.1432      2.6277      0.1187      1.3502     21.3475    100.3692
  1360.9000      8.1432      2.6134      0.0689      2.2201     21.3282     97.3623
  1361.0000      8.1449      2.5743      0.0126      4.5868     21.6016     92.8122
  1361.1000      8.1449      2.5430      0.0062      6.4821     22.1815     90.2058
  1361.2000      8.1449      2.5249      0.0292      7.5839     22.8149     90.7469
  1361.3000      8.1457      2.5053      0.0509      8.7715     23.1433     96.0031
  1361.4000      8.1457      2.4867     -0.0340      9.8963     23.1746    104.4393
  1361.5000      8.1474      2.4859      0.0160      9.9446     23.7513    109.4921
  1361.6000      8.1474      2.5001      0.0105      9.0819     25.1601    111.1616
  1361.7000      8.1474      2.5080      0.0356      8.6074     26.4879    116.2707
  1361.8000      8.1491      2.4908      0.0217      9.6491     26.9403    124.5327
  1361.9000      8.1491      2.4581     -0.0333     11.6273     26.9798    129.9494
  1362.0000      8.1484      2.4341     -0.0095     13.0825     27.3795    132.9241
  1362.1000      8.1484      2.4194     -0.0116     13.9731     28.0273    137.3134
  1362.2000      8.1484      2.4021      0.0262     15.0257     28.4419    145.7011
  1362.3000      8.1446      2.3880     -0.0178     15.8792     28.2926    158.6115
  1362.4000      8.1446      2.4024     -0.0147     15.0078     27.6416    166.8792
  1362.5000      8.1394      2.4515      0.0481     12.0296     27.1318    166.2666
  1362.6000      8.1394      2.5060      0.1273      8.7276     26.9709    164.0884
  1362.7000      8.1394      2.5424      0.1543      6.5241     26.7264    161.3929
  1362.8000      8.1365      2.5659      0.1670      5.0950     26.2091    157.2955
  1362.9000      8.1365      2.5816      0.1784      4.1463     25.4161    154.2193
  1363.0000      8.1409      2.5917      0.1655      3.5332     24.6515    151.4119
  1363.1000      8.1409      2.6091      0.1913      2.4784     24.5424    146.7019
  1363.2000      8.1409      2.6364      0.2130      0.8220     24.7082    138.8782
  1363.3000      8.1421      2.6560      0.1741     -0.3637     24.0141    127.7830
  1363.4000      8.1421      2.6533      0.1470     -0.2019     22.4249    116.3522
  1363.5000      8.1248      2.6352      0.0864      0.8983     20.9738    108.2987
  1363.6000      8.1248      2.6232      0.0285      1.6226     20.5338     99.8959
  1363.7000      8.1248      2.6276      0.0793      1.3546     21.0332     88.6209
  1363.8000      8.0999      2.6326      0.0827      1.0560     21.7537     79.4897
  1363.9000      8.0999      2.6193      0.0510      1.8620     22.0357     76.8067
  1364.0000      8.0880      2.5899      0.0226      3.6413     21.6142     77.2691
  1364.1000      8.0880      2.5632     -0.0043      5.2608     20.9928     73.8329
  1364.2000      8.0880      2.5485      0.0018      6.1515     20.5299     68.6307
  1364.3000      8.0874      2.5354      0.0237      6.9439     19.9683     69.2332
  1364.4000      8.0874      2.5129      0.0309      8.3081     19.5805     74.2195
  1364.5000      8.0869      2.4886     -0.0152      9.7797     19.5689     75.1882
  1364.6000      8.0869      2.4738      0.0064     10.6767     19.4754     70.5837
  1364.7000      8.0869      2.4636      0.0191     11.2986     19.2642     64.4260
  1364.8000      8.0849      2.4539     -0.0007     11.8847     19.1359     59.3493
  1364.9000      8.0849      2.4507      0.0031     12.0782     18.8820     57.7263
  1365.0000      8.0840      2.4545      0.0265     11.8500     18.2161     58.4377
  1365.1000      8.0840      2.4611      0.0390     11.4478     17.4359     57.3010
  1365.2000      8.0840      2.4740      0.0370     10.6641     16.9995     54.8344
  1365.3000      8.0855      2.4979      0.0770      9.2183     16.6565     56.2145
  1365.4000      8.0855      2.5197      0.0838      7.8997     16.2972     64.0550
  1365.5000      8.0866      2.5188      0.0738      7.9533     16.1457     69.9778
  1365.6000      8.0866      2.4962      0.0640      9.3235     16.1414     67.1417
  1365.7000      8.0866      2.4748      0.0555     10.6204     16.2169     62.3546
  1365.8000      8.0867      2.4746      0.0042     10.6316     16.4279     60.1566
  1365.9000      8.0867      2.4942      0.0888      9.4415     16.7128     58.5277
  1366.0000      8.0863      2.5147      0.0632      8.1994     16.8005     58.5760
  1366.1000      8.0863      2.5198      0.0713      7.8917     16.5604     60.1696
  1366.2000      8.0863      2.5065      0.0662      8.6972     16.2550     58.8267
  1366.3000      8.0858      2.4875      0.0443      9.8481     16.3679     53.2549
  1366.4000      8.0858      2.4792      0.0346     10.3488     16.9260     46.7739
  1366.5000      8.0876      2.4841      0.0444     10.0522     17.2994     42.6360
  1366.6000      8.0876      2.4922      0.0608      9.5656     17.0865     41.3198
  1366.7000      8.0876      2.4943      0.0579      9.4389     16.7879     42.5326
  1366.8000      8.0903      2.4885      0.0552      9.7879     16.9775     46.6131
  1366.9000      8.0903      2.4789      0.0300     10.3677     17.4705     51.9349
  1367.0000      8.0894      2.4681      0.0586     11.0216     18.0489     55.3400
  1367.1000      8.0894      2.4604     -0.0077     11.4934     18.7295     57.8841
  1367.2000      8.0894      2.4616      0.0271     11.4168     19.4770     62.4964
  1367.3000      8.0873      2.4636      0.0562     11.2975     20.2165     67.3495
  1367.4000      8.0873      2.4616      0.0520     11.4173     20.7552     68.7736
  1367.5000      8.0856      2.4684      0.0189     11.0049     20.9697     65.6684
