~Version Information
VERS.                      2.0: CWLS Log ASCII Standard - VERSION 2.0
WRAP.                       NO: One line per depth step
~Well Information Block
STRT.FT                -8.2500: 
STOP.FT              2725.7500: 
STEP.FT                 0.2500: 
NULL.                -999.2500: 
COMP.          Pioneer Natural Resources: COMPANY
WELL.          Rabbit Bush Federal 44-19: WELL
FLD.           Purgatoire River: FIELD
LOC.           826' FSL & 1127' FEL: LOCATION
CNTY.               Las Animas: COUNTY
SRVC.                Patterson: SERVICE COMPANY
DATE.          Thu Sep 14 10:51:19 2006: LOG DATE
UWI.           05 071 08149 00: UNIQUE WELL ID
STAT.                       CO: STATE
~Curve Information Block
DEPT.FT            0 000 00 00: Depth
GR.GAPI                       : Gamma Ray
CCL.                          : Casing Collar Locator
TT3.usec                      : CBL 3' Travel Time
AMP3.mV                       : CBL 3' Amplitude
~Parameter Information Block
~A  Depth        GR         CCL         TT3         AMP3    
# ...
  1432.2500    106.3205      0.0000    732.4974      4.2720
  1432.5000    110.2219      0.0000    718.8241      4.2942
  1432.7500    114.9194      0.0000    701.4283      4.3097
  1433.0000    118.3767      0.0000    684.7363      4.3356
  1433.2500    119.5966      0.0000    672.4431      4.4038
  1433.5000    119.4179      0.0000    665.6592      4.5390
  1433.7500    119.6106      0.0000    663.1774      4.7281
  1434.0000    121.2819      0.0000    663.3414      4.9213
  1434.2500    123.9241      0.0000    665.4556      5.0641
  1434.5000    125.8525      0.0000    669.6464      5.1306
  1434.7500    125.7193      0.0000    675.6815      5.1358
  1435.0000    123.8933      0.0000    682.2702      5.1208
  1435.2500    122.5846      0.0000    688.0317      5.1244
  1435.5000    124.4758      0.0000    693.3791      5.1620
  1435.7500    130.7890      0.0000    700.9758      5.2245
  1436.0000    140.2020      0.0000    713.5956      5.2916
  1436.2500    149.3742      0.0000    731.1237      5.3427
  1436.5000    154.8336      0.0000    749.7428      5.3573
  1436.7500    155.1870      0.0000    764.1085      5.3130
  1437.0000    151.9888      0.0000    770.7963      5.2002
  1437.2500    148.1163      0.0000    770.7004      5.0472
  1437.5000    145.1096      0.0000    769.3218      4.9142
  1437.7500    142.3950      0.0000    774.1221      4.8445
  1438.0000    138.7023      0.0000    788.8997      4.8324
  1438.2500    133.4850      0.0000    809.0004      4.8559
  1438.5000    127.2300      0.0000    823.9474      4.9161
  1438.7500    121.1385      0.0000    827.0930      5.0215
  1439.0000    116.6505      2.0000    821.0740      5.1579
  1439.2500    114.9047      2.0000    811.8118      5.2972
  1439.5000    116.2785      0.0000    800.5873      5.4213
  1439.7500    120.3628      0.0000    785.6556      5.5253
  1440.0000    126.3733      0.0000    768.8932      5.6095
  1440.2500    133.3593      0.0000    756.6481      5.6657
  1440.5000    139.8323      0.0000    753.8400      5.6603
  1440.7500    143.8121      0.0000    758.7114      5.5514
  1441.0000    144.2232      0.0000    764.2043      5.3500
  1441.2500    142.1589      0.0000    764.0934      5.1406
  1441.5000    139.8244      0.0000    757.1191      5.0107
  1441.7500    137.9604      0.0000    745.8212      4.9767
  1442.0000    134.9765      0.0000    733.3796      4.9953
  1442.2500    129.1290      0.0000    722.1387      5.0241
  1442.5000    121.2298      0.0000    713.6250      5.0512
  1442.7500    114.4857      0.0000    708.4458      5.0796
  1443.0000    111.4132      0.0000    706.1323      5.1034
  1443.2500    111.4194      0.0000    705.5226      5.1012
  1443.5000    111.9269      0.0000    705.4473      5.0495
  1443.7500    111.4966      0.0000    705.1353      4.9452
  1444.0000    111.0510      0.0000    704.2813      4.8136
  1444.2500    112.1113      0.0000    703.1909      4.6910
  1444.5000    114.8114      0.0000    702.8889      4.5995
  1444.7500    118.0912      0.0000    704.4677      4.5412
  1445.0000    120.8769      0.0000    707.7868      4.5129
  1445.2500    122.1735      0.0000    711.2194      4.5148
  1445.5000    120.8339      0.0000    713.3548      4.5445
  1445.7500    116.6199      0.0000    714.8076      4.5883
  1446.0000    111.5034      0.0000    717.8708      4.6277
  1446.2500    108.7932      0.0000    724.1807      4.6539
  1446.5000    110.5520      0.0000    732.4431      4.6718
  1446.7500    116.2230      0.0000    738.4904      4.6921
  1447.0000    123.7082      0.0000    738.4021      4.7214
  1447.2500    131.1261      0.0000    732.0153      4.7601
  1447.5000    137.4931      0.0000    722.9362      4.8045
  1447.7500    142.5340      0.0000    715.1890      4.8473
  1448.0000    146.4815      0.0000    710.4874      4.8779
  1448.2500    149.8910      0.0000    708.3386      4.8879
  1448.5000    153.2744      0.0000    707.5422      4.8824
  1448.7500    156.5693      0.0000    707.2081      4.8814
  1449.0000    158.7911      0.0000    706.9690      4.9038
  1449.2500    158.5801      0.0000    706.8109      4.9457
  1449.5000    155.5478      0.0000    706.8080      4.9823
  1449.7500    150.9093      0.0000    706.9420      4.9962
  1450.0000    146.5353      0.0000    707.1021      4.9978
  1450.2500    143.6843      0.0000    707.1902      5.0124
  1450.5000    142.8844      0.0000    707.1901      5.0517
  1450.7500    144.4563      0.0000    707.1285      5.1035
  1451.0000    148.5128      0.0000    706.9684      5.1455
  1451.2500    154.2585      0.0000    706.4967      5.1647
  1451.5000    159.3510      0.0000    705.2261      5.1655
  1451.7500    160.5647      0.0000    702.4137      5.1646
  1452.0000    156.2094      0.0000    697.4609      5.1813
  1452.2500    148.1297      0.0000    690.6807      5.2264
  1452.5000    140.6677      0.0000    683.7155      5.2975
  1452.7500    137.2678      0.0000    678.6566      5.3860
  1453.0000    138.1037      0.0000    675.9912      5.4880
  1453.2500    140.6193      0.0000    672.8864      5.6033
  1453.5000    141.8203      0.0000    663.9053      5.7216
  1453.7500    139.9914      0.0000    645.1801      5.8142
  1454.0000    134.8391      0.0000    619.2343      5.8412
  1454.2500    126.8843      0.0000    594.2886      5.7733
  1454.5000    117.3288      0.0000    576.3665      5.6136
  1454.7500    108.6176      0.0000    562.9592      5.4007
  1455.0000    104.3177      0.0000    547.5374      5.1916
  1455.2500    107.1120      0.0000    530.0161      5.0394
  1455.5000    116.3924      0.0000    519.3697      4.9744
  1455.7500    128.3929      0.0000    524.6550      4.9907
  1456.0000    138.8658      0.0000    545.5144      5.0514
  1456.2500    145.2280      0.0000    573.1728      5.1176
  1456.5000    146.8767      0.0000    599.7222      5.1768
  1456.7500    144.9997      0.0000    623.9385      5.2352
  1457.0000    142.1900      0.0000    647.7967      5.2916
  1457.2500    140.9714      0.0000    670.7449      5.3309
  1457.5000    142.1541      0.0000    689.8590      5.3404
  1457.7500    144.9281      0.0000    703.2792      5.3210
  1458.0000    148.3733      0.0000    710.4565      5.2847
  1458.2500    152.3146      0.0000    709.6395      5.2454
  1458.5000    156.5863      0.0000    697.4455      5.2139
  1458.7500    159.9437      0.0000    672.5040      5.1969
  1459.0000    160.5595      0.0000    639.8458      5.1969
  1459.2500    158.2290      0.0000    610.6672      5.2133
  1459.5000    155.6276      0.0000    595.9562      5.2402
  1459.7500    156.2007      0.0000    599.6899      5.2663
  1460.0000    160.4136      0.0000    618.0035      5.2785
  1460.2500    164.8629      0.0000    643.0869      5.2713
  1460.5000    165.4214      0.0000    666.9897      5.2509
  1460.7500    160.7119      0.0000    683.8366      5.2316
  1461.0000    152.6834      0.0000    690.2127      5.2253
  1461.2500    144.8165      0.0000    683.5667      5.2376
  1461.5000    139.8424      0.0000    661.4034      5.2691
  1461.7500    138.2464      0.0000    624.0238      5.3141
  1462.0000    138.3768      0.0000    577.8217      5.3551
  1462.2500    138.1226      0.0000    533.3695      5.3658
  1462.5000    136.5575      0.0000    498.9311      5.3300
  1462.7500    134.0038      0.0000    476.3900      5.2563
  1463.0000    130.9664      0.0000    463.1963      5.1710
  1463.2500    127.5466      0.0000    457.1898      5.0996
  1463.5000    124.1065      0.0000    459.7462      5.0577
  1463.7500    122.0453      0.0000    475.2895      5.0504
  1464.0000    123.2528      0.0000    507.3786      5.0734
  1464.2500    128.5372      0.0000    553.5563      5.1140
  1464.5000    136.6029      0.0000    603.5351      5.1547
  1464.7500    144.5332      0.0000    643.7618      5.1812
  1465.0000    149.3927      0.0000    665.2824      5.1869
  1465.2500    149.9155      0.0000    668.6657      5.1728
  1465.5000    147.0881      0.0000    662.9357      5.1450
