~Version Information
VERS.                      2.0: CWLS Log ASCII Standard - VERSION 2.0
WRAP.                       NO: One line per depth step
~Well Information Block
STRT.FT               250.0000: 
STOP.FT               894.7500: 
STEP.FT                 0.2500: 
NULL.                -999.2500: 
COMP.          Pioneer Natural Resources: COMPANY
WELL.          Santisteven 13-22: WELL
FLD.           Purgatoire River: FIELD
LOC.           1861' FSL & 992' FWL----: LOCATION
PROV.                 Colorado: PROVINCE
CNTY.               Las Animas: COUNTRY
SRVC.                Patterson: SERVICE COMPANY
DATE.          Sat Apr 02 14:49:07 2005: LOG DATE
UWI.           05 071 08337 00: UNIQUE WELL ID
~Curve Information Block
DEPT.FT            0 000 00 00: Depth
SN.Ohm-m                      : IEL Short Normal
SP.mV                         : IEL Spontaneous Potential
DIR.Ohm-m                     : IEL Induction Resistivity
GR.GAPI                       : Gamma Ray
~Parameter Information Block
~A  Depth        SN          SP         DIR          GR     
# ...
   283.5000    591.2697     26.0407     24.4252     86.6345
   283.7500    620.5084     26.0440     24.0682     88.2527
   284.0000    639.0386     26.0479     23.6262     90.3992
   284.2500    648.0280     26.0518     23.0813     91.6782
   284.5000    651.4347     26.0552     22.4228     93.6376
   284.7500    652.4404     26.0576     21.6538     95.2330
   285.0000    652.6335     26.0588     20.7923     98.5653
   285.2500    652.5366     26.0588     19.8666    101.5921
   285.5000    652.2510     26.0576     18.9100    107.3760
   285.7500    651.8173     26.0556     17.9526    112.1107
   286.0000    651.3927     26.0531     17.0154    120.7670
   286.2500    651.2119     26.0505     16.1106    127.3940
   286.5000    651.3927     26.0482     15.2458    137.1402
   286.7500    651.8173     26.0465     14.4296    142.3686
   287.0000    652.2510     26.0455     13.6729    147.4334
   287.2500    652.5422     26.0454     12.9879    149.3856
   287.5000    652.6829     26.0461     12.3850    151.6044
   287.7500    652.7334     26.0473     11.8716    153.1300
   288.0000    652.7471     26.0485     11.4518    155.3537
   288.2500    652.7454     26.0493     11.1273    156.4164
   288.5000    652.7205     26.0488     10.8970    156.9650
   288.7500    652.5837     26.0466     10.7575    156.5997
   289.0000    652.0546     26.0424     10.7021    155.0986
   289.2500    650.4216     26.0361     10.7197    153.6627
   289.5000    646.4308     26.0282     10.7925    151.0772
   289.7500    638.6859     26.0194     10.8975    148.7764
   290.0000    626.8701     26.0104     11.0101    143.5779
   290.2500    613.3049     26.0021     11.1102    139.0590
   290.5000    603.2164     25.9950     11.1855    132.6398
   290.7500    602.0223     25.9892     11.2295    129.9713
   291.0000    610.8741     25.9848     11.2358    129.2963
   291.2500    625.1746     25.9814     11.1944    130.6977
   291.5000    638.3814     25.9785     11.0932    134.5947
   291.7500    646.8595     25.9757     10.9255    138.0340
   292.0000    650.8574     25.9726     10.6985    143.9996
   292.2500    652.2748     25.9688     10.4352    148.0847
   292.5000    652.6577     25.9642     10.1685    153.4118
   292.7500    652.7363     25.9589      9.9313    155.9941
   293.0000    652.7505     25.9532      9.7469    158.2114
   293.2500    652.7505     25.9473      9.6256    158.7023
   293.5000    652.7505     25.9419      9.5657    158.0975
   293.7500    652.7505     25.9374      9.5573    156.7093
   294.0000    652.7505     25.9342      9.5867    153.0292
   294.2500    652.7505     25.9328      9.6381    149.8403
   294.5000    652.7505     25.9333      9.6946    145.4340
   294.7500    652.7505     25.9358      9.7376    143.7259
   295.0000    652.7505     25.9402      9.7486    143.8624
   295.2500    652.7505     25.9461      9.7119    145.6407
   295.5000    652.7505     25.9533      9.6182    150.0500
   295.7500    652.7505     25.9614      9.4668    153.5139
   296.0000    652.7505     25.9699      9.2652    158.2828
   296.2500    652.7505     25.9785      9.0269    160.6020
   296.5000    652.7505     25.9867      8.7683    162.3524
   296.7500    652.7505     25.9941      8.5082    162.4468
   297.0000    652.7505     26.0003      8.2660    161.5402
   297.2500    652.7505     26.0049      8.0598    160.7053
   297.5000    652.7505     26.0079      7.9040    159.9085
   297.7500    652.7505     26.0093      7.8071    159.9819
   298.0000    652.7488     26.0094      7.7720    160.9816
   298.2500    652.7394     26.0086      7.7971    161.8185
   298.5000    652.6941     26.0073      7.8776    161.9840
   298.7500    652.5144     26.0062      8.0068    160.5217
   299.0000    651.9698     26.0056      8.1780    155.3039
   299.2500    650.6141     26.0060      8.3859    150.2458
   299.5000    647.6721     26.0074      8.6277    142.3159
   299.7500    641.8420     26.0097      8.9011    138.2089
   300.0000    631.3796     26.0125      9.1994    135.3209
   300.2500    615.6110     26.0152      9.5076    135.4717
   300.5000    597.4953     26.0170      9.8017    137.1893
   300.7500    583.5721     26.0173     10.0542    138.1973
   301.0000    578.6133     26.0156     10.2432    138.4252
   301.2500    580.3525     26.0117     10.3620    137.7722
   301.5000    582.2017     26.0060     10.4227    136.4637
   301.7500    581.5593     25.9993     10.4507    135.9909
   302.0000    582.7690     25.9924     10.4750    136.2767
   302.2500    591.1183     25.9864     10.5192    136.6337
   302.5000    606.3848     25.9819     10.5979    135.7253
   302.7500    623.4500     25.9794     10.7173    133.4609
   303.0000    637.2728     25.9786     10.8778    128.0946
   303.2500    645.9486     25.9793     11.0757    124.3621
   303.5000    650.2853     25.9807     11.3042    120.4735
   303.7500    652.0230     25.9825     11.5555    119.4300
   304.0000    652.5776     25.9843     11.8228    119.5854
   304.2500    652.7198     25.9860     12.1040    120.1536
   304.5000    652.7458     25.9879     12.4033    120.7505
   304.7500    652.7505     25.9903     12.7299    120.8231
   305.0000    652.7505     25.9935     13.0921    120.9789
   305.2500    652.7505     25.9979     13.4921    121.6383
   305.5000    652.7505     26.0035     13.9234    123.7956
   305.7500    652.7505     26.0100     14.3714    125.6465
   306.0000    652.7505     26.0171     14.8174    128.1246
   306.2500    652.7505     26.0243     15.2434    129.3699
   306.5000    652.7505     26.0308     15.6367    130.7138
   306.7500    652.7505     26.0362     15.9912    131.0833
   307.0000    652.7505     26.0398     16.3061    129.9576
   307.2500    652.7505     26.0414     16.5825    127.7710
   307.5000    652.7505     26.0406     16.8196    123.1497
   307.7500    652.7505     26.0376     17.0143    120.2237
   308.0000    652.7505     26.0325     17.1608    117.3173
   308.2500    652.7505     26.0260     17.2525    116.2515
   308.5000    652.7505     26.0185     17.2854    115.0228
   308.7500    652.7505     26.0106     17.2630    114.2488
   309.0000    652.7505     26.0029     17.1980    113.8928
   309.2500    652.7505     25.9960     17.1088    114.7505
   309.5000    652.7505     25.9903     17.0142    117.6589
   309.7500    652.7505     25.9860     16.9295    120.0052
   310.0000    652.7505     25.9834     16.8683    122.8387
   310.2500    652.7505     25.9825     16.8448    123.9016
   310.5000    652.7505     25.9831     16.8731    124.1114
   310.7500    652.7505     25.9851     16.9618    123.2140
   311.0000    652.7505     25.9883     17.1104    120.1315
   311.2500    652.7505     25.9924     17.3096    117.0686
   311.5000    652.7505     25.9973     17.5480    111.6909
   311.7500    652.7505     26.0028     17.8180    108.0895
   312.0000    652.7505     26.0087     18.1157    103.3810
   312.2500    652.7505     26.0148     18.4335    101.0317
   312.5000    652.7505     26.0206     18.7492     99.1848
   312.7500    652.7505     26.0258     19.0217     99.2572
   313.0000    652.7505     26.0300     19.1996    101.1671
   313.2500    652.7505     26.0332     19.2372    103.2667
   313.5000    652.7505     26.0353     19.1113    106.9482
   313.7500    652.7505     26.0368     18.8295    109.5414
   314.0000    652.7505     26.0382     18.4257    113.7283
   314.2500    652.7505     26.0400     17.9453    116.9523
   314.5000    652.7505     26.0425     17.4290    122.7206
   314.7500    652.7505     26.0459     16.9085    126.9916
   315.0000    652.7505     26.0501     16.4105    133.0245
   315.2500    652.7505     26.0548     15.9637    136.1581
   315.5000    652.7505     26.0598     15.5972    138.9616
   315.7500    652.7505     26.0648     15.3354    139.4983
   316.0000    652.7505     26.0696     15.1926    138.1382
   316.2500    652.7505     26.0740     15.1707    135.6590
   316.5000    652.7505     26.0781     15.2591    129.8619
   316.7500    652.7505     26.0819     15.4355    125.1734
