~Version Information
VERS.                      2.0: CWLS Log ASCII Standard - VERSION 2.0
WRAP.                       NO: One line per depth step
~Well Information Block
STRT.FT               -19.0000: 
STOP.FT              1343.5000: 
STEP.FT                 0.5000: 
NULL.                -999.2500: 
COMP.          Evergreen Operating Corporation: COMPANY
WELL.            Trigger 13-35: WELL
FLD.           Purgatorie River: FIELD
LOC.           2245' FSL & 594' FWL: LOCATION
PROV.                 Colorado: PROVINCE
CNTY.               Las Animas: COUNTRY
SRVC.                         : SERVICE COMPANY
DATE.          Mon Jun 23 12:06:52 2003: LOG DATE
UWI.           05-071-07838-00: UNIQUE WELL ID
~Curve Information Block
DEPT.FT            0 000 00 00: Depth
TT3.usec                      : CBL 3' Travel Time
AMP3.mV                       : CBL 3' Amplitude
GR.GAPI                       : Gamma Ray
CCL.                          : Casing Collar Locator
~Parameter Information Block
~A  Depth       TT3         AMP3         GR         CCL     
# ...
   919.0000    501.0868      2.4581    194.8619      0.0000
   919.5000    499.5106      2.4691    193.0301      0.0000
   920.0000    504.4608      2.5475    185.9662      0.0000
   920.5000    513.0248      2.4859    179.3654      0.0000
   921.0000    529.1460      2.4398    172.8300      0.0000
   921.5000    505.6818      2.4781    164.4549      0.0000
   922.0000    491.1723      2.4929    162.7836      0.0000
   922.5000    492.0950      2.4961    168.4719      0.0000
   923.0000    504.5682      2.5222    171.5112      0.0000
   923.5000    551.7015      2.5366    175.1135      0.0000
   924.0000    549.5033      2.5919    177.0133      0.0000
   924.5000    504.1215      2.7169    175.1161      0.0000
   925.0000    539.0439      2.7124    169.7337      0.0000
   925.5000    662.4056      2.5497    162.2251      0.0000
   926.0000    696.0246      2.3480    164.7486      0.0000
   926.5000    658.3286      2.2119    176.9656      0.0000
   927.0000    663.2294      2.1030    185.8961      0.0000
   927.5000    699.3141      2.0175    188.1469      0.0000
   928.0000    754.6295      1.9897    191.0267      0.0000
   928.5000    778.8932      1.9420    181.0480      0.0000
   929.0000    792.8959      1.8635    163.8532      0.0000
   929.5000    805.9928      1.7761    151.7026      0.0000
   930.0000    808.3823      1.7097    149.0906      0.0000
   930.5000    817.5742      1.7476    164.5734      0.0000
   931.0000    821.6631      1.8338    193.7469      0.0000
   931.5000    822.8829      1.9380    216.4357      0.0000
   932.0000    824.1266      1.9790    223.1914      0.0000
   932.5000    804.3378      1.9758    216.5671      0.0000
   933.0000    773.8498      1.9286    211.2488      0.0000
   933.5000    717.8625      1.8995    200.4885      0.0000
   934.0000    630.4612      1.9685    174.8915      0.0000
   934.5000    667.0457      1.9938    156.7029      0.0000
   935.0000    788.2536      1.9514    153.4634      0.0000
   935.5000    807.9607      2.0513    156.9176      0.0000
   936.0000    789.1868      2.1052    163.1839      0.0000
   936.5000    769.8402      2.0979    161.7958      0.0000
   937.0000    692.1863      2.0941    156.2850      0.0000
   937.5000    638.5318      2.0785    151.4890      0.0000
   938.0000    682.1152      2.0673    144.8010      0.0000
   938.5000    668.1104      2.0527    142.1035      0.0000
   939.0000    703.5509      2.0073    145.0576      0.0000
   939.5000    741.9271      2.0556    150.7237      0.0000
   940.0000    745.4167      2.1126    147.8773      0.0000
   940.5000    657.3870      2.1948    131.7173      0.0000
   941.0000    517.4598      2.2592    112.5975      0.0000
   941.5000    515.8583      2.2435    105.8382      0.0000
   942.0000    639.9160      2.2677    111.5116      0.0000
   942.5000    710.4251      2.2909    112.0882      0.0000
   943.0000    668.2740      2.1977    106.6368      0.0000
   943.5000    668.8511      2.1562    106.6700      0.0000
   944.0000    717.2162      2.2619    109.2327      0.0000
   944.5000    704.3288      2.4318    106.6715      0.0000
   945.0000    657.4592      2.3420    104.6505      0.0000
   945.5000    626.4367      2.2168    105.8195      0.0000
   946.0000    604.2377      2.1171    114.2635      0.0000
   946.5000    607.8255      2.2097    128.8791      0.0000
   947.0000    684.0239      2.3228    147.6317      0.0000
   947.5000    695.6876      2.3247    164.0974      0.0000
   948.0000    675.7379      2.2925    156.5746      0.0000
   948.5000    707.6052      2.1271    141.5566      0.0000
   949.0000    641.1178      2.1145    141.6278      0.0000
   949.5000    513.7687      2.2098    145.5808      0.0000
   950.0000    507.2290      2.3612    150.0188      0.0000
   950.5000    641.3351      2.3354    155.3569      0.0000
   951.0000    750.8717      2.2992    159.3683      0.0000
   951.5000    756.1072      2.2624    158.8556      0.0000
   952.0000    695.1046      2.0297    139.7941      0.0000
   952.5000    670.2863      1.8585    115.0962      0.0000
   953.0000    722.7057      1.6869    112.5883      0.0000
   953.5000    750.4110      1.5282    122.7554      0.0000
   954.0000    771.9212      1.5645    127.0196      5.0000
   954.5000    775.2347      1.5718    134.0756      0.0000
   955.0000    768.6675      1.5626    150.6964      0.0000
   955.5000    776.7698      1.5900    164.5297      0.0000
   956.0000    781.1996      1.5611    164.4102      0.0000
   956.5000    781.9374      1.6581    147.9011      0.0000
   957.0000    786.4215      1.8859    125.0047      0.0000
   957.5000    787.0467      1.9825    111.8140      0.0000
   958.0000    787.2211      2.0532    115.0168      0.0000
   958.5000    784.6012      1.8297    127.9696      0.0000
   959.0000    778.0269      1.6241    140.1904      0.0000
   959.5000    766.2849      1.7290    145.9749      0.0000
   960.0000    731.8388      1.8716    149.9079      0.0000
   960.5000    732.7565      2.0254    154.2264      0.0000
   961.0000    728.6664      1.9945    158.7369      0.0000
   961.5000    736.9172      1.8696    166.8374      0.0000
   962.0000    781.1375      1.7770    174.3206      0.0000
   962.5000    789.8371      1.9218    177.3544      0.0000
   963.0000    790.4277      1.9815    177.2518      0.0000
   963.5000    789.9413      1.9559    172.8221      0.0000
   964.0000    789.1422      1.9718    165.3114      0.0000
   964.5000    787.7338      1.8852    156.4474      0.0000
   965.0000    776.4729      1.8887    142.9925      0.0000
   965.5000    739.8694      1.9421    127.2236      0.0000
   966.0000    679.8977      1.9710    116.0012      0.0000
   966.5000    661.2218      2.0691    111.4307      0.0000
   967.0000    669.5753      2.1261    113.4072      0.0000
   967.5000    685.0491      2.1780    119.5553      0.0000
   968.0000    728.3062      2.1722    125.3110      0.0000
   968.5000    705.9875      2.1405    124.6480      0.0000
   969.0000    651.3037      2.0144    118.1149      0.0000
   969.5000    654.6577      2.0294    110.8605      0.0000
   970.0000    700.8301      2.0931    103.8747      0.0000
   970.5000    641.7316      2.1002     98.2416      0.0000
   971.0000    643.8438      2.1328     97.3193      0.0000
   971.5000    731.5546      2.1267     96.7538      0.0000
   972.0000    761.2395      2.1245     92.9490      0.0000
   972.5000    760.7570      2.0835     89.8764      0.0000
   973.0000    718.6423      2.1173     87.8378      0.0000
   973.5000    621.8143      2.1477     84.2971      0.0000
   974.0000    604.2535      2.1642     84.1532      0.0000
   974.5000    696.8920      2.2598     84.7308      0.0000
   975.0000    748.0273      2.2094     79.8431      0.0000
   975.5000    718.1271      2.2009     76.9255      0.0000
   976.0000    713.4130      2.1820     82.1645      0.0000
   976.5000    721.2118      2.1964     92.0951      0.0000
   977.0000    727.5474      2.2226     97.9935      0.0000
   977.5000    755.3133      2.1564     99.3090      0.0000
   978.0000    760.9881      2.1491     99.5123      0.0000
   978.5000    761.4326      2.0918     98.4871      0.0000
   979.0000    761.9379      2.0331     96.8024      0.0000
   979.5000    755.8594      2.1109     90.8255      0.0000
   980.0000    712.0013      2.0896     83.0061      0.0000
   980.5000    683.7286      2.0638     79.5255      0.0000
   981.0000    745.8541      2.1143     79.9646      0.0000
   981.5000    790.8855      2.0526     79.0610      0.0000
   982.0000    767.5630      2.0481     78.2321      0.0000
   982.5000    738.0755      2.0464     81.3242      0.0000
   983.0000    741.4877      1.9982     81.9337      0.0000
   983.5000    755.6086      2.0145     74.3825      0.0000
   984.0000    760.2725      1.9322     67.9907      0.0000
   984.5000    761.7673      1.9057     69.7470      0.0000
   985.0000    766.8371      1.9225     73.4158      0.0000
   985.5000    776.3694      1.9017     82.5837      0.0000
