~Version Information
 VERS.                                  2.0 : CWLS LAS VERSION
 WRAP.                                   NO : WRAPING MODE
 SWARE .                 MController 2.5.0J : SOFTWARE VERSION
~Well Information
 WELL.                      Sumatra 34-22Tr : WELL
 COMP.    Pioneer Natural Resources USA Inc : COMPANY
 FLD.                      Purgatoire River : FIELD
 LOC.                SW/SE sec 22 T33S R67W : LOCATION
 DATE.                              6/08/05 : DATE(S) LOGGED
 SRVC.       Blanco Geological Services LLC : SERVICE COMPANY
 STAT.                                   CO : STATE
 CNTY.                           Las Animas : COUNTY
 CTRY.                                  USA : COUNTRY
 API.                       05-071-08383-00 : API NUMBER
 STRT.FT                             575.00 : START DEPTH
 STOP.FT                            1500.00 : STOP DEPTH
 STEP.FT                               1.00 : DEPTH INCREMENT
 NULL.                                -9999 : NULL VALUE
~Curve information
 DEPTH.FT                                   :
 ROP.MIN/FT                                 :
 GAS.UNITS                                  :
~ASCII Log data
# ...
      1375.0         0.33         39.3 
      1376.0         0.33         34.3 
      1377.0         0.38         32.4 
      1378.0         0.30         30.3 
      1379.0         0.47         29.2 
      1380.0         0.40         28.6 
      1381.0         0.40         28.2 
      1382.0         0.43         27.8 
      1383.0         0.40         28.0 
      1384.0         0.37         28.1 
      1385.0         0.35         28.1 
      1386.0         0.27         27.5 
      1387.0         0.33         27.7 
      1388.0         0.40         28.1 
      1389.0         0.37         27.9 
      1390.0         0.43         27.7 
      1391.0         0.43         28.2 
      1392.0         0.47         29.8 
      1393.0         0.40         33.3 
      1394.0         0.58         33.9 
      1395.0         0.60         33.5 
      1396.0         0.50         31.5 
      1397.0         0.30         29.0 
      1398.0         0.37         30.2 
      1399.0         0.23         30.4 
      1400.0         0.33         25.7 
      1401.0         2.48         22.7 
      1402.0         0.73         61.5 
      1403.0         0.53         69.3 
      1404.0         0.20         56.4 
      1405.0         0.25         53.7 
      1406.0         0.53         50.7 
      1407.0         0.50         44.2 
      1408.0         0.43         24.4 
      1409.0         0.43         11.6 
      1410.0         0.53         10.6 
      1411.0         0.53          9.4 
      1412.0         0.32          9.0 
      1413.0         0.53         10.4 
      1414.0         0.60         20.2 
      1415.0         0.20         17.8 
      1416.0         0.57         17.3 
      1417.0         0.67         16.0 
      1418.0         0.60         15.0 
      1419.0         0.55         14.7 
      1420.0         0.47         14.9 
      1421.0         0.37         15.9 
      1422.0         0.50         15.2 
      1423.0         0.40         15.0 
      1424.0         0.63         15.5 
      1425.0         0.55         15.3 
      1426.0         0.50         14.9 
      1427.0         0.50         15.0 
      1428.0         0.43         15.0 
      1429.0         0.40         14.9 
      1430.0         0.50         15.5 
      1431.0        24.98         35.1 
      1432.0         0.63         26.8 
      1433.0         0.50         27.6 
      1434.0         0.23         28.8 
      1435.0         0.17         30.7 
      1436.0         0.20         32.4 
      1437.0         0.27         34.5 
      1438.0         0.30         35.1 
      1439.0         0.33         34.8 
      1440.0         0.32         33.1 
      1441.0         0.33         31.6 
      1442.0         0.43         29.6 
      1443.0         0.43         27.9 
      1444.0         0.43         26.6 
      1445.0         0.43         25.0 
      1446.0         0.43         24.2 
      1447.0         0.37         23.4 
      1448.0         0.42         22.6 
      1449.0         0.30         22.2 
      1450.0         0.23         21.2 
      1451.0         0.20         21.2 
      1452.0         0.30         21.6 
      1453.0         0.30         21.5 
      1454.0         0.33         23.2 
      1455.0         0.20         25.7 
      1456.0         0.17         25.5 
      1457.0         0.40         22.7 
      1458.0         0.30         19.2 
      1459.0         0.65         17.8 
      1460.0         0.77         18.0 
      1461.0         2.58         19.9 
      1462.0         1.37         83.7 
      1463.0         0.60         62.6 
      1464.0         0.53         47.9 
      1465.0         0.50         36.6 
      1466.0         0.38         28.0 
      1467.0         0.50         24.2 
      1468.0         0.47         21.7 
      1469.0         0.40         19.7 
      1470.0         0.47         22.0 
      1471.0         0.33         24.4 
      1472.0         0.37         24.6 
      1473.0         0.47         24.6 
      1474.0         0.45         20.9 
      1475.0         0.50         20.6 
      1476.0         0.90         25.4 
      1477.0         0.47         22.1 
      1478.0         0.50         19.7 
      1479.0         0.50         18.6 
      1480.0         0.55         16.9 
      1481.0         0.50         16.8 
      1482.0         0.50         17.1 
      1483.0         0.47         16.7 
      1484.0         0.43         16.2 
      1485.0         0.33         16.7 
      1486.0         0.43         17.2 
      1487.0         0.35         17.6 
      1488.0         0.33         18.2 
      1489.0         0.37         21.5 
      1490.0         0.37         20.0 
      1491.0         3.85         34.5 
      1492.0         0.33         47.5 
      1493.0         0.13         47.5 
      1494.0         0.47         47.7 
      1495.0         0.67         46.4 
      1496.0         0.55         39.5 
      1497.0         0.47         34.0 
      1498.0         0.50         26.7 
      1499.0         0.63         23.4 
      1500.0         0.70         25.0
