~Version Information
 VERS.                                  2.0 : CWLS LAS VERSION
 WRAP.                                   NO : WRAPING MODE
 SWARE .                 MController 2.5.0J : SOFTWARE VERSION
~Well Information
 WELL.            Rabbit Bush Federal 44-19 : WELL
 COMP.  Pioneer Natural Resources USA, Inc. : COMPANY
 FLD.                      Purgatoire River : FIELD
 LOC.              SE/SE  Sec 19 T32S  R66W : LOCATION
 DATE.                      8/24/06-8/25/06 : DATE(S) LOGGED
 SRVC.       BLANCO Geological Services LLC : SERVICE COMPANY
 STAT.                                   CO : STATE
 CNTY.                            Las Animas: COUNTY
 CTRY.                               U.S.A. : COUNTRY
 API.                       05-071-08149-00 : API NUMBER
 STRT.FT                             539.00 : START DEPTH
 STOP.FT                            2785.00 : STOP DEPTH
 STEP.FT                               1.00 : DEPTH INCREMENT
 NULL.                                -9999 : NULL VALUE
~Curve information
 DEPTH.FT                                   :
 ROP.MIN/FT                                 :
 GAS.UNITS                                  :
~ASCII Log data
# ...
      1939.0         0.23         56.0 
      1940.0         0.23         42.2 
      1941.0         0.33         42.4 
      1942.0         0.30         52.5 
      1943.0         0.33         68.5 
      1944.0         0.30        104.8 
      1945.0         0.35        178.0 
      1946.0         8.23        231.6 
      1947.0         1.30        128.0 
      1948.0         0.20        121.7 
      1949.0         0.20        119.4 
      1950.0         0.15        116.9 
      1951.0         0.20        114.8 
      1952.0         0.40        113.1 
      1953.0         0.33        114.5 
      1954.0         0.30        115.1 
      1955.0         0.23        114.9 
      1956.0         0.53        113.9 
      1957.0         0.40        110.3 
      1958.0         0.37        104.2 
      1959.0         0.33         98.7 
      1960.0         0.42        105.5 
      1961.0         0.43        112.4 
      1962.0         0.33        114.3 
      1963.0         0.40        116.7 
      1964.0         0.37        124.8 
      1965.0         0.40        128.8 
      1966.0         0.33        124.7 
      1967.0         0.27        104.9 
      1968.0         0.30         77.7 
      1969.0         0.28         49.2 
      1970.0         0.30         43.7 
      1971.0         0.30         43.0 
      1972.0         0.30         54.2 
      1973.0         0.30         73.3 
      1974.0         0.37        124.9 
      1975.0         0.53        192.2 
      1976.0         5.33        196.4 
      1977.0         0.30        144.9 
      1978.0         0.37        114.0 
      1979.0         0.37         83.9 
      1980.0         0.27         81.6 
      1981.0         0.17         88.3 
      1982.0         0.27         97.4 
      1983.0         0.27        105.4 
      1984.0         0.30        116.3 
      1985.0         0.48        116.5 
      1986.0         0.97        112.1 
      1987.0         0.33        100.8 
      1988.0         0.30        100.8 
      1989.0         0.30        102.1 
      1990.0         0.27        103.3 
      1991.0         0.30        102.4 
      1992.0         0.40        102.7 
      1993.0         0.28        103.2 
      1994.0         0.33        102.8 
      1995.0         0.33        112.9 
      1996.0         0.30        115.9 
      1997.0         0.30        109.1 
      1998.0         0.33         76.2 
      1999.0         0.30         50.3 
      2000.0         0.40         38.9 
      2001.0         0.30         39.3 
      2002.0         0.27         50.8 
      2003.0         0.30         72.5 
      2004.0         0.35        123.1 
      2005.0         0.27        153.3 
      2006.0         4.25        156.4 
      2007.0         0.37        113.9 
      2008.0         0.37        110.0 
      2009.0         0.30        104.8 
      2010.0         0.30         98.9 
      2011.0         0.40         98.8 
      2012.0         0.48         92.8 
      2013.0         0.47         92.6 
      2014.0         0.40         90.6 
      2015.0         0.40         88.8 
      2016.0         0.27         87.0 
      2017.0         0.27         88.1 
      2018.0         0.33         88.2 
      2019.0         0.23         96.0 
      2020.0         0.27        113.3 
      2021.0         0.27        114.9 
      2022.0         0.20        102.6 
      2023.0         0.25         78.7 
      2024.0         0.27         59.6 
      2025.0         0.30         43.5 
      2026.0         0.23         40.1 
      2027.0         0.30         48.1 
      2028.0         0.20         58.7 
      2029.0         0.23         70.4 
      2030.0         0.20         94.1 
      2031.0         0.20        114.0 
      2032.0         0.23        143.9 
      2033.0         0.20        174.6 
      2034.0         0.27        222.7 
      2035.0         0.30        250.2 
      2036.0         5.47        250.2 
      2037.0         0.40        124.8 
      2038.0         0.43        119.6 
      2039.0         0.37        115.4 
      2040.0         0.42        114.7 
      2041.0         0.30        113.7 
      2042.0         0.33        110.2 
      2043.0         0.20        109.2 
      2044.0         0.27        108.5 
      2045.0         0.17        108.0 
      2046.0         0.30        108.4 
      2047.0         0.33        105.7 
      2048.0         0.17        103.0 
      2049.0         0.33        103.0 
      2050.0         0.33        101.8 
      2051.0         0.33        103.4 
      2052.0         0.38        104.8 
      2053.0         0.37        112.5 
      2054.0         0.33        119.5 
      2055.0         0.27        116.6 
      2056.0         0.33         92.9 
      2057.0         0.43         65.0 
      2058.0         0.30         41.6 
      2059.0         0.30         37.5 
      2060.0         0.30         43.6 
      2061.0         0.23         54.0 
      2062.0         0.32         70.1 
      2063.0         0.30         92.7 
      2064.0         0.30        115.2 
      2065.0         0.30        141.8 
      2066.0         8.23       1052.6 
      2067.0         0.43          3.0 
      2068.0         0.42          2.5 
      2069.0         0.37          2.4 
      2070.0         0.37          2.4 
      2071.0         0.33          2.2 
      2072.0         0.60          2.4 
      2073.0         0.47          2.3 
      2074.0         0.47          2.1 
      2075.0         0.23          2.0 
      2076.0         0.58          2.5 
      2077.0         0.47          2.5 
      2078.0         0.50          2.8 
      2079.0         0.40          2.5 
      2080.0         0.37          2.9 
      2081.0         0.43          2.6 
      2082.0         0.47          2.9 
      2083.0         0.43          2.5 
      2084.0         0.45          2.3 
      2085.0         0.40          3.0 
      2086.0         0.40          2.8 
      2087.0         0.50          2.9 
      2088.0         0.47          2.7 
      2089.0         0.47          3.0 
      2090.0         0.43          3.2 
      2091.0         0.45          3.1 
      2092.0         0.43          3.0 
      2093.0         0.47          3.0 
      2094.0         0.47          3.1 
      2095.0         0.53          3.2 
      2096.0         4.05          3.2 
      2097.0         0.47          3.3 
      2098.0         0.32          2.8 
      2099.0         0.33          3.3 
      2100.0         0.33          3.4 
      2101.0         0.30         15.2 
      2102.0         0.37         13.8 
      2103.0         0.40          4.3 
      2104.0         0.30          2.3 
      2105.0         0.23          2.5 
      2106.0         0.37          2.5 
      2107.0         0.37          2.9 
      2108.0         0.32         16.2 
      2109.0         0.23         68.9 
      2110.0         0.23         99.4 
      2111.0         0.40        113.7 
      2112.0         0.23        116.3 
      2113.0         0.33        115.4 
      2114.0         0.37        107.1 
      2115.0         0.23         97.8 
      2116.0         0.33         94.0 
      2117.0         0.57        103.8 
      2118.0         0.45         90.9 
      2119.0         0.47         66.8 
      2120.0         0.43         43.7 
      2121.0         0.33         52.3 
      2122.0         0.30         67.8 
      2123.0         0.37        108.5 
      2124.0         0.50        166.5 
      2125.0         0.20        175.5 
      2126.0         3.90        177.1 
      2127.0         0.80        121.6 
      2128.0         0.27        119.3 
      2129.0         0.37        116.1 
      2130.0         0.37        110.7 
      2131.0         0.43        104.5 
      2132.0         0.43         98.2 
      2133.0         0.30         91.2 
      2134.0         0.28         90.2 
      2135.0         0.30         91.8 
      2136.0         0.33         93.9 
      2137.0         0.33         96.6 
      2138.0         0.30         97.0 
