~Version Information
VERS.                      2.0: CWLS Log ASCII Standard - VERSION 2.0
WRAP.                       NO: One line per depth step
~Well Information Block
STRT.FT               890.0000: 
STOP.FT              1589.0000: 
STEP.FT                 0.2500: 
NULL.                -999.2500: 
COMP.          Evergreen Operating Corporation: COMPANY
WELL.            Tomahawk 44-9: WELL
FLD.           Purgatorie River: FIELD
LOC.           434' FSL & 491' FEL: LOCATION
PROV.                 Colorado: PROVINCE
CNTY.               Las Animas: COUNTRY
SRVC.                         : SERVICE COMPANY
DATE.          Sat Sep 11 23:05:26 2004: LOG DATE
UWI.           05 071 08133 00: UNIQUE WELL ID
~Curve Information Block
DEPT.FT            0 000 00 00: Depth
LTEN.lb                       : Surface Line Tension
SN.Ohm-m                      : IEL Short Normal
SP.mV                         : IEL Spontaneous Potential
DIR.Ohm-m                     : IEL Induction Resistivity
GR.GAPI                       : Gamma Ray
~Parameter Information Block
~A  Depth       LTEN         SN          SP         DIR          GR     
# ...
  1506.0000    850.6871     20.9548     -4.4701     23.0158     88.6878
  1506.2500    847.8323     21.0305     -4.3406     22.5668     89.6911
  1506.5000    845.9213     21.0680     -3.7156     21.9635     91.2644
  1506.7500    845.3339     21.0640     -2.5825     21.3276     91.8814
  1507.0000    845.2429     21.0175     -0.9888     20.7446     91.9762
  1507.2500    844.3527     20.9257      0.9513     20.2572     91.7603
  1507.5000    842.4064     20.7798      3.0734     19.8765     91.4580
  1507.7500    840.7578     20.5636      5.1757     19.6012     91.1837
  1508.0000    840.9438     20.2616      7.0519     19.4294     90.1340
  1508.2500    842.6992     19.8726      8.5259     19.3540     88.9652
  1508.5000    843.8658     19.4186      9.4904     19.3466     87.2327
  1508.7500    842.4386     18.9404      9.9284     19.3504     86.5679
  1509.0000    838.5084     18.4821      9.9209     19.3020     86.3101
  1509.2500    834.3635     18.0754      9.6317     19.1685     86.2396
  1509.5000    832.8413     17.7360      9.2718     18.9655     85.9028
  1509.7500    835.2191     17.4697      9.0431     18.7296     85.7489
  1510.0000    840.3114     17.2787      9.0925     18.4829     86.2920
  1510.2500    845.5657     17.1633      9.4674     18.2280     87.3175
  1510.5000    848.9263     17.1197     10.1015     17.9746     89.5532
  1510.7500    849.8002     17.1410     10.8308     17.7614     91.2193
  1511.0000    848.9258     17.2207     11.4398     17.6464     93.6081
  1511.2500    847.6352     17.3565     11.7274     17.6738     95.0732
  1511.5000    846.8495     17.5502     11.5689     17.8453     97.2305
  1511.7500    846.5058     17.8023     10.9576     18.1209     98.6315
  1512.0000    845.8863     18.1030     10.0051     18.4477    100.0164
  1512.2500    844.3536     18.4302      8.9007     18.7911     99.8852
  1512.5000    841.8278     18.7565      7.8491     19.1338     97.8866
  1512.7500    838.9329     19.0628      6.9992     19.4471     95.9686
  1513.0000    836.9026     19.3452      6.3983     19.6770     93.6931
  1513.2500    836.9863     19.6122      5.9818     19.7728     92.9623
  1513.5000    839.4520     19.8748      5.5992     19.7390     92.5477
  1513.7500    843.2351     20.1372      5.0779     19.6479     92.2144
  1514.0000    846.7543     20.3930      4.2839     19.5999     91.2186
  1514.2500    848.9683     20.6269      3.1762     19.6693     90.2506
  1514.5000    849.5856     20.8184      1.8233     19.8824     88.4851
  1514.7500    848.6952     20.9461      0.3855     20.2266     87.2338
  1515.0000    846.6940     20.9936     -0.9334     20.6633     85.5888
  1515.2500    844.5105     20.9584     -1.9515     21.1268     84.7143
  1515.5000    843.2740     20.8578     -2.5541     21.5253     83.4881
  1515.7500    843.4136     20.7267     -2.7238     21.7735     82.6203
  1516.0000    844.4238     20.6020     -2.5242     21.8427     81.6348
  1516.2500    845.6721     20.5069     -2.0672     21.7786     81.7488
  1516.5000    846.9121     20.4446     -1.4727     21.6640     83.8355
  1516.7500    847.8995     20.4057     -0.8405     21.5675     86.2973
  1517.0000    848.2617     20.3832     -0.2372     21.5200     90.0141
  1517.2500    848.0291     20.3793      0.2885     21.5253     91.5171
  1517.5000    847.6622     20.4014      0.6862     21.5800     91.8301
  1517.7500    847.3332     20.4483      0.8890     21.6881     91.2514
  1518.0000    846.6992     20.4986      0.8128     21.8607     90.3279
  1518.2500    845.3939     20.5144      0.3769     22.1032     89.8571
  1518.5000    843.1730     20.4606     -0.4657     22.3920     88.7961
  1518.7500    839.8419     20.3239     -1.7004     22.6514     87.5206
  1519.0000    835.9536     20.1187     -3.2337     22.7583     84.9840
  1519.2500    833.4194     19.8753     -4.8984     22.5980     83.3969
  1519.5000    834.1928     19.6243     -6.4850     22.1444     82.0329
  1519.7500    838.0686     19.3857     -7.7736     21.4827     82.0235
  1520.0000    842.6575     19.1667     -8.5869     20.7457     83.0926
  1520.2500    845.6025     18.9620     -8.8175     20.0310     84.0908
  1520.5000    846.1176     18.7551     -8.4425     19.3697     85.3822
  1520.7500    844.6641     18.5213     -7.5311     18.7454     86.0978
  1521.0000    842.2698     18.2335     -6.2234     18.1266     87.3079
  1521.2500    840.2762     17.8687     -4.7059     17.4838     88.2303
  1521.5000    839.8334     17.4130     -3.1815     16.7955     89.4422
  1521.7500    841.1520     16.8637     -1.8355     16.0532     90.1152
  1522.0000    843.4110     16.2290     -0.8075     15.2718     91.7519
  1522.2500    845.5022     15.5242     -0.1800     14.4944     93.9920
  1522.5000    846.9119     14.7657      0.0259     13.7818     99.6227
  1522.7500    848.0312     13.9696     -0.1699     13.1901    104.4071
  1523.0000    849.7194     13.1580     -0.7197     12.7533    111.3159
  1523.2500    852.5162     12.3677     -1.5673     12.4771    114.9039
  1523.5000    856.0809     11.6526     -2.6540     12.3444    119.2489
  1523.7500    859.3256     11.0738     -3.9219     12.3249    122.9120
  1524.0000    861.1949     10.6831     -5.3055     12.3839    131.9799
  1524.2500    861.2782     10.5126     -6.7284     12.4877    140.2043
  1524.5000    859.5695     10.5779     -8.0997     12.6055    152.0205
  1524.7500    856.0716     10.8910     -9.3119     12.7130    156.9079
  1525.0000    851.2667     11.4683    -10.2418     12.8010    158.3554
  1525.2500    846.6132     12.3241    -10.7615     12.8843    156.8957
  1525.5000    843.5959     13.4452    -10.7550     12.9990    154.9529
  1525.7500    842.2147     14.7620    -10.1424     13.1835    155.2516
  1526.0000    841.2567     16.1360     -8.9054     13.4566    158.1725
  1526.2500    840.1295     17.3818     -7.1014     13.8106    160.8719
  1526.5000    839.5712     18.3207     -4.8700     14.2247    164.4650
  1526.7500    840.4143     18.8396     -2.4134     14.6848    166.3242
  1527.0000    842.5771     18.9246      0.0316     15.1862    168.9415
  1527.2500    845.5162     18.6513      2.2278     15.7150    170.6747
  1527.5000    848.7750     18.1461      3.9689     16.2290    171.8646
  1527.7500    851.7308     17.5444      5.1042     16.6645    170.3393
  1528.0000    853.5975     16.9660      5.5524     16.9763    162.8457
  1528.2500    854.1255     16.5108      5.3136     17.1752    154.4585
  1528.5000    853.8094     16.2597      4.4708     17.3239    139.1362
  1528.7500    853.1605     16.2650      3.1779     17.4966    129.2121
  1529.0000    852.2068     16.5295      1.6432     17.7435    117.6884
  1529.2500    850.9656     16.9952      0.0909     18.0798    112.6752
  1529.5000    850.0562     17.5595     -1.2719     18.4856    107.8787
  1529.7500    850.4375     18.1164     -2.2894     18.9035    105.4834
  1530.0000    852.4643     18.5959     -2.8790     19.2465    102.3305
  1530.2500    855.2805     18.9758     -3.0368     19.4420    100.6686
  1530.5000    857.2891     19.2677     -2.8253     19.4926     99.2944
  1530.7500    857.4687     19.4928     -2.3522     19.4906     99.1879
  1531.0000    856.3288     19.6668     -1.7398     19.5584     99.8460
  1531.2500    855.3758     19.7975     -1.1004     19.7685    100.4342
  1531.5000    855.5587     19.8904     -0.5177     20.1017    101.1395
  1531.7500    856.4353     19.9546     -0.0405     20.4653    101.5660
  1532.0000    856.8665     20.0057      0.3136     20.7544    102.3685
  1532.2500    856.0978     20.0607      0.5436     20.9182    103.0224
  1532.5000    853.9934     20.1303      0.6472     20.9773    104.3371
  1532.7500    850.7966     20.2131      0.6112     20.9868    105.7255
  1533.0000    847.2880     20.2966      0.4078     20.9863    108.6749
  1533.2500    844.8548     20.3642     -0.0009     20.9872    110.6485
  1533.5000    844.5845     20.4003     -0.6464     20.9990    112.1043
  1533.7500    846.1979     20.3935     -1.5315     21.0547    111.5761
