~Version Information
VERS.                      2.0: CWLS Log ASCII Standard - VERSION 2.0
WRAP.                       NO: One line per depth step
~Well Information Block
STRT.FT               235.0000: 
STOP.FT              1634.5000: 
STEP.FT                 0.2500: 
NULL.                -999.2500: 
COMP.          Petrogulf Corporation: COMPANY
WELL.             State 16-41R: WELL
FLD.           Purgatorie River: FIELD
LOC.           280' FNL & 907' FEL: LOCATION
SECT.                       16: SECTION
TOWN.                      33S: TOWNSHIP
RANG.                      67W: RANGE
STAT.                 Colorado: STATE
CNTY.               Las Animas: COUNTY
CTRY.                      USA: COUNTRY
SRVC.                Patterson: SERVICE COMPANY
DATE.         Tue Oct 18 15:59:41 2005: LOG DATE
API.              05-071-08345: UNIQUE WELL ID
~Curve Information Block
DEPT.FT            0 000 00 00: Depth
SP.mV                         : DIL Spontaneous Potential
RILD.Ohm-m                    : DIL Deep Resistivity
RILM.Ohm-m                    : DIL Medium Resistivity
RLL3.Ohm-m                    : DIL Shallow Resistivity
GR.GAPI                       : Gamma Ray
~Parameter Information Block
~A  Depth        SP         RILD        RILM        RLL3         GR     
# ...
  1607.0000    128.3581     15.0804     16.1048     18.5366     48.5795
  1607.2500    128.9543     14.9796     15.8374     18.2802     50.5907
  1607.5000    129.3999     14.8931     15.5427     17.5982     52.5297
  1607.7500    129.6333     14.8197     15.2448     16.5471     52.5697
  1608.0000    129.6781     14.7558     14.9613     15.3800     48.9678
  1608.2500    129.6199     14.6977     14.7011     14.4140     43.2002
  1608.5000    129.5650     14.6430     14.4657     13.8266     30.2693
  1608.7500    129.5969     14.5908     14.2527     13.5785     20.8553
  1609.0000    129.7479     14.5427     14.0600     13.5079      9.4593
  1609.2500    129.9928     14.5033     13.8891     13.4678      4.7301
  1609.5000    130.2635     14.4797     13.7467     13.3938      1.2860
  1609.7500    130.4752     14.4804     13.6438     13.3037      0.4502
  1610.0000    130.5506     14.5130     13.5933     13.2707      0.0697
  1610.2500    130.4361     14.5820     13.6076     13.3986      0.0158
  1610.5000    130.1076     14.6883     13.6961     13.8001      0.0000
  1610.7500    129.5739     14.8292     13.8643     14.5642   -999.2500
  1611.0000    128.8774     15.0017     14.1138     15.6909   -999.2500
  1611.2500    128.0909     15.2039     14.4439     17.0246   -999.2500
  1611.5000    127.3039     15.4361     14.8526     18.2738   -999.2500
  1611.7500    126.6020     15.6964     15.3387     19.1615   -999.2500
  1612.0000    126.0461     15.9748     15.9013     19.6115   -999.2500
  1612.2500    125.6633     16.2474     16.5388     19.8058   -999.2500
  1612.5000    125.4544     16.4777     17.2452     20.0503   -999.2500
  1612.7500    125.4132     16.6269     18.0061     20.5544   -999.2500
  1613.0000    125.5448     16.6716     18.7934     21.3117   -999.2500
  1613.2500    125.8707     16.6159     19.5625     22.1667   -999.2500
  1613.5000    126.4198     16.4868     20.2540     22.9805   -999.2500
  1613.7500    127.2107     16.3168     20.8002     23.7269   -999.2500
  1614.0000    128.2381     16.1274     21.1394     24.4431   -999.2500
  1614.2500    129.4716     15.9239     21.2308     25.1151   -999.2500
  1614.5000    130.8635     15.7026     21.0670     25.6094   -999.2500
  1614.7500    132.3567     15.4601     20.6764     25.6850   -999.2500
  1615.0000    133.8871     15.1990     20.1147     25.0647   -999.2500
  1615.2500    135.3806     14.9283     19.4503     23.5876   -999.2500
  1615.5000    136.7552     14.6607     18.7492     21.3944   -999.2500
  1615.7500    137.9316     14.3519     18.0651     18.9557   -999.2500
  1616.0000    138.8492     14.0792     17.4355     16.8299   -999.2500
  1616.2500    139.4772     13.9082     16.8823     15.3480   -999.2500
  1616.5000    139.8146     13.7840     16.4160     14.5175   -999.2500
  1616.7500    139.8808     13.7005     16.0394     14.1687   -999.2500
  1617.0000    139.6961     13.6439     15.7520     14.1328   -999.2500
  1617.2500    139.2730     13.6013     15.5528     14.3079   -999.2500
  1617.5000    138.5918     13.5701     15.4416     14.6527   -999.2500
  1617.7500    137.5742     13.5602     15.4190     15.1779   -999.2500
  1618.0000    136.0408     13.5920     15.4862     15.9216   -999.2500
  1618.2500    133.6594     13.6945     15.6427     16.8790   -999.2500
  1618.5000    129.9078     13.9144     15.8850     17.9449   -999.2500
  1618.7500    124.1041     14.3378     16.2037     18.9791   -999.2500
  1619.0000    115.5552     15.1186     16.5803     19.9849   -999.2500
  1619.2500    103.8347     16.5127     16.9837     21.2114   -999.2500
  1619.5000     89.0980     19.0446     17.3679     22.9973   -999.2500
  1619.7500     72.2584     23.1511     17.6730     25.4158   -999.2500
  1620.0000     54.8668     29.8755     17.8322     28.0352   -999.2500
  1620.2500     38.6880     40.4052     17.7870     30.0584   -999.2500
  1620.5000     25.1596     55.4441     17.5033     30.7590   -999.2500
  1620.7500     15.0055     73.5080     16.9870     29.8534   -999.2500
  1621.0000      8.1702     90.1991     16.2853     27.5630   -999.2500
  1621.2500      4.0462    101.6173     15.4760     24.4269   -999.2500
  1621.5000      1.8169    107.8601     14.6501     21.0571   -999.2500
  1621.7500      0.7376    111.4714     13.8965     17.9533   -999.2500
  1622.0000      0.2697    114.8067     13.2947     15.4067   -999.2500
  1622.2500      0.0881    119.3828     12.9149     13.4953   -999.2500
  1622.5000      0.0250    353.8954     12.8256     12.1498   -999.2500
  1622.7500      0.0055    435.8113     13.1051     11.2310   -999.2500
  1623.0000   -999.2500    576.3090     13.8577     10.5835   -999.2500
  1623.2500   -999.2500    814.2621     15.2371     10.0751   -999.2500
  1623.5000   -999.2500   1198.9845     17.4782      9.6407   -999.2500
  1623.7500   -999.2500   1748.1027     20.9402      9.3032   -999.2500
  1624.0000   -999.2500   2362.8142     26.1550      9.1365   -999.2500
  1624.2500   -999.2500   2848.6096     33.8468      9.1880   -999.2500
  1624.5000   -999.2500   3113.4780     44.6929      9.4269   -999.2500
  1624.7500   -999.2500   3219.0933     59.5510      9.7532   -999.2500
  1625.0000   -999.2500   3252.2742     77.3171     10.0574   -999.2500
  1625.2500   -999.2500   3260.8877     95.6044     10.2880   -999.2500
  1625.5000   -999.2500 100000.0000    110.9713     10.4828   -999.2500
  1625.7500   -999.2500 100000.0000    121.2631     10.7429   -999.2500
  1626.0000   -999.2500 100000.0000    126.6486     11.1711   -999.2500
  1626.2500   -999.2500 100000.0000    128.6250     11.8220   -999.2500
  1626.5000   -999.2500 100000.0000    128.7260     12.6900   -999.2500
  1626.7500   -999.2500 100000.0000    128.0149     13.7296   -999.2500
  1627.0000   -999.2500 100000.0000    127.1344     14.9038   -999.2500
  1627.2500   -999.2500 100000.0000    650.3676     16.2690   -999.2500
  1627.5000   -999.2500 100000.0000    645.8035     18.0377   -999.2500
  1627.7500   -999.2500 100000.0000    659.9370     20.4877   -999.2500
  1628.0000   -999.2500 100000.0000    698.1050     23.5468   -999.2500
  1628.2500   -999.2500 100000.0000    768.2432     26.2272   -999.2500
  1628.5000   -999.2500 100000.0000    882.6449     26.6859   -999.2500
  1628.7500   -999.2500 100000.0000   1060.4540     23.4966   -999.2500
  1629.0000   -999.2500   -999.2500   1330.7833     17.1631   -999.2500
  1629.2500   -999.2500   -999.2500   1735.1025     10.0123   -999.2500
  1629.5000   -999.2500   -999.2500   2323.9639      4.3759   -999.2500
  1629.7500   -999.2500   -999.2500   3137.0171      1.0922   -999.2500
  1630.0000   -999.2500   -999.2500   4156.0093     -0.3552   -999.2500
  1630.2500   -999.2500   -999.2500   5255.4043     -0.8434   -999.2500
  1630.5000   -999.2500   -999.2500   6231.8057     -0.9703   -999.2500
  1630.7500   -999.2500   -999.2500   6934.0322     -0.9959   -999.2500
  1631.0000   -999.2500   -999.2500   7349.6831   -999.2500   -999.2500
  1631.2500   -999.2500   -999.2500   7559.0942   -999.2500   -999.2500
  1631.5000   -999.2500   -999.2500   7651.9302   -999.2500   -999.2500
  1631.7500   -999.2500   -999.2500   7688.9990   -999.2500   -999.2500
  1632.0000   -999.2500   -999.2500   7702.5200   -999.2500   -999.2500
  1632.2500   -999.2500   -999.2500 100000.0000   -999.2500   -999.2500
  1632.5000   -999.2500   -999.2500 100000.0000   -999.2500   -999.2500
  1632.7500   -999.2500   -999.2500 100000.0000   -999.2500   -999.2500
  1633.0000   -999.2500   -999.2500 100000.0000   -999.2500   -999.2500
  1633.2500   -999.2500   -999.2500 100000.0000   -999.2500   -999.2500
  1633.5000   -999.2500   -999.2500 100000.0000   -999.2500   -999.2500
  1633.7500   -999.2500   -999.2500 100000.0000   -999.2500   -999.2500
  1634.0000   -999.2500   -999.2500 100000.0000   -999.2500   -999.2500
  1634.2500   -999.2500   -999.2500 100000.0000   -999.2500   -999.2500
  1634.5000   -999.2500   -999.2500 100000.0000   -999.2500   -999.2500
