~Version Information
 VERS.                                  2.0 : CWLS LAS VERSION
 WRAP.                                   NO : WRAPING MODE
 SWARE .                 MController 2.5.0E : SOFTWARE VERSION
~Well Information
 WELL.                  McCullough 34-32 TR : WELL
 COMP.             Evergreen Operating Corp : COMPANY
 FLD.                      Purgatorie River : FIELD
 LOC.                SW/SE Sec 32 T32S R66W : LOCATION
 DATE.                           09/18/2004 : DATE(S) LOGGED
 SRVC.       Blanco Geological Services LLC : SERVICE COMPANY
 STAT.                                   CO : STATE
 CNTY.                            La Animas : COUNTY
 CTRY.                                  USA : COUNTRY
 API.                       05 071 08157-00 : API NUMBER
 STRT.FT                             521.00 : START DEPTH
 STOP.FT                            2000.00 : STOP DEPTH
 STEP.FT                               1.00 : DEPTH INCREMENT
 NULL.                                -9999 : NULL VALUE
~Curve information
 DEPTH.FT                                   :
 ROP.MIN/FT                                 :
 GAS.UNITS                                  :
~ASCII Log data
      521.00    -9999.000          2.6 
      522.00        0.533          5.4 
      523.00        0.267          4.9 
      524.00        0.267          4.9 
      525.00        0.267          4.5 
      526.00        0.267          4.4 
      527.00        0.267          5.1 
      528.00        0.267          4.8 
      529.00        0.283          5.4 
      530.00        0.267          5.5 
      531.00        0.267          4.6 
      532.00        0.267          5.4 
      533.00        0.267          5.2 
      534.00        0.267          4.8 
      535.00        0.267          5.2 
      536.00        0.267          4.7 
      537.00        0.267          4.8 
      538.00        0.267          5.4 
      539.00        0.267          5.5 
      540.00        0.267          5.3 
      541.00        0.267          5.5 
      542.00        0.283          5.7 
      543.00        0.267          5.1 
      544.00        0.267          6.3 
      545.00        0.267         20.7 
      546.00        0.267         20.7 
      547.00        0.267         20.7 
      548.00        0.267         20.7 
      549.00        0.267         20.7 
      550.00        0.267         20.7 
      551.00       14.517         20.2 
      552.00        0.933          6.7 
      553.00        0.233          3.3 
      554.00        0.233          4.0 
      555.00        0.233          3.7 
      556.00        0.267          4.4 
      557.00        0.200          4.4 
      558.00        0.467          5.4 
      559.00        0.233          4.8 
      560.00        0.283          3.8 
      561.00        0.233          3.7 
      562.00        1.033          4.0 
      563.00        0.233          3.2 
      564.00        0.233          3.2 
      565.00        0.300          3.3 
      566.00        1.783          3.5 
      567.00        0.367          3.9 
      568.00        0.200          3.8 
      569.00        0.400          4.2 
      570.00        0.133          4.2 
      571.00        0.433          4.1 
      572.00        0.367          3.8 
      573.00        0.267          4.0 
      574.00        0.267          3.6 
      575.00        0.283          3.0 
      576.00        0.267          4.0 
      577.00        0.267          4.1 
      578.00        0.267          3.9 
      579.00        0.267          4.0 
      580.00        0.267          3.9 
      581.00        0.267          3.8 
      582.00        0.233          4.1 
      583.00        0.200          4.0 
      584.00        0.367          4.2 
      585.00        0.200          3.6 
      586.00        0.200          3.6 
      587.00        0.200          3.5 
      588.00        0.167          3.4 
      589.00        0.183          4.1 
      590.00        0.167          3.5 
      591.00        0.167          3.5 
      592.00        0.233          4.0 
      593.00        0.267          3.8 
      594.00        0.533          4.1 
      595.00        0.267          3.5 
      596.00        0.800          3.6 
      597.00        0.267          3.5 
      598.00        0.200          3.5 
      599.00        0.333          3.7 
      600.00        0.283          4.0 
      601.00        0.233          3.6 
      602.00        0.233          3.6 
      603.00        0.233          4.3 
      604.00        0.367          4.1 
      605.00        0.333          3.9 
      606.00        0.300          3.7 
      607.00        0.300          4.4 
      608.00        0.267          3.5 
      609.00        0.267          4.4 
      610.00        0.267          3.8 
      611.00        0.267          4.0 
      612.00        0.283          3.7 
      613.00        0.267          4.1 
      614.00        0.267          3.9 
      615.00        0.300          3.8 
      616.00        0.267          4.1 
      617.00        0.267          3.4 
      618.00        0.533          4.2 
      619.00        0.267          3.6 
      620.00        0.267          3.8 
      621.00        0.367          3.6 
      622.00        0.267          4.2 
      623.00        0.283          4.0 
      624.00        0.267          4.1 
      625.00        0.267          4.2 
      626.00        1.400          4.3 
      627.00        0.333          4.3 
      628.00        0.267          4.2 
      629.00        0.267          3.6 
      630.00        0.267          3.6 
      631.00        0.350          4.1 
      632.00        0.267          4.0 
      633.00        0.267          3.5 
      634.00        0.200          3.6 
      635.00        0.133          3.6 
      636.00        0.167          3.2 
      637.00        0.167          3.2 
      638.00        0.167          3.6 
      639.00        0.167          4.0 
      640.00        0.200          4.0 
      641.00        0.200          3.7 
      642.00        0.267          4.1 
      643.00        0.267          4.1 
      644.00        0.167          3.4 
      645.00        0.267          3.5 
      646.00        0.133          3.5 
      647.00        0.183          4.0 
      648.00        0.167          4.0 
      649.00        0.167          4.2 
      650.00        0.167          3.7 
      651.00        0.233          3.9 
      652.00        0.267          3.7 
      653.00        0.233          3.7 
      654.00        0.267          4.1 
      655.00        0.233          3.9 
      656.00        2.417          4.5 
      657.00        0.267          4.4 
      658.00        0.267          4.7 
      659.00        0.267          4.0 
      660.00        0.267          4.1 
      661.00        0.267          3.8 
      662.00        0.267          4.3 
      663.00        0.133          3.6 
      664.00        0.267          4.2 
      665.00        0.267          3.8 
      666.00        0.283          4.2 
      667.00        0.267          3.8 
      668.00        0.267          3.5 
      669.00        0.267          4.1 
      670.00        0.267          4.1 
      671.00        0.267          4.8 
      672.00        0.433          5.3 
      673.00        0.233          5.4 
      674.00        0.267          5.1 
      675.00        0.267          5.4 
      676.00        0.267          4.9 
      677.00        0.233          3.9 
      678.00        0.250          4.0 
      679.00        0.233          2.7 
      680.00        0.267          3.6 
      681.00        0.267          3.5 
      682.00        0.233          2.8 
      683.00        0.133          2.8 
      684.00        0.467          4.2 
      685.00        0.367          6.1 
      686.00        1.617          6.3 
      687.00        0.267          3.1 
      688.00        0.200          3.6 
      689.00        0.267          3.8 
      690.00        0.267          3.6 
      691.00        0.267          2.9 
      692.00        0.267          3.0 
      693.00        0.267          3.8 
      694.00        0.367          3.7 
      695.00        0.333          2.8 
      696.00        0.333          3.2 
      697.00        0.350          3.0 
      698.00        0.333          3.6 
      699.00        0.400          3.3 
      700.00        0.300          2.7 
      701.00        0.333          3.6 
      702.00        0.300          2.8 
      703.00        0.267          3.4 
      704.00        0.233          3.1 
      705.00        0.333          2.8 
      706.00        0.367          2.9 
      707.00        0.317          3.1 
      708.00        0.200          2.9 
      709.00        0.233          2.8 
      710.00        0.267          3.0 
      711.00        0.233          3.0 
      712.00        0.233          3.4 
      713.00        0.167          2.5 
      714.00        0.167          2.9 
      715.00        0.233          2.9 
      716.00        2.983          3.6 
      717.00        0.467          2.9 
      718.00        5.900          3.7 
      719.00        0.267          3.5 
      720.00        0.267          3.2 
