~Version Information
VERS.                      2.0: CWLS Log ASCII Standard - VERSION 2.0
WRAP.                       NO: One line per depth step
~Well Information Block
STRT.FT               -12.2500: 
STOP.FT              1948.2500: 
STEP.FT                 0.2500: 
NULL.                -999.2500: 
COMP.          Petrogulf Corporation: COMPANY
WELL.            Torcom 17-33R: WELL
FLD.           Purgatorie River: FIELD
LOC.           1483' FSL & 1804' FEL--: LOCATION
PROV.                       CO: PROVINCE
CNTY.               Las Animas: COUNTRY
SRVC.          Patterson Wireline: SERVICE COMPANY
DATE.          Fri Sep 30 10:11:43 2005: LOG DATE
UWI.           05 071 08096 00: UNIQUE WELL ID
~Curve Information Block
DEPT.FT            0 000 00 00: Depth
CCL.                          : Casing Collar Locator
TT3.usec                      : CBL 3' Travel Time
AMP3.mV                       : CBL 3' Amplitude
GR.GAPI                       : Gamma Ray
~Parameter Information Block
~A  Depth       CCL         TT3         AMP3         GR     
# ...
  1528.7500      0.0000    709.5807      5.9445    144.2761
  1529.0000      0.0000    711.6339      5.9662    130.9998
  1529.2500      0.0000    701.3334      5.9525    118.0334
  1529.5000      0.0000    680.6351      5.9404    107.2635
  1529.7500      0.0000    660.1121      5.9367     98.6130
  1530.0000      0.0000    649.9321      5.9064     91.1451
  1530.2500      0.0000    651.4684      5.7981     84.6144
  1530.5000      0.0000    659.0021      5.5934     79.7942
  1530.7500      0.0000    666.8003      5.3346     77.5742
  1531.0000      0.0000    672.4662      5.0904     78.1863
  1531.2500      0.0000    675.8050      4.8927     81.4377
  1531.5000      0.0000    677.2394      4.7168     87.4964
  1531.7500      0.0000    677.3453      4.5220     97.0036
  1532.0000      0.0000    676.9105      4.2899    109.9050
  1532.2500      0.0000    676.9338      4.0230    124.1742
  1532.5000      0.0000    678.3196      3.7275    136.4007
  1532.7500      0.0000    681.1884      3.4127    144.1878
  1533.0000      0.0000    684.4471      3.1012    147.7460
  1533.2500      0.0000    686.1620      2.8309    148.9132
  1533.5000      0.0000    684.5098      2.6397    149.0636
  1533.7500      0.0000    678.6628      2.5455    148.3291
  1534.0000      0.0000    669.3228      2.5368    146.3166
  1534.2500      0.0000    658.6666      2.5816    142.7179
  1534.5000      0.0000    649.3331      2.6442    137.1704
  1534.7500      0.0000    642.9517      2.7076    129.3377
  1535.0000      0.0000    639.5151      2.7881    119.7989
  1535.2500      0.0000    638.0140      2.9249    110.5961
  1535.5000      0.0000    637.4192      3.1374    104.3158
  1535.7500      0.0000    637.1393      3.3876    102.3290
  1536.0000      0.0000    636.9460      3.5901    103.7756
  1536.2500      0.0000    636.7639      3.6702    106.1045
  1536.5000      0.0000    636.5636      3.6149    106.6555
  1536.7500      0.0000    636.3453      3.4682    104.0282
  1537.0000      0.0000    636.1348      3.2853     98.5054
  1537.2500      0.0000    635.9590      3.0984     91.6698
  1537.5000      0.0000    635.8220      2.9216     85.4144
  1537.7500      0.0000    635.7045      2.7707     80.8086
  1538.0000      0.0000    635.5803      2.6677     77.8488
  1538.2500      0.0000    635.4315      2.6273     76.3182
  1538.5000      0.0000    635.2466      2.6442     76.3982
  1538.7500      0.0000    635.0198      2.6958     78.1016
  1539.0000      0.0000    634.7562      2.7563     80.5016
  1539.2500      0.0000    634.4727      2.8098     82.0963
  1539.5000      0.0000    634.1882      2.8533     82.0533
  1539.7500      0.0000    633.9250      2.8907     80.8838
  1540.0000      0.0000    633.7228      2.9273     79.8028
  1540.2500      0.0000    633.6253      2.9668     79.5261
  1540.5000      0.0000    633.6219      3.0116     79.8309
  1540.7500      0.0000    633.6011      3.0636     80.2110
  1541.0000      0.0000    633.4031      3.1237     80.5864
  1541.2500      0.0000    632.9564      3.1885     81.1363
  1541.5000      0.0000    632.3674      3.2492     81.8163
  1541.7500      0.0000    631.8729      3.2977     82.4837
  1542.0000      0.0000    631.6984      3.3366     83.3476
  1542.2500      0.0000    631.9456      3.3845     84.9157
  1542.5000      0.0000    632.4850      3.4689     87.3638
  1542.7500      0.0000    632.8391      3.6054     90.0574
  1543.0000      0.0000    632.1330      3.7787     91.8219
  1543.2500      0.0000    629.5723      3.9418     91.7468
  1543.5000      0.0000    625.6039      4.0382     89.7454
  1543.7500      0.0000    622.4807      4.0328     86.3216
  1544.0000      0.0000    622.2316      3.9304     81.9883
  1544.2500      0.0000    623.1211      3.7770     77.1599
  1544.5000      0.0000    619.8722      3.6450     72.4733
  1544.7500      0.0000    609.4891      3.5989     68.8667
  1545.0000      0.0000    595.9338      3.6567     67.2232
  1545.2500      0.0000    587.0204      3.7869     67.8485
  1545.5000      0.0000    587.3906      3.9511     70.0590
  1545.7500      0.0000    595.8597      4.1322     72.3710
  1546.0000      0.0000    607.9024      4.3134     73.4244
  1546.2500      0.0000    618.6431      4.4576     72.8191
  1546.5000      0.0000    624.6770      4.5238     71.1248
  1546.7500      0.0000    625.3044      4.4877     69.3002
  1547.0000      0.0000    622.6110      4.3434     68.0508
  1547.2500      0.0000    620.1015      4.1061     67.5235
  1547.5000      0.0000    620.8289      3.8182     67.5463
  1547.7500      0.0000    626.0079      3.5388     67.9309
  1548.0000      0.0000    634.5658      3.3145     68.2589
  1548.2500      0.0000    643.8848      3.1603     67.7809
  1548.5000      0.0000    651.2747      3.0632     66.2413
  1548.7500      0.0000    655.0208      3.0000     64.6343
  1549.0000      0.0000    654.6713      2.9516     64.5749
  1549.2500      0.0000    650.9783      2.9086     67.0268
  1549.5000      0.0000    645.6227      2.8691     71.8157
  1549.7500      0.0000    640.5069      2.8337     77.8806
  1550.0000      0.0000    636.8750      2.7997     83.7220
  1550.2500      0.0000    634.9429      2.7619     88.3048
  1550.5000      0.0000    634.2330      2.7173     92.1101
  1550.7500      0.0000    634.1028      2.6674     96.9073
  1551.0000      0.0000    634.0326      2.6170    104.0396
  1551.2500      0.0000    633.6378      2.5714    113.2808
  1551.5000      0.0000    632.6954      2.5369    123.5455
  1551.7500      0.0000    631.3969      2.5226    133.9745
  1552.0000      0.0000    630.6335      2.5373    143.6861
  1552.2500      0.0000    631.7909      2.5809    151.0747
  1552.5000      0.0000    635.9108      2.6394    154.4144
  1552.7500      0.0000    642.8202      2.6967    153.3098
  1553.0000      0.0000    650.8998      2.7495    149.0938
  1553.2500      0.0000    657.8811      2.8038    143.8692
  1553.5000      0.0000    662.5417      2.8607    139.5063
  1553.7500     -2.0000    665.8237      2.9147    137.1483
  1554.0000      0.0000    669.5969      2.9593    136.8989
  1554.2500      0.0000    674.0769      2.9917    137.8856
  1554.5000      0.0000    677.0557      3.0144    139.0788
  1554.7500      0.0000    675.9472      3.0350    140.2622
  1555.0000      0.0000    670.3046      3.0591    142.0998
  1555.2500      0.0000    662.2296      3.0814    145.1334
  1555.5000      0.0000    654.5852      3.0950    148.6886
  1555.7500      0.0000    649.1061      3.1059    150.9008
  1556.0000      0.0000    646.1784      3.1302    149.8651
  1556.2500      0.0000    645.7755      3.1789    144.8505
  1556.5000      0.0000    648.3028      3.2512    136.8491
  1556.7500      0.0000    654.8308      3.3421    128.3367
  1557.0000      0.0000    666.0085      3.4442    122.1105
  1557.2500      0.0000    680.1132      3.5455    119.6941
  1557.5000      0.0000    693.1984      3.6288    120.6418
  1557.7500      0.0000    702.3424      3.6829    123.2379
  1558.0000      0.0000    708.1473      3.7149    125.7901
  1558.2500      0.0000    713.2339      3.7484    127.7756
  1558.5000      0.0000    718.7964      3.8031    130.2246
  1558.7500      0.0000    723.5640      3.8783    134.5569
  1559.0000      0.0000    726.1606      3.9592    140.6445
  1559.2500      0.0000    727.7158      4.0367    146.4032
  1559.5000      0.0000    731.2643      4.1187    149.4964
  1559.7500      0.0000    738.2404      4.2242    149.2517
  1560.0000      0.0000    745.7486      4.3700    146.9813
  1560.2500      0.0000    747.7582      4.5631    144.6104
  1560.5000      0.0000    739.8110      4.7978    143.0686
  1560.7500      0.0000    722.9937      5.0561    142.0250
  1561.0000      0.0000    703.1184      5.3093    140.9424
  1561.2500      0.0000    686.2867      5.5226    139.9451
  1561.5000      0.0000    675.5878      5.6678    139.7493
  1561.7500      0.0000    670.9694      5.7388    141.2927
  1562.0000      0.0000    670.5571      5.7548    145.4495
