~Version Information
VERS.                      2.0: CWLS Log ASCII Standard - VERSION 2.0
WRAP.                       NO: One line per depth step
~Well Information Block
STRT.FT               275.0000: 
STOP.FT              1682.2500: 
STEP.FT                 0.2500: 
NULL.                -999.2500: 
COMP.          Pioneer Natural Resources: COMPANY
WELL.               Elmo 14-21: WELL
FLD.           Purgatoire River: FIELD
LOC.           623' FSL & 450' FWL----: LOCATION
PROV.                 Colorado: PROVINCE
CNTY.               Las Animas: COUNTRY
SRVC.                Patterson: SERVICE COMPANY
DATE.          Tue May 17 16:07:31 2005: LOG DATE
UWI.           05 071 08360 00: UNIQUE WELL ID
~Curve Information Block
DEPT.FT            0 000 00 00: Depth
SN.Ohm-m                      : IEL Short Normal
SP.mV                         : IEL Spontaneous Potential
DIR.Ohm-m                     : IEL Induction Resistivity
GR.GAPI                       : Gamma Ray
~Parameter Information Block
~A  Depth        SN          SP         DIR          GR     
# ...
  1280.0000     12.1268    -12.2664     11.1454    103.1392
  1280.2500     12.0672    -12.6114     11.5695     96.1273
  1280.5000     12.3359    -12.9514     11.9910     91.3104
  1280.7500     13.0313    -13.1834     12.4114     92.4275
  1281.0000     14.0751    -13.2363     12.8334     99.5094
  1281.2500     15.2404    -13.0841     13.2515    106.2995
  1281.5000     16.2790    -12.7473     13.6443    116.3237
  1281.7500     17.0525    -12.2825     13.9777    121.3738
  1282.0000     17.5656    -11.7663     14.2202    125.6803
  1282.2500     17.8996    -11.2761     14.3635    126.8940
  1282.5000     18.1289    -10.8750     14.4306    127.6173
  1282.7500     18.2898    -10.6024     14.4675    127.7742
  1283.0000     18.3959    -10.4713     14.5234    127.0871
  1283.2500     18.4577    -10.4725     14.6351    125.4769
  1283.5000     18.4890    -10.5811     14.8194    121.1889
  1283.7500     18.5054    -10.7654     15.0739    117.8663
  1284.0000     18.5250    -10.9935     15.3813    114.2626
  1284.2500     18.5647    -11.2377     15.7139    113.4400
  1284.5000     18.6319    -11.4765     16.0389    113.8123
  1284.7500     18.7171    -11.6943     16.3230    114.2741
  1285.0000     18.7953    -11.8815     16.5384    115.1259
  1285.2500     18.8344    -12.0344     16.6660    116.4955
  1285.5000     18.8086    -12.1547     16.6981    120.3072
  1285.7500     18.7125    -12.2496     16.6393    123.3554
  1286.0000     18.5679    -12.3300     16.5081    127.1564
  1286.2500     18.4179    -12.4085     16.3349    129.0529
  1286.5000     18.3084    -12.4970     16.1586    132.0816
  1286.7500     18.2701    -12.6049     16.0190    134.7822
  1287.0000     18.3127    -12.7379     15.9509    139.2910
  1287.2500     18.4286    -12.8977     15.9784    141.4395
  1287.5000     18.5995    -13.0831     16.1132    141.1579
  1287.7500     18.8031    -13.2896     16.3549    137.9238
  1288.0000     19.0244    -13.5099     16.6937    128.9568
  1288.2500     19.2667    -13.7330     17.1148    121.3164
  1288.5000     19.5526    -13.9442     17.6007    109.7324
  1288.7500     19.9085    -14.1265     18.1288    103.1299
  1289.0000     20.3334    -14.2631     18.6638     96.0994
  1289.2500     20.7698    -14.3412     19.1532     93.4577
  1289.5000     21.1082    -14.3546     19.5326     92.1534
  1289.7500     21.2393    -14.3068     19.7439     92.6133
  1290.0000     21.1193    -14.2107     19.7587     94.3440
  1290.2500     20.7918    -14.0875     19.5914     95.7136
  1290.5000     20.3494    -13.9641     19.2915     97.7610
  1290.7500     19.8689    -13.8698     18.9196     99.0921
  1291.0000     19.3729    -13.8322     18.5231    100.6786
  1291.2500     18.8425    -13.8738     18.1253    100.9606
  1291.5000     18.2608    -14.0076     17.7309     99.2268
  1291.7500     17.6478    -14.2327     17.3390     96.4270
  1292.0000     17.0621    -14.5311     16.9554     90.9427
  1292.2500     16.5751    -14.8658     16.5952     88.0878
  1292.5000     16.2365    -15.1832     16.2766     88.2965
  1292.7500     16.0490    -15.4202     16.0116     92.5386
  1293.0000     15.9633    -15.5168     15.7980    104.1101
  1293.2500     15.9019    -15.4315     15.6200    113.2071
  1293.5000     15.7980    -15.1554     15.4545    124.7558
  1293.7500     15.6257    -14.7201     15.2794    129.6627
  1294.0000     15.4031    -14.1950     15.0803    133.2147
  1294.2500     15.1718    -13.6737     14.8543    134.1983
  1294.5000     14.9715    -13.2527     14.6130    135.0572
  1294.7500     14.8264    -13.0090     14.3808    135.2265
  1295.0000     14.7455    -12.9835     14.1891    134.3177
  1295.2500     14.7300    -13.1753     14.0677    133.0533
  1295.5000     14.7781    -13.5474     14.0376    131.2011
  1295.7500     14.8852    -14.0403     14.1077    130.3981
  1296.0000     15.0417    -14.5887     14.2750    129.5971
  1296.2500     15.2324    -15.1349     14.5255    129.0233
  1296.5000     15.4368    -15.6365     14.8379    127.5955
  1296.7500     15.6311    -16.0686     15.1872    125.6425
  1297.0000     15.7954    -16.4201     15.5503    119.9488
  1297.2500     15.9253    -16.6894     15.9112    114.3971
  1297.5000     16.0421    -16.8793     16.2650    105.8164
  1297.7500     16.1924    -16.9950     16.6157    101.8655
  1298.0000     16.4298    -17.0424     16.9686    100.7606
  1298.2500     16.7819    -17.0289     17.3197    103.2169
  1298.5000     17.2205    -16.9637     17.6500    109.6109
  1298.7500     17.6592    -16.8580     17.9264    113.8905
  1299.0000     17.9855    -16.7249     18.1111    117.7396
  1299.2500     18.1131    -16.5779     18.1767    117.8599
  1299.5000     18.0216    -16.4299     18.1192    114.5429
  1299.7500     17.7618    -16.2922     17.9615    110.7078
  1300.0000     17.4281    -16.1733     17.7453    104.1534
  1300.2500     17.1167    -16.0788     17.5174    100.0460
  1300.5000     16.8904    -16.0113     17.3164     94.8637
  1300.7500     16.7613    -15.9711     17.1645     92.0241
  1301.0000     16.6969    -15.9562     17.0636     88.6495
  1301.2500     16.6472    -15.9633     16.9968     87.2581
  1301.5000     16.5755    -15.9881     16.9377     87.0523
  1301.7500     16.4739    -16.0255     16.8623     88.0704
  1302.0000     16.3540    -16.0700     16.7589     90.0132
  1302.2500     16.2285    -16.1153     16.6303     90.6162
  1302.5000     16.1011    -16.1550     16.4876     89.7789
  1302.7500     15.9683    -16.1828     16.3422     88.4227
  1303.0000     15.8249    -16.1938     16.1994     86.1863
  1303.2500     15.6670    -16.1842     16.0568     84.6424
  1303.5000     15.4948    -16.1521     15.9063     81.3933
  1303.7500     15.3136    -16.0972     15.7377     78.1861
  1304.0000     15.1303    -16.0203     15.5425     72.3731
  1304.2500     14.9470    -15.9228     15.3167     68.8027
  1304.5000     14.7605    -15.8073     15.0640     65.5547
  1304.7500     14.5657    -15.6773     14.7961     65.2917
  1305.0000     14.3605    -15.5377     14.5303     67.6044
  1305.2500     14.1472    -15.3945     14.2845     70.3358
  1305.5000     13.9304    -15.2544     14.0727     74.6364
  1305.7500     13.7168    -15.1234     13.9023     76.7742
  1306.0000     13.5155    -15.0060     13.7749     78.0968
  1306.2500     13.3382    -14.9039     13.6868     77.7809
  1306.5000     13.1966    -14.8163     13.6312     76.2460
  1306.7500     13.0975    -14.7399     13.5997     74.9576
  1307.0000     13.0377    -14.6698     13.5843     72.9775
  1307.2500     13.0033    -14.6007     13.5783     71.7833
  1307.5000     12.9782    -14.5282     13.5763     70.7967
  1307.7500     12.9571    -14.4503     13.5741     71.0135
  1308.0000     12.9505    -14.3679     13.5704     72.6088
  1308.2500     12.9775    -14.2856     13.5684     74.2685
  1308.5000     13.0530    -14.2113     13.5765     77.3597
  1308.7500     13.1809    -14.1547     13.6061     79.6165
  1309.0000     13.3539    -14.1258     13.6674     82.4559
  1309.2500     13.5568    -14.1326     13.7653     83.4197
  1309.5000     13.7706    -14.1790     13.9000     83.1014
  1309.7500     13.9777    -14.2640     14.0701     81.8131
  1310.0000     14.1677    -14.3817     14.2754     78.3955
  1310.2500     14.3402    -14.5227     14.5162     75.1971
  1310.5000     14.5036    -14.6756     14.7887     69.5956
  1310.7500     14.6700    -14.8293     15.0809     65.8202
  1311.0000     14.8505    -14.9734     15.3719     60.5462
  1311.2500     15.0527    -15.0999     15.6375     57.3574
  1311.5000     15.2769    -15.2026     15.8600     53.5763
  1311.7500     15.5142    -15.2785     16.0365     52.3081
  1312.0000     15.7488    -15.3272     16.1785     52.9315
  1312.2500     15.9669    -15.3519     16.3040     54.7984
  1312.5000     16.1617    -15.3586     16.4262     58.6006
  1312.7500     16.3316    -15.3554     16.5484     61.1269
  1313.0000     16.4718    -15.3511     16.6653     64.1616
  1313.2500     16.5732    -15.3534     16.7682     65.3713
