~Version Information
VERS.                      2.0: CWLS Log ASCII Standard - VERSION 2.0
WRAP.                       NO: One line per depth step
~Well Information Block
STRT.FT                -8.5000: 
STOP.FT              2286.0000: 
STEP.FT                 0.2500: 
NULL.                -999.2500: 
COMP.          Pioneer Natural Resources: COMPANY
WELL.             Culver 14-12: WELL
FLD.           Purgatorie River: FIELD
LOC.           913' FSL & 1140' FWL--: LOCATION
PROV.                       CO: PROVINCE
CNTY.               Las Animas: COUNTRY
SRVC.          Patterson Wireline: SERVICE COMPANY
DATE.          Wed Jun 15 13:05:36 2005: LOG DATE
UWI.           05 071 08386 00: UNIQUE WELL ID
~Curve Information Block
DEPT.FT            0 000 00 00: Depth
CCL.                          : Casing Collar Locator
TT3.usec                      : CBL 3' Travel Time
AMP3.mV                       : CBL 3' Amplitude
GR.GAPI                       : Gamma Ray
~Parameter Information Block
~A  Depth       CCL         TT3         AMP3         GR     
# ...
   159.0000      0.0000    909.9835      2.9458     79.8463
   159.2500      0.0000    911.5082      2.9884     75.1132
   159.5000      0.0000    911.2993      3.0880     71.1242
   159.7500      0.0000    903.0939      3.2112     68.8864
   160.0000      0.0000    887.1757      3.3382     69.1011
   160.2500      0.0000    871.4626      3.4668     71.9014
   160.5000      0.0000    862.8186      3.5854     76.5735
   160.7500      0.0000    860.3364      3.6608     81.6129
   161.0000      0.0000    857.8814      3.6608     85.3926
   161.2500      0.0000    851.0981      3.5819     87.1139
   161.5000      0.0000    840.7968      3.4510     87.2408
   161.7500      0.0000    830.7043      3.3094     86.9173
   162.0000      0.0000    823.4604      3.1953     86.8938
   162.2500      0.0000    818.9231      3.1295     87.1394
   162.5000      0.0000    815.6435      3.1111     87.5505
   162.7500      0.0000    813.0587      3.1263     88.6057
   163.0000      0.0000    811.8271      3.1656     90.7094
   163.2500      0.0000    812.6271      3.2329     92.9522
   163.5000      0.0000    815.6897      3.3361     93.3591
   163.7500      0.0000    821.5311      3.4652     90.9006
   164.0000      0.0000    831.2429      3.5860     87.0457
   164.2500      0.0000    845.4576      3.6574     84.8895
   164.5000      0.0000    863.0585      3.6589     86.4499
   164.7500      0.0000    881.0862      3.5997     90.8000
   165.0000      0.0000    895.9056      3.5072     94.9064
   165.2500      0.0000    904.6021      3.4134     96.1601
   165.5000      0.0000    905.8635      3.3423     94.0343
   165.7500      0.0000    900.2589      3.2999     89.7828
   166.0000      0.0000    890.0004      3.2660     85.1968
   166.2500      0.0000    878.1667      3.2076     81.6978
   166.5000      0.0000    867.5876      3.1066     79.9917
   166.7500      0.0000    859.8711      2.9764     80.0040
   167.0000      0.0000    855.0131      2.8519     81.0854
   167.2500      0.0000    851.6790      2.7650     82.5618
   167.5000      0.0000    847.9589      2.7265     84.3186
   167.7500      0.0000    842.3237      2.7228     86.9218
   168.0000      0.0000    834.5192      2.7282     91.0196
   168.2500      0.0000    825.8301      2.7214     96.2547
   168.5000      0.0000    818.2922      2.6926    100.7884
   168.7500      0.0000    813.4363      2.6401    102.4223
   169.0000      0.0000    811.7066      2.5707    100.3632
   169.2500      0.0000    812.7536      2.5024     95.6905
   169.5000      0.0000    815.7731      2.4534     90.4089
   169.7500      0.0000    819.5602      2.4253     86.3985
   170.0000      0.0000    822.7855      2.4019     84.6625
   170.2500      0.0000    824.6091      2.3668     84.7712
   170.5000      0.0000    824.9024      2.3202     85.1644
   170.7500      0.0000    823.9743      2.2757     84.4610
   171.0000      0.0000    822.4625      2.2396     82.5180
   171.2500      0.0000    821.1555      2.1977     80.2752
   171.5000      0.0000    820.2363      2.1350     78.8422
   171.7500      0.0000    818.9416      2.0649     78.6791
   172.0000      0.0000    816.5832      2.0197     79.4031
   172.2500      0.0000    813.6883      2.0097     80.3413
   172.5000      0.0000    811.7479      2.0114     81.1984
   172.7500      0.0000    812.2434      1.9973     81.9891
   173.0000      0.0000    816.1970      1.9618     82.5251
   173.2500      0.0000    823.8848      1.9185     82.4509
   173.5000      0.0000    833.9523      1.8818     81.8774
   173.7500      0.0000    842.9072      1.8559     81.6721
   174.0000      0.0000    846.6466      1.8390     82.8608
   174.2500      0.0000    843.4260      1.8349     85.7636
   174.5000      0.0000    835.2962      1.8572     89.7184
   174.7500      0.0000    826.3665      1.9214     93.3682
   175.0000      0.0000    819.8506      2.0326     95.1996
   175.2500      0.0000    816.9232      2.1741     94.4113
   175.5000      0.0000    817.8837      2.3088     91.7815
   175.7500      0.0000    823.3936      2.3975     89.4316
   176.0000      0.0000    833.6075      2.4213     89.2722
   176.2500      0.0000    845.4851      2.3880     91.5720
   176.5000      0.0000    851.7075      2.3193     95.0689
   176.7500      0.0000    844.7164      2.2371     98.2197
   177.0000      0.0000    823.8607      2.1675    100.0769
   177.2500      0.0000    798.4241      2.1459    100.1663
   177.5000      0.0000    782.2126      2.2005     98.2163
   177.7500      0.0000    783.9764      2.3244     94.5659
   178.0000      0.0000    802.1296      2.4804     90.6636
   178.2500      0.0000    828.1237      2.6347     88.4988
   178.5000      0.0000    854.9861      2.7733     88.9999
   178.7500      2.0000    882.0560      2.8916     90.9709
   179.0000      0.0000    910.6541      2.9862     91.9175
   179.2500      0.0000    936.1586      3.0572     90.1892
   179.5000      0.0000    947.7740      3.1088     86.3946
   179.7500      0.0000    939.0047      3.1536     82.7456
   180.0000      0.0000    917.5599      3.2171     81.0767
   180.2500      0.0000    900.9785      3.3225     81.4383
   180.5000      0.0000    900.7043      3.4578     82.3683
   180.7500      0.0000    911.7906      3.5729     82.3558
   181.0000      0.0000    919.0663      3.6243     81.0639
   181.2500      0.0000    912.5117      3.6208     79.1440
   181.5000      0.0000    895.6718      3.6126     76.9568
   181.7500      0.0000    879.9999      3.6392     73.9233
   182.0000      0.0000    873.5274      3.7004     69.4616
   182.2500      0.0000    875.8621      3.7720     64.2578
   182.5000      0.0000    881.6342      3.8315     60.1125
   182.7500      0.0000    886.2522      3.8688     58.4082
   183.0000      0.0000    889.0031      3.8903     58.8304
   183.2500      0.0000    892.9533      3.9147     59.6979
   183.5000      0.0000    902.4881      3.9532     59.5993
   183.7500      0.0000    919.3945      3.9919     58.5419
   184.0000      0.0000    940.2045      4.0051     57.2795
   184.2500      0.0000    958.2493      3.9851     55.9591
   184.5000      0.0000    969.4669      3.9528     54.2535
   184.7500      0.0000    975.1313      3.9418     52.6117
   185.0000      0.0000    978.5063      3.9751     52.2696
   185.2500      0.0000    981.0439      4.0495     53.7255
   185.5000      0.0000    983.0398      4.1346     55.8916
   185.7500      0.0000    985.5540      4.1906     57.1258
   186.0000      0.0000    988.4233      4.1959     56.6920
   186.2500      0.0000    986.3091      4.1599     54.9851
   186.5000      0.0000    970.5314      4.1111     52.8767
   186.7500      0.0000    938.5474      4.0762     51.2781
   187.0000      0.0000    900.3745      4.0689     50.8358
   187.2500      0.0000    871.7264      4.0901     51.4513
   187.5000      0.0000    860.0947      4.1324     52.2512
   187.7500      0.0000    859.8123      4.1877     52.3860
   188.0000      0.0000    860.5952      4.2486     51.8388
   188.2500      0.0000    858.2419      4.3066     51.3520
   188.5000      0.0000    856.2665      4.3552     51.5648
   188.7500      0.0000    859.5006      4.3964     52.2032
   189.0000      0.0000    868.3568      4.4373     52.1516
   189.2500      0.0000    879.0236      4.4749     50.4314
   189.5000      0.0000    887.8389      4.4886     47.1377
   189.7500      0.0000    894.5420      4.4561     43.3732
   190.0000      0.0000    901.1219      4.3784     40.3166
   190.2500      0.0000    908.4902      4.2823     38.6218
   190.5000      0.0000    915.0786      4.1948     38.6855
   190.7500      0.0000    917.8001      4.1242     40.7638
   191.0000      0.0000    914.0685      4.0671     44.3332
   191.2500      0.0000    904.1960      4.0261     47.9084
   191.5000      0.0000    891.7991      4.0100     50.1614
   191.7500      0.0000    880.3845      4.0215     51.0061
   192.0000      0.0000    869.6100      4.0499     51.3081
   192.2500      0.0000    855.9937      4.0723     51.8611
