~Version Information
VERS.                      2.0: CWLS Log ASCII Standard - VERSION 2.0
WRAP.                       NO: One line per depth step
~Well Information Block
STRT.FT               830.0000: 
STOP.FT              3122.7500: 
STEP.FT                 0.2500: 
NULL.                -999.2500: 
COMP.          Pioneer Natural Resources: COMPANY
WELL.              Stones 24-8: WELL
FLD.           Purgatoire River: FIELD
LOC.           648' FSL & 2264' FWL: LOCATION
PROV.                 Colorado: PROVINCE
CNTY.               Las Animas: COUNTRY
SRVC.                Patterson: SERVICE COMPANY
DATE.          Wed Jan 19 12:44:32 2005: LOG DATE
UWI.           05 071 07945 00: UNIQUE WELL ID
~Curve Information Block
DEPT.FT            0 000 00 00: Depth
SN.Ohm-m                      : IEL Short Normal
SP.mV                         : IEL Spontaneous Potential
DIR.Ohm-m                     : IEL Induction Resistivity
GR.GAPI                       : Gamma Ray
~Parameter Information Block
~A  Depth        SN          SP         DIR          GR     
# ...
  2337.5000      8.0446   -228.1069      7.8462    134.4020
  2337.7500      8.1240   -228.2011      7.9422    136.0460
  2338.0000      8.1786   -228.2914      8.0226    137.2541
  2338.2500      8.2165   -228.3691      8.0869    137.3934
  2338.5000      8.2542   -228.4250      8.1387    136.6147
  2338.7500      8.3011   -228.4533      8.1832    135.6778
  2339.0000      8.3533   -228.4539      8.2237    134.9605
  2339.2500      8.4022   -228.4340      8.2610    135.7939
  2339.5000      8.4470   -228.4066      8.2940    139.1622
  2339.7500      8.4994   -228.3892      8.3221    141.8496
  2340.0000      8.5765   -228.4003      8.3488    144.3097
  2340.2500      8.6928   -228.4569      8.3835    144.4321
  2340.5000      8.8580   -228.5715      8.4404    144.0596
  2340.7500      9.0761   -228.7511      8.5358    145.1543
  2341.0000      9.3487   -228.9962      8.6840    150.0131
  2341.2500      9.6817   -229.3010      8.8943    154.2200
  2341.5000     10.0928   -229.6543      9.1718    158.1546
  2341.7500     10.6077   -230.0416      9.5210    157.3797
  2342.0000     11.2492   -230.4484      9.9506    150.0983
  2342.2500     12.0402   -230.8632     10.4754    141.6164
  2342.5000     13.0240   -231.2793     11.1128    125.4674
  2342.7500     14.2731   -231.6926     11.8775    114.0784
  2343.0000     15.8604   -232.0954     12.7762     98.8750
  2343.2500     17.7943   -232.4701     13.8042     90.9947
  2343.5000     19.9609   -232.7859     14.9393     82.6839
  2343.7500     22.1246   -233.0043     16.1302     78.9759
  2344.0000     24.0093   -233.0886     17.2854     75.5253
  2344.2500     25.4082   -233.0155     18.2781     74.7382
  2344.5000     26.2386   -232.7806     18.9834     76.2673
  2344.7500     26.5214   -232.3966     19.3331     79.1119
  2345.0000     26.3368   -231.8866     19.3426     85.8904
  2345.2500     25.7869   -231.2778     19.0801     92.0427
  2345.5000     24.9620   -230.5975     18.6107    103.5410
  2345.7500     23.9194   -229.8729     17.9672    112.2139
  2346.0000     22.6955   -229.1318     17.1651    125.1267
  2346.2500     21.3401   -228.4019     16.2352    132.7003
  2346.5000     19.9346   -227.7095     15.2372    141.7823
  2346.7500     18.5755   -227.0762     14.2466    146.5986
  2347.0000     17.3417   -226.5179     13.3293    152.8014
  2347.2500     16.2722   -226.0421     12.5270    156.4192
  2347.5000     15.3663   -225.6481     11.8560    160.7896
  2347.7500     14.6040   -225.3265     11.3151    162.9022
  2348.0000     13.9732   -225.0607     10.8957    165.3491
  2348.2500     13.4831   -224.8311     10.5878    167.0286
  2348.5000     13.1494   -224.6215     10.3839    170.0264
  2348.7500     12.9605   -224.4253     10.2787    171.8918
  2349.0000     12.8624   -224.2469     10.2682    173.0058
  2349.2500     12.7864   -224.0982     10.3478    171.9158
  2349.5000     12.6990   -223.9902     10.5109    167.0069
  2349.7500     12.6375   -223.9273     10.7508    161.5854
  2350.0000     12.7130   -223.9053     11.0642    151.1152
  2350.2500     13.0765   -223.9139     11.4573    143.7948
  2350.5000     13.8597   -223.9407     11.9455    135.0334
  2350.7500     15.1108   -223.9729     12.5469    131.7175
  2351.0000     16.7494   -223.9967     13.2676    130.0658
  2351.2500     18.5670   -223.9990     14.0859    129.8607
  2351.5000     20.2914   -223.9697     14.9431    128.7439
  2351.7500     21.7005   -223.9061     15.7523    127.0668
  2352.0000     22.7220   -223.8148     16.4308    123.7685
  2352.2500     23.4536   -223.7114     16.9443    121.4873
  2352.5000     24.0911   -223.6162     17.3313    118.2874
  2352.7500     24.8120   -223.5495     17.6878    116.6350
  2353.0000     25.6830   -223.5285     18.1207    115.8424
  2353.2500     26.6396   -223.5653     18.7006    116.4391
  2353.5000     27.5423   -223.6668     19.4330    116.7795
  2353.7500     28.2667   -223.8336     20.2543    114.6928
  2354.0000     28.7709   -224.0597     21.0565    106.6976
  2354.2500     29.1048   -224.3321     21.7358     99.2918
  2354.5000     29.3697   -224.6314     22.2439     88.8753
  2354.7500     29.6561   -224.9341     22.6082     84.1425
  2355.0000     29.9937   -225.2145     22.9014     81.3047
  2355.2500     30.3381   -225.4476     23.1858     82.0011
  2355.5000     30.6042   -225.6119     23.4686     86.1969
  2355.7500     30.7188   -225.6928     23.6958     90.6850
  2356.0000     30.6486   -225.6877     23.7792     98.9556
  2356.2500     30.3886   -225.6080     23.6409    104.5506
  2356.5000     29.9303   -225.4779     23.2484    111.1784
  2356.7500     29.2402   -225.3257     22.6278    113.7264
  2357.0000     28.2669   -225.1737     21.8513    114.9057
  2357.2500     26.9762   -225.0285     21.0010    114.4983
  2357.5000     25.3878   -224.8791     20.1272    112.8898
  2357.7500     23.5836   -224.7022     19.2281    111.4953
  2358.0000     21.6883   -224.4721     18.2697    109.9985
  2358.2500     19.8419   -224.1704     17.2325    110.2832
  2358.5000     18.1723   -223.7932     16.1428    113.5398
  2358.7500     16.7618   -223.3528     15.0618    117.3820
  2359.0000     15.6234   -222.8761     14.0516    124.5915
  2359.2500     14.7029   -222.3979     13.1496    129.9556
  2359.5000     13.9126   -221.9530     12.3652    138.7699
  2359.7500     13.1785   -221.5676     11.6888    144.9611
  2360.0000     12.4726   -221.2548     11.1029    153.3965
  2360.2500     11.8159   -221.0151     10.5912    157.4772
  2360.5000     11.2523   -220.8397     10.1438    160.5681
  2360.7500     10.8158   -220.7160      9.7591    160.8952
  2361.0000     10.5116   -220.6304      9.4409    159.6194
  2361.2500     10.3183   -220.5693      9.1942    157.9070
  2361.5000     10.2024   -220.5198      9.0197    154.6001
  2361.7500     10.1326   -220.4711      8.9122    152.6583
  2362.0000     10.0856   -220.4164      8.8612    152.0993
  2362.2500     10.0450   -220.3540      8.8540    154.0945
  2362.5000     10.0017   -220.2878      8.8782    160.2263
  2362.7500      9.9569   -220.2258      8.9234    165.3140
  2363.0000      9.9244   -220.1787      8.9817    172.3516
  2363.2500      9.9291   -220.1597      9.0496    175.6571
  2363.5000     10.0026   -220.1834      9.1306    177.3574
  2363.7500     10.1814   -220.2642      9.2392    176.0734
  2364.0000     10.5053   -220.4137      9.3992    170.9507
  2364.2500     11.0144   -220.6360      9.6390    165.8367
  2364.5000     11.7372   -220.9247      9.9827    155.9130
  2364.7500     12.6719   -221.2616     10.4428    147.6866
  2365.0000     13.7669   -221.6184     11.0179    132.9619
  2365.2500     14.9139   -221.9607     11.6938    121.9810
  2365.5000     15.9709   -222.2528     12.4445    105.1109
  2365.7500     16.8162   -222.4628     13.2315     94.6134
  2366.0000     17.4089   -222.5663     14.0034     81.9724
  2366.2500     17.8133   -222.5500     14.7005     76.7489
  2366.5000     18.1600   -222.4138     15.2720     75.0550
  2366.7500     18.5596   -222.1726     15.6946     78.1446
  2367.0000     19.0279   -221.8547     15.9794     88.0367
  2367.2500     19.4787   -221.4974     16.1575     96.9168
  2367.5000     19.7880   -221.1406     16.2576    110.9751
  2367.7500     19.8751   -220.8203     16.2935    119.1435
  2368.0000     19.7435   -220.5640     16.2695    127.2421
  2368.2500     19.4717   -220.3887     16.1969    129.3921
  2368.5000     19.1773   -220.3014     16.1091    128.7220
  2368.7500     18.9801   -220.2999     16.0620    126.7709
  2369.0000     18.9703   -220.3735     16.1204    123.1010
  2369.2500     19.1853   -220.5055     16.3373    120.5911
  2369.5000     19.6033   -220.6758     16.7366    116.9438
  2369.7500     20.1604   -220.8659     17.3038    114.6305
  2370.0000     20.7823   -221.0634     17.9892    111.5061
  2370.2500     21.4185   -221.2657     18.7203    109.6961
  2370.5000     22.0643   -221.4797     19.4219    107.0855
  2370.7500     22.7569   -221.7187     20.0369    105.1983
