~Version Information
VERS.                      2.0: CWLS Log ASCII Standard - VERSION 2.0
WRAP.                       NO: One line per depth step
~Well Information Block
STRT.FT               784.0000: 
STOP.FT              1035.0000: 
STEP.FT                 0.2500: 
NULL.                -999.2500: 
COMP.          Pioneer Natural Resources: COMPANY
WELL.          Run-Away-Train 43-26: WELL
FLD.           Purgatoire River: FIELD
LOC.           1693' FSL & 1195' FEL: LOCATION
PROV.                 Colorado: PROVINCE
CNTY.               Las Animas: COUNTRY
SRVC.                Patterson: SERVICE COMPANY
DATE.          Tue Apr 05 19:22:37 2005: LOG DATE
UWI.           05 071 08188 00: UNIQUE WELL ID
~Curve Information Block
DEPT.FT            0 000 00 00: Depth
SN.Ohm-m                      : IEL Short Normal
SP.mV                         : IEL Spontaneous Potential
DIR.Ohm-m                     : IEL Induction Resistivity
GR.GAPI                       : Gamma Ray
~Parameter Information Block
~A  Depth        SN          SP         DIR          GR     
# ...
   918.0000     22.6999    -38.6651     19.2231     59.8345
   918.2500     22.6085    -34.8933     19.2434     62.5783
   918.5000     22.7489    -31.5622     19.2130     65.8068
   918.7500     23.1271    -28.6024     19.1246     66.8703
   919.0000     23.6428    -25.9692     18.9871     66.5656
   919.2500     24.0901    -23.8182     18.8213     65.2334
   919.5000     24.3373    -22.5091     18.6557     62.1393
   919.7500     24.3915    -22.3885     18.5252     59.8414
   920.0000     24.3025    -23.4648     18.4674     56.9091
   920.2500     24.0975    -25.2458     18.5134     55.6520
   920.5000     23.8210    -26.9258     18.6771     55.0884
   920.7500     23.5554    -27.7952     18.9466     55.6322
   921.0000     23.3832    -27.5402     19.2848     57.5968
   921.2500     23.3625    -26.2468     19.6434     59.2769
   921.5000     23.5142    -24.2033     19.9873     61.5377
   921.7500     23.7938    -21.7245     20.3129     62.6263
   922.0000     24.0849    -19.1247     20.6456     63.6377
   922.2500     24.2392    -16.7638     21.0183     63.9300
   922.5000     24.1988    -15.0061     21.4489     63.8051
   922.7500     24.1216    -14.0572     21.9286     63.5091
   923.0000     24.2729    -13.8520     22.4212     63.3435
   923.2500     24.7582    -14.1727     22.8673     63.6505
   923.5000     25.4809    -14.9366     23.1988     64.3799
   923.7500     26.2806    -16.3837     23.3648     64.4955
   924.0000     26.8845    -18.9604     23.3601     63.4537
   924.2500     26.8305    -22.9757     23.2332     62.0871
   924.5000     25.7772    -28.2853     23.0611     59.9116
   924.7500     23.9431    -34.2226     22.9105     58.8307
   925.0000     22.0463    -39.8169     22.8109     58.0173
   925.2500     20.7980    -44.1728     22.7507     57.9863
   925.5000     20.5172    -46.8195     22.6929     58.6862
   925.7500     21.0412    -47.8623     22.5969     59.6704
   926.0000     21.8461    -47.8600     22.4370     61.8221
   926.2500     22.3781    -47.4753     22.2054     63.4460
   926.5000     22.4042    -47.1190     21.9031     65.4992
   926.7500     22.0520    -46.8402     21.5321     66.4201
   927.0000     21.5460    -46.4947     21.0993     67.6476
   927.2500     21.0307    -45.9565     20.6299     68.9439
   927.5000     20.6294    -45.1685     20.1702     72.0392
   927.7500     20.4221    -44.0759     19.7711     74.4811
   928.0000     20.2927    -42.6067     19.4622     77.4142
   928.2500     19.9721    -40.7387     19.2373     78.2950
   928.5000     19.2908    -38.5550     19.0631     77.9548
   928.7500     18.4520    -36.2198     18.9048     77.1351
   929.0000     18.0334    -33.9258     18.7495     76.1840
   929.2500     18.4047    -31.8670     18.6071     76.1542
   929.5000     19.2424    -30.2044     18.4909     77.1135
   929.7500     19.9537    -29.0085     18.3944     78.4453
   930.0000     20.2769    -28.2277     18.2833     81.8712
   930.2500     20.3231    -27.7211     18.1121     85.2335
   930.5000     20.3096    -27.3365     17.8554     91.0715
   930.7500     20.3638    -26.9667     17.5311     94.4343
   931.0000     20.4969    -26.5307     17.1941     96.9600
   931.2500     20.6400    -25.9138     16.9042     96.6204
   931.5000     20.7109    -24.9714     16.6966     93.8172
   931.7500     20.7054    -23.6285     16.5766     91.2368
   932.0000     20.7308    -21.9660     16.5349     87.5062
   932.2500     20.9275    -20.1812     16.5649     85.5279
   932.5000     21.3445    -18.4585     16.6662     83.5898
   932.7500     21.8959    -16.8848     16.8405     82.9066
   933.0000     22.3792    -15.4709     17.0864     82.3561
   933.2500     22.5298    -14.2106     17.3959     81.9870
   933.5000     22.2189    -13.0691     17.7472     80.9529
   933.7500     21.6331    -11.8973     18.0998     79.7615
   934.0000     21.1108    -10.3987     18.4047     77.3353
   934.2500     20.8861     -8.2778     18.6276     75.7001
   934.5000     21.0375     -5.5230     18.7654     74.0226
   934.7500     21.4639     -2.6100     18.8390     73.4905
   935.0000     21.9303     -0.4267     18.8723     72.8429
   935.2500     22.2346      0.0894     18.8815     72.0320
   935.5000     22.3025     -1.5886     18.8756     70.1693
   935.7500     22.2170     -5.3015     18.8585     68.8730
   936.0000     22.1418    -10.3011     18.8284     67.5833
   936.2500     22.1223    -15.6475     18.7826     67.3951
   936.5000     22.0553    -20.6234     18.7281     68.2470
   936.7500     21.8425    -24.9165     18.6880     69.5350
   937.0000     21.4640    -28.5365     18.6917     72.0817
   937.2500     20.9875    -31.6013     18.7535     73.6053
   937.5000     20.5895    -34.1593     18.8601     74.5977
   937.7500     20.4727    -36.1380     18.9792     74.2679
   938.0000     20.6601    -37.4010     19.0841     73.0870
   938.2500     20.9115    -37.8273     19.1704     72.4096
   938.5000     20.9139    -37.3634     19.2473     71.7891
   938.7500     20.5710    -36.0485     19.3163     71.4602
   939.0000     20.0837    -34.0226     19.3633     71.0665
   939.2500     19.7487    -31.5258     19.3729     71.1060
   939.5000     19.7228    -28.8984     19.3506     71.8943
   939.7500     19.9405    -26.5472     19.3246     72.7744
   940.0000     20.1961    -24.8203     19.3279     74.0467
   940.2500     20.3441    -23.8205     19.3797     74.5423
   940.5000     20.4068    -23.3227     19.4814     74.5632
   940.7500     20.4788    -22.9276     19.6233     74.2268
   941.0000     20.6386    -22.3452     19.7926     73.5985
   941.2500     20.9452    -21.5382     19.9772     73.2579
   941.5000     21.3820    -20.6294     20.1607     72.9081
   941.7500     21.8436    -19.7706     20.3102     72.7173
   942.0000     22.2724    -19.1451     20.3753     72.2820
   942.2500     22.7078    -18.9923     20.3175     71.7521
   942.5000     23.1538    -19.4752     20.1531     70.5276
   942.7500     23.5140    -20.4717     19.9567     69.5313
   943.0000     23.6938    -21.5237     19.8108     68.0171
   943.2500     23.7312    -22.0041     19.7538     67.1100
   943.5000     23.7902    -21.3672     19.7747     66.1328
   943.7500     24.0002    -19.3669     19.8459     65.8816
   944.0000     24.3023    -16.1870     19.9502     66.2000
   944.2500     24.5234    -12.4154     20.0764     66.8253
   944.5000     24.6619     -8.8366     20.1981     68.2125
   944.7500     24.8973     -6.1496     20.2625     69.2811
   945.0000     25.2330     -4.7887     20.2061     70.7273
   945.2500     25.4114     -4.9327     19.9889     71.4119
   945.5000     25.1850     -6.6073     19.6217     72.0307
   945.7500     24.4840     -9.6989     19.1626     72.3708
   946.0000     23.4321    -13.8394     18.6866     73.2635
   946.2500     22.2830    -18.3352     18.2515     74.3060
   946.5000     21.2720    -22.3266     17.8845     76.3138
   946.7500     20.5102    -25.1364     17.5892     77.4370
   947.0000     19.9949    -26.5621     17.3602     77.7876
   947.2500     19.6735    -26.8829     17.1941     76.9127
   947.5000     19.4856    -26.5937     17.0944     74.5021
   947.7500     19.3750    -26.1032     17.0693     72.7179
   948.0000     19.2842    -25.6082     17.1249     70.3033
   948.2500     19.1367    -25.1460     17.2599     68.8559
   948.5000     18.8890    -24.6882     17.4609     66.8462
   948.7500     18.6134    -24.2003     17.7012     65.6782
   949.0000     18.4533    -23.6841     17.9433     64.3382
   949.2500     18.5049    -23.2089     18.1474     63.7673
   949.5000     18.7525    -22.8838     18.2856     63.4181
   949.7500     19.0535    -22.7624     18.3499     63.4916
   950.0000     19.2134    -22.7665     18.3477     63.9156
   950.2500     19.1498    -22.7129     18.2906     64.3118
   950.5000     18.9560    -22.4165     18.1912     64.9983
   950.7500     18.7767    -21.7803     18.0700     65.5779
   951.0000     18.6490    -20.8155     17.9590     66.8356
   951.2500     18.5126    -19.5882     17.8932     67.8755
