~Version Information
 VERS.                                  2.0 : CWLS LAS VERSION
 WRAP.                                   NO : WRAPING MODE
 SWARE .                 MController 2.5.0J : SOFTWARE VERSION
~Well Information
 WELL.                           State 16-14: WELL
 COMP.                       Petrogulf Corp : COMPANY
 FLD.                       Purgatoire River: FIELD
 LOC.                  SW/SW Sec16 T33S R67W: LOCATION
 DATE.                             11/04/04 : DATE(S) LOGGED
 SRVC.        BLanco Geological Services LLC: SERVICE COMPANY
 STAT.                                    CO: STATE
 CNTY.                           Las Animas : COUNTY
 CTRY.                                   USA: COUNTRY
 API.                           05-071-08034: API NUMBER
 STRT.FT                             659.00 : START DEPTH
 STOP.FT                            1890.00 : STOP DEPTH
 STEP.FT                               1.00 : DEPTH INCREMENT
 NULL.                                -9999 : NULL VALUE
~Curve information
 DEPTH.FT                                   :
 ROP.MIN/FT                                 :
 GAS.UNITS                                  :
~ASCII Log data
# ...
      1259.0         0.20         17.9 
      1260.0         0.30         18.5 
      1261.0         0.20         18.8 
      1262.0         0.17         19.3 
      1263.0         0.20         16.8 
      1264.0         0.20         15.0 
      1265.0         0.30         14.5 
      1266.0         0.27         15.3 
      1267.0         0.27         13.9 
      1268.0         0.32         13.3 
      1269.0         0.30         12.9 
      1270.0         0.20         12.4 
      1271.0         0.23         12.2 
      1272.0         0.20         11.8 
      1273.0         0.20         10.9 
      1274.0         0.20         10.0 
      1275.0         0.13         11.0 
      1276.0         0.13          8.5 
      1277.0         0.10          8.5 
      1278.0         0.17         10.9 
      1279.0         0.13         10.9 
      1280.0         0.13         11.2 
      1281.0         0.20         13.1 
      1282.0         0.17         13.1 
      1283.0         0.20         14.2 
      1284.0         0.13         15.0 
      1285.0         0.23         15.6 
      1286.0         0.32         15.4 
      1287.0         0.33         15.1 
      1288.0         0.30         13.8 
      1289.0         0.40         12.9 
      1290.0         0.23         11.6 
      1291.0         0.23         11.5 
      1292.0         0.20         11.4 
      1293.0         0.17         11.5 
      1294.0         0.13         11.5 
      1295.0         0.10         11.5 
      1296.0         0.27         11.0 
      1297.0         0.23         10.4 
      1298.0         0.23         10.0 
      1299.0         0.20         10.2 
      1300.0         0.25         10.0 
      1301.0         0.20         10.2 
      1302.0         0.23         10.3 
      1303.0         0.20         10.5 
      1304.0         0.20          9.9 
      1305.0         0.13          9.9 
      1306.0         0.27          9.0 
      1307.0         0.27          9.2 
      1308.0         0.27         10.7 
      1309.0         0.30          7.7 
      1310.0         0.17          8.0 
      1311.0         0.20          9.9 
      1312.0         0.20         11.4 
      1313.0         0.20         12.5 
      1314.0         0.20         13.3 
      1315.0         0.12         14.4 
      1316.0         0.27         14.5 
      1317.0         0.27         15.0 
      1318.0         0.30         16.1 
      1319.0         0.33         14.8 
      1320.0         0.40         13.5 
      1321.0         0.32         12.4 
      1322.0         0.37         10.9 
      1323.0         0.37         10.8 
      1324.0         0.33         10.4 
      1325.0         0.33          9.8 
      1326.0         0.30          9.2 
      1327.0         0.30          9.2 
      1328.0         0.27          9.2 
      1329.0         0.30          9.0 
      1330.0         0.30          8.8 
      1331.0         0.30          8.3 
      1332.0         0.35          8.7 
      1333.0         0.30          8.6 
      1334.0         0.27          8.2 
      1335.0         0.20          8.3 
      1336.0         0.20          8.3 
      1337.0         0.20          8.0 
      1338.0         0.17         12.9 
      1339.0         0.23          7.5 
      1340.0         0.13          7.5 
      1341.0         0.17          7.7 
      1342.0         0.23          8.7 
      1343.0         0.27          9.4 
      1344.0         0.23         10.7 
      1345.0         0.30         12.3 
      1346.0         0.25         13.9 
      1347.0         0.20         15.7 
      1348.0         0.30         17.0 
      1349.0         0.30         17.5 
      1350.0         0.23         16.1 
      1351.0         0.25         15.9 
      1352.0         0.23         15.0 
      1353.0         0.23         14.3 
      1354.0         0.27         14.5 
      1355.0         0.33         13.9 
      1356.0         0.37         13.6 
      1357.0         0.23         14.5 
      1358.0         0.20         13.4 
      1359.0         0.20         13.0 
      1360.0         0.23         12.3 
      1361.0         0.17         11.2 
      1362.0         0.17         10.3 
      1363.0         0.13         10.6 
      1364.0         0.17          9.7 
      1365.0         0.17          9.9 
      1366.0         0.18         19.2 
      1367.0         0.20         10.8 
      1368.0         0.20          9.9 
      1369.0         0.20          8.8 
      1370.0         0.13          8.4 
      1371.0         0.20          8.5 
      1372.0         0.20          9.8 
      1373.0         0.17         10.2 
      1374.0         0.17         12.4 
      1375.0         0.20         14.3 
      1376.0         0.20         14.3 
      1377.0         0.27         17.2 
      1378.0         0.37         17.4 
      1379.0         0.37         18.4 
      1380.0         0.33         15.5 
      1381.0         0.33         15.4 
      1382.0         0.37         15.1 
      1383.0         0.27         12.5 
      1384.0         0.27         11.9 
      1385.0         0.23         12.0 
      1386.0         0.28         11.3 
      1387.0         0.27         10.3 
      1388.0         0.30          9.4 
      1389.0         0.33          9.2 
      1390.0         0.33          8.8 
      1391.0         0.33          8.0 
      1392.0         0.27          8.0 
      1393.0         0.27          8.3 
      1394.0         0.23          8.0 
      1395.0         0.23          7.4 
      1396.0         0.23          7.6 
      1397.0         0.20          7.9 
      1398.0         0.28          7.9 
      1399.0         0.23         10.5 
      1400.0         0.27         10.5 
      1401.0         0.27         13.4 
      1402.0         0.23         17.0 
      1403.0         0.27         20.8 
      1404.0         0.20         20.1 
      1405.0         0.27         20.6 
      1406.0         0.27         19.7 
      1407.0         0.30         17.8 
      1408.0         0.27         16.6 
      1409.0         0.27         15.0 
      1410.0         0.27         13.9 
      1411.0         0.27         12.2 
      1412.0         0.27         11.9 
      1413.0         0.22         11.8 
      1414.0         0.23         11.5 
      1415.0         0.20         10.5 
      1416.0         0.17         10.5 
      1417.0         0.17         11.3 
      1418.0         0.17         11.2 
      1419.0         0.20         11.2 
      1420.0         0.37         11.4 
      1421.0         0.20         11.0 
      1422.0         0.23         12.8 
      1423.0         0.20         14.8 
      1424.0         0.23         16.8 
      1425.0         0.17         18.1 
      1426.0         0.20         28.0 
      1427.0         0.20         34.7 
      1428.0         0.17         34.7 
      1429.0         0.18         41.8 
      1430.0         0.20         46.2 
      1431.0         0.20         48.0 
      1432.0         0.27         48.4 
      1433.0         0.13         47.2 
      1434.0         0.20         44.2 
      1435.0         0.17         42.8 
      1436.0         0.10         41.2 
      1437.0         0.20         37.8 
      1438.0         0.27         38.2 
      1439.0         0.23         34.6 
      1440.0         0.27         31.1 
      1441.0         0.30         29.6 
      1442.0         0.23         26.1 
      1443.0         0.17         26.8 
      1444.0         0.23         23.2 
      1445.0         0.32         24.2 
      1446.0         0.30         20.8 
      1447.0         0.33         19.2 
      1448.0         0.23         17.3 
      1449.0         0.23         16.1 
      1450.0         0.20         16.1 
      1451.0         0.27         16.4 
      1452.0         0.30         16.5 
      1453.0         0.20         15.9 
      1454.0         0.40         16.0 
      1455.0         0.27         15.2 
      1456.0         0.23         16.9 
      1457.0         0.25         32.2 
      1458.0         0.20         32.2 
