~Version Information
VERS.                      2.0: CWLS Log ASCII Standard - VERSION 2.0
WRAP.                       NO: One line per depth step
~Well Information Block
STRT.FT                -8.2500: 
STOP.FT              1795.0000: 
STEP.FT                 0.2500: 
NULL.                -999.2500: 
COMP.          Petrogulf Corporation: COMPANY
WELL.           Montoya 7-21 R: WELL
FLD.           Purgatoire River: FIELD
LOC.           445' FNL & 1942' FWL----: LOCATION
PROV.                 Colorado: PROVINCE
CNTY.               Las Animas: COUNTRY
SRVC.                         : SERVICE COMPANY
DATE.          Fri Sep 30 15:33:54 2005: LOG DATE
UWI.                          : UNIQUE WELL ID
~Curve Information Block
DEPT.FT            0 000 00 00: Depth
GR.GAPI                       : Gamma Ray
CCL.                          : Casing Collar Locator
TT3.usec                      : CBL 3' Travel Time
AMP3.mV                       : CBL 3' Amplitude
~Parameter Information Block
~A  Depth        GR         CCL         TT3         AMP3    
# ...
   360.2500     62.9248      0.0000    294.7742     21.7999
   360.5000     66.1376      0.0000    289.0216     23.2781
   360.7500     70.9271      0.0000    284.5260     25.0606
   361.0000     75.9587      0.0000    281.8298     27.1341
   361.2500     80.0742      0.0000    280.4760     29.5657
   361.5000     82.6095      0.0000    279.8300     32.3593
   361.7500     83.6823      0.0000    279.5065     35.3474
   362.0000     84.1728      0.0000    279.3661     38.2383
   362.2500     85.1155      0.0000    279.3789     40.7759
   362.5000     86.7592      0.0000    279.5315     42.8475
   362.7500     88.2657      0.0000    279.7829     44.4243
   363.0000     88.7534      0.0000    280.0610     45.4297
   363.2500     88.6604      0.0000    280.2904     45.7482
   363.5000     89.5828      0.0000    280.4337     45.3942
   363.7500     92.6895      0.0000    280.5032     44.6023
   364.0000     97.6471      0.0000    280.5341     43.6860
   364.2500    102.9605      0.0000    280.5539     42.8251
   364.5000    106.9532      0.0000    280.5776     42.0234
   364.7500    108.6675      0.0000    280.6162     41.2406
   365.0000    108.4628      0.0000    280.6762     40.5137
   365.2500    107.7387      0.0000    280.7508     39.9483
   365.5000    107.6034      0.0000    280.8161     39.6108
   365.7500    107.7654      0.0000    280.8391     39.4396
   366.0000    107.1287      0.0000    280.7888     39.2988
   366.2500    105.5687      0.0000    280.6537     39.1609
   366.5000    104.7289      0.0000    280.4559     39.2019
   366.7500    106.7108      0.0000    280.2489     39.6480
   367.0000    111.9849      0.0000    280.0919     40.5276
   367.2500    118.7708      0.0000    280.0180     41.6004
   367.5000    124.3509      0.0000    280.0217     42.5192
   367.7500    126.7511      0.0000    280.0695     43.0538
   368.0000    125.5611      0.0000    280.1224     43.2090
   368.2500    121.8935      0.0000    280.1576     43.1921
   368.5000    117.6022      0.0000    280.1783     43.2920
   368.7500    113.9837      0.0000    280.2073     43.7696
   369.0000    110.9681      0.0000    280.2695     44.8118
   369.2500    107.6672      0.0000    280.3800     46.5018
   369.5000    103.5502      0.0000    280.5383     48.7653
   369.7500     98.7858      0.0000    280.7198     51.3389
   370.0000     93.6193      0.0000    280.8513     53.8363
   370.2500     88.0571      0.0000    280.7546     55.9001
   370.5000     82.3548      0.0000    280.0571     57.3644
   370.7500     77.3134      0.0000    278.1770     58.3295
   371.0000     73.7635      0.0000    274.6119     59.0721
   371.2500     71.9691      0.0000    269.5532     59.8085
   371.5000     71.6176      0.0000    264.3177     60.4817
   371.7500     72.1647      0.0000    260.9240     60.7516
   372.0000     73.1227      0.0000    260.8912     60.2036
   372.2500     74.1640      0.0000    264.2083     58.5912
   372.5000     75.1031      0.0000    269.3507     55.9375
   372.7500     75.9247      0.0000    274.3232     52.4960
   373.0000     76.8441      0.0000    277.8406     48.6634
   373.2500     78.2882      0.0000    279.7238     44.8774
   373.5000     80.7834      0.0000    280.4644     41.5014
   373.7500     84.8013      0.0000    280.6244     38.7420
   374.0000     90.5255      0.0000    280.5615     36.6398
   374.2500     97.5914      0.0000    280.4592     35.1163
   374.5000    104.9469      0.0000    280.4630     34.0311
   374.7500    111.0457      0.0000    280.8903     33.2320
   375.0000    114.6482      0.0000    282.4742     32.5841
   375.2500    115.8452      0.0000    286.4832     31.9530
   375.5000    116.1240      0.0000    294.1771     31.1917
   375.7500    117.1849      0.0000    305.4558     30.2104
   376.0000    119.7038      0.0000    317.7931     29.0343
   376.2500    122.9826      0.0000    327.0200     27.6989
   376.5000    125.3634      0.0000    329.7125     26.1307
   376.7500    125.1529      0.0000    325.1700     24.2816
   377.0000    121.8393      0.0000    315.6805     22.3494
   377.2500    116.8051      0.0000    305.1509     20.7115
   377.5000    112.7063      0.0000    296.9117     19.6355
   377.7500    111.9571      0.0000    292.2390     19.1311
   378.0000    115.4204      2.0000    290.6795     19.0445
   378.2500    121.9893      0.0000    291.2631     19.2452
   378.5000    129.4623      0.0000    293.0043     19.7800
   378.7500    136.2333      0.0000    294.6218     20.9250
   379.0000    142.1882      0.0000    294.6677     23.0594
   379.2500    147.9008      0.0000    292.5071     26.3976
   379.5000    153.3357      0.0000    288.9215     30.7717
   379.7500    157.6087      0.0000    285.4086     35.6167
   380.0000    159.8946      0.0000    282.9618     40.1730
   380.2500    160.4800      0.0000    281.6584     43.7728
   380.5000    160.9373      0.0000    281.0934     46.0156
   380.7500    163.0455      0.0000    280.8818     46.7710
   381.0000    167.2471      0.0000    280.8307     46.1298
   381.2500    172.0726      0.0000    280.9218     44.3568
   381.5000    175.2623      0.0000    281.3253     41.7916
   381.7500    175.6517      0.0000    282.5006     38.7204
   382.0000    173.8515      0.0000    285.2273     35.3393
   382.2500    170.8494      0.0000    290.2448     31.8420
   382.5000    166.2158      0.0000    297.5068     28.4992
   382.7500    158.3392      0.0000    305.7446     25.6317
   383.0000    146.7374      0.0000    313.0340     23.5022
   383.2500    133.7288      0.0000    317.9067     22.2233
   383.5000    123.4344      0.0000    319.7967     21.7497
   383.7500    119.2046      0.0000    318.5815     21.9609
   384.0000    121.9411      0.0000    314.2323     22.7603
   384.2500    130.0101      0.0000    307.2255     24.0869
   384.5000    140.0771      0.0000    299.0187     25.8404
   384.7500    148.4992      0.0000    291.5897     27.8401
   385.0000    153.0148      0.0000    286.2994     29.8994
   385.2500    153.5609      0.0000    283.2899     31.9473
   385.5000    151.2035      0.0000    281.8886     34.0746
   385.7500    146.2759      0.0000    281.3452     36.4441
   386.0000    138.0387      0.0000    281.1955     39.0938
   386.2500    126.2490      0.0000    281.2239     41.7764
   386.5000    112.5341      0.0000    281.3207     44.0127
   386.7500     99.9910      0.0000    281.4084     45.3561
   387.0000     91.6404      0.0000    281.4391     45.6391
   387.2500     89.1543      0.0000    281.4078     44.9986
   387.5000     92.5192      0.0000    281.3408     43.7100
   387.7500    100.4616      0.0000    281.2735     42.0093
   388.0000    111.0552      0.0000    281.2438     40.0223
   388.2500    122.0770      0.0000    281.3298     37.7871
   388.5000    131.3113      0.0000    281.7833     35.2996
   388.7500    137.2461      0.0000    283.2547     32.5563
   389.0000    139.9359      0.0000    287.2625     29.6013
   389.2500    140.9257      0.0000    296.9570     26.5572
   389.5000    141.6796      0.0000    318.1451     23.5953
   389.7500    142.1237      0.0000    359.2905     20.8591
   390.0000    141.2082      0.0000    427.5045     18.4191
   390.2500    138.6006      0.0000    520.2853     16.3083
   390.5000    135.1934      0.0000    620.2880     14.5945
   390.7500    132.2050      0.0000    701.5920     13.4131
   391.0000    130.3358      0.0000    743.1843     12.9357
   391.2500    129.7830      0.0000    736.5621     13.3030
   391.5000    130.8455      0.0000    684.2554     14.5706
   391.7500    134.2314      0.0000    597.6733     16.6971
   392.0000    140.2444      0.0000    497.0365     19.5842
   392.2500    147.5966      0.0000    406.2829     23.1365
   392.5000    153.7364      0.0000    341.8319     27.2927
   392.7500    156.8386      0.0000    305.7035     32.0032
   393.0000    157.1043      0.0000    289.5298     37.1729
   393.2500    155.8444      0.0000    283.1527     42.6103
   393.5000    153.8914      0.0000    279.6320     48.0172
