~Version Information
VERS.                      2.0: CWLS Log ASCII Standard - VERSION 2.0
WRAP.                       NO: One line per depth step
~Well Information Block
STRT.FT              1684.7500: 
STOP.FT              2367.7500: 
STEP.FT                 0.2500: 
NULL.                -999.2500: 
COMP.          Petrogulf Corporation: COMPANY
WELL.             Norton 9-14V: WELL
FLD.           Purgatorie River: FIELD
LOC.           250' FSL & 225' FWL--: LOCATION
CNTY.               Las Animas: COUNTY
SRVC.                         : SERVICE COMPANY
DATE.          Mon Jan 10 10:00:10 2005: LOG DATE
UWI.                          : UNIQUE WELL ID
STAT.                       CO: STATE
~Curve Information Block
DEPT.FT            0 000 00 00: Depth
CCL.                          : Casing Collar Locator
TT3.usec                      : CBL 3' Travel Time
AMP3.mV                       : CBL 3' Amplitude
GR.GAPI                       : Gamma Ray
~Parameter Information Block
~A  Depth       CCL         TT3         AMP3         GR     
# ...
  2187.2500      0.0000    467.3249      2.9269     46.0604
  2187.5000      0.0000    500.7628      2.3719     46.8179
  2187.7500      0.0000    537.2448      1.9666     48.0209
  2188.0000      0.0000    573.5875      1.8338     49.4616
  2188.2500      0.0000    607.6437      1.9533     51.6468
  2188.5000      0.0000    637.1759      2.2138     54.6362
  2188.7500      0.0000    660.6172      2.4973     57.4226
  2189.0000      0.0000    677.6243      2.7247     58.7560
  2189.2500      0.0000    688.4033      2.8572     58.3864
  2189.5000      0.0000    693.3141      2.8892     57.2413
  2189.7500      0.0000    693.8546      2.8494     56.5914
  2190.0000      0.0000    693.4456      2.7965     57.3290
  2190.2500      0.0000    695.9506      2.7930     59.7761
  2190.5000      0.0000    702.6675      2.8665     63.6738
  2190.7500      0.0000    711.0865      3.0017     68.2844
  2191.0000      0.0000    716.8329      3.1785     72.7490
  2191.2500      0.0000    716.6589      3.4198     76.4451
  2191.5000      0.0000    709.5948      3.7921     79.0495
  2191.7500      0.0000    695.9418      4.3504     80.5435
  2192.0000      0.0000    676.1787      5.0850     81.4162
  2192.2500      0.0000    650.9136      5.9163     82.6068
  2192.5000      0.0000    621.2356      6.7297     84.8298
  2192.7500      0.0000    589.6721      7.4127     88.0972
  2193.0000      0.0000    561.9323      7.8819     92.0542
  2193.2500      0.0000    546.0840      8.1041     96.2915
  2193.5000      0.0000    546.1188      8.0992     99.9472
  2193.7500      0.0000    555.3222      7.9202    101.5461
  2194.0000      0.0000    560.2661      7.6292     99.9575
  2194.2500      0.0000    555.1650      7.2795     95.5380
  2194.5000      0.0000    549.9266      6.8977     90.0130
  2194.7500      0.0000    559.3464      6.4861     85.2335
  2195.0000      0.0000    585.7465      6.0544     82.1240
  2195.2500      0.0000    616.9851      5.6408     80.3984
  2195.5000      0.0000    640.1231      5.2945     78.9684
  2195.7500      0.0000    650.9051      5.0514     76.9298
  2196.0000      0.0000    649.9160      4.9363     74.5429
  2196.2500      0.0000    636.7206      4.9723     73.3288
  2196.5000      0.0000    612.1620      5.1655     75.0642
  2196.7500      0.0000    583.4112      5.4748     80.3318
  2197.0000      0.0000    562.2801      5.8020     87.7533
  2197.2500      0.0000    557.8763      6.0200     94.6792
  2197.5000      0.0000    571.6094      6.0283     98.8355
  2197.7500      0.0000    598.1891      5.7988     99.4552
  2198.0000      0.0000    629.5601      5.3815     97.0611
  2198.2500      0.0000    657.8517      4.8682     92.5238
  2198.5000      0.0000    677.3503      4.3457     86.4305
  2198.7500      0.0000    686.6124      3.8681     79.1837
  2199.0000      0.0000    689.0056      3.4563     71.4579
  2199.2500      0.0000    689.5997      3.1120     64.2406
  2199.5000      0.0000    690.8405      2.8372     58.4337
  2199.7500      0.0000    691.2734      2.6409     54.7788
  2200.0000      0.0000    687.9774      2.5271     54.2279
  2200.2500      0.0000    679.6845      2.4785     57.7489
  2200.5000      0.0000    667.8187      2.4637     65.1092
  2200.7500      0.0000    655.3439      2.4616     73.8598
  2201.0000      0.0000    644.9982      2.4756     80.1275
  2201.2500      0.0000    638.4194      2.5174     80.9919
  2201.5000      0.0000    636.2576      2.5811     76.3208
  2201.7500      0.0000    638.3295      2.6351     68.4115
  2202.0000      0.0000    643.1913      2.6409     60.0223
  2202.2500      0.0000    647.9044      2.5808     52.7327
  2202.5000      0.0000    649.2274      2.4694     46.8507
  2202.7500      0.0000    645.8138      2.3408     42.3286
  2203.0000      0.0000    639.2919      2.2259     39.4809
  2203.2500      0.0000    633.0309      2.1380     38.9478
  2203.5000      0.0000    630.0492      2.0746     41.0899
  2203.7500      0.0000    632.1366      2.0296     45.4754
  2204.0000      0.0000    639.9944      2.0042     51.1067
  2204.2500      0.0000    652.6489      2.0026     57.2584
  2204.5000      0.0000    666.3369      2.0146     63.9449
  2204.7500      0.0000    675.3723      2.0053     71.3685
  2205.0000      0.0000    675.6891      1.9338     78.8385
  2205.2500      0.0000    667.8217      1.7891     84.3629
  2205.5000      0.0000    656.4199      1.6056     85.6918
  2205.7500      0.0000    647.4260      1.4365     82.0835
  2206.0000      0.0000    645.6097      1.3108     75.0084
  2206.2500      0.0000    653.0828      1.2175     67.0309
  2206.5000      0.0000    668.3557      1.1286     60.1871
  2206.7500      0.0000    686.6301      1.0356     55.4709
  2207.0000      0.0000    702.2672      0.9643     53.3775
  2207.2500      0.0000    712.1019      0.9592     54.4586
  2207.5000      0.0000    716.4444      1.0542     59.2782
  2207.7500      0.0000    717.1237      1.2559     67.6754
  2208.0000      0.0000    715.5675      1.5509     77.9331
  2208.2500      0.0000    712.7460      1.9220     87.1509
  2208.5000      0.0000    709.3596      2.3524     92.9645
  2208.7500      0.0000    705.0651      2.8125     94.9116
  2209.0000      0.0000    698.1130      3.2438     94.1285
  2209.2500      0.0000    686.0138      3.5570     92.0998
  2209.5000      0.0000    666.2267      3.6680     89.8187
  2209.7500      0.0000    637.6777      3.5613     87.6460
  2210.0000      0.0000    604.4035      3.3349     85.3932
  2210.2500      0.0000    576.9479      3.1702     82.5403
  2210.5000      0.0000    565.4205      3.2242     78.8976
  2210.7500      0.0000    568.6580      3.5158     75.2489
  2211.0000      0.0000    573.2535      3.9139     72.9170
  2211.2500      0.0000    566.4287      4.2465     72.5161
  2211.5000      0.0000    548.7850      4.4134     73.5400
  2211.7500      0.0000    532.5553      4.4004     75.3150
  2212.0000      0.0000    529.2949      4.2365     77.9820
  2212.2500      2.0000    541.5771      3.9800     82.2612
  2212.5000      0.0000    564.2536      3.7246     88.3585
  2212.7500      0.0000    589.7047      3.5640     95.2895
  2213.0000      0.0000    611.9409      3.5293    101.3103
  2213.2500      0.0000    629.0728      3.5656    104.9372
  2213.5000      0.0000    643.4719      3.5723    105.6519
  2213.7500      0.0000    658.1818      3.4614    103.9184
  2214.0000      0.0000    672.3521      3.2028    100.7843
  2214.2500      0.0000    680.9703      2.8486     97.3377
  2214.5000      0.0000    679.5822      2.5172     94.0698
  2214.7500      0.0000    669.1201      2.3256     90.5092
  2215.0000      0.0000    656.0600      2.3138     85.7550
  2215.2500      0.0000    647.7355      2.4200     79.6492
  2215.5000      0.0000    647.5410      2.5212     73.3122
  2215.7500      0.0000    654.1261      2.5164     68.5105
  2216.0000      0.0000    663.7786      2.3927     66.7194
  2216.2500      0.0000    672.8518      2.2153     68.5163
  2216.5000      0.0000    679.1005      2.0515     73.1103
  2216.7500      0.0000    682.0980      1.9229     78.2489
  2217.0000      0.0000    682.6763      1.8324     81.2448
  2217.2500      0.0000    681.8575      1.7938     80.6958
  2217.5000      0.0000    680.0803      1.8057     77.1412
  2217.7500      0.0000    677.1769      1.8317     71.9058
  2218.0000      0.0000    673.1882      1.8377     65.7028
  2218.2500      0.0000    669.5231      1.8293     58.6452
  2218.5000      0.0000    669.0189      1.8301     51.2303
  2218.7500      0.0000    673.8418      1.8409     44.7368
  2219.0000      0.0000    683.0368      1.8457     40.6203
  2219.2500      0.0000    693.1086      1.8498     39.8251
  2219.5000      0.0000    701.6263      1.8882     42.6623
  2219.7500      0.0000    709.4943      1.9880     48.8943
  2220.0000      0.0000    718.9966      2.1316     57.6988
  2220.2500      0.0000    730.4758      2.2625     67.7369
  2220.5000      0.0000    741.8133      2.3228     77.4544
