~Version Information
VERS.                      2.0: CWLS Log ASCII Standard - VERSION 2.0
WRAP.                       NO: One line per depth step
~Well Information Block
STRT.FT               732.2500: 
STOP.FT              2476.0000: 
STEP.FT                 0.2500: 
NULL.                -999.2500: 
COMP.          Petrogulf Corporation: COMPANY
WELL.            Montoya 7-14V: WELL
FLD.           Purgatorie River: FIELD
LOC.           535' FSL & 491' FWL: LOCATION
CNTY.               Las Animas: COUNTY
SRVC.                         : SERVICE COMPANY
DATE.          Mon Aug 23 05:51:43 2004: LOG DATE
UWI.           05 071 08019 00: UNIQUE WELL ID
STAT.                 Colorado: STATE
~Curve Information Block
DEPT.FT            0 000 00 00: Depth
SP.mV                         : DIL Spontaneous Potential
RILD.Ohm-m                    : DIL Deep Resistivity
RILM.Ohm-m                    : DIL Medium Resistivity
RLL3.Ohm-m                    : DIL Shallow Resistivity
GR.GAPI                       : Gamma Ray
~Parameter Information Block
~A  Depth        SP         RILD        RILM        RLL3         GR     
# ...
  1656.2500    -23.7080     17.4228     20.7909     35.0329    111.8586
  1656.5000    -23.2892     17.5180     20.6989     38.3699    111.5567
  1656.7500    -22.8738     17.5947     20.4068     41.3324    111.0499
  1657.0000    -22.4596     17.6384     19.9463     43.0156    111.2972
  1657.2500    -22.0447     17.6275     19.3639     42.7016    113.0215
  1657.5000    -21.6159     17.5311     18.7143     40.1711    118.6357
  1657.7500    -21.1382     17.3162     18.0513     35.8024    124.0208
  1658.0000    -20.5655     16.9628     17.4196     30.4270    132.8350
  1658.2500    -19.8580     16.4770     16.8489     25.0298    138.1927
  1658.5000    -19.0033     15.8918     16.3515     20.4395    144.7865
  1658.7500    -18.0308     15.2556     15.9247     17.1263    148.3991
  1659.0000    -17.0096     14.6187     15.5542     15.1561    152.7904
  1659.2500    -16.0306     14.0237     15.2196     14.2793    154.5278
  1659.5000    -15.1823     13.5017     14.8992     14.0869    154.0941
  1659.7500    -14.5273     13.0705     14.5749     14.1654    151.7697
  1660.0000    -14.0897     12.7331     14.2355     14.2050    147.3805
  1660.2500    -13.8619     12.4784     13.8774     14.0472    145.6385
  1660.5000    -13.8237     12.2846     13.5042     13.6757    146.3968
  1660.7500    -13.9641     12.1271     13.1245     13.1675    148.6751
  1661.0000    -14.2956     11.9844     12.7497     12.6309    152.6587
  1661.2500    -14.8533     11.8414     12.3909     12.1567    154.7208
  1661.5000    -15.6692     11.6865     12.0578     11.7971    156.5373
  1661.7500    -16.7428     11.5081     11.7576     11.5685    157.1830
  1662.0000    -18.0189     11.2955     11.4944     11.4619    157.8948
  1662.2500    -19.3812     11.0450     11.2699     11.4485    158.4761
  1662.5000    -20.6803     10.7665     11.0835     11.4864    159.8772
  1662.7500    -21.7732     10.4826     10.9330     11.5378    161.0847
  1663.0000    -22.5627     10.2213     10.8146     11.5927    162.3259
  1663.2500    -23.0182     10.0055     10.7237     11.6820    162.1248
  1663.5000    -23.1653      9.8468     10.6546     11.8624    160.1821
  1663.7500    -23.0573      9.7451     10.6017     12.1784    158.3093
  1664.0000    -22.7446      9.6915     10.5594     12.6264    155.3923
  1664.2500    -22.2593      9.6733     10.5225     13.1426    153.3854
  1664.5000    -21.6234      9.6780     10.4864     13.6217    150.0753
  1664.7500    -20.8676      9.6967     10.4471     13.9542    147.8495
  1665.0000    -20.0522      9.7241     10.4016     14.0644    145.3633
  1665.2500    -19.2642      9.7583     10.3484     13.9313    144.8199
  1665.5000    -18.6013      9.7978     10.2885     13.5852    146.3547
  1665.7500    -18.1434      9.8398     10.2256     13.0871    149.1699
  1666.0000    -17.9276      9.8783     10.1662     12.5103    155.7639
  1666.2500    -17.9382      9.9055     10.1185     11.9309    160.8615
  1666.5000    -18.1121      9.9122     10.0902     11.4236    167.1824
  1666.7500    -18.3518      9.8914     10.0866     11.0528    169.3128
  1667.0000    -18.5510      9.8417     10.1095     10.8613    168.9413
  1667.2500    -18.6138      9.7716     10.1569     10.8602    167.0606
  1667.5000    -18.4760      9.6986     10.2237     11.0240    163.6042
  1667.7500    -18.1192      9.6456     10.3035     11.2958    161.5684
  1668.0000    -17.5781      9.6326     10.3910     11.6086    159.2223
  1668.2500    -16.9387      9.6696     10.4829     11.9161    158.0507
  1668.5000    -16.3232      9.7539     10.5789     12.2085    156.6427
  1668.7500    -15.8694      9.8711     10.6811     12.4968    155.7192
  1669.0000    -15.6962     10.0004     10.7924     12.7821    153.7565
  1669.2500    -15.8642     10.1212     10.9142     13.0428    151.6405
  1669.5000    -16.3543     10.2179     11.0460     13.2505    146.8058
  1669.7500    -17.0626     10.2823     11.1833     13.3927    142.6815
  1670.0000    -17.8369     10.3145     11.3182     13.4808    136.4608
  1670.2500    -18.5322     10.3202     11.4401     13.5403    133.3382
  1670.5000    -19.0698     10.3068     11.5370     13.6012    131.6048
  1670.7500    -19.4619     10.2789     11.5974     13.6905    132.6235
  1671.0000    -19.7964     10.2359     11.6126     13.8197    136.3928
  1671.2500    -20.1841     10.1739     11.5782     13.9660    139.3664
  1671.5000    -20.6972     10.0904     11.4947     14.0649    143.5154
  1671.7500    -21.3347      9.9885     11.3680     14.0305    146.2848
  1672.0000    -22.0248      9.8766     11.2077     13.7970    150.9160
  1672.2500    -22.6549      9.7642     11.0260     13.3519    153.9888
  1672.5000    -23.1150      9.6583     10.8357     12.7449    157.5842
  1672.7500    -23.3317      9.5621     10.6479     12.0725    159.1920
  1673.0000    -23.2825      9.4779     10.4709     11.4470    161.0817
  1673.2500    -22.9952      9.4099     10.3093     10.9616    162.3295
  1673.5000    -22.5398      9.3634     10.1649     10.6612    164.0090
  1673.7500    -22.0113      9.3420     10.0372     10.5361    164.6129
  1674.0000    -21.5107      9.3423      9.9251     10.5434    164.5016
  1674.2500    -21.1214      9.3506      9.8286     10.6407    164.0889
  1674.5000    -20.8884      9.3457      9.7487     10.8056    163.6584
  1674.7500    -20.8041      9.3068      9.6873     11.0321    163.4399
  1675.0000    -20.8028      9.2239      9.6458     11.3065    162.5676
  1675.2500    -20.7730      9.1030      9.6238     11.5864    161.5620
  1675.5000    -20.5846      8.9632      9.6184     11.8001    160.2310
  1675.7500    -20.1264      8.8270      9.6237     11.8775    160.0051
  1676.0000    -19.3441      8.7096      9.6315     11.7931    160.7954
  1676.2500    -18.2689      8.6148      9.6328     11.5874    161.6431
  1676.5000    -17.0196      8.5357      9.6195     11.3457    162.2201
  1676.7500    -15.7765      8.4604      9.5852     11.1531    161.5156
  1677.0000    -14.7394      8.3779      9.5265     11.0579    158.5543
  1677.2500    -14.0758      8.2827      9.4431     11.0610    155.9296
  1677.5000    -13.8856      8.1749      9.3378     11.1195    152.9885
  1677.7500    -14.1854      8.0597      9.2157     11.1594    152.4690
  1678.0000    -14.9153      7.9442      9.0838     11.1011    153.1754
  1678.2500    -15.9538      7.8360      8.9494     10.8990    153.4288
  1678.5000    -17.1385      7.7425      8.8199     10.5720    152.0344
  1678.7500    -18.2841      7.6707      8.7011     10.1970    150.0596
  1679.0000    -19.2061      7.6267      8.5978      9.8670    146.9033
  1679.2500    -19.7582      7.6147      8.5136      9.6464    145.4981
  1679.5000    -19.8725      7.6354      8.4510      9.5541    145.1172
  1679.7500    -19.5877      7.6854      8.4123      9.5757    145.8429
  1680.0000    -19.0489      7.7572      8.3998      9.6818    147.4417
  1680.2500    -18.4693      7.8409      8.4159      9.8356    148.1841
  1680.5000    -18.0654      7.9282      8.4636      9.9982    147.9268
  1680.7500    -17.9877      8.0147      8.5459     10.1388    146.6419
  1681.0000    -18.2810      8.1025      8.6659     10.2498    143.4219
  1681.2500    -18.8814      8.1989      8.8268     10.3462    140.9857
  1681.5000    -19.6509      8.3147      9.0314     10.4488    138.1756
  1681.7500    -20.4261      8.4621      9.2828     10.5671    137.6078
  1682.0000    -21.0625      8.6531      9.5842     10.6987    139.3112
  1682.2500    -21.4721      8.8976      9.9396     10.8473    141.7346
  1682.5000    -21.6313      9.2015     10.3539     11.0463    145.5167
  1682.7500    -21.5807      9.5630     10.8337     11.3681    147.0649
  1683.0000    -21.4082      9.9715     11.3882     11.9072    146.9327
  1683.2500    -21.2165     10.4097     12.0297     12.7473    145.1588
  1683.5000    -21.0914     10.8612     12.7750     13.9394    140.3481
  1683.7500    -21.0790     11.3199     13.6462     15.5141    135.9816
  1684.0000    -21.1716     11.7957     14.6717     17.5192    128.1977
