~Version Information
VERS.                      2.0: CWLS Log ASCII Standard - VERSION 2.0
WRAP.                       NO: One line per depth step
~Well Information Block
STRT.FT               480.0000: 
STOP.FT              1629.0000: 
STEP.FT                 0.2500: 
NULL.                -999.2500: 
COMP.          Pioneer Natural Resources: COMPANY
WELL.          Dude Canyon 22-32 Tr: WELL
FLD.           Purgatoire River: FIELD
LOC.           1741' FNL & 2331' FWL: LOCATION
PROV.                 Colorado: PROVINCE
CNTY.               Las Animas: COUNTRY
SRVC.                Patterson: SERVICE COMPANY
DATE.          Sat Jul 09 01:36:28 2005: LOG DATE
UWI.           05 071 08421 00: UNIQUE WELL ID
~Curve Information Block
DEPT.FT            0 000 00 00: Depth
SN.Ohm-m                      : IEL Short Normal
SP.mV                         : IEL Spontaneous Potential
DIR.Ohm-m                     : IEL Induction Resistivity
GR.GAPI                       : Gamma Ray
~Parameter Information Block
~A  Depth        SN          SP         DIR          GR     
# ...
   714.5000     29.6617     36.5264     34.1380    132.0806
   714.7500     30.4475     35.4269     34.8094    130.3572
   715.0000     31.2862     34.4564     35.4777    124.4556
   715.2500     32.2083     33.6317     36.1570    118.8391
   715.5000     33.3586     32.9469     36.7997    110.1338
   715.7500     34.7680     32.3827     37.3615    105.1679
   716.0000     36.3766     31.9216     37.8917     99.4260
   716.2500     38.1272     31.5601     38.5499     96.6905
   716.5000     39.9016     31.3081     39.5219     94.3505
   716.7500     41.4838     31.1729     40.9032     93.9947
   717.0000     42.7206     31.1436     42.6240     94.7976
   717.2500     43.7208     31.1897     44.4588     95.7180
   717.5000     44.7271     31.2733     46.1370     96.9493
   717.7500     45.8341     31.3612     47.5150     97.6213
   718.0000     47.0094     31.4297     48.6673     99.0160
   718.2500     48.2616     31.4667     49.8126    100.5587
   718.5000     49.6240     31.4747     51.1594    103.5745
   718.7500     51.1238     31.4696     52.8017    105.4534
   719.0000     52.8997     31.4719     54.7011    106.9134
   719.2500     55.2267     31.4960     56.7208    106.5640
   719.5000     58.3319     31.5465     58.6796    104.0941
   719.7500     62.2563     31.6221     60.4219    101.6112
   720.0000     66.8854     31.7199     61.8977     97.6457
   720.2500     72.0619     31.8373     63.2133     95.1588
   720.5000     77.6825     31.9698     64.6013     91.4218
   720.7500     83.6892     32.1079     66.3136     88.5759
   721.0000     90.0087     32.2389     68.5004     83.5477
   721.2500     96.4933     32.3530     71.1567     79.8912
   721.5000    102.8867     32.4523     74.1751     74.3020
   721.7500    108.9678     32.5525     77.4645     70.3900
   722.0000    114.7028     32.6763     80.9878     63.7214
   722.2500    120.0960     32.8406     84.6209     58.7514
   722.5000    125.0126     33.0456     87.9402     51.6687
   722.7500    129.2741     33.2724     90.2168     48.2801
   723.0000    132.8254     33.4917     90.8014     46.4924
   723.2500    135.7703     33.6801     89.6566     47.3859
   723.5000    138.2174     33.8347     87.4425     50.2837
   723.7500    140.1027     33.9738     85.0399     52.0643
   724.0000    141.3230     34.1204     83.0572     53.0954
   724.2500    141.9762     34.2775     81.7234     52.5533
   724.5000    142.2645     34.4156     81.0770     50.7098
   724.7500    142.2444     34.4861     81.1554     49.4856
   725.0000    141.9059     34.4464     82.0025     48.3974
   725.2500    141.4538     34.2754     83.5464     48.1189
   725.5000    141.2530     33.9713     85.5253     47.5993
   725.7500    141.4824     33.5448     87.5540     46.6343
   726.0000    142.0608     33.0185     89.3073     43.8755
   726.2500    142.9046     32.4360     90.6992     41.4783
   726.5000    144.0504     31.8765     91.9231     38.1518
   726.7500    145.5472     31.4755     93.2638     36.6608
   727.0000    147.3441     31.4342     94.7697     35.8694
   727.2500    149.2503     31.9808     96.0569     36.2594
   727.5000    150.9981     33.2656     96.5126     37.9531
   727.7500    152.4131     35.2421     95.7951     39.6162
   728.0000    153.5067     37.6501     94.0981     42.6506
   728.2500    154.3156     40.1414     91.8734     44.9895
   728.5000    154.7202     42.4305     89.4907     48.7493
   728.7500    154.5307     44.3394     87.2150     50.9562
   729.0000    153.7067     45.7680     85.3419     52.6005
   729.2500    152.3593     46.6927     84.1403     52.0985
   729.5000    150.5482     47.1872     83.6206     49.1373
   729.7500    148.2231     47.3955     83.3871     46.2971
   730.0000    145.3613     47.4637     82.7861     41.9316
   730.2500    142.0699     47.4937     81.2925     39.4611
   730.5000    138.5215     47.5466     78.7921     36.9025
   730.7500    134.7996     47.6759     75.4721     36.0999
   731.0000    130.8273     47.9554     71.5278     36.2424
   731.2500    126.3934     48.4772     67.0460     37.0540
   731.5000    121.2324     49.3159     62.1282     38.8730
   731.7500    115.1800     50.4790     57.0047     40.3317
   732.0000    108.2342     51.8796     51.9967     43.1149
   732.2500    100.3128     53.3524     47.3883     45.7362
   732.5000     91.0709     54.7088     43.3405     51.5114
   732.7500     80.2760     55.8031     39.8792     56.8829
   733.0000     68.4089     56.5769     36.9321     67.4718
   733.2500     56.7325     57.0599     34.3820     76.2164
   733.5000     46.6424     57.3364     32.1188     91.3972
   733.7500     38.9285     57.5023     30.0695    102.1603
   734.0000     33.5649     57.6304     28.1988    117.1929
   734.2500     29.9436     57.7533     26.4910    125.1508
   734.5000     27.3053     57.8686     24.9376    132.6262
   734.7500     25.1844     57.9597     23.5360    134.8057
   735.0000     23.4791     58.0163     22.2916    135.7153
   735.2500     22.1745     58.0385     21.2136    136.1203
   735.5000     21.2096     58.0305     20.3091    137.8553
   735.7500     20.5344     57.9934     19.5798    139.7338
   736.0000     20.1085     57.9252     19.0235    142.7535
   736.2500     19.8419     57.8245     18.6330    144.5237
   736.5000     19.6039     57.6960     18.3906    146.9390
   736.7500     19.3126     57.5544     18.2652    148.6396
   737.0000     19.0043     57.4198     18.2176    151.2248
   737.2500     18.7757     57.3069     18.2129    152.5488
   737.5000     18.6734     57.2144     18.2317    153.4294
   737.7500     18.6819     57.1241     18.2711    153.5298
   738.0000     18.7866     57.0097     18.3367    154.0577
   738.2500     18.9777     56.8520     18.4314    155.1286
   738.5000     19.1882     56.6505     18.5479    157.4009
   738.7500     19.3305     56.4256     18.6700    158.3597
   739.0000     19.3963     56.2129     18.7792    156.8185
   739.2500     19.4451     56.0493     18.8619    153.0688
   739.5000     19.5224     55.9553     18.9097    143.9404
   739.7500     19.6352     55.9210     18.9141    136.7618
   740.0000     19.7753     55.9106     18.8631    126.9685
   740.2500     19.9228     55.8837     18.7467    122.4329
   740.5000     20.0331     55.8167     18.5680    120.0231
   740.7500     20.0541     55.7084     18.3474    121.2818
   741.0000     19.9621     55.5732     18.1153    125.8199
   741.2500     19.7717     55.4322     17.8991    129.4287
   741.5000     19.5315     55.3027     17.7122    134.6278
   741.7500     19.2886     55.1876     17.5508    137.7432
   742.0000     18.9940     55.0674     17.3973    141.1600
   742.2500     18.4786     54.9084     17.2276    141.9606
   742.5000     17.6337     54.6827     17.0213    140.7599
   742.7500     16.6029     54.3836     16.7695    139.1003
   743.0000     15.6941     54.0242     16.4754    137.0208
   743.2500     15.1456     53.6271     16.1483    136.4426
   743.5000     15.0534     53.2137     15.7990    136.6852
   743.7500     15.4173     52.7936     15.4391    137.1883
   744.0000     16.1012     52.3630     15.0840    137.6600
   744.2500     16.8040     51.9154     14.7527    137.5195
   744.5000     17.2325     51.4530     14.4625    136.9884
   744.7500     17.2676     50.9835     14.2230    137.0840
   745.0000     16.9041     50.5075     14.0356    139.0058
   745.2500     16.1823     50.0149     13.8973    141.5228
   745.5000     15.2584     49.4934     13.8051    145.9719
   745.7500     14.4075     48.9409     13.7571    148.5173
   746.0000     13.8660     48.3677     13.7490    151.1294
   746.2500     13.7016     47.7884     13.7699    152.2840
   746.5000     13.8280     47.2137     13.8026    153.5586
   746.7500     14.0820     46.6489     13.8296    154.1920
   747.0000     14.2918     46.1017     13.8420    155.2295
   747.2500     14.3593     45.5878     13.8446    156.4774
   747.5000     14.3155     45.1257     13.8517    159.4498
   747.7500     14.2414     44.7183     13.8769    161.4036
