~Version Information
 VERS.                                  2.0 : CWLS LAS VERSION
 WRAP.                                   NO : WRAPING MODE
 SWARE .                 MController 2.5.0N : SOFTWARE VERSION
~Well Information
 WELL.                                  N/A : WELL
 COMP.                                  N/A : COMPANY
 FLD.                                   N/A : FIELD
 LOC.                                   N/A : LOCATION
 DATE.                                  N/A : DATE(S) LOGGED
 SRVC.                                  N/A : SERVICE COMPANY
 STAT.                                  N/A : STATE
 CNTY.                                  N/A : COUNTY
 CTRY.                                  N/A : COUNTRY
 API.                                   N/A : API NUMBER
 STRT.FT                               0.00 : START DEPTH
 STOP.FT                            2050.00 : STOP DEPTH
 STEP.FT                               1.00 : DEPTH INCREMENT
 NULL.                                -9999 : NULL VALUE
~Curve information
 DEPTH.FT                                   :
 ROP.MIN/FT                                 :
 GAS.UNITS                                  :
~ASCII Log data
# ...
      1200.0         0.43          1.7 
      1201.0         0.33          2.0 
      1202.0         0.30          5.7 
      1203.0         0.27         51.9 
      1204.0         0.48        402.1 
      1205.0         0.53        416.5 
      1206.0         0.47        356.8 
      1207.0         0.33        270.1 
      1208.0         0.37        202.4 
      1209.0         0.23        146.1 
      1210.0         0.27        123.5 
      1211.0         0.27        106.4 
      1212.0         0.27         91.1 
      1213.0         0.23         79.3 
      1214.0         0.25         71.2 
      1215.0         0.23         69.3 
      1216.0         0.17         66.7 
      1217.0         0.20         61.6 
      1218.0         0.20         58.4 
      1219.0         0.13         59.8 
      1220.0         0.20         61.2 
      1221.0         0.20         61.4 
      1222.0         0.10         59.9 
      1223.0         0.10         60.8 
      1224.0         0.13         64.0 
      1225.0         0.23         74.5 
      1226.0         0.17         84.7 
      1227.0         0.17         98.2 
      1228.0         1.45        161.2 
      1229.0         0.17         63.0 
      1230.0         0.23         53.7 
      1231.0         0.20         47.2 
      1232.0         0.13         42.3 
      1233.0         0.20         39.6 
      1234.0         0.27         35.8 
      1235.0         0.37         31.5 
      1236.0         0.30         26.3 
      1237.0         0.27         21.4 
      1238.0         0.30         18.5 
      1239.0         0.33         18.0 
      1240.0         0.35         17.8 
      1241.0         0.27         16.8 
      1242.0         0.30         17.9 
      1243.0         0.30         19.8 
      1244.0         0.33         19.5 
      1245.0         0.43         16.4 
      1246.0         0.43         10.3 
      1247.0         0.43          8.9 
      1248.0         0.37          6.8 
      1249.0         0.32          3.7 
      1250.0         0.27          2.9 
      1251.0         0.27          3.8 
      1252.0         0.27          4.0 
      1253.0         0.23         10.3 
      1254.0         0.17         19.9 
      1255.0         0.20         37.4 
      1256.0         0.17         53.3 
      1257.0         0.23         80.9 
      1258.0         1.27        108.5 
      1259.0         0.25         37.0 
      1260.0         0.33         25.6 
      1261.0         0.33         40.7 
      1262.0         0.37        227.7 
      1263.0         0.47        305.6 
      1264.0         0.37        290.6 
      1265.0         0.30        252.1 
      1266.0         0.33        227.1 
      1267.0         0.30        203.2 
      1268.0         0.30        186.7 
      1269.0         0.35        167.7 
      1270.0         0.37        146.7 
      1271.0         0.37        130.7 
      1272.0         0.37        117.0 
      1273.0         0.30        102.9 
      1274.0         0.23         92.5 
      1275.0         0.27         86.0 
      1276.0         0.20         80.3 
      1277.0         0.23         71.3 
      1278.0         0.20         67.7 
      1279.0         0.20         71.9 
      1280.0         0.20         81.2 
      1281.0         0.25         92.2 
      1282.0         0.30         92.3 
      1283.0         0.40         85.7 
      1284.0         0.23         67.9 
      1285.0         0.17         61.3 
      1286.0         0.17         71.1 
      1287.0         0.20         91.1 
      1288.0         2.88        215.9 
      1289.0         0.37         55.3 
      1290.0         0.30         52.2 
      1291.0         0.27         43.0 
      1292.0         0.23         34.1 
      1293.0         0.10         26.7 
      1294.0         0.13         24.5 
      1295.0         0.30         20.4 
      1296.0         0.30         12.6 
      1297.0         0.35          8.7 
      1298.0         0.33          4.8 
      1299.0         0.30          3.3 
      1300.0         0.37          2.2 
      1301.0         0.37          1.7 
      1302.0         0.37          1.0 
      1303.0         0.47          1.0 
      1304.0         0.50          1.4 
      1305.0         0.33          1.1 
      1306.0         0.52          0.6 
      1307.0         0.53          0.3 
      1308.0         0.23          0.3 
      1309.0         0.27          0.7 
      1310.0         0.33          0.6 
      1311.0         0.40          0.3 
      1312.0         0.47          2.1 
      1313.0         0.23         13.9 
      1314.0         0.27         39.3 
      1315.0         0.28         87.9 
      1316.0         0.37        133.1 
      1317.0         0.33        133.7 
      1318.0         1.43        113.7 
      1319.0         0.40         15.3 
      1320.0         0.37          6.8 
      1321.0         0.32          2.5 
      1322.0         0.30          1.1 
      1323.0         0.30          1.3 
      1324.0         0.33          0.9 
      1325.0         0.33          0.5 
      1326.0         1.77         11.1 
      1327.0         1.02         11.3 
      1328.0         0.50         11.6 
      1329.0         0.50          9.6 
      1330.0         0.33          7.1 
      1331.0         0.50          7.8 
      1332.0         0.43          6.9 
      1333.0         0.42          5.1 
      1334.0         0.53          3.2 
      1335.0         0.73          2.2 
      1336.0         0.80          3.2 
      1337.0         0.77          3.9 
      1338.0         0.52          2.1 
      1339.0         0.43          3.5 
      1340.0         0.40          4.1 
      1341.0         0.37          3.6 
      1342.0         0.47          3.9 
      1343.0         0.47          2.2 
      1344.0         0.60         12.2 
      1345.0         0.33         52.3 
      1346.0         0.35        102.7 
      1347.0         0.37        105.7 
      1348.0         2.88         76.8 
      1349.0         0.80          3.8 
      1350.0         0.80          4.6 
      1351.0         0.77          5.0 
      1352.0         0.90         20.9 
      1353.0         0.85         21.3 
      1354.0         0.43          8.0 
      1355.0         0.33          4.3 
      1356.0         0.27          2.3 
      1357.0         0.20          0.8 
      1358.0         0.23          2.1 
      1359.0         0.23          2.6 
      1360.0         0.23          2.4 
      1361.0         0.23          2.4 
      1362.0         0.27          2.4 
      1363.0         0.18          1.5 
      1364.0         0.30          1.1 
      1365.0         0.27          0.4 
      1366.0         0.33          0.1 
      1367.0         0.53          0.0 
      1368.0         0.67          0.0 
      1369.0         0.63          0.3 
      1370.0         1.42          2.8 
      1371.0         0.70          2.7 
      1372.0         0.40          1.5 
      1373.0         0.30          1.6 
      1374.0         0.33          1.9 
      1375.0         0.37          1.6 
      1376.0         0.38          9.1 
      1377.0         0.40         49.2 
      1378.0         1.33        126.4 
      1379.0         0.33         70.7 
      1380.0         0.27         41.6 
      1381.0         0.53         25.7 
      1382.0         0.48          7.8 
      1383.0         0.43          1.7 
      1384.0         0.60          0.4 
      1385.0         0.50         -0.1 
      1386.0         0.37         -0.2 
      1387.0         0.43         -0.2 
      1388.0         0.47          0.0 
      1389.0         0.58         -0.1 
      1390.0         0.53         -0.3 
      1391.0         0.63         -0.3 
      1392.0         2.98          0.6 
      1393.0         0.53          0.6 
      1394.0         0.53          0.4 
      1395.0         0.47         -0.3 
      1396.0         0.47         -0.1 
      1397.0         0.48         -0.5 
      1398.0         0.53          0.8 
      1399.0         0.50          0.6 
