~Version Information
VERS.                      2.0: CWLS Log ASCII Standard - VERSION 2.0
WRAP.                       NO: One line per depth step
~Well Information Block
STRT.FT               899.1000: 
STOP.FT              2501.5000: 
STEP.FT                 0.1000: 
NULL.                -999.2500: 
COMP.          Petrogulf Corporation: COMPANY
WELL.           Deremer 17-21V: WELL
FLD.           Purgatorie River: FIELD
LOC.           851' FNL & 963' FWL: LOCATION
CNTY.               Las Animas: COUNTY
SRVC.                         : SERVICE COMPANY
DATE.          Tue Nov 18 09:12:06 2003: LOG DATE
UWI.                          : UNIQUE WELL ID
STAT.                 Colorado: STATE
~Curve Information Block
DEPT.FT            0 000 00 00: Depth
DPOR.pu                       : CDL Density Porosity
NEU.NAPI                      : Neutron
NPOR.pu                       : Neutron Porosity
RHOB.g/cc                     : CDL Bulk Density
RHOC.g/cc                     : CDL Density Correction
GR.GAPI                       : Gamma Ray
DCAL.in                       : CDL Caliper
~Parameter Information Block
~A  Depth       DPOR        NEU         NPOR        RHOB        RHOC         GR         DCAL    
# ...
  1243.5000     11.1592   1234.9379     20.5922      2.4659      0.0731     67.7988      7.8944
  1243.6000      9.6912   1229.4127     20.8390      2.4901      0.0820     69.3813      7.8944
  1243.7000      8.9653   1226.5208     20.9680      2.5021      0.0151     75.6142      7.8944
  1243.8000      8.4622   1231.8826     20.7287      2.5104      0.0661     78.5893      7.8963
  1243.9000      7.7913   1236.7771     20.5099      2.5214      0.0584     73.8839      7.8963
  1244.0000      6.9057   1229.5909     20.8310      2.5361      0.0340     66.7367      7.8891
  1244.1000      6.5891   1218.3872     21.3300      2.5413      0.1177     66.1405      7.8891
  1244.2000      7.9935   1212.9250     21.5726      2.5181      0.0921     74.1515      7.8891
  1244.3000     10.0334   1205.0295     21.9225      2.4844     -0.0012     82.0466      7.8745
  1244.4000     11.0544   1192.6428     22.4695      2.4676      0.0180     84.0711      7.8745
  1244.5000     11.1181   1186.0383     22.7604      2.4666     -0.0423     82.4373      7.8605
  1244.6000     10.5215   1184.3320     22.8354      2.4764     -0.0048     78.5844      7.8605
  1244.7000      9.5464   1181.6267     22.9543      2.4925      0.0286     74.0682      7.8605
  1244.8000      8.8025   1177.5431     23.1336      2.5048      0.0309     74.0063      7.8537
  1244.9000      8.5826   1175.5455     23.2212      2.5084      0.0561     78.1077      7.8537
  1245.0000      8.4355   1179.8104     23.0340      2.5108      0.0395     82.7314      7.8577
  1245.1000      7.6241   1185.7302     22.7739      2.5242     -0.0004     86.1041      7.8577
  1245.2000      6.9640   1188.8840     22.6351      2.5351      0.1076     88.3018      7.8577
  1245.3000      7.9833   1194.0807     22.4062      2.5183      0.0318     92.0861      7.8573
  1245.4000     10.1252   1202.1388     22.0503      2.4829     -0.0193     98.4346      7.8573
  1245.5000     11.3928   1207.9692     21.7923      2.4620     -0.0227    103.4717      7.8560
  1245.6000     10.4616   1211.5261     21.6347      2.4774     -0.0241    104.6519      7.8560
  1245.7000      8.2611   1214.3176     21.5108      2.5137      0.0376    102.1959      7.8560
  1245.8000      6.9422   1214.8334     21.4879      2.5355      0.0641     98.4871      7.8599
  1245.9000      6.7790   1213.3457     21.5539      2.5381      0.0275     95.6226      7.8599
  1246.0000      7.0061   1210.0040     21.7022      2.5344      0.0794     93.8746      7.8608
  1246.1000      8.2880   1209.7886     21.7117      2.5132      0.0817     93.9753      7.8608
  1246.2000     10.5947   1214.9824     21.4813      2.4752      0.0323     94.2541      7.8608
  1246.3000     12.3699   1209.0446     21.7447      2.4459      0.0340     92.1946      7.8611
  1246.4000     13.2758   1185.1600     22.7990      2.4309      0.0377     90.6670      7.8611
  1246.5000     14.3915   1163.0165     23.7695      2.4125      0.0723     90.3276      7.8629
  1246.6000     15.7203   1156.5659     24.0510      2.3906     -0.0333     88.0520      7.8629
  1246.7000     16.0866   1156.8695     24.0378      2.3846      0.0507     86.0767      7.8629
  1246.8000     15.6855   1151.9462     24.2523      2.3912      0.0980     87.3595      7.8603
  1246.9000     14.8163   1145.3390     24.5397      2.4055      0.0749     88.9131      7.8603
  1247.0000     12.3529   1139.5216     24.7924      2.4462      0.1467     89.1617      7.8456
  1247.1000      8.3607   1131.4471     25.1424      2.5120      0.1802     90.6184      7.8456
  1247.2000      4.8466   1121.9231     25.5544      2.5700      0.2858     94.9475      7.8456
  1247.3000      3.5993   1106.6704     26.2120      2.5906      0.2956    100.6379      7.8240
  1247.4000      3.7602   1075.5807     27.5453      2.5880      0.1555    106.7614      7.8240
  1247.5000      3.4848   1030.7854     29.4518      2.5925      0.2225    111.2752      7.8165
  1247.6000      3.6380    991.5057     31.1120      2.5900      0.2649    112.1859      7.8165
  1247.7000      5.5047    967.0292     32.1423      2.5592      0.1799    113.1525      7.8165
  1247.8000      7.8755    949.9693     32.8590      2.5201      0.1134    119.6959      7.8228
  1247.9000      9.1682    939.1672     33.3123      2.4987      0.1133    129.8407      7.8228
  1248.0000      8.2879    938.1353     33.3556      2.5132      0.0866    135.9568      7.8369
  1248.1000      4.0887    939.6145     33.2935      2.5825      0.0332    136.0800      7.8369
  1248.2000     -1.8986    936.2314     33.4354      2.6813      0.2746    134.9547      7.8369
  1248.3000     -5.8565    931.8716     33.6183      2.7466      0.2630    138.8513      7.8620
  1248.4000     -6.8763    932.7397     33.5819      2.7635      0.2703    148.6100      7.8620
  1248.5000     -7.3336    935.0378     33.4855      2.7710      0.2693    156.5047      7.8731
  1248.6000     -9.0542    935.1333     33.4815      2.7994      0.2520    156.7810      7.8731
  1248.7000    -11.1408    941.9653     33.1949      2.8338      0.2845    153.7628      7.8731
  1248.8000    -10.9700    962.2184     32.3446      2.8310      0.2467    151.7157      7.8408
  1248.9000     -7.3753    990.2828     31.1635      2.7717      0.0711    148.4531      7.8408
  1249.0000     -2.5377   1012.9863     30.2052      2.6919     -0.0793    142.0635      7.8159
  1249.1000      0.2833   1022.9985     29.7816      2.6453     -0.0921    133.7750      7.8159
  1249.2000      1.2877   1031.1278     29.4372      2.6288      0.0388    125.6946      7.8159
  1249.3000      3.2085   1045.2495     28.8379      2.5971      0.0931    119.7643      7.8352
  1249.4000      5.9666   1059.7866     28.2193      2.5516      0.0183    117.4202      7.8352
  1249.5000      7.6650   1072.4219     27.6803      2.5235      0.0024    116.2465      7.8596
  1249.6000      8.5152   1084.5123     27.1632      2.5095      0.0135    113.4280      7.8596
  1249.7000      9.3811   1094.5044     26.7349      2.4952      0.0382    109.6639      7.8596
  1249.8000      9.7081   1101.6398     26.4284      2.4898     -0.0410    102.7417      7.8608
  1249.9000      8.1399   1107.8594     26.1608      2.5157     -0.0557     90.9024      7.8608
  1250.0000      4.7913   1113.0739     25.9362      2.5709      0.0172     82.3452      7.8628
  1250.1000      1.8750   1111.0171     26.0248      2.6191      0.1242     84.5693      7.8628
  1250.2000      0.8783   1101.8655     26.4187      2.6355      0.1690     91.2403      7.8628
  1250.3000      0.9559   1096.0752     26.6674      2.6342      0.1282     95.7510      7.8712
  1250.4000      0.6458   1097.8331     26.5920      2.6393      0.1673     98.3247      7.8712
  1250.5000      0.0617   1102.2285     26.4031      2.6490      0.2195     96.3810      7.8705
  1250.6000      0.0606   1107.3779     26.1816      2.6490      0.1535     91.7390      7.8705
  1250.7000      0.4805   1110.0238     26.0676      2.6421      0.1510     92.1939      7.8705
  1250.8000      1.4577   1108.1318     26.1491      2.6259      0.1333     95.3267      7.8575
  1250.9000      3.6834   1109.3685     26.0959      2.5892      0.0972     93.8097      7.8575
  1251.0000      6.0187   1117.6461     25.7390      2.5507      0.0158     91.1605      7.8522
  1251.1000      6.7421   1126.6084     25.3518      2.5388      0.1307     93.1613      7.8522
  1251.2000      6.4672   1129.6866     25.2186      2.5433      0.1538     95.8196      7.8522
  1251.3000      6.5788   1128.9003     25.2527      2.5415      0.1262     93.6612      7.8542
  1251.4000      7.2985   1127.2190     25.3254      2.5296      0.0989     87.5439      7.8542
  1251.5000      7.5530   1125.5809     25.3963      2.5254      0.0524     80.8024      7.8388
  1251.6000      5.9146   1130.4690     25.1848      2.5524      0.0733     78.8550      7.8388
  1251.7000      2.8526   1141.0758     24.7249      2.6029      0.2091     85.4813      7.8388
  1251.8000      0.3734   1138.8793     24.8203      2.6438      0.2026     96.7303      7.8225
