~Version Information
VERS.                      2.0: CWLS Log ASCII Standard - VERSION 2.0
WRAP.                       NO: One line per depth step
~Well Information Block
STRT.FT               185.5000: 
STOP.FT              2039.2500: 
STEP.FT                 0.2500: 
NULL.                -999.2500: 
COMP.          Petrogulf Corporation: COMPANY
WELL.            Montoya 7-12R: WELL
FLD.           Purgatorie River: FIELD
LOC.           1769' FNL & 658' FWL--: LOCATION
PROV.                       CO: PROVINCE
CNTY.               Las Animas: COUNTRY
SRVC.                         : SERVICE COMPANY
DATE.          Wed Feb 09 09:05:42 2005: LOG DATE
UWI.         005 071 08240  : UNIQUE WELL ID
~Curve Information Block
DEPT.FT            0 000 00 00: Depth
CCL.                          : Casing Collar Locator
CCLRT.                        : CCLRT
TT3.usec                      : CBL 3' Travel Time
AMP3.mV                       : CBL 3' Amplitude
GR.GAPI                       : Gamma Ray
~Parameter Information Block
~A  Depth       CCL        CCLRT        TT3         AMP3         GR     
# ...
  1641.5000      0.0000   -999.2500    699.2457      2.7783    104.5232
  1641.7500      0.0000   -999.2500    695.2386      2.8057    110.4780
  1642.0000      0.0000   -999.2500    694.1993      2.8765    116.7126
  1642.2500      0.0000   -999.2500    696.2540      2.9866    122.2668
  1642.5000      0.0000   -999.2500    699.4613      3.1253    127.8056
  1642.7500      0.0000   -999.2500    701.4802      3.2864    134.6298
  1643.0000      0.0000   -999.2500    700.8040      3.4685    142.8287
  1643.2500      0.0000   -999.2500    696.9223      3.6675    151.0059
  1643.5000      0.0000   -999.2500    690.3012      3.8785    157.7640
  1643.7500      0.0000   -999.2500    682.4597      4.1041    162.6957
  1644.0000      0.0000   -999.2500    675.4421      4.3536    165.7448
  1644.2500      0.0000   -999.2500    670.7186      4.6301    166.6109
  1644.5000      0.0000   -999.2500    668.5557      4.9185    165.4637
  1644.7500      0.0000   -999.2500    668.3455      5.1845    163.4606
  1645.0000      0.0000   -999.2500    669.2863      5.3822    161.6631
  1645.2500      0.0000   -999.2500    670.7890      5.4705    159.9125
  1645.5000      0.0000   -999.2500    672.5745      5.4294    157.5764
  1645.7500      0.0000   -999.2500    674.7202      5.2657    155.0882
  1646.0000      0.0000   -999.2500    677.6540      5.0074    153.9606
  1646.2500      0.0000   -999.2500    681.8809      4.7014    155.1846
  1646.5000      0.0000   -999.2500    687.5111      4.4100    158.0087
  1646.7500      0.0000   -999.2500    693.9647      4.1919    160.4793
  1647.0000      0.0000   -999.2500    700.0886      4.0735    161.0399
  1647.2500      0.0000   -999.2500    704.5859      4.0393    159.6134
  1647.5000      0.0000   -999.2500    706.7077      4.0504    157.2760
  1647.7500      0.0000   -999.2500    706.9596      4.0845    155.0608
  1648.0000      0.0000   -999.2500    707.2193      4.1714    153.1967
  1648.2500      0.0000   -999.2500    709.9149      4.3886    151.3403
  1648.5000      0.0000   -999.2500    716.1131      4.7967    149.1599
  1648.7500      0.0000   -999.2500    723.4578      5.3599    146.6774
  1649.0000      0.0000   -999.2500    726.3724      5.9401    144.4399
  1649.2500     -2.0000   -999.2500    719.9194      6.3805    143.3559
  1649.5000      0.0000   -999.2500    704.4336      6.5939    143.7491
  1649.7500      0.0000   -999.2500    686.3922      6.5732    144.6800
  1650.0000      0.0000   -999.2500    674.1187      6.3547    145.0558
  1650.2500      0.0000   -999.2500    671.6791      5.9938    145.2672
  1650.5000      0.0000   -999.2500    676.8330      5.5525    146.6524
  1650.7500      0.0000   -999.2500    684.9312      5.0687    149.0858
  1651.0000      0.0000   -999.2500    693.2622      4.5407    149.8871
  1651.2500      0.0000   -999.2500    700.5146      3.9661    145.9880
  1651.5000      0.0000   -999.2500    704.3671      3.3903    137.3012
  1651.7500      0.0000   -999.2500    702.6133      2.8858    127.2286
  1652.0000      0.0000   -999.2500    696.1639      2.4951    119.3240
  1652.2500      0.0000   -999.2500    688.6997      2.2109    113.9479
  1652.5000      0.0000   -999.2500    683.1855      2.0045    108.7016
  1652.7500      0.0000   -999.2500    679.9081      1.8531    101.6157
  1653.0000      0.0000   -999.2500    677.6297      1.7465     93.0720
  1653.2500      0.0000   -999.2500    675.4695      1.6798     84.7750
  1653.5000      0.0000   -999.2500    673.3687      1.6478     77.8976
  1653.7500      0.0000   -999.2500    671.5922      1.6427     72.6999
  1654.0000      0.0000   -999.2500    670.3654      1.6552     69.1810
  1654.2500      0.0000   -999.2500    669.8575      1.6741     67.1960
  1654.5000      0.0000   -999.2500    670.2153      1.6863     65.9948
  1654.7500      0.0000   -999.2500    671.4844      1.6856     64.3949
  1655.0000      0.0000   -999.2500    673.5308      1.6808     61.7658
  1655.2500      0.0000   -999.2500    676.0590      1.6895     58.6964
  1655.5000      0.0000   -999.2500    678.7290      1.7183     56.5772
  1655.7500      0.0000   -999.2500    681.2505      1.7554     56.5823
  1656.0000      0.0000   -999.2500    683.4090      1.7831     58.9178
  1656.2500      0.0000   -999.2500    685.1703      1.7914     62.6609
  1656.5000      0.0000   -999.2500    686.8592      1.7782     66.2010
  1656.7500      0.0000   -999.2500    688.9396      1.7469     68.2401
  1657.0000      0.0000   -999.2500    691.2055      1.7077     68.6607
  1657.2500      0.0000   -999.2500    692.3176      1.6749     68.3108
  1657.5000      0.0000   -999.2500    690.7424      1.6550     67.9245
  1657.7500      0.0000   -999.2500    686.3240      1.6424     67.5035
  1658.0000      0.0000   -999.2500    680.5480      1.6298     66.7496
  1658.2500      0.0000   -999.2500    675.1552      1.6172     65.7327
  1658.5000      0.0000   -999.2500    670.7511      1.6095     64.9511
  1658.7500      0.0000   -999.2500    666.7009      1.6061     64.9280
  1659.0000      0.0000   -999.2500    662.1479      1.6017     65.9520
  1659.2500      0.0000   -999.2500    657.2122      1.5941     68.1201
  1659.5000      0.0000   -999.2500    653.3080      1.5871     71.2395
  1659.7500      0.0000   -999.2500    652.1593      1.5883     74.5934
  1660.0000      0.0000   -999.2500    654.3939      1.6065     77.1218
  1660.2500      0.0000   -999.2500    659.0069      1.6485     77.9788
  1660.5000      0.0000   -999.2500    663.7872      1.7168     76.9605
  1660.7500      0.0000   -999.2500    666.3856      1.8090     74.7646
  1661.0000      0.0000   -999.2500    665.9306      1.9188     73.0241
  1661.2500      0.0000   -999.2500    664.0852      2.0380     73.6244
  1661.5000      0.0000   -999.2500    663.5313      2.1620     77.5399
  1661.7500      0.0000   -999.2500    664.7897      2.2923     84.3639
  1662.0000      0.0000   -999.2500    665.7643      2.4260     92.8600
  1662.2500      0.0000   -999.2500    665.2260      2.5457    101.5376
  1662.5000      0.0000   -999.2500    664.8583      2.6248    108.7611
  1662.7500      0.0000   -999.2500    666.3232      2.6438    113.1682
  1663.0000      0.0000   -999.2500    668.0955      2.6070    114.6937
  1663.2500      0.0000   -999.2500    667.0208      2.5434    114.9215
  1663.5000      0.0000   -999.2500    661.6885      2.4856    115.8822
  1663.7500      0.0000   -999.2500    652.2017      2.4433    118.5353
  1664.0000      0.0000   -999.2500    637.0143      2.4039    122.3927
  1664.2500      0.0000   -999.2500    612.5649      2.3586    126.1042
  1664.5000      0.0000   -999.2500    578.9869      2.3154    128.1808
  1664.7500      0.0000   -999.2500    546.2111      2.2843    127.7666
  1665.0000      0.0000   -999.2500    530.3792      2.2613    125.2087
  1665.2500      0.0000   -999.2500    540.9056      2.2302    121.7055
  1665.5000      0.0000   -999.2500    571.7640      2.1758    118.2926
  1665.7500      0.0000   -999.2500    606.8624      2.0928    115.5260
  1666.0000      0.0000   -999.2500    633.0715      1.9898    114.1599
  1666.2500      0.0000   -999.2500    647.6388      1.8851    115.5175
  1666.5000      0.0000   -999.2500    655.3932      1.7973    120.5299
  1666.7500      0.0000   -999.2500    661.6490      1.7337    128.3845
  1667.0000      0.0000   -999.2500    668.0536      1.6909    136.7475
  1667.2500      0.0000   -999.2500    673.3063      1.6619    143.6069
  1667.5000      0.0000   -999.2500    675.9631      1.6421    148.4830
  1667.7500      0.0000   -999.2500    676.0577      1.6288    151.8512
  1668.0000      0.0000   -999.2500    674.7581      1.6234    153.9353
  1668.2500      0.0000   -999.2500    673.1539      1.6311    154.0617
  1668.5000      0.0000   -999.2500    671.3575      1.6554    150.8122
  1668.7500      0.0000   -999.2500    668.3821      1.6921    143.2671
  1669.0000      0.0000   -999.2500    662.8860      1.7325    132.7230
  1669.2500      0.0000   -999.2500    654.6168      1.7705    122.9051
