~Version Information
VERS.                      2.0: CWLS Log ASCII Standard - VERSION 2.0
WRAP.                       NO: One line per depth step
~Well Information Block
STRT.FT               387.1000: 
STOP.FT              1748.0000: 
STEP.FT                 0.1000: 
NULL.                -999.2500: 
COMP.          Evergreen Operating Corp.: COMPANY
WELL.          Pachorek 13-31 Tr: WELL
FLD.           Cottontail Pass: FIELD
LOC.           1575' FSL & 900' FWL--API# 05-071-07019-00: LOCATION
PROV.                 Colorado: PROVINCE
CNTY.               Las Animas: COUNTRY
SRVC.          Scientific Data Systems, Inc.: SERVICE COMPANY
DATE.          Tue Aug 08 15:02:37 2000: LOG DATE
UWI.                      05071070190000:UNIQUE WELL IDENTIFICATION
~Curve Information Block
DEPT.FT            0 000 00 00: Depth
DCAL.in                       : CDL Caliper
RHOB.g/cc                     : CDL Bulk Density
RHOC.g/cc                     : CDL Density Correction
DPOR.pu                       : CDL Density Porosity
GR.GAPI                       : Gamma Ray
NPOR.pu                       : Neutron Porosity
~Parameter Information Block
~A  Depth       DCAL        RHOB        RHOC        DPOR         GR         NPOR    
# ...
   934.3000      7.9071      2.6574      0.1062     -0.4482    168.4866     33.9949
   934.4000      7.9071      2.6583      0.1137     -0.5006    166.0410     33.8281
   934.5000      7.9113      2.6567      0.1193     -0.4061    163.0363     33.5783
   934.6000      7.9113      2.6519      0.1223     -0.1145    159.6703     33.2257
   934.7000      7.9113      2.6430      0.1222      0.4242    156.1678     32.7511
   934.8000      7.9171      2.6293      0.1186      1.2558    152.7638     32.1376
   934.9000      7.9171      2.6101      0.1115      2.4184    149.6753     31.3716
   935.0000      7.9252      2.5850      0.1008      3.9392    147.0905     30.4447
   935.1000      7.9252      2.5538      0.0869      5.8313    145.1526     29.3553
   935.2000      7.9252      2.5165      0.0706      8.0921    143.9552     28.1097
   935.3000      7.9284      2.4734      0.0528     10.7026    143.5352     26.7221
   935.4000      7.9284      2.4251      0.0348     13.6276    143.8734     25.2155
   935.5000      7.9245      2.3725      0.0179     16.8175    144.8926     23.6198
   935.6000      7.9245      2.3165      0.0034     20.2106    146.4579     21.9704
   935.7000      7.9245      2.2584     -0.0076     23.7363    148.3822     20.3073
   935.8000      7.9196      2.1992     -0.0143     27.3185    150.4409     18.6724
   935.9000      7.9196      2.1405     -0.0163     30.8790    152.3848     17.1089
   936.0000      7.9235      2.0834     -0.0137     34.3410    153.9653     15.6589
   936.1000      7.9235      2.0291     -0.0069     37.6312    154.9548     14.3626
   936.2000      7.9235      1.9787      0.0035     40.6829    155.1824     13.2572
   936.3000      7.9543      1.9333      0.0168     43.4365    154.5494     12.3751
   936.4000      7.9543      1.8936      0.0322     45.8410    153.0476     11.7440
   936.5000      8.0053      1.8604      0.0490     47.8547    150.7627     11.3862
   936.6000      8.0053      1.8342      0.0667     49.4445    147.8645     11.3187
   936.7000      8.0053      1.8153      0.0848     50.5872    144.5839     11.5532
   936.8000      8.0261      1.8041      0.1028     51.2682    141.1806     12.0943
   936.9000      8.0261      1.8005      0.1203     51.4820    137.9163     12.9393
   937.0000      8.0138      1.8047      0.1369     51.2318    135.0186     14.0742
   937.1000      8.0138      1.8163      0.1523     50.5293    132.6661     15.4726
   937.2000      8.0138      1.8350      0.1659     49.3948    130.9709     17.0938
   937.3000      8.0256      1.8604      0.1772     47.8565    129.9893     18.8833
   937.4000      8.0256      1.8918      0.1858     45.9507    129.7258     20.7755
   937.5000      8.1131      1.9286      0.1915     43.7207    130.1463     22.6988
   937.6000      8.1131      1.9699      0.1940     41.2167    131.1897     24.5809
   937.7000      8.1131      2.0148      0.1934     38.4944    132.7775     26.3554
   937.8000      8.2240      2.0624      0.1899     35.6138    134.8232     27.9664
   937.9000      8.2240      2.1115      0.1839     32.6379    137.2279     29.3726
   938.0000      8.2099      2.1611      0.1760     29.6298    139.8910     30.5481
   938.1000      8.2099      2.2102      0.1666     26.6520    142.7086     31.4828
   938.2000      8.2099      2.2579      0.1563     23.7628    145.5734     32.1804
   938.3000      8.0896      2.3033      0.1456     21.0145    148.3803     32.6566
   938.4000      8.0896      2.3456      0.1348     18.4513    151.0288     32.9352
   938.5000      7.9991      2.3842      0.1242     16.1076    153.4265     33.0460
   938.6000      7.9991      2.4189      0.1140     14.0069    155.4917     33.0211
   938.7000      7.9991      2.4493      0.1044     12.1613    157.1621     32.8923
   938.8000      7.9708      2.4756      0.0955     10.5721    158.4039     32.6893
   938.9000      7.9708      2.4977      0.0875      9.2308    159.2153     32.4375
   939.0000      7.9662      2.5160      0.0806      8.1206    159.6308     32.1580
   939.1000      7.9662      2.5309      0.0748      7.2186    159.7188     31.8668
   939.2000      7.9662      2.5428      0.0705      6.4983    159.5813     31.5757
   939.3000      7.9631      2.5521      0.0674      5.9319    159.3337     31.2933
   939.4000      7.9631      2.5594      0.0658      5.4916    159.0970     31.0261
   939.5000      7.9576      2.5650      0.0654      5.1522    158.9768     30.7790
   939.6000      7.9576      2.5693      0.0661      4.8918    159.0516     30.5565
   939.7000      7.9576      2.5726      0.0675      4.6926    159.3643     30.3628
   939.8000      7.9493      2.5751      0.0693      4.5407    159.9176     30.2006
   939.9000      7.9493      2.5770      0.0711      4.4264    160.6716     30.0720
   940.0000      7.9419      2.5783      0.0725      4.3434    161.5589     29.9764
   940.1000      7.9419      2.5793      0.0732      4.2876    162.4841     29.9114
   940.2000      7.9419      2.5798      0.0729      4.2573    163.3473     29.8719
   940.3000      7.9354      2.5799      0.0714      4.2512    164.0510     29.8510
   940.4000      7.9354      2.5796      0.0687      4.2686    164.5145     29.8407
   940.5000      7.9282      2.5789      0.0648      4.3087    164.6875     29.8328
   940.6000      7.9282      2.5779      0.0600      4.3699    164.5607     29.8196
   940.7000      7.9282      2.5766      0.0545      4.4500    164.1659     29.7951
   940.8000      7.9232      2.5750      0.0485      4.5465    163.5691     29.7555
   940.9000      7.9232      2.5732      0.0425      4.6564    162.8685     29.6995
   941.0000      7.9236      2.5712      0.0368      4.7766    162.1749     29.6282
   941.1000      7.9236      2.5691      0.0317      4.9045    161.5984     29.5453
   941.2000      7.9236      2.5669      0.0275      5.0377    161.2345     29.4559
   941.3000      7.9219      2.5646      0.0242      5.1750    161.1498     29.3669
   941.4000      7.9219      2.5623      0.0219      5.3155    161.3737     29.2855
   941.5000      7.9150      2.5599      0.0205      5.4592    161.8990     29.2192
   941.6000      7.9150      2.5575      0.0197      5.6062    162.6814     29.1754
   941.7000      7.9150      2.5550      0.0193      5.7567    163.6490     29.1604
   941.8000      7.9095      2.5525      0.0192      5.9106    164.7132     29.1791
   941.9000      7.9095      2.5499      0.0190      6.0666    165.7789     29.2349
   942.0000      7.9053      2.5473      0.0186      6.2227    166.7602     29.3288
   942.1000      7.9053      2.5448      0.0182      6.3756    167.5891     29.4597
   942.2000      7.9053      2.5424      0.0177      6.5206    168.2198     29.6238
   942.3000      7.9015      2.5402      0.0173      6.6525    168.6344     29.8144
   942.4000      7.9015      2.5384      0.0174      6.7652    168.8302     30.0220
   942.5000      7.9081      2.5369      0.0182      6.8530    168.8198     30.2344
   942.6000      7.9081      2.5360      0.0199      6.9109    168.6168     30.4376
   942.7000      7.9081      2.5356      0.0227      6.9350    168.2273     30.6166
   942.8000      7.9217      2.5358      0.0268      6.9234    167.6500     30.7569
   942.9000      7.9217      2.5365      0.0319      6.8760    166.8716     30.8457
   943.0000      7.9280      2.5379      0.0381      6.7950    165.8822     30.8744
   943.1000      7.9280      2.5397      0.0448      6.6843    164.6869     30.8386
   943.2000      7.9280      2.5419      0.0518      6.5490    163.3121     30.7405
   943.3000      7.9304      2.5445      0.0585      6.3948    161.8123     30.5873
   943.4000      7.9304      2.5473      0.0645      6.2271    160.2728     30.3919
   943.5000      7.9251      2.5502      0.0694      6.0498    158.7940     30.1711
   943.6000      7.9251      2.5532      0.0728      5.8650    157.4763     29.9443
   943.7000      7.9251      2.5564      0.0746      5.6717    156.3964     29.7309
   943.8000      7.9112      2.5598      0.0748      5.4659    155.5942     29.5487
