~Version Information
VERS.                      2.0: CWLS Log ASCII Standard - VERSION 2.0
WRAP.                       NO: One line per depth step
~Well Information Block
STRT.FT               520.0000: 
STOP.FT              1105.5000: 
STEP.FT                 0.1000: 
NULL.                -999.2500: 
COMP.          Pioneer Natural Resources: COMPANY
WELL.            Redland 23-24: WELL
FLD.           Purgatoire River: FIELD
LOC.           2356' FSL & 1880' FWL: LOCATION
PROV.                 Colorado: PROVINCE
CNTY.               Las Animas: COUNTRY
SRVC.                Patterson: SERVICE COMPANY
DATE.          Mon Mar 21 07:08:20 2005: LOG DATE
UWI.           05 071 08221 00: UNIQUE WELL ID
~Curve Information Block
DEPT.FT            0 000 00 00: Depth
DCAL.in                       : CDL Caliper
RHOB.g/cc                     : CDL Bulk Density
RHOC.g/cc                     : CDL Density Correction
DPOR.pu                       : CDL Density Porosity
GR.GAPI                       : Gamma Ray
NPOR.pu                       : Neutron Porosity
~Parameter Information Block
~A  Depth       DCAL        RHOB        RHOC        DPOR         GR         NPOR    
# ...
   558.4000      7.9480      2.4977      0.0616      9.2315    139.2491     23.4897
   558.5000      7.9526      2.4979      0.0829      9.2192    140.5231     23.8063
   558.6000      7.9526      2.4878      0.0125      9.8332    129.7783     23.7535
   558.7000      7.9526      2.4866      0.0404      9.9053    116.7365     23.4452
   558.8000      7.9669      2.4907      0.0893      9.6517    109.4977     23.0445
   558.9000      7.9669      2.4858      0.0310      9.9513    104.8297     22.7418
   559.0000      7.9795      2.4738      0.0283     10.6800    102.0596     22.6810
   559.1000      7.9795      2.4637      0.0317     11.2926    107.4873     22.9744
   559.2000      7.9795      2.4656      0.0359     11.1765    117.7939     23.3812
   559.3000      7.9987      2.4833      0.0465     10.1025    125.2620     23.4417
   559.4000      7.9987      2.5011      0.0757      9.0241    126.4107     23.0909
   559.5000      8.0031      2.4974      0.0774      9.2498    119.6267     22.6713
   559.6000      8.0031      2.4646      0.0153     11.2336    107.3954     22.4525
   559.7000      8.0031      2.4157      0.0536     14.1999     98.1908     22.5410
   559.8000      7.9810      2.3749     -0.0345     16.6711     98.5865     22.8866
   559.9000      7.9810      2.3646     -0.0390     17.2995    105.7405     23.1293
   560.0000      7.9815      2.3824      0.0291     16.2185    113.0549     22.8431
   560.1000      7.9815      2.4084      0.0159     14.6451    120.1522     22.1644
   560.2000      7.9815      2.4267      0.0040     13.5314    126.4939     21.6109
   560.3000      8.0252      2.4328      0.0051     13.1629    126.4868     21.3813
   560.4000      8.0252      2.4325      0.0244     13.1803    119.3574     21.1988
   560.5000      8.0330      2.4244      0.0408     13.6724    111.6847     21.1023
   560.6000      8.0330      2.4041     -0.0366     14.9011    107.0719     21.4361
   560.7000      8.0330      2.3815     -0.0425     16.2704    106.7236     21.9839
   560.8000      8.0305      2.3691     -0.0511     17.0259    113.6198     22.4094
   560.9000      8.0305      2.3744     -0.0596     16.7010    124.6282     22.6345
   561.0000      8.0330      2.3917      0.0078     15.6555    129.2082     22.5507
   561.1000      8.0330      2.4020      0.0059     15.0293    123.6764     22.2909
   561.2000      8.0330      2.3947      0.0331     15.4706    118.0993     22.1811
   561.3000      8.0306      2.3733      0.0180     16.7703    118.1688     22.4356
   561.4000      8.0306      2.3448      0.0361     18.4948    117.3393     22.7936
   561.5000      8.0237      2.3191     -0.0256     20.0575    113.3376     22.7965
   561.6000      8.0237      2.3145     -0.0413     20.3326    111.8822     22.5486
   561.7000      8.0237      2.3324      0.0052     19.2472    113.1904     22.4479
   561.8000      8.0270      2.3518     -0.0089     18.0707    112.1962     22.4426
   561.9000      8.0270      2.3694     -0.0309     17.0075    108.5767     22.2919
   562.0000      8.0112      2.3946      0.0164     15.4814    106.0895     21.9868
   562.1000      8.0112      2.4159      0.0560     14.1855    105.7058     21.7297
   562.2000      8.0112      2.4147      0.0931     14.2601    105.5872     21.7901
   562.3000      7.9782      2.3946      0.0297     15.4762    106.7007     22.2440
   562.4000      7.9782      2.3703      0.0662     16.9487    111.1891     22.8038
   562.5000      7.9568      2.3530     -0.0025     18.0016    116.8864     23.0818
   562.6000      7.9568      2.3539      0.0153     17.9462    121.4543     22.9931
   562.7000      7.9568      2.3717      0.0118     16.8665    127.1750     22.7762
   562.8000      7.9169      2.4003      0.0146     15.1319    134.0234     22.7148
   562.9000      7.9169      2.4387      0.0278     12.8032    137.0776     22.8204
   563.0000      7.9142      2.4799      0.0913     10.3079    134.6917     22.9968
   563.1000      7.9142      2.5102      0.1265      8.4727    132.0656     23.2854
   563.2000      7.9142      2.5250      0.0701      7.5734    133.5122     23.5531
   563.3000      7.9222      2.5276      0.1031      7.4205    134.9099     23.6324
   563.4000      7.9222      2.5157      0.0357      8.1411    132.5538     23.8019
   563.5000      7.9229      2.4991      0.0269      9.1435    130.1492     24.2245
   563.6000      7.9229      2.5007     -0.0151      9.0459    126.9914     24.5429
   563.7000      7.9229      2.5185      0.0783      7.9699    119.8444     24.5856
   563.8000      7.9272      2.5209      0.0582      7.8215    115.2366     24.4831
   563.9000      7.9272      2.5025      0.0029      8.9414    118.2933     24.1565
   564.0000      7.9296      2.4787      0.0448     10.3811    122.7055     23.4782
   564.1000      7.9296      2.4474      0.0411     12.2811    125.0810     22.8425
   564.2000      7.9296      2.4125     -0.0077     14.3949    128.0090     22.6958
   564.3000      7.9288      2.3939      0.0034     15.5193    130.2542     22.8199
   564.4000      7.9288      2.3944      0.0191     15.4913    131.3323     22.7704
   564.5000      7.9256      2.3968      0.0351     15.3476    132.1946     22.5390
   564.6000      7.9256      2.3899      0.0360     15.7632    129.6633     22.4674
   564.7000      7.9256      2.3798     -0.0167     16.3761    121.2386     22.7363
   564.8000      7.9367      2.3789     -0.0230     16.4290    102.1187     22.9190
   564.9000      7.9367      2.3880      0.0312     15.8787     91.8962     22.5678
   565.0000      7.9413      2.3968      0.0236     15.3425     85.4423     22.3058
   565.1000      7.9413      2.4055      0.0111     14.8181     83.2318     22.7728
   565.2000      7.9413      2.4192      0.0069     13.9870     86.4226     23.3828
   565.3000      7.9370      2.4342      0.0067     13.0797     93.7398     23.4456
   565.4000      7.9370      2.4423      0.0138     12.5901     99.5294     23.0661
   565.5000      7.9380      2.4399      0.0414     12.7314     99.2322     22.7848
   565.6000      7.9380      2.4299      0.0099     13.3407     95.2575     22.9903
   565.7000      7.9380      2.4214     -0.0569     13.8521     92.6022     23.5123
   565.8000      7.9563      2.4233     -0.0090     13.7420     87.5696     23.8623
   565.9000      7.9563      2.4378      0.0023     12.8610     92.2305     23.8565
   566.0000      7.9570      2.4659     -0.0068     11.1578     94.1832     23.6720
   566.1000      7.9570      2.4953      0.0453      9.3730     88.6320     23.5704
   566.2000      7.9570      2.5120      0.0644      8.3642     80.6752     23.7774
   566.3000      7.9606      2.5214      0.0081      7.7910     75.9994     24.1224
   566.4000      7.9606      2.5304      0.0396      7.2483     74.6768     24.3414
   566.5000      7.9638      2.5328      0.0447      7.1043     74.5202     24.4066
   566.6000      7.9638      2.5216      0.0265      7.7811     73.9915     24.1512
   566.7000      7.9638      2.5050     -0.1181      8.7869     74.3074     23.6437
   566.8000      7.9765      2.5018     -0.0125      8.9832     71.3355     23.2309
   566.9000      7.9765      2.5084      0.0054      8.5834     74.2654     23.0296
   567.0000      7.9759      2.5032      0.0221      8.8951     76.9744     22.9073
   567.1000      7.9759      2.4793      0.0142     10.3439     79.4536     22.4471
   567.2000      7.9759      2.4568     -0.0370     11.7120     79.7125     21.6050
   567.3000      7.9831      2.4562     -0.0365     11.7463     78.3085     20.9993
   567.4000      7.9831      2.4715     -0.0225     10.8206     79.1279     20.8468
   567.5000      7.9441      2.4793      0.0306     10.3427     82.9213     20.9164
   567.6000      7.9441      2.4703      0.0193     10.8900     87.1747     21.2071
   567.7000      7.9441      2.4569      0.0524     11.7023     88.8215     21.5505
   567.8000      7.9512      2.4508      0.0260     12.0699     79.3132     21.6261
   567.9000      7.9512      2.4559      0.0128     11.7627     73.5848     21.5696
