~Version Information
 VERS.                                  2.0 : CWLS LAS VERSION
 WRAP.                                   NO : WRAPING MODE
 SWARE .                 MController 2.5.0J : SOFTWARE VERSION
~Well Information
 WELL.                         Squeal 11-26 : WELL
 COMP.    Pioneer Natural Resources USA Inc : COMPANY
 FLD.                      Purgatoire River : FIELD
 LOC.                NW/NW Sec 26 T32S R67W : LOCATION
 DATE.                         6/13-14/2005 : DATE(S) LOGGED
 SRVC.       Blanco Geological Services LLC : SERVICE COMPANY
 STAT.                                   CO : STATE
 CNTY.                           Las Animas : COUNTY
 CTRY.                                  USA : COUNTRY
 API.                       05-071-08404-00 : API NUMBER
 STRT.FT                             285.00 : START DEPTH
 STOP.FT                            2760.00 : STOP DEPTH
 STEP.FT                               1.00 : DEPTH INCREMENT
 NULL.                                -9999 : NULL VALUE
~Curve information
 DEPTH.FT                                   :
 ROP.MIN/FT                                 :
 GAS.UNITS                                  :
~ASCII Log data
# ...
      2285.0         0.10        204.9 
      2286.0         0.62        256.9 
      2287.0         1.17       1313.8 
      2288.0         0.87       1759.9 
      2289.0         0.60       2035.8 
      2290.0         0.60       2271.0 
      2291.0         0.55       2433.7 
      2292.0         0.57       2541.2 
      2293.0         0.77       2636.9 
      2294.0         0.87       2638.9 
      2295.0         1.38       1601.2 
      2296.0         0.37        696.6 
      2297.0         0.27        687.5 
      2298.0         0.30        689.2 
      2299.0         0.33        702.0 
      2300.0         0.40        714.4 
      2301.0         0.40        726.2 
      2302.0         0.50        744.4 
      2303.0         0.68       1007.9 
      2304.0         1.00        818.2 
      2305.0         1.13         43.9 
      2306.0         0.65         16.9 
      2307.0         1.07         18.5 
      2308.0         1.23         24.3 
      2309.0         1.35         63.2 
      2310.0         0.73         81.9 
      2311.0         6.87        163.4 
      2312.0         1.47        165.2 
      2313.0         1.12        192.6 
      2314.0         1.47        203.1 
      2315.0         1.17        152.3 
      2316.0         1.08         80.9 
      2317.0         1.30        151.1 
      2318.0         0.23        171.6 
      2319.0         1.28        262.9 
      2320.0         1.23        326.6 
      2321.0         1.60       1269.3 
      2322.0         0.88        984.0 
      2323.0         1.53        663.2 
      2324.0         1.38        761.3 
      2325.0         1.30        831.7 
      2326.0         0.47        440.0 
      2327.0         0.63         32.2 
      2328.0         0.37         18.2 
      2329.0         1.08         34.4 
      2330.0         0.90         78.1 
      2331.0         0.70         98.9 
      2332.0         0.77        124.4 
      2333.0         0.95        137.6 
      2334.0         1.20        128.9 
      2335.0         1.07         75.3 
      2336.0         1.62         73.9 
      2337.0         1.70         44.2 
      2338.0         1.18         49.3 
      2339.0         1.37         58.7 
      2340.0         1.22         34.3 
      2341.0         3.20         76.3 
      2342.0         0.62        100.3 
      2343.0         0.57        113.5 
      2344.0         0.60        118.3 
      2345.0         1.07        122.0 
      2346.0         1.35        230.7 
      2347.0         1.60         89.2 
      2348.0         1.62         28.3 
      2349.0         1.83        109.3 
      2350.0         1.65        147.0 
      2351.0         1.60        157.1 
      2352.0         0.98        163.3 
      2353.0         1.00        169.4 
      2354.0         0.63        173.3 
      2355.0         0.67        175.9 
      2356.0         0.67        177.5 
      2357.0         0.68        177.8 
      2358.0         0.87        177.7 
      2359.0         1.00        176.0 
      2360.0         0.98        171.4 
      2361.0         0.70        167.4 
      2362.0         0.33        163.7 
      2363.0         0.37        162.1 
      2364.0         0.43        160.0 
      2365.0         0.50        157.1 
      2366.0         0.98        156.8 
      2367.0         1.13        154.1 
      2368.0         0.13        140.4 
      2369.0         8.03       1528.1 
      2370.0         1.18       1597.8 
      2371.0         1.00       1637.6 
      2372.0         0.90       1581.0 
      2373.0         1.15       1348.8 
      2374.0         1.30       1308.4 
      2375.0         1.37       1252.8 
      2376.0         1.58        544.3 
      2377.0         1.07         38.7 
      2378.0         1.78        112.1 
      2379.0         1.07        140.7 
      2380.0         1.30        156.0 
      2381.0         1.85        160.3 
      2382.0         1.23        157.8 
      2383.0         1.25        157.3 
      2384.0         1.33        157.6 
      2385.0         1.88        158.2 
      2386.0         1.93        168.7 
      2387.0         1.85        167.2 
      2388.0         2.55        153.0 
      2389.0         2.00        149.6 
      2390.0         0.80        152.3 
      2391.0         0.58        155.0 
      2392.0         0.50        155.5 
      2393.0         0.77        154.5 
      2394.0         1.03        153.8 
      2395.0         1.22        152.2 
      2396.0         0.23        150.2 
      2397.0         0.10        148.9 
      2398.0         0.33        148.2 
      2399.0         1.63        146.7 
      2400.0         1.85        354.3 
      2401.0         3.85       1690.5 
      2402.0         0.57       1751.1 
      2403.0         0.63       1767.9 
      2404.0         0.55       1756.2 
      2405.0         0.37       1686.4 
      2406.0         0.33       1619.0 
      2407.0         0.37       1573.9 
      2408.0         0.40       1555.4 
      2409.0         0.53       1530.4 
      2410.0         0.70       1406.1 
      2411.0         0.33       1266.6 
      2412.0         0.58       1573.6 
      2413.0         0.90       1559.1 
      2414.0         1.13        575.3 
      2415.0         0.77        440.0 
      2416.0         0.75         41.8 
      2417.0         0.93         88.1 
      2418.0         0.67        118.6 
      2419.0         0.43        128.3 
      2420.0         0.50        134.6 
      2421.0         0.65        141.3 
      2422.0         0.87        144.9 
      2423.0         0.93        145.7 
      2424.0         0.67        146.3 
      2425.0         0.65        156.6 
      2426.0         0.40        157.7 
      2427.0         0.17        156.0 
      2428.0         0.20        154.1 
      2429.0         0.60        153.1 
      2430.0         0.10        149.9 
      2431.0         8.82        393.0 
      2432.0         0.23        425.6 
      2433.0         1.10       1513.6 
      2434.0         0.60       1723.5 
      2435.0         2.65       1809.4 
      2436.0         1.13       1511.9 
      2437.0         0.52       1551.7 
      2438.0         1.37       1847.1 
      2439.0         3.05       1943.5 
      2440.0         6.57        774.4 
      2441.0         1.40        222.9 
      2442.0         1.08        228.5 
      2443.0         0.90        227.4 
      2444.0         0.73        221.4 
      2445.0         0.37        224.2 
      2446.0         0.17        225.6 
      2447.0         0.20        227.6 
      2448.0         0.23        232.8 
      2449.0         0.47        258.4 
      2450.0         0.75        304.5 
      2451.0         0.77        408.4 
      2452.0         0.83        454.5 
      2453.0         1.55        446.7 
      2454.0         0.63        237.8 
      2455.0         0.83        173.7 
      2456.0         1.30         95.8 
      2457.0         0.95        123.6 
      2458.0         0.70        143.7 
      2459.0         0.67        142.7 
      2460.0         0.77        205.2 
      2461.0         3.58       5802.5 
      2462.0         0.10       5895.5 
      2463.0         0.82       6685.5 
      2464.0         1.17       6965.9 
      2465.0         1.33       9060.8 
      2466.0         1.02       9719.5 
      2467.0         0.43       8302.1 
      2468.0         0.20       7511.7 
      2469.0         0.20       7288.6 
      2470.0         0.20       7311.5 
      2471.0         0.33       7621.2 
      2472.0         0.83       7895.7 
      2473.0         2.62       7899.1 
      2474.0         0.53       7240.4 
      2475.0         0.58       7230.7 
      2476.0         0.80       7245.8 
      2477.0         0.40       7186.2 
      2478.0         0.50       7098.9 
      2479.0         0.63       7052.1 
      2480.0         0.70       6900.8 
      2481.0         1.12       6755.6 
      2482.0         1.10       6491.8 
      2483.0         0.63       6281.3 
      2484.0         0.72       6153.2 
