~Version Information
VERS.                      2.0: CWLS Log ASCII Standard - VERSION 2.0
WRAP.                       NO: One line per depth step
~Well Information Block
STRT.FT                -0.2500: 
STOP.FT              2376.7500: 
STEP.FT                 0.2500: 
NULL.                -999.2500: 
COMP.          Petrogulf Corporation: COMPANY
WELL.             State 16-23V: WELL
FLD.           Purgatorie River: FIELD
LOC.           2414' FSL & 2215' FWL: LOCATION
PROV.                 Colorado: PROVINCE
CNTY.               Las Animas: COUNTRY
SRVC.          Patterson Wireline: SERVICE COMPANY
DATE.          Wed Jun 25 14:56:54 2003: LOG DATE
UWI.           05 071 07865 00: UNIQUE WELL ID
~Curve Information Block
DEPT.FT            0 000 00 00: Depth
CCL.                          : Casing Collar Locator
TT3.usec                      : CBL 3' Travel Time
AMP3.mV                       : CBL 3' Amplitude
GR.GAPI                       : Gamma Ray
~Parameter Information Block
~A  Depth       CCL         TT3         AMP3         GR     
# ...
   937.7500      0.0000    257.5036     64.7944     85.0669
   938.0000      0.0000    257.5069     64.8614     91.2722
   938.2500      0.0000    257.5179     64.8756     98.5361
   938.5000      0.0000    257.5359     64.7899    106.1697
   938.7500      0.0000    257.5493     64.6267    112.5566
   939.0000      0.0000    257.5350     64.4716    116.0566
   939.2500      0.0000    257.4788     64.3741    116.3197
   939.5000      0.0000    257.4004     64.3048    114.7249
   939.7500      0.0000    257.3456     64.2177    113.2302
   940.0000      0.0000    257.3459     64.1007    112.6363
   940.2500      0.0000    257.3930     63.9609    112.0259
   940.5000      0.0000    257.4583     63.8172    109.7216
   940.7500      0.0000    257.5242     63.6989    104.6117
   941.0000      0.0000    257.5948     63.5890     97.0844
   941.2500      0.0000    257.6948     63.3302     89.4430
   941.5000      0.0000    257.8823     62.6183     85.1605
   941.7500      0.0000    258.2594     61.1334     86.7764
   942.0000      0.0000    258.9360     58.6990     93.9939
   942.2500      0.0000    259.9543     55.3116    103.9508
   942.5000      0.0000    261.2312     51.0911    113.2527
   942.7500      0.0000    262.5711     46.3634    119.6479
   943.0000      0.0000    263.7468     41.7753    122.4014
   943.2500      0.0000    264.6018     38.0801    122.1119
   943.5000     -2.0000    265.1066     35.6816    120.6456
   943.7500      0.0000    265.3312     34.4586    120.6515
   944.0000      0.0000    265.3670     34.0326    124.0016
   944.2500      0.0000    265.2637     34.1640    130.1729
   944.5000      0.0000    265.0101     35.0292    136.5471
   944.7500      0.0000    264.5432     37.2107    140.5263
   945.0000      0.0000    263.7823     41.2229    141.2222
   945.2500      0.0000    262.6948     46.7988    139.3969
   945.5000      0.0000    261.3612     52.7276    136.4707
   945.7500      0.0000    259.9776     57.6353    133.7892
   946.0000      0.0000    258.7736     60.9052    132.3315
   946.2500      0.0000    257.9029     62.7708    132.6883
   946.5000      0.0000    257.3853     63.7522    135.1389
   946.7500      0.0000    257.1356     64.2262    139.5038
   947.0000      0.0000    257.0388     64.4119    144.7377
   947.2500      0.0000    257.0089     64.4982    148.8797
   947.5000      0.0000    257.0016     64.6591    149.9284
   947.7500      0.0000    257.0002     64.9618    147.2596
   948.0000      0.0000    257.0000     65.3217    142.2451
   948.2500      0.0000    257.0000     65.5873    137.1015
   948.5000      0.0000    257.0000     65.6925    133.1620
   948.7500      0.0000    257.0000     65.7090    130.6110
   949.0000      0.0000    257.0001     65.7414    129.4705
   949.2500      0.0000    257.0005     65.7891    129.8966
   949.5000      0.0000    257.0023     65.7556    131.5150
   949.7500      0.0000    257.0093     65.5943    133.3226
   950.0000      0.0000    257.0297     65.3920    134.5655
   950.2500      0.0000    257.0758     65.2917    135.1687
   950.5000      0.0000    257.1568     65.3779    135.0561
   950.7500      0.0000    257.2678     65.6575    133.6747
   951.0000      0.0000    257.3853     66.0996    130.7048
   951.2500      0.0000    257.4731     66.6328    126.8145
   951.5000      0.0000    257.4969     67.1211    123.2380
   951.7500      0.0000    257.4425     67.4121    120.7765
   952.0000      0.0000    257.3328     67.4362    119.4038
   952.2500      0.0000    257.2215     67.2392    118.6624
   952.5000      0.0000    257.1588     66.9154    118.4071
   952.7500      0.0000    257.1576     66.5429    119.2352
   953.0000      0.0000    257.1893     66.1821    121.9047
   953.2500      0.0000    257.2109     65.8963    126.0109
   953.5000      0.0000    257.2036     65.7492    129.5014
   953.7500      0.0000    257.1863     65.7816    130.0827
   954.0000      0.0000    257.1879     65.9784    127.1578
   954.2500      0.0000    257.2114     66.2424    122.1149
   954.5000      0.0000    257.2330     66.4256    116.8537
   954.7500      0.0000    257.2343     66.4301    112.4099
   955.0000      0.0000    257.2159     66.2872    109.0814
   955.2500      0.0000    257.1783     66.1229    107.3452
   955.5000      0.0000    257.1143     66.0386    107.8384
   955.7500      0.0000    257.0358     66.0307    110.1363
   956.0000      0.0000    256.9890     66.0260    112.1716
   956.2500      0.0000    257.0124     65.9808    111.5364
   956.5000      0.0000    257.0910     65.9252    107.2905
   956.7500      0.0000    257.1709     65.9107    100.2420
   957.0000      0.0000    257.2183     65.9377     91.8985
   957.2500      0.0000    257.2424     65.9667     83.6895
   957.5000      0.0000    257.2657     65.9871     76.8911
   957.7500      0.0000    257.2908     66.0315     72.4645
   958.0000      0.0000    257.3057     66.1128     70.5970
   958.2500      0.0000    257.2993     66.1861     70.5954
   958.5000      0.0000    257.2647     66.1978     71.4830
   958.7500      0.0000    257.2031     66.1470     72.7425
   959.0000      0.0000    257.1298     66.0850     74.3116
   959.2500      0.0000    257.0670     66.0748     75.7987
   959.5000      0.0000    257.0274     66.1505     76.0770
   959.7500      0.0000    257.0089     66.2887     74.0704
   960.0000      0.0000    257.0023     66.4185     69.8500
   960.2500      0.0000    257.0005     66.4791     64.6652
   960.5000      0.0000    257.0002     66.4770     60.0523
   960.7500      0.0000    257.0005     66.4898     57.0777
   961.0000      0.0000    257.0022     66.5981     56.0482
   961.2500      0.0000    257.0088     66.7986     56.5052
   961.5000      0.0000    257.0270     66.9964     57.5948
   961.7500      0.0000    257.0648     67.0953     58.6109
   962.0000      0.0000    257.1210     67.0827     59.1681
   962.2500      0.0000    257.1761     67.0267     59.1193
   962.5000      0.0000    257.1999     66.9951     58.6253
   962.7500      0.0000    257.1783     66.9777     58.0857
   963.0000      0.0000    257.1298     66.8970     57.7458
   963.2500      0.0000    257.0917     66.7080     57.4347
   963.5000      0.0000    257.0913     66.4575     56.7436
   963.7500      0.0000    257.1276     66.2386     55.4258
   964.0000      0.0000    257.1696     66.1277     53.6845
   964.2500      0.0000    257.1734     66.1642     52.0781
   964.5000      0.0000    257.1136     66.3265     51.1133
   964.7500      0.0000    257.0089     66.5044     51.0386
   965.0000      0.0000    256.9162     66.5547     52.0696
   965.2500      0.0000    256.8945     66.4181     54.6993
   965.5000      0.0000    256.9625     66.1510     59.6451
   965.7500      0.0000    257.0843     65.8525     67.2754
   966.0000      0.0000    257.1999     65.6146     76.7891
   966.2500      0.0000    257.2697     65.5243     85.9904
   966.5000      0.0000    257.2861     65.6223     92.3309
   966.7500      0.0000    257.2533     65.8392     94.6532
   967.0000      0.0000    257.1757     66.0289     94.1257
   967.2500      0.0000    257.0654     66.0842     93.4775
   967.5000      0.0000    256.9482     65.9772     95.2336
   967.7500      0.0000    256.8602     65.7109    100.3102
   968.0000      0.0000    256.8364     65.3118    107.5694
   968.2500      0.0000    256.8910     64.8806    114.1913
   968.5000      0.0000    257.0005     64.5863    117.0617
   968.7500      0.0000    257.1114     64.5586    114.9217
   969.0000      0.0000    257.1725     64.7686    109.3905
   969.2500      0.0000    257.1674     65.0250    103.4204
   969.5000      0.0000    257.1193     65.1248     98.6825
   969.7500      0.0000    257.0665     65.0373     94.6288
   970.0000      0.0000    257.0357     64.9192     89.8107
   970.2500      0.0000    257.0357     64.9327     83.6889
   970.5000      0.0000    257.0666     65.0800     77.1040
   970.7500      0.0000    257.1192     65.2439     71.2348
   971.0000      0.0000    257.1674     65.3650     66.4281
