~Version Information
VERS.                      2.0: CWLS Log ASCII Standard - VERSION 2.0
WRAP.                       NO: One line per depth step
~Well Information Block
STRT.FT               955.2500: 
STOP.FT              2226.0000: 
STEP.FT                 0.2500: 
NULL.                -999.2500: 
COMP.          Petrogulf Corporation: COMPANY
WELL.             Burson 8-13R: WELL
FLD.           Purgatorie River: FIELD
LOC.           1045' FNL & 2189' FEL: LOCATION
CNTY.               Las Animas: COUNTY
SRVC.                         : SERVICE COMPANY
DATE.          Fri Apr 30 04:52:15 2004: LOG DATE
UWI.           05 071 08039 00: UNIQUE WELL ID
STAT.                 Colorado: STATE
~Curve Information Block
DEPT.FT            0 000 00 00: Depth
SP.mV                         : DIL Spontaneous Potential
RILD.Ohm-m                    : DIL Deep Resistivity
RILM.Ohm-m                    : DIL Medium Resistivity
RLL3.Ohm-m                    : DIL Shallow Resistivity
~Parameter Information Block
~A  Depth        SP         RILD        RILM        RLL3    
# ...
  2194.7500    148.2103     11.8060     13.4800     15.7716
  2195.0000    148.0709     11.8852     13.5511     15.8752
  2195.2500    148.0335     11.9563     13.5800     16.1274
  2195.5000    148.0881     12.0150     13.5865     16.4703
  2195.7500    148.2111     12.0586     13.5900     16.8418
  2196.0000    148.3660     12.0874     13.5978     17.2064
  2196.2500    148.5122     12.1045     13.6022     17.5456
  2196.5000    148.6192     12.1130     13.5877     17.8248
  2196.7500    148.6746     12.1137     13.5406     17.9770
  2197.0000    148.6789     12.1056     13.4576     17.9315
  2197.2500    148.6350     12.0902     13.3473     17.6818
  2197.5000    148.5463     12.0748     13.2267     17.3126
  2197.7500    148.4213     12.0705     13.1146     16.9166
  2198.0000    148.2726     12.0877     13.0280     16.4917
  2198.2500    148.1096     12.1313     12.9818     15.9886
  2198.5000    147.9386     12.1992     12.9885     15.4889
  2198.7500    147.7699     12.2838     13.0556     15.2805
  2199.0000    147.6137     12.3732     13.1839     15.6861
  2199.2500    147.4627     12.4539     13.3671     16.7827
  2199.5000    147.2874     12.5137     13.5940     18.2843
  2199.7500    147.0610     12.5460     13.8514     19.7078
  2200.0000    146.7843     12.5533     14.1243     20.6853
  2200.2500    146.4807     12.5473     14.3963     21.1656
  2200.5000    146.1741     12.5448     14.6498     21.3601
  2200.7500    145.8786     12.5609     14.8663     21.5399
  2201.0000    145.6012     12.5992     15.0274     21.9006
  2201.2500    145.3479     12.6482     15.1133     22.5449
  2201.5000    145.1223     12.6868     15.1041     23.4444
  2201.7500    144.9232     12.6982     14.9847     24.3163
  2202.0000    144.7451     12.6816     14.7549     24.5983
  2202.2500    144.5831     12.6529     14.4374     23.7253
  2202.5000    144.4384     12.6310     14.0783     21.5868
  2202.7500    144.3163     12.6237     13.7363     18.7402
  2203.0000    144.2191     12.6217     13.4657     16.1139
  2203.2500    144.1407     12.6058     13.3011     14.4404
  2203.5000    144.0685     12.5594     13.2505     13.9137
  2203.7500    143.9890     12.4783     13.2981     14.2806
  2204.0000    143.8932     12.3690     13.4148     15.1670
  2204.2500    143.7786     12.2398     13.5681     16.3602
  2204.5000    143.6456     12.0940     13.7266     17.8918
  2204.7500    143.4944     11.9293     13.8598     19.8554
  2205.0000    143.3249     11.7434     13.9393     22.0539
  2205.2500    143.1435     11.5388     13.9460     23.8155
  2205.5000    142.9640     11.3260     13.8764     24.2996
  2205.7500    142.7981     11.1229     13.7431     23.1332
  2206.0000    142.6456     10.9501     13.5706     20.7709
  2206.2500    142.5000     10.8237     13.3899     18.1926
  2206.5000    142.3607     10.7479     13.2309     16.2434
  2206.7500    142.2332     10.7138     13.1145     15.2213
  2207.0000    142.1201     10.7047     13.0462     14.9371
  2207.2500    142.0116     10.7034     13.0172     15.0232
  2207.5000    141.8868     10.6976     13.0110     15.1959
  2207.7500    141.7238     10.6819     13.0124     15.3462
  2208.0000    141.5116     10.6584     13.0133     15.4830
  2208.2500    141.2588     10.6854     13.0142     15.6262
  2208.5000    140.9944     10.7303     13.0224     15.7556
  2208.7500    140.7535     10.7610     13.0471     15.8369
  2209.0000    140.5558     10.8372     13.0937     15.8584
  2209.2500    140.3951     10.9584     13.1594     15.8394
  2209.5000    140.2496     11.1121     13.2346     15.8515
  2209.7500    140.0996     11.2775     13.3094     16.0489
  2210.0000    139.9362     11.4354     13.3795     16.5907
  2210.2500    139.7614     11.5764     13.4492     17.4390
  2210.5000    139.5744     11.7060     13.5301     18.2666
  2210.7500    139.3416     11.8478     13.6366     18.6818
  2211.0000    138.8652     12.0532     13.7816     18.5944
  2211.2500    137.4677     12.4236     13.9710     18.3094
  2211.5000    133.5152     13.1425     14.2017     18.2176
  2211.7500    124.3140     14.5253     14.4641     18.4325
  2212.0000    107.3549     16.9839     14.7475     18.7888
  2212.2500     82.8571     21.7961     15.0407     19.1933
  2212.5000     55.2173     31.1615     15.3259     19.9475
  2212.7500     30.8939     50.9674     15.5727     21.7116
  2213.0000     14.2095    100.0433     15.7416     25.0484
  2213.2500      5.2916    274.3824     15.7973     29.7487
  2213.5000      1.5781  18851.0879     15.7216     34.4486
  2213.7500      0.3735 100000.0000     15.5166     37.1521
  2214.0000      0.0691 100000.0000     15.2010     36.5684
  2214.2500      0.0092 100000.0000     14.8122     33.0955
  2214.5000   -999.2500 100000.0000     14.4134     28.3885
  2214.7500   -999.2500 100000.0000     14.1031     23.9981
  2215.0000   -999.2500    320.0246     14.0251     20.5283
  2215.2500   -999.2500    417.9908     14.3860     17.8988
  2215.5000   -999.2500    622.9418     15.4981     15.9921
  2215.7500   -999.2500   1132.7780     17.8907     14.8733
  2216.0000   -999.2500   3154.6191     22.6194     14.5790
  2216.2500   -999.2500 100000.0000     31.9213     14.9235
  2216.5000   -999.2500 100000.0000     51.9087     15.5398
  2216.7500   -999.2500 100000.0000    102.7207     16.0470
  2217.0000   -999.2500 100000.0000    299.9732     16.1986
  2217.2500   -999.2500 100000.0000 100000.0000     15.9527
  2217.5000   -999.2500 100000.0000 100000.0000     15.4467
  2217.7500   -999.2500 100000.0000 100000.0000     14.8913
  2218.0000   -999.2500 100000.0000 100000.0000     14.4549
  2218.2500   -999.2500 100000.0000 100000.0000     14.2157
  2218.5000   -999.2500 100000.0000 100000.0000     14.1826
  2218.7500   -999.2500 100000.0000    787.0744     14.3476
  2219.0000   -999.2500 100000.0000    770.4009     14.7559
  2219.2500   -999.2500 100000.0000    749.9106     15.6001
  2219.5000   -999.2500 100000.0000    729.0123     17.2763
  2219.7500   -999.2500 100000.0000    712.8080     20.2548
  2220.0000   -999.2500 100000.0000    708.6249     24.6700
  2220.2500   -999.2500 100000.0000    726.9798     29.7924
  2220.5000   -999.2500 100000.0000    783.9210     33.8027
  2220.7500   -999.2500 100000.0000    907.1025     34.3229
  2221.0000   -999.2500 100000.0000   1151.7528     29.7486
  2221.2500   -999.2500 100000.0000   1646.2559     20.5931
  2221.5000   -999.2500   -999.2500   2750.9419      9.5431
  2221.7500   -999.2500   -999.2500   5867.5083     -0.1641
  2222.0000   -999.2500   -999.2500  24611.1113     -6.6733
  2222.2500   -999.2500   -999.2500 100000.0000    -10.0587
  2222.5000   -999.2500   -999.2500 100000.0000    -11.4323
  2222.7500   -999.2500   -999.2500 100000.0000    -11.8680
  2223.0000   -999.2500   -999.2500 100000.0000    -11.9760
  2223.2500   -999.2500   -999.2500 100000.0000    -11.9970
  2223.5000   -999.2500   -999.2500 100000.0000   -999.2500
  2223.7500   -999.2500   -999.2500 100000.0000   -999.2500
  2224.0000   -999.2500   -999.2500 100000.0000   -999.2500
  2224.2500   -999.2500   -999.2500 100000.0000   -999.2500
  2224.5000   -999.2500   -999.2500 100000.0000   -999.2500
  2224.7500   -999.2500   -999.2500 100000.0000   -999.2500
  2225.0000   -999.2500   -999.2500 100000.0000   -999.2500
  2225.2500   -999.2500   -999.2500 100000.0000   -999.2500
  2225.5000   -999.2500   -999.2500 100000.0000   -999.2500
  2225.7500   -999.2500   -999.2500 100000.0000   -999.2500
  2226.0000   -999.2500   -999.2500 100000.0000   -999.2500
