~Version Information
VERS.                      2.0: CWLS Log ASCII Standard - VERSION 2.0
WRAP.                       NO: One line per depth step
~Well Information Block
STRT.FT               260.0000: 
STOP.FT              2611.5000: 
STEP.FT                 0.2500: 
NULL.                -999.2500: 
COMP.          Pioneer Natural Resources: COMPANY
WELL.           Costello 44-24: WELL
FLD.           Purgatoire River: FIELD
LOC.           327' FSL & 378' FEL: LOCATION
PROV.                 Colorado: PROVINCE
CNTY.               Las Animas: COUNTRY
SRVC.                Patterson: SERVICE COMPANY
DATE.          Mon Jul 11 00:49:32 2005: LOG DATE
UWI.           05 071 08413 00: UNIQUE WELL ID
~Curve Information Block
DEPT.FT            0 000 00 00: Depth
SN.Ohm-m                      : IEL Short Normal
SP.mV                         : IEL Spontaneous Potential
DIR.Ohm-m                     : IEL Induction Resistivity
GR.GAPI                       : Gamma Ray
~Parameter Information Block
~A  Depth        SN          SP         DIR          GR     
# ...
  1499.5000   2000.0000    200.0000 100000.0000    122.7689
  1499.7500   2000.0000    200.0000 100000.0000    127.9358
  1500.0000   2000.0000    200.0000 100000.0000    136.0562
  1500.2500   2000.0000    200.0000      5.3293    141.9521
  1500.5000   2000.0000    200.0000      1.9763    150.5679
  1500.7500   2000.0000    200.0000      1.1408    155.3192
  1501.0000   2000.0000    200.0000      0.8444    160.1283
  1501.2500   2000.0000    200.0000      0.7612    161.8178
  1501.5000   2000.0000    200.0000      0.8176    162.6160
  1501.7500   2000.0000    200.0000      1.0332    162.3933
  1502.0000   2000.0000    200.0000      1.5565    161.6064
  1502.2500   2000.0000    200.0000      3.0814    161.0663
  1502.5000   2000.0000    200.0000     15.4136    160.3545
  1502.7500   2000.0000    200.0000 100000.0000    159.7873
  1503.0000   2000.0000    200.0000 100000.0000    158.3236
  1503.2500   2000.0000    200.0000 100000.0000    156.7691
  1503.5000   2000.0000    200.0000 100000.0000    153.8267
  1503.7500   2000.0000    200.0000 100000.0000    151.8459
  1504.0000   2000.0000    200.0000 100000.0000    149.3589
  1504.2500   2000.0000    200.0000 100000.0000    148.0735
  1504.5000   2000.0000    200.0000 100000.0000    146.4826
  1504.7500   2000.0000    200.0000    101.7784    145.4081
  1505.0000   2000.0000    200.0000     25.9461    143.2529
  1505.2500   2000.0000    200.0000     18.2017    141.2110
  1505.5000   2000.0000    200.0000     15.8123    137.2900
  1505.7500   2000.0000    200.0000     14.8654    134.5247
  1506.0000   2000.0000    200.0000     14.4737    131.3994
  1506.2500   2000.0000    200.0000     14.5015    130.6465
  1506.5000   2000.0000    200.0000     15.1082    131.6005
  1506.7500   2000.0000    200.0000     16.5410    133.0859
  1507.0000   2000.0000    200.0000     18.9498    135.7781
  1507.2500   2000.0000    200.0000     21.9851    137.9283
  1507.5000   2000.0000    200.0000     24.2234    142.0733
  1507.7500   2000.0000    200.0000     23.8551    145.2294
  1508.0000   2000.0000    200.0000     21.0186    149.3033
  1508.2500   2000.0000    200.0000     17.5174    150.9725
  1508.5000   2000.0000    200.0000     14.5677    152.1277
  1508.7500   2000.0000    200.0000     12.4298    152.6043
  1509.0000   2000.0000    200.0000     10.9920    153.0544
  1509.2500   2000.0000    200.0000     10.1010    152.3482
  1509.5000   2000.0000    200.0000      9.6435    148.0121
  1509.7500   2000.0000    200.0000      9.5476    142.6608
  1510.0000   2000.0000    200.0000      9.7700    132.1448
  1510.2500   2000.0000    200.0000     10.2851    124.6861
  1510.5000   2000.0000    200.0000     11.0745    114.9218
  1510.7500   2000.0000    200.0000     12.1186    110.2915
  1511.0000   2000.0000    200.0000     13.3937    106.5341
  1511.2500   2000.0000    200.0000     14.8772    105.3272
  1511.5000   2000.0000    200.0000     16.5561    102.7006
  1511.7500   2000.0000    200.0000     18.4301     98.8976
  1512.0000   2000.0000    200.0000     20.5019     89.3525
  1512.2500   2000.0000    200.0000     22.7588     81.2311
  1512.5000   2000.0000    200.0000     25.1565     68.9657
  1512.7500   2000.0000    200.0000     27.6240     62.1814
  1513.0000   2000.0000    200.0000     30.1060     55.4265
  1513.2500   2000.0000    200.0000     32.6088     53.0724
  1513.5000   2000.0000    200.0000     35.1894     51.5790
  1513.7500   2000.0000    200.0000     37.8630     51.3932
  1514.0000   2000.0000    200.0000     40.4933     52.3279
  1514.2500   2000.0000    200.0000     42.7653     54.0064
  1514.5000   2000.0000    200.0000     44.2891     58.0393
  1514.7500   2000.0000    200.0000     44.7906     61.3426
  1515.0000   2000.0000    200.0000     44.2466     66.5967
  1515.2500   2000.0000    200.0000     42.8702     70.3014
  1515.5000   2000.0000    200.0000     40.9894     76.7024
  1515.7500   2000.0000    200.0000     38.9160     81.7904
  1516.0000   2000.0000    200.0000     36.8696     90.3831
  1516.2500   2000.0000    200.0000     34.9573     96.2016
  1516.5000   2000.0000    200.0000     33.1925    104.0731
  1516.7500   2000.0000    200.0000     31.5336    108.4454
  1517.0000   2000.0000    200.0000     29.9283    113.6948
  1517.2500   2000.0000    200.0000     28.3425    116.4941
  1517.5000   2000.0000    200.0000     26.7708    119.9114
  1517.7500   2000.0000    200.0000     25.2329    121.6174
  1518.0000   2000.0000    200.0000     23.7660    122.9586
  1518.2500   2000.0000    200.0000     22.4154    123.0807
  1518.5000   2000.0000    200.0000     21.2217    123.0435
  1518.7500   2000.0000    200.0000     20.2090    123.5289
  1519.0000   2000.0000    200.0000     19.3791    125.4798
  1519.2500   2000.0000    200.0000     18.7139    127.5054
  1519.5000   2000.0000    200.0000     18.1806    131.2440
  1519.7500   2000.0000    200.0000     17.7397    133.8404
  1520.0000   2000.0000    200.0000     17.3537    137.0459
  1520.2500   2000.0000    200.0000     16.9967    138.2469
  1520.5000   2000.0000    200.0000     16.6603    138.1388
  1520.7500   2000.0000    200.0000     16.3533    136.7899
  1521.0000   2000.0000    200.0000     16.0971    133.4372
  1521.2500   2000.0000    200.0000     15.9178    130.8874
  1521.5000   2000.0000    200.0000     15.8397    127.5255
  1521.7500   2000.0000    200.0000     15.8811    125.9558
  1522.0000   2000.0000    200.0000     16.0517    125.0113
  1522.2500   2000.0000    200.0000     16.3533    125.5218
  1522.5000   2000.0000    200.0000     16.7809    127.9241
  1522.7500   2000.0000    200.0000     17.3249    130.0087
  1523.0000   2000.0000    200.0000     17.9751    132.0047
  1523.2500   2000.0000    200.0000     18.7231    131.5772
  1523.5000   2000.0000    200.0000     19.5605    127.5817
  1523.7500   2000.0000    200.0000     20.4723    122.9262
  1524.0000   2000.0000    200.0000     21.4330    114.1314
  1524.2500   2000.0000    200.0000     22.4133    107.8686
  1524.5000   2000.0000    200.0000     23.3941     98.8887
  1524.7500   2000.0000    200.0000     24.3771     93.4174
  1525.0000   2000.0000    200.0000     25.3820     85.9452
  1525.2500   2000.0000    200.0000     26.4328     81.3312
  1525.5000   2000.0000    200.0000     27.5376     74.7866
  1525.7500   2000.0000    200.0000     28.6681     70.6283
  1526.0000   2000.0000    200.0000     29.7575     64.7509
  1526.2500   2000.0000    200.0000     30.7356     61.2055
  1526.5000   2000.0000    200.0000     31.5835     56.8251
  1526.7500   2000.0000    200.0000     32.3541     54.7428
  1527.0000   2000.0000    200.0000     33.1243     52.9073
  1527.2500   2000.0000    200.0000     33.9185     52.2601
  1527.5000   2000.0000    200.0000     34.6756     51.4313
  1527.7500   2000.0000    200.0000     35.2906     50.7093
  1528.0000   2000.0000    200.0000     35.6972     49.3624
  1528.2500   2000.0000    200.0000     35.9212     48.3459
  1528.5000   2000.0000    200.0000     36.0541     46.4899
  1528.7500   2000.0000    200.0000     36.1781     44.8494
  1529.0000   2000.0000    200.0000     36.3148     41.6873
  1529.2500   2000.0000    200.0000     36.4379     39.2802
  1529.5000   2000.0000    200.0000     36.5350     35.7454
  1529.7500   2000.0000    200.0000     36.6520     33.7620
  1530.0000   2000.0000    200.0000     36.8720     31.7781
  1530.2500   2000.0000    200.0000     37.2388     31.1889
  1530.5000   2000.0000    200.0000     37.6890     31.1014
  1530.7500   2000.0000    200.0000     38.0431     31.2596
  1531.0000   2000.0000    200.0000     38.0711     31.4479
  1531.2500   2000.0000    200.0000     37.5971     31.5036
  1531.5000   2000.0000    200.0000     36.5709     31.5839
  1531.7500   2000.0000    200.0000     35.0697     31.6965
  1532.0000   2000.0000    200.0000     33.2535     31.9928
  1532.2500   2000.0000    200.0000     31.3132     32.3206
  1532.5000   2000.0000    200.0000     29.4193     33.4953
  1532.7500   2000.0000    200.0000     27.6777     35.4653
