~Version Information
 VERS.                                  2.0 : CWLS LAS VERSION
 WRAP.                                   NO : WRAPING MODE
 SWARE .                 MController 2.5.0N : SOFTWARE VERSION
~Well Information
 WELL.                           King 22-13 : WELL
 COMP.    Pioneer Natural Resources USA Inc : COMPANY
 FLD.                      Purgatoire River : FIELD
 LOC.                SE/NW Sec 13 T32S R66W : LOCATION
 DATE.                           3/30-31/05 : DATE(S) LOGGED
 SRVC.       Blanco Geological Services LLC : SERVICE COMPANY
 STAT.                                   CO : STATE
 CNTY.                           Las Animas : COUNTY
 CTRY.                                  USA : COUNTRY
 API.                       05-071-08318-00 : API NUMBER
 STRT.FT                             603.00 : START DEPTH
 STOP.FT                            2185.00 : STOP DEPTH
 STEP.FT                               1.00 : DEPTH INCREMENT
 NULL.                                -9999 : NULL VALUE
~Curve information
 DEPTH.FT                                   :
 ROP.MIN/FT                                 :
 GAS.UNITS                                  :
~ASCII Log data
# ...
      1603.0         0.50       3705.1 
      1604.0         0.52       3678.3 
      1605.0         0.20       3642.3 
      1606.0         0.20       3639.4 
      1607.0         0.20       3634.8 
      1608.0         0.23       3634.8 
      1609.0         0.23       3584.4 
      1610.0         0.27       3325.0 
      1611.0         0.30       3151.6 
      1612.0         0.33       2545.4 
      1613.0         0.33       2340.3 
      1614.0         0.23       3020.7 
      1615.0         0.27       3904.0 
      1616.0         2.65       6666.1 
      1617.0         0.73       5386.0 
      1618.0         0.68       3073.1 
      1619.0         0.53       2983.8 
      1620.0         0.40       3022.0 
      1621.0         0.40       3068.5 
      1622.0         0.47       3089.4 
      1623.0         0.50       3233.4 
      1624.0         0.50       3347.9 
      1625.0         0.42       3476.8 
      1626.0         0.37       3658.0 
      1627.0         0.33       3701.8 
      1628.0         0.30       3701.2 
      1629.0         0.30       3603.0 
      1630.0         0.30       3486.3 
      1631.0         0.30       3419.5 
      1632.0         0.40       3429.7 
      1633.0         0.30       3492.8 
      1634.0         0.30       3576.9 
      1635.0         0.33       3602.7 
      1636.0         0.32       3561.8 
      1637.0         0.30       3526.5 
      1638.0         0.33       3475.1 
      1639.0         0.40       3346.2 
      1640.0         0.40       2958.6 
      1641.0         0.23       2611.8 
      1642.0         0.23       3129.0 
      1643.0         0.20       3916.5 
      1644.0         0.20       4685.9 
      1645.0         0.37       5436.7 
      1646.0         2.62       7472.6 
      1647.0         0.40       4771.0 
      1648.0         0.23       3190.8 
      1649.0         0.30       2415.5 
      1650.0         0.35       1925.4 
      1651.0         0.17       1996.4 
      1652.0         0.23       2094.2 
      1653.0         0.23       2150.5 
      1654.0         0.23       2361.8 
      1655.0         0.37       2533.3 
      1656.0         0.30       2731.2 
      1657.0         0.30       3079.3 
      1658.0         0.27       3217.3 
      1659.0         0.27       3354.4 
      1660.0         0.23       3448.6 
      1661.0         0.23       3449.6 
      1662.0         0.23       3501.6 
      1663.0         0.28       3532.7 
      1664.0         0.23       3574.3 
      1665.0         0.20       3580.1 
      1666.0         0.20       3580.1 
      1667.0         0.27       3560.5 
      1668.0         0.23       3504.9 
      1669.0         0.27       3485.6 
      1670.0         0.23       3169.2 
      1671.0         0.27       2392.9 
      1672.0         0.27       2700.1 
      1673.0         0.23       2942.2 
      1674.0         0.30       3960.0 
      1675.0         0.33       5204.4 
      1676.0         3.77       7500.4 
      1677.0         0.33       2533.3 
      1678.0         0.27       2547.7 
      1679.0         0.30       2713.5 
      1680.0         0.30       2811.0 
      1681.0         0.27       2995.5 
      1682.0         0.30       3109.0 
      1683.0         0.33       3249.7 
      1684.0         0.37       3308.6 
      1685.0         0.27       3431.0 
      1686.0         0.35       3616.1 
      1687.0         0.33       3658.3 
      1688.0         0.37       3658.7 
      1689.0         0.27       3645.6 
      1690.0         0.40       3627.3 
      1691.0         0.30       3622.3 
      1692.0         0.23       3645.9 
      1693.0         0.27       3697.3 
      1694.0         0.43       3743.4 
      1695.0         0.30       3753.5 
      1696.0         0.23       3705.1 
      1697.0         0.28       3540.2 
      1698.0         0.33       3357.7 
      1699.0         0.23       3098.9 
      1700.0         0.27       2555.5 
      1701.0         0.27       2916.0 
      1702.0         0.23       3626.6 
      1703.0         0.23       4453.0 
      1704.0         0.27       4683.3 
      1705.0         0.37       6165.9 
      1706.0         4.18       8285.5 
      1707.0         0.52       2826.1 
      1708.0         0.47       2850.6 
      1709.0         0.37       2867.3 
      1710.0         0.30       2907.9 
      1711.0         0.27       2962.5 
      1712.0         0.33       3010.9 
      1713.0         0.27       3050.2 
      1714.0         0.30       3103.5 
      1715.0         0.27       3237.9 
      1716.0         0.30       3295.2 
      1717.0         0.35       3501.6 
      1718.0         0.30       3566.7 
      1719.0         0.23       3616.1 
      1720.0         0.27       3608.3 
      1721.0         0.27       3656.7 
      1722.0         0.23       3656.7 
      1723.0         0.27       3642.3 
      1724.0         0.30       3600.1 
      1725.0         0.27       3609.6 
      1726.0         0.27       3640.0 
      1727.0         0.27       3639.0 
      1728.0         0.23       3603.0 
      1729.0         0.25       3490.2 
      1730.0         0.23       3246.5 
      1731.0         0.33       3073.1 
      1732.0         0.30       2618.3 
      1733.0         0.23       2730.9 
      1734.0         0.27       3605.3 
      1735.0         0.23       4067.6 
      1736.0         2.38       6449.6 
      1737.0         0.43       5457.3 
      1738.0         0.53       4666.6 
      1739.0         0.40       3338.1 
      1740.0         0.33       2959.9 
      1741.0         0.33       3001.7 
      1742.0         0.27       3033.5 
      1743.0         0.27       3034.1 
      1744.0         0.28       2919.3 
      1745.0         0.30       2883.3 
      1746.0         0.23       2821.2 
      1747.0         0.27       2912.8 
      1748.0         0.27       3013.2 
      1749.0         0.30       3125.4 
      1750.0         0.53       3419.2 
      1751.0         0.27       3517.7 
      1752.0         0.33       3612.5 
      1753.0         0.33       3662.9 
      1754.0         0.23       3667.8 
      1755.0         0.42       3644.9 
      1756.0         0.30       3632.5 
      1757.0         0.20       3642.3 
      1758.0         0.23       3658.7 
      1759.0         0.23       3603.0 
      1760.0         0.23       3285.7 
      1761.0         0.23       3285.7 
      1762.0         0.37       3218.6 
      1763.0         0.30       2621.9 
      1764.0         0.30       2932.1 
      1765.0         0.43       3730.0 
      1766.0         3.35       6286.0 
      1767.0         0.48       4320.8 
      1768.0         0.40       3907.3 
      1769.0         0.40       3905.0 
      1770.0         0.27       3894.9 
      1771.0         0.27       3709.4 
      1772.0         0.47       3567.1 
      1773.0         0.50       3281.1 
      1774.0         0.43       3309.3 
      1775.0         0.45       3396.9 
      1776.0         0.33       3416.6 
      1777.0         0.37       3484.9 
      1778.0         0.33       3541.5 
      1779.0         0.40       3576.9 
      1780.0         0.33       3568.4 
      1781.0         0.27       3575.9 
      1782.0         0.30       3543.5 
      1783.0         0.27       3475.5 
      1784.0         0.30       3369.1 
      1785.0         0.27       3281.5 
      1786.0         0.32       3328.2 
      1787.0         0.47       3456.2 
      1788.0         0.40       3452.6 
      1789.0         0.30       3112.6 
      1790.0         0.27       3000.4 
      1791.0         0.30       2271.2 
      1792.0         0.33       3162.7 
      1793.0         0.27       3901.1 
      1794.0         0.43       4672.8 
      1795.0         0.55       5909.4 
      1796.0         1.70       6920.3 
      1797.0         0.87       5991.2 
      1798.0         0.50       3774.5 
      1799.0         0.42       3024.6 
      1800.0         0.37       3102.8 
      1801.0         0.40       3330.9 
      1802.0         0.40       3439.8 
