~Version Information
VERS.                      2.0: CWLS Log ASCII Standard - VERSION 2.0
WRAP.                       NO: One line per depth step
~Well Information Block
STRT.FT               -14.2500: 
STOP.FT              2177.5000: 
STEP.FT                 0.2500: 
NULL.                -999.2500: 
COMP.          Evergreen Operating Corp.: COMPANY
WELL.            Triumph 13-10: WELL
FLD.           Purgatorie River: FIELD
LOC.           1551' FSL & 522' FWL--: LOCATION
PROV.                       CO: PROVINCE
CNTY.               Las Animas: COUNTRY
SRVC.                         : SERVICE COMPANY
DATE.          Sat Aug 21 09:27:32 2004: LOG DATE
UWI.           005 071 08108 : UNIQUE WELL ID
~Curve Information Block
DEPT.FT            0 000 00 00: Depth
CCL.                          : Casing Collar Locator
TT3.usec                      : CBL 3' Travel Time
AMP3.mV                       : CBL 3' Amplitude
GR.GAPI                       : Gamma Ray
~Parameter Information Block
~A  Depth       CCL         TT3         AMP3         GR     
# ...
   119.7500      0.0000    791.3168      5.8090     75.1493
   120.0000      0.0000    791.7820      5.9069     77.4107
   120.2500      0.0000    792.0336      5.8285     80.3666
   120.5000      0.0000    791.8322      5.5677     84.1916
   120.7500      0.0000    790.2906      5.1601     88.1995
   121.0000      0.0000    786.5667      4.6937     91.3978
   121.2500      0.0000    781.4182      4.2945     93.4170
   121.5000      0.0000    777.5467      4.0751     94.8701
   121.7500      0.0000    777.6281      4.0655     96.6969
   122.0000      0.0000    781.8611      4.1931     99.0199
   122.2500      0.0000    787.8642      4.3556    100.8809
   122.5000      0.0000    792.8945      4.5122    101.3760
   122.7500      0.0000    795.6655      4.6733    100.7656
   123.0000      0.0000    796.2245      4.8156    100.0544
   123.2500      0.0000    794.9739      4.8619     99.5492
   123.5000      0.0000    792.3252      4.7547     98.2510
   123.7500      0.0000    788.9479      4.5109     94.8659
   124.0000      0.0000    785.7086      4.1952     89.3198
   124.2500      0.0000    783.2356      3.8702     83.3371
   124.5000      0.0000    781.8926      3.5881     79.4309
   124.7500      0.0000    782.0105      3.4078     78.8256
   125.0000      0.0000    783.3388      3.3957     80.2833
   125.2500      0.0000    784.2759      3.5968     81.4469
   125.5000      0.0000    782.6902      3.9931     81.3481
   125.7500      0.0000    778.1426      4.4880     81.0394
   126.0000      0.0000    772.9941      4.9435     81.9603
   126.2500      0.0000    770.8137      5.2533     84.5881
   126.5000      0.0000    773.4078      5.3891     88.5886
   126.7500      0.0000    779.3022      5.3864     93.1999
   127.0000      0.0000    784.8788      5.3001     97.0473
   127.2500      0.0000    786.8698      5.1831     98.2807
   127.5000      0.0000    784.2579      5.0977     95.8887
   127.7500      0.0000    778.6006      5.1155     91.1757
   128.0000      0.0000    772.7519      5.2667     87.2112
   128.2500      0.0000    768.8427      5.4774     86.1477
   128.5000      0.0000    767.2825      5.5900     87.3895
   128.7500      0.0000    767.5443      5.4849     88.6961
   129.0000      0.0000    769.3586      5.1790     88.6346
   129.2500      0.0000    772.7659      4.7941     87.7688
   129.5000      0.0000    777.0797      4.4560     87.9073
   129.7500      2.0000    780.2592      4.2336     90.4712
   130.0000      2.0000    780.0752      4.1388     95.3734
   130.2500      0.0000    776.2824      4.1446    101.1251
   130.5000      0.0000    771.1353      4.2111    105.8270
   130.7500      0.0000    767.1882      4.3168    108.2671
   131.0000      0.0000    764.9518      4.4554    108.5937
   131.2500      0.0000    763.2922      4.5828    108.1464
   131.5000      0.0000    761.3954      4.5899    108.3009
   131.7500      0.0000    759.2640      4.3838    109.1441
   132.0000      0.0000    756.9461      4.0036    109.4282
   132.2500      0.0000    754.7847      3.6177    107.9421
   132.5000      0.0000    754.3339      3.3990    104.6538
   132.7500      0.0000    757.6783      3.4230    100.4083
   133.0000      0.0000    765.3135      3.6653     95.8915
   133.2500      0.0000    775.1690      4.0408     91.3354
   133.5000      0.0000    784.0782      4.4304     87.2594
   133.7500      0.0000    790.1148      4.7045     84.7654
   134.0000      0.0000    793.4324      4.7655     84.3084
   134.2500      0.0000    795.2179      4.5953     84.4786
   134.5000      0.0000    796.3751      4.2768     82.8681
   134.7500      0.0000    797.1815      3.9659     78.3232
   135.0000      0.0000    797.6576      3.8150     72.1124
   135.2500      0.0000    797.8436      3.8894     67.0275
   135.5000      0.0000    797.7771      4.1425     65.4509
   135.7500      0.0000    797.3913      4.4755     67.8770
   136.0000      0.0000    796.5518      4.8254     72.8693
   136.2500      0.0000    795.2960      5.1966     78.3757
   136.5000      0.0000    794.0656      5.6114     83.2359
   136.7500      0.0000    793.5417      6.0454     87.6432
   137.0000      0.0000    794.0656      6.4240     92.3349
   137.2500      0.0000    795.2960      6.6806     97.3760
   137.5000      0.0000    796.5526      6.8052    101.8619
   137.7500      0.0000    797.3967      6.8329    104.8847
   138.0000      0.0000    797.8041      6.7923    106.3226
   138.2500      0.0000    797.9505      6.6797    106.2331
   138.5000      0.0000    797.9902      6.4898    104.1153
   138.7500      0.0000    797.9985      6.2594     99.7762
   139.0000      0.0000    797.9985      6.0611     94.5965
   139.2500      0.0000    797.9902      5.9439     90.7857
   139.5000      0.0000    797.9506      5.8833     89.3043
   139.7500      0.0000    797.8044      5.8002     89.2498
   140.0000      0.0000    797.3975      5.6302     89.2676
   140.2500      0.0000    796.5529      5.3795     88.9721
   140.5000      0.0000    795.2886      5.1236     88.8733
   140.7500      0.0000    794.0154      4.9609     89.2849
   141.0000      0.0000    793.3285      4.9574     89.6685
   141.2500      0.0000    793.3956      5.1168     89.1801
   141.5000      0.0000    793.6798      5.3892     87.7564
   141.7500      0.0000    793.5284      5.7049     86.4443
   142.0000      0.0000    792.9944      6.0058     86.5533
   142.2500      0.0000    792.8151      6.2613     88.5475
   142.5000      0.0000    793.5475      6.4713     91.8871
   142.7500      0.0000    794.9631      6.6605     95.8305
   143.0000      0.0000    796.3704      6.8570    100.0614
   143.2500      0.0000    797.2784      7.0570    104.4153
   143.5000      0.0000    797.5804      7.2061    108.3299
   143.7500      0.0000    797.2531      7.2247    110.8872
   144.0000      0.0000    796.0805      7.0637    111.1337
   144.2500      0.0000    793.7522      6.7532    108.2563
   144.5000      0.0000    790.3204      6.4099    102.1886
   144.7500      0.0000    786.5767      6.1917     94.5635
   145.0000      0.0000    783.7784      6.2169     88.3794
   145.2500      0.0000    782.7997      6.4984     85.8035
   145.5000      0.0000    783.5342      6.9427     86.3095
   145.7500      0.0000    785.0900      7.4083     87.4362
   146.0000      0.0000    786.4299      7.7731     87.2838
   146.2500      0.0000    786.9696      7.9660     85.9205
   146.5000      0.0000    786.9236      7.9612     84.5756
   146.7500      0.0000    787.1306      7.7659     83.9826
   147.0000      0.0000    788.3185      7.4150     83.7665
   147.2500      0.0000    790.3918      6.9641     83.3422
   147.5000      0.0000    792.4589      6.4792     83.0493
   147.7500      0.0000    793.6258      6.0337     83.9375
   148.0000      0.0000    793.7289      5.7119     86.4855
   148.2500      0.0000    793.2450      5.5985     90.0991
   148.5000      0.0000    792.6293      5.7469     93.9224
   148.7500      0.0000    791.9501      6.1387     97.5180
   149.0000      0.0000    791.1060      6.6682    100.5531
   149.2500      0.0000    790.1093      7.1801    102.4095
   149.5000      0.0000    789.1118      7.5492    102.5722
   149.7500      0.0000    788.3914      7.7447    101.2712
   150.0000      0.0000    788.3352      7.8185     99.5319
   150.2500      0.0000    789.1386      7.8348     98.5452
   150.5000      0.0000    790.3845      7.8112     98.8877
   150.7500      0.0000    791.1931      7.7202    100.0978
   151.0000      0.0000    790.9999      7.5282    100.9468
   151.2500      0.0000    790.0672      7.2332    100.4034
   151.5000      0.0000    789.2040      6.8878     98.5893
   151.7500      0.0000    789.1791      6.6015     96.7822
   152.0000      0.0000    790.3246      6.4973     96.4095
   152.2500      0.0000    792.3733      6.6235     97.9064
   152.5000      0.0000    794.6067      6.8933    100.3410
   152.7500      0.0000    796.3462      7.1233    102.1576
   153.0000      0.0000    797.3555      7.1497    102.3490
