~Version Information
VERS.                      2.0: CWLS Log ASCII Standard - VERSION 2.0
WRAP.                       NO: One line per depth step
~Well Information Block
STRT.FT               765.4000: 
STOP.FT              2581.2000: 
STEP.FT                 0.1000: 
NULL.                -999.2500: 
COMP.          Petrogulf Corporation: COMPANY
WELL.            Montoya 7-12V: WELL
FLD.           Purgatorie River: FIELD
LOC.           728' FWL & 1764' FNL: LOCATION
CNTY.               Las Animas: COUNTY
SRVC.                         : SERVICE COMPANY
DATE.          Fri Feb 20 09:23:58 2004: LOG DATE
UWI.           05-071-07887-00: UNIQUE WELL ID
STAT.                 Colorado: STATE
~Curve Information Block
DEPT.FT            0 000 00 00: Depth
DCAL.in                       : CDL Caliper
RHOB.g/cc                     : CDL Bulk Density
RHOC.g/cc                     : CDL Density Correction
DPOR.pu                       : CDL Density Porosity
GR.GAPI                       : Gamma Ray
NPOR.pu                       : Neutron Porosity
~Parameter Information Block
~A  Depth       DCAL        RHOB        RHOC        DPOR         GR         NPOR    
# ...
  2330.2000      8.0039      2.5625      0.0241      5.3001     37.5320     16.5558
  2330.3000      8.0051      2.5715      0.0455      4.7576     39.4588     18.0607
  2330.4000      8.0051      2.5942      0.0441      3.3821     37.9460     19.0564
  2330.5000      8.0088      2.6448      0.0485      0.3147     34.6887     18.6856
  2330.6000      8.0088      2.6958      0.1291     -2.7740     30.3419     17.6053
  2330.7000      8.0088      2.7032      0.1018     -3.2242     28.5768     16.9287
  2330.8000      8.0145      2.6693      0.0638     -1.1715     33.2526     16.6213
  2330.9000      8.0145      2.6362      0.0191      0.8365     41.3999     16.1162
  2331.0000      8.0070      2.6215      0.0550      1.7256     45.1736     15.7703
  2331.1000      8.0070      2.6156      0.0759      2.0828     43.0170     16.0101
  2331.2000      8.0070      2.6199      0.0395      1.8214     40.8835     16.3567
  2331.3000      8.0052      2.6252      0.0930      1.5030     40.5139     16.6839
  2331.4000      8.0052      2.6088      0.0177      2.4982     40.5009     17.3668
  2331.5000      8.0064      2.5835     -0.0043      4.0276     41.4959     18.1633
  2331.6000      8.0064      2.5714     -0.0347      4.7661     40.5493     18.5384
  2331.7000      8.0064      2.5692     -0.0014      4.8955     35.1903     18.1840
  2331.8000      8.0030      2.5786     -0.0112      4.3282     30.6604     17.6483
  2331.9000      8.0030      2.6066      0.0424      2.6322     30.6845     17.6388
  2332.0000      8.0027      2.6285      0.0584      1.3057     30.2513     17.7504
  2332.1000      8.0027      2.6084      0.0541      2.5241     29.5506     17.6162
  2332.2000      8.0027      2.5644     -0.0324      5.1856     35.9450     17.6431
  2332.3000      8.0047      2.5499     -0.0684      6.0656     45.5960     18.0826
  2332.4000      8.0047      2.5788     -0.0104      4.3160     48.8179     18.7760
  2332.5000      8.0054      2.6167      0.1058      2.0160     46.2234     19.6063
  2332.6000      8.0054      2.6373      0.0447      0.7719     41.1888     20.4398
  2332.7000      8.0054      2.6436      0.0844      0.3864     38.5284     21.2237
  2332.8000      8.0017      2.6228      0.1158      1.6461     43.5301     22.0028
  2332.9000      8.0017      2.5664      0.0096      5.0649     51.6250     22.3827
  2333.0000      8.0005      2.5165     -0.0361      8.0913     55.7260     22.1209
  2333.1000      8.0005      2.5043      0.0084      8.8320     54.6144     21.8169
  2333.2000      8.0005      2.5098      0.0348      8.4943     48.6141     22.0638
  2333.3000      8.0017      2.5098      0.0601      8.4993     41.2308     22.6778
  2333.4000      8.0017      2.5052      0.0032      8.7787     38.8017     23.0812
  2333.5000      7.9989      2.4941      0.0918      9.4482     40.9473     22.9890
  2333.6000      7.9989      2.4678     -0.0233     11.0434     41.4141     22.7374
  2333.7000      7.9989      2.4412     -0.0061     12.6575     40.6413     22.9472
  2333.8000      8.0034      2.4362      0.0246     12.9572     40.8044     23.6568
  2333.9000      8.0034      2.4536      0.0105     11.9016     42.1474     24.3092
  2334.0000      8.0068      2.4759      0.0506     10.5513     48.7839     24.6307
  2334.1000      8.0068      2.4790      0.0542     10.3659     57.7422     25.0528
  2334.2000      8.0068      2.4508      0.0471     12.0704     61.1308     25.6057
  2334.3000      8.0094      2.4113     -0.0443     14.4656     59.0596     25.9253
  2334.4000      8.0094      2.3956     -0.0283     15.4199     53.5546     26.2600
  2334.5000      8.0268      2.4107      0.0088     14.5011     49.0047     26.7225
  2334.6000      8.0268      2.4370      0.0365     12.9061     49.9966     27.2616
  2334.7000      8.0268      2.4513      0.0471     12.0406     51.7619     28.0165
  2334.8000      8.0371      2.4370      0.0531     12.9102     51.3639     28.6633
  2334.9000      8.0371      2.3968      0.0581     15.3475     53.4172     28.7588
  2335.0000      8.0492      2.3510      0.0336     18.1204     57.4603     28.4732
  2335.1000      8.0492      2.3167      0.0110     20.1979     59.5052     28.4542
  2335.2000      8.0492      2.3013     -0.0012     21.1321     61.4829     28.8202
  2335.3000      8.0457      2.3087      0.0062     20.6829     65.2155     28.7354
  2335.4000      8.0457      2.3440     -0.0493     18.5451     65.8209     27.9145
  2335.5000      8.0479      2.3994      0.0658     15.1868     63.2621     27.2993
  2335.6000      8.0479      2.4472      0.0568     12.2892     66.6906     27.3184
  2335.7000      8.0479      2.4671      0.1322     11.0849     76.9056     27.3088
  2335.8000      8.0490      2.4652      0.0837     11.2026     81.5964     26.8382
  2335.9000      8.0490      2.4612      0.0776     11.4434     75.1343     26.0862
  2336.0000      8.0405      2.4635      0.0405     11.3003     62.2958     25.1899
  2336.1000      8.0405      2.4765     -0.0365     10.5127     52.4001     23.8821
  2336.2000      8.0405      2.5101     -0.0316      8.4816     50.8127     22.1886
  2336.3000      8.0356      2.5575      0.0361      5.6087     51.2227     20.9470
  2336.4000      8.0356      2.5894      0.0499      3.6735     46.4529     20.5200
  2336.5000      8.0390      2.5874     -0.0096      3.7957     41.7043     20.2021
  2336.6000      8.0390      2.5720     -0.0305      4.7260     43.8226     19.5141
  2336.7000      8.0390      2.5708      0.0245      4.7972     49.5785     18.9032
  2336.8000      8.0740      2.5730      0.0585      4.6662     53.2938     18.6750
  2336.9000      8.0740      2.5608     -0.0107      5.4071     53.8940     18.4530
  2337.0000      8.0723      2.5482     -0.0402      6.1698     53.9877     18.1798
  2337.1000      8.0723      2.5559     -0.0034      5.7057     55.2338     18.5026
  2337.2000      8.0723      2.5820      0.0521      4.1236     53.6505     19.3935
  2337.3000      8.0605      2.6122      0.0519      2.2938     48.1334     19.8504
  2337.4000      8.0605      2.6348      0.0637      0.9183     42.9416     19.7041
  2337.5000      8.0299      2.6416      0.0957      0.5118     39.7879     19.8497
  2337.6000      8.0299      2.6364      0.0315      0.8267     39.1312     20.5428
  2337.7000      8.0299      2.6281      0.0484      1.3284     42.7579     20.9645
  2337.8000      8.0105      2.6115      0.0245      2.3321     49.4172     20.3728
  2337.9000      8.0105      2.5879     -0.0109      3.7627     55.8293     19.2725
  2338.0000      8.0009      2.5602      0.0557      5.4404     61.4320     18.4430
  2338.1000      8.0009      2.5233     -0.0401      7.6816     65.2993     18.0811
  2338.2000      8.0009      2.4900     -0.0151      9.6940     66.5474     18.2899
  2338.3000      7.9986      2.4847     -0.0759     10.0186     66.9533     18.7838
  2338.4000      7.9986      2.5139     -0.0300      8.2465     66.1954     19.2074
  2338.5000      8.0017      2.5525      0.0765      5.9115     61.0214     19.5684
  2338.6000      8.0017      2.5742      0.0558      4.5913     52.9969     19.8316
  2338.7000      8.0017      2.5882      0.0364      3.7449     50.2167     20.2992
  2338.8000      7.9998      2.5996      0.0889      3.0533     53.9232     21.2536
  2338.9000      7.9998      2.5957      0.0026      3.2927     54.6837     21.9980
  2339.0000      7.9944      2.5888      0.0025      3.7107     48.8213     21.7374
  2339.1000      7.9944      2.6008      0.0236      2.9807     42.8864     20.9044
  2339.2000      7.9944      2.6196      0.0754      1.8446     41.8593     20.5308
  2339.3000      7.9902      2.6142      0.0323      2.1689     45.6104     20.7236
  2339.4000      7.9902      2.5837     -0.0040      4.0155     50.7916     20.9700
  2339.5000      7.9901      2.5548      0.0659      5.7692     52.9966     20.6364
  2339.6000      7.9901      2.5480     -0.0012      6.1829     51.3138     19.7956
  2339.7000      7.9901      2.5638      0.0559      5.2244     49.8472     19.6774
