~Version Information
VERS.                      2.0: CWLS Log ASCII Standard - VERSION 2.0
WRAP.                       NO: One line per depth step
~Well Information Block
STRT.FT                -8.5000: 
STOP.FT              2286.0000: 
STEP.FT                 0.2500: 
NULL.                -999.2500: 
COMP.          Pioneer Natural Resources: COMPANY
WELL.             Culver 14-12: WELL
FLD.           Purgatorie River: FIELD
LOC.           913' FSL & 1140' FWL--: LOCATION
PROV.                       CO: PROVINCE
CNTY.               Las Animas: COUNTRY
SRVC.          Patterson Wireline: SERVICE COMPANY
DATE.          Wed Jun 15 13:05:36 2005: LOG DATE
UWI.           05 071 08386 00: UNIQUE WELL ID
~Curve Information Block
DEPT.FT            0 000 00 00: Depth
CCL.                          : Casing Collar Locator
TT3.usec                      : CBL 3' Travel Time
AMP3.mV                       : CBL 3' Amplitude
GR.GAPI                       : Gamma Ray
~Parameter Information Block
~A  Depth       CCL         TT3         AMP3         GR     
# ...
  1499.0000      0.0000    703.6922      2.3334     70.1603
  1499.2500      0.0000    709.0847      2.3128     67.6222
  1499.5000      0.0000    714.9289      2.3188     66.0208
  1499.7500      0.0000    719.8251      2.3560     66.1568
  1500.0000      0.0000    722.4542      2.4173     66.9726
  1500.2500      0.0000    722.4142      2.5032     66.8397
  1500.5000      0.0000    720.8136      2.6321     65.2686
  1500.7500      0.0000    719.7258      2.8176     63.0058
  1501.0000      0.0000    721.1595      3.0383     61.1609
  1501.2500      0.0000    726.6697      3.2403     61.0068
  1501.5000      0.0000    737.4702      3.3656     64.0917
  1501.7500      0.0000    754.0687      3.3809     71.5055
  1502.0000      0.0000    775.1212      3.2946     82.8647
  1502.2500      0.0000    796.7677      3.1542     96.2820
  1502.5000      0.0000    814.3084      3.0272    109.1803
  1502.7500      0.0000    825.2556      2.9736    119.0667
  1503.0000      0.0000    830.0366      3.0150    124.1617
  1503.2500      0.0000    828.7377      3.1220    124.2677
  1503.5000      0.0000    817.9029      3.2375    121.4430
  1503.7500      0.0000    792.4121      3.3133    119.1256
  1504.0000      0.0000    751.9193      3.3275    119.5010
  1504.2500      0.0000    705.0490      3.2841    121.5551
  1504.5000      0.0000    665.6033      3.2142    122.1309
  1504.7500      0.0000    643.6837      3.1692    118.7091
  1505.0000      0.0000    640.0337      3.1880    110.9580
  1505.2500      0.0000    647.7214      3.2673    100.3222
  1505.5000      0.0000    658.1542      3.3704     89.0123
  1505.7500      0.0000    666.0402      3.4569     79.1927
  1506.0000      0.0000    670.3547      3.4995     72.4470
  1506.2500      0.0000    672.3889      3.4882     69.7231
  1506.5000      0.0000    673.7069      3.4280     71.5183
  1506.7500      0.0000    675.3632      3.3310     77.6526
  1507.0000      0.0000    677.6949      3.2062     86.8870
  1507.2500      0.0000    679.5327      3.0565     97.2419
  1507.5000      0.0000    677.5789      2.8933    106.7927
  1507.7500      0.0000    668.3851      2.7530    114.0625
  1508.0000      0.0000    652.9610      2.6832    117.9437
  1508.2500      0.0000    638.4796      2.6967    117.9709
  1508.5000      0.0000    632.3872      2.7466    114.9594
  1508.7500      0.0000    634.6903      2.7621    110.8556
  1509.0000      0.0000    638.8250      2.7073    107.5738
  1509.2500      0.0000    640.1003      2.6032    106.1712
  1509.5000      0.0000    640.1956      2.5005    106.9570
  1509.7500      0.0000    643.1810      2.4411    109.7776
  1510.0000      0.0000    650.6923      2.4383    114.0800
  1510.2500      0.0000    662.3135      2.4762    118.9726
  1510.5000      0.0000    677.8738      2.5307    123.3042
  1510.7500      0.0000    697.2780      2.5987    125.7953
  1511.0000      0.0000    718.8195      2.6981    125.5757
  1511.2500      0.0000    738.7887      2.8334    122.9442
  1511.5000      0.0000    752.8486      2.9774    119.3134
  1511.7500      0.0000    758.0746      3.0878    115.9949
  1512.0000      0.0000    754.0228      3.1267    113.1794
  1512.2500      0.0000    742.6260      3.0726    110.4175
  1512.5000     -2.0000    728.2014      2.9369    108.0123
  1512.7500      0.0000    716.6686      2.7735    107.6819
  1513.0000      0.0000    711.6617      2.6629    111.5065
  1513.2500      0.0000    710.8899      2.6679    119.7341
  1513.5000      0.0000    708.8760      2.7934    129.5102
  1513.7500      0.0000    703.7625      2.9795    136.4533
  1514.0000      0.0000    699.7113      3.1232    138.0722
  1514.2500      0.0000    703.1479      3.1341    135.5272
  1514.5000      0.0000    716.8819      3.0018    132.0574
  1514.7500      0.0000    735.6679      2.8132    130.1222
  1515.0000      0.0000    748.2922      2.6925    130.0070
  1515.2500      0.0000    747.7092      2.7144    130.3783
  1515.5000      0.0000    738.8839      2.8622    129.7064
  1515.7500      0.0000    734.4040      3.0506    127.4022
  1516.0000      0.0000    743.1607      3.1890    124.1892
  1516.2500      0.0000    764.2008      3.2327    121.7850
  1516.5000      0.0000    788.9602      3.1896    122.1321
  1516.7500      0.0000    807.1055      3.1008    126.2292
  1517.0000      0.0000    811.6003      3.0222    133.1534
  1517.2500      0.0000    801.2554      2.9991    140.4452
  1517.5000      0.0000    780.5090      3.0437    145.9725
  1517.7500      0.0000    756.9648      3.1348    149.3985
  1518.0000      0.0000    737.6712      3.2339    151.5127
  1518.2500      0.0000    726.3416      3.3058    152.4981
  1518.5000      0.0000    723.0309      3.3325    151.6308
  1518.7500      0.0000    725.3382      3.3074    148.6783
  1519.0000      0.0000    729.5002      3.2221    144.5929
  1519.2500      0.0000    731.7147      3.0782    140.2219
  1519.5000      0.0000    730.2532      2.9083    135.0932
  1519.7500      0.0000    726.5734      2.7684    128.3817
  1520.0000      0.0000    723.9616      2.7112    120.7079
  1520.2500      0.0000    725.2592      2.7658    113.9902
  1520.5000      0.0000    731.8284      2.9210    109.6760
  1520.7500      0.0000    743.6539      3.1214    108.1213
  1521.0000      0.0000    759.4247      3.2867    109.5916
  1521.2500      0.0000    776.2105      3.3468    114.4184
  1521.5000      0.0000    789.3273      3.2747    121.6702
  1521.7500      0.0000    793.6926      3.0978    128.7243
  1522.0000      0.0000    786.7840      2.8802    133.0358
  1522.2500      0.0000    770.7789      2.6947    134.1190
  1522.5000      0.0000    751.4678      2.5984    133.6227
  1522.7500      0.0000    734.7341      2.6072    133.9327
  1523.0000      0.0000    723.5943      2.6863    136.6329
  1523.2500      0.0000    717.8083      2.7723    141.4356
  1523.5000      0.0000    715.5034      2.8096    146.2845
  1523.7500      0.0000    714.8736      2.7807    149.0325
  1524.0000      0.0000    714.8641      2.7214    149.1844
  1524.2500      0.0000    715.0302      2.6917    147.6760
  1524.5000      0.0000    715.2231      2.7226    145.2896
  1524.7500      0.0000    715.4016      2.8039    142.1346
  1525.0000      0.0000    715.5964      2.9126    138.5420
  1525.2500      0.0000    715.9663      3.0249    135.3928
  1525.5000      0.0000    716.8516      3.1169    133.2048
  1525.7500      0.0000    718.7195      3.1878    131.5356
  1526.0000      0.0000    721.8905      3.2669    129.6488
  1526.2500      0.0000    726.2628      3.3706    127.5242
  1526.5000      0.0000    731.4731      3.4687    126.0218
  1526.7500      0.0000    737.1829      3.5069    126.0918
  1527.0000      0.0000    742.6838      3.4511    127.9241
  1527.2500      0.0000    746.3629      3.3144    130.8154
  1527.5000      0.0000    746.4899      3.1529    133.6078
  1527.7500      0.0000    742.7450      3.0199    135.2518
  1528.0000      0.0000    736.4728      2.9154    135.5241
  1528.2500      0.0000    729.6013      2.7992    135.5397
  1528.5000      0.0000    723.6878      2.6571    136.9295
  1528.7500      0.0000    719.5558      2.5324    139.9179
  1529.0000      0.0000    717.2543      2.4898    142.6502
  1529.2500      0.0000    716.3127      2.5622    142.9300
  1529.5000      0.0000    716.1869      2.7287    140.2878
  1529.7500      0.0000    716.5499      2.9271    135.9023
  1530.0000      0.0000    717.3850      3.0875    131.0156
  1530.2500      0.0000    719.1252      3.1618    126.1400
  1530.5000      0.0000    722.9001      3.1382    121.5081
  1530.7500      0.0000    730.3621      3.0513    117.5011
  1531.0000      0.0000    742.2114      2.9721    114.4341
  1531.2500      0.0000    755.8797      2.9636    112.3511
  1531.5000      0.0000    765.3451      3.0402    111.1215
  1531.7500      0.0000    765.2771      3.1673    110.3207
  1532.0000      0.0000    756.1544      3.2912    108.9527
  1532.2500      0.0000    744.4932      3.3649    105.9767
