~Version Information
VERS.                      2.0: CWLS Log ASCII Standard - VERSION 2.0
WRAP.                       NO: One line per depth step
~Well Information Block
STRT.FT                -2.7500: 
STOP.FT              2139.2500: 
STEP.FT                 0.2500: 
NULL.                -999.2500: 
COMP.          Petrogulf Corporation: COMPANY
WELL.             State 16-34V: WELL
FLD.           Purgatorie River: FIELD
LOC.           1146' FSL & 1393' FEL: LOCATION
PROV.                 Colorado: PROVINCE
CNTY.               Las Animas: COUNTRY
SRVC.          Patterson Wireline: SERVICE COMPANY
DATE.          Wed Jun 25 13:16:42 2003: LOG DATE
UWI.           05 071 07724 00: UNIQUE WELL ID
~Curve Information Block
DEPT.FT            0 000 00 00: Depth
CCL.                          : Casing Collar Locator
TT3.usec                      : CBL 3' Travel Time
AMP3.mV                       : CBL 3' Amplitude
GR.GAPI                       : Gamma Ray
~Parameter Information Block
~A  Depth       CCL         TT3         AMP3         GR     
# ...
  1973.7500      0.0000    696.9563      1.6361     84.8409
  1974.0000      0.0000    694.6192      1.7685     80.6577
  1974.2500      0.0000    689.0898      1.9594     76.4589
  1974.5000      0.0000    684.4858      2.1166     73.0771
  1974.7500      0.0000    686.3168      2.2180     71.0376
  1975.0000      0.0000    696.5539      2.2979     70.1413
  1975.2500      0.0000    712.3721      2.3666     69.4571
  1975.5000      0.0000    728.6895      2.3873     67.9028
  1975.7500      0.0000    740.7532      2.3482     65.0636
  1976.0000      0.0000    745.3314      2.3185     61.4850
  1976.2500      0.0000    741.2009      2.3867     58.2468
  1976.5000      0.0000    728.9915      2.5552     56.4049
  1976.7500      0.0000    710.6924      2.7339     56.6974
  1977.0000      0.0000    689.7376      2.8500     59.2544
  1977.2500      0.0000    670.9608      2.9327     63.2718
  1977.5000      0.0000    659.1392      3.0667     67.1324
  1977.7500      0.0000    656.8411      3.2834     69.1579
  1978.0000      0.0000    663.2655      3.5361     68.4998
  1978.2500      0.0000    674.6885      3.7822     65.6128
  1978.5000      0.0000    686.2389      4.0375     61.9799
  1978.7500      0.0000    694.2429      4.3092     59.1209
  1979.0000      0.0000    698.0521      4.5187     57.6439
  1979.2500      0.0000    699.9439      4.5575     57.2896
  1979.5000      0.0000    702.5413      4.4017     57.7048
  1979.7500      0.0000    705.5991      4.1118     58.6945
  1980.0000      0.0000    705.7781      3.7383     59.7493
  1980.2500      0.0000    700.2804      3.2999     59.9247
  1980.5000      0.0000    690.3251      2.8433     58.5876
  1980.7500      0.0000    680.7054      2.4498     56.1476
  1981.0000      0.0000    676.6008      2.1713     53.7947
  1981.2500      0.0000    680.4436      2.0037     52.5722
  1981.5000      0.0000    690.0950      1.9165     52.8704
  1981.7500      0.0000    699.3355      1.8737     54.7539
  1982.0000      0.0000    701.6910      1.8385     58.3552
  1982.2500      0.0000    695.7044      1.7862     63.4637
  1982.5000      0.0000    686.6158      1.7116     68.7750
  1982.7500      0.0000    681.8737      1.6193     72.2313
  1983.0000      0.0000    684.7338      1.5203     72.5326
  1983.2500      0.0000    692.5412      1.4290     70.1416
  1983.5000      0.0000    700.8040      1.3573     66.9694
  1983.7500      0.0000    707.3557      1.3184     65.5013
  1984.0000      0.0000    711.9608      1.3192     67.7647
  1984.2500      0.0000    713.6929      1.3358     74.1329
  1984.5000      0.0000    710.9717      1.3286     83.0565
  1984.7500      0.0000    704.0743      1.2989     92.3834
  1985.0000      0.0000    695.9015      1.3007    100.8419
  1985.2500      0.0000    689.6627      1.3865    108.1287
  1985.5000      0.0000    686.3738      1.5636    114.1702
  1985.7500      0.0000    684.3775      1.7902    118.8878
  1986.0000      0.0000    679.7661      1.9944    122.4246
  1986.2500      0.0000    666.6924      2.1233    124.9149
  1986.5000      0.0000    639.3186      2.1886    125.8517
  1986.7500      0.0000    596.9188      2.2396    124.2699
  1987.0000      0.0000    548.4192      2.2922    120.0369
  1987.2500      0.0000    510.2560      2.3109    114.6295
  1987.5000      0.0000    497.7163      2.2473    110.1322
  1987.7500      0.0000    516.2834      2.0867    107.5184
  1988.0000      0.0000    558.2027      1.8759    106.1674
  1988.2500      0.0000    606.0856      1.7072    104.8992
  1988.5000      0.0000    642.8930      1.6499    103.1979
  1988.7500      0.0000    661.8174      1.6990    101.4009
  1989.0000      0.0000    667.4057      1.8002     99.9126
  1989.2500      0.0000    668.2400      1.9019     98.5802
  1989.5000      0.0000    669.8151      1.9784     96.9957
  1989.7500      0.0000    673.1666      2.0218     95.0778
  1990.0000      0.0000    677.3328      2.0293     93.0160
  1990.2500      0.0000    681.8350      2.0011     90.8519
  1990.5000      0.0000    687.1240      1.9422     88.4212
  1990.7500      0.0000    693.0137      1.8554     85.6465
  1991.0000      0.0000    697.2445      1.7421     82.7056
  1991.2500      0.0000    696.8041      1.6238     79.8826
  1991.5000      0.0000    690.9864      1.5441     77.3152
  1991.7500      0.0000    682.0983      1.5298     74.9148
  1992.0000      0.0000    673.0055      1.5547     72.4845
  1992.2500      0.0000    665.1592      1.5628     69.9185
  1992.5000      0.0000    659.0034      1.5271     67.4846
  1992.7500      0.0000    654.7865      1.4734     65.9391
  1993.0000      0.0000    652.4482      1.4450     66.1057
  1993.2500      0.0000    651.4540      1.4576     68.2473
  1993.5000      0.0000    651.1214      1.4968     71.8469
  1993.7500      0.0000    650.9883      1.5429     75.8284
  1994.0000      0.0000    650.8564      1.5841     78.9301
  1994.2500      0.0000    650.6796      1.6140     80.1300
  1994.5000      0.0000    650.4565      1.6309     78.9217
  1994.7500      0.0000    650.1840      1.6299     75.3228
  1995.0000      0.0000    649.8526      1.5990     69.9186
  1995.2500      0.0000    649.4598      1.5326     63.9474
  1995.5000      0.0000    649.0375      1.4381     58.8627
  1995.7500      0.0000    648.6603      1.3289     55.4211
  1996.0000      0.0000    648.4209      1.2258     53.2540
  1996.2500      0.0000    648.3958      1.1663     51.4908
  1996.5000      0.0000    648.6218      1.1782     49.8315
  1996.7500      0.0000    649.0490      1.2310     48.8676
  1997.0000      0.0000    649.4581      1.2468     49.2763
  1997.2500      0.0000    649.4130      1.1787     50.9442
  1997.5000      0.0000    648.4274      1.0677     53.1242
  1997.7500      0.0000    646.4429      1.0011     55.2189
  1998.0000      0.0000    644.2595      1.0297     56.9961
  1998.2500      0.0000    643.1985      1.1435     58.1631
  1998.5000      0.0000    644.0013      1.3073     58.2582
  1998.7500      0.0000    646.1525      1.4788     57.0868
  1999.0000      0.0000    648.4465      1.5999     54.8958
  1999.2500      0.0000    650.0152      1.6220     52.1091
  1999.5000      0.0000    650.7160      1.5548     49.3293
  1999.7500      0.0000    650.8679      1.4675     47.5551
  2000.0000      0.0000    650.8876      1.4331     47.7350
  2000.2500      0.0000    651.0640      1.4858     49.8158
  2000.5000      0.0000    651.4578      1.6194     52.4934
  2000.7500      0.0000    651.9281      1.7922     54.1307
  2001.0000      0.0000    652.2811      1.9318     53.9423
  2001.2500      0.0000    652.4147      1.9644     52.4237
  2001.5000      0.0000    652.3118      1.8705     50.8477
  2001.7500      0.0000    651.9257      1.7052     50.2717
  2002.0000      0.0000    651.4057      1.5589     50.8128
  2002.2500      0.0000    651.8695      1.4966     51.8569
  2002.5000      0.0000    655.7570      1.5286     52.9175
  2002.7500      0.0000    665.3450      1.6179     54.0752
  2003.0000      0.0000    679.9695      1.7023     55.6948
  2003.2500      0.0000    695.1060      1.7322     58.0559
  2003.5000      0.0000    705.3246      1.7057     61.1328
  2003.7500      0.0000    708.6985      1.6618     64.3543
  2004.0000      0.0000    708.0596      1.6286     66.6404
  2004.2500      0.0000    707.6560      1.5979     67.0100
  2004.5000      0.0000    708.6324      1.5556     65.2194
  2004.7500      0.0000    708.0254      1.5058     61.8339
  2005.0000      0.0000    702.5933      1.4551     57.9528
  2005.2500      0.0000    693.4330      1.4004     55.0528
  2005.5000      0.0000    685.6527      1.3551     54.8518
  2005.7500      0.0000    683.2042      1.3628     58.7822
  2006.0000      0.0000    685.3823      1.4607     67.1019
  2006.2500      0.0000    688.8937      1.6281     78.3572
  2006.5000      0.0000    691.8264      1.7864     89.8696
  2006.7500      0.0000    694.5026      1.8556     98.8447
  2007.0000      0.0000    697.6046      1.8179    103.2219
