~Version Information
VERS.                      2.0: CWLS Log ASCII Standard - VERSION 2.0
WRAP.                       NO: One line per depth step
~Well Information Block
STRT.FT               860.0000: 
STOP.FT              1907.0000: 
STEP.FT                 0.1000: 
NULL.                -999.2500: 
COMP.          Pioneer Natural Resources: COMPANY
WELL.          Victory 12-14 Tr: WELL
FLD.           Purgatoire River: FIELD
LOC.           2522' FNL & 276' FWL: LOCATION
PROV.                 Colorado: PROVINCE
CNTY.               Las Animas: COUNTRY
SRVC.                Patterson: SERVICE COMPANY
DATE.          Mon Jul 18 06:52:40 2005: LOG DATE
UWI.           05 071 08433 00: UNIQUE WELL ID
~Curve Information Block
DEPT.FT            0 000 00 00: Depth
DCAL.in                       : CDL Caliper
RHOB.g/cc                     : CDL Bulk Density
RHOC.g/cc                     : CDL Density Correction
DPOR.pu                       : CDL Density Porosity
GR.GAPI                       : Gamma Ray
NPOR.pu                       : Neutron Porosity
~Parameter Information Block
~A  Depth       DCAL        RHOB        RHOC        DPOR         GR         NPOR    
# ...
  1138.4000      8.0946      2.6509      0.1169     -0.0566    153.1550     29.0586
  1138.5000      8.0759      2.7456      0.1601     -5.7967    154.4849     29.2117
  1138.6000      8.0759      2.8477      0.2065    -11.9807    152.6514     29.0424
  1138.7000      8.0759      2.9368      0.3244    -17.3836    147.1834     28.6568
  1138.8000      8.0487      2.9741      0.3336    -19.6431    142.0385     28.0865
  1138.9000      8.0487      2.9384      0.3056    -17.4805    138.2158     27.4774
  1139.0000      8.0226      2.8637      0.1522    -12.9508    131.5689     27.1013
  1139.1000      8.0226      2.7990      0.1004     -9.0315    119.8187     27.0502
  1139.2000      8.0226      2.7476      0.0545     -5.9129    103.2024     27.2759
  1139.3000      8.0168      2.6934      0.0091     -2.6320     86.5735     27.5242
  1139.4000      8.0168      2.6477     -0.0671      0.1409     81.5010     27.4323
  1139.5000      8.0332      2.6211      0.0427      1.7528     89.9952     26.9139
  1139.6000      8.0332      2.5937      0.0151      3.4097     99.3009     26.0894
  1139.7000      8.0332      2.5577      0.0114      5.5965    103.9540     25.1708
  1139.8000      8.1355      2.5372      0.0049      6.8346    108.7276     24.3781
  1139.9000      8.1355      2.5521      0.0009      5.9315    116.3020     23.8444
  1140.0000      8.1837      2.5915      0.0283      3.5482    123.6837     23.5160
  1140.1000      8.1837      2.6226      0.0722      1.6577    126.8741     23.3468
  1140.2000      8.1837      2.6243      0.0384      1.5582    126.6431     23.5012
  1140.3000      8.1724      2.6042      0.0472      2.7729    126.0978     24.0627
  1140.4000      8.1724      2.5852      0.0468      3.9283    126.8726     24.6789
  1140.5000      8.1766      2.5762      0.0897      4.4734    127.8993     24.7802
  1140.6000      8.1766      2.5705      0.0304      4.8198    129.0459     24.3492
  1140.7000      8.1766      2.5762      0.0024      4.4708    132.2167     23.9732
  1140.8000      8.1723      2.5952      0.0472      3.3205    135.4130     24.1498
  1140.9000      8.1723      2.5915      0.0847      3.5427    134.8829     24.6842
  1141.0000      8.1652      2.5539     -0.0047      5.8223    131.2948     24.9573
  1141.1000      8.1652      2.5236     -0.0107      7.6598    128.1266     24.6588
  1141.2000      8.1652      2.5164      0.0014      8.0990    127.0491     23.9792
  1141.3000      8.1683      2.5130     -0.0336      8.3052    127.3083     23.3818
  1141.4000      8.1683      2.5072     -0.0079      8.6574    128.0343     23.3250
  1141.5000      8.1701      2.4948     -0.0021      9.4088    131.4975     23.7568
  1141.6000      8.1701      2.4592      0.0225     11.5609    137.2077     24.1283
  1141.7000      8.1701      2.3956     -0.0098     15.4187    139.7115     24.0237
  1141.8000      8.1659      2.3233     -0.0043     19.8004    138.4236     23.3842
  1141.9000      8.1659      2.2503     -0.0063     24.2249    136.2481     21.9512
  1142.0000      8.1674      2.1575     -0.0439     29.8483    132.0215     19.6952
  1142.1000      8.1674      2.0447     -0.1299     36.6847    127.2009     17.5952
  1142.2000      8.1674      1.9478     -0.1237     42.5599    126.8843     16.3480
  1142.3000      8.1658      1.8789     -0.0874     46.7321    130.6082     15.2911
  1142.4000      8.1658      1.7912     -0.0281     52.0490    133.5526     13.7395
  1142.5000      8.1679      1.6493     -0.0353     60.6456    132.5932     12.1127
  1142.6000      8.1679      1.4919     -0.0756     70.1905    127.7981     10.7973
  1142.7000      8.1679      1.3656     -0.0260     77.8450    119.2099      9.6743
  1142.8000      8.2049      1.2652      0.0234     83.9248    107.4567      8.7468
  1142.9000      8.2049      1.1860     -0.0195     88.7290     98.6404      8.1705
  1143.0000      8.3634      1.1549     -0.0093     90.6096     94.7025      7.8909
  1143.1000      8.3634      1.1816      0.0474     88.9926     88.8545      7.7673
  1143.2000      8.3634      1.2404      0.1114     85.4320     82.2233      7.8207
  1143.3000      8.6679      1.3031      0.1692     81.6315     79.6685      8.0562
  1143.4000      8.6679      1.3597      0.2168     78.2010     77.8456      8.5072
  1143.5000      8.9093      1.4163      0.2779     74.7693     72.5344      9.3317
  1143.6000      8.9093      1.4883      0.2881     70.4067     64.0189     10.5160
  1143.7000      8.9093      1.5856      0.2842     64.5068     57.3765     11.8830
  1143.8000      8.6716      1.6945      0.2881     57.9065     56.2510     13.5306
  1143.9000      8.6716      1.7988      0.2725     51.5892     57.4223     15.5895
  1144.0000      8.6232      1.9143      0.2759     44.5856     57.2254     17.6247
  1144.1000      8.6232      2.0522      0.3196     36.2313     55.7738     19.1157
  1144.2000      8.6232      2.1762      0.3783     28.7147     56.3723     20.2839
  1144.3000      8.5091      2.2603      0.3626     23.6164     62.2073     21.6839
  1144.4000      8.5091      2.3446      0.2332     18.5087     71.5200     23.1934
  1144.5000      8.4801      2.4609      0.2788     11.4582     80.8969     24.3903
  1144.6000      8.4801      2.5591      0.2966      5.5088     89.5879     25.3849
  1144.7000      8.4801      2.5886      0.2014      3.7201     98.1124     26.1424
  1144.8000      8.3690      2.5709      0.1585      4.7919    105.8558     26.3280
  1144.9000      8.3690      2.5498      0.1464      6.0701    113.5914     26.3578
  1145.0000      8.2487      2.5426      0.1973      6.5063    123.0760     26.8922
  1145.1000      8.2487      2.5421      0.1253      6.5368    132.8625     27.6486
  1145.2000      8.2487      2.5364      0.1638      6.8855    139.4264     27.6624
  1145.3000      8.2487      2.5264      0.0910      7.4913    141.3934     26.6317
  1145.4000      8.2487      2.5283      0.1259      7.3768    140.8089     25.5813
  1145.5000      8.2430      2.5463      0.0816      6.2839    138.7872     25.2801
  1145.6000      8.2430      2.5645      0.1233      5.1841    133.9876     25.0983
  1145.7000      8.2430      2.5708      0.0839      4.8023    129.4608     24.7938
  1145.8000      8.1983      2.5722      0.1121      4.7154    127.3073     24.8988
  1145.9000      8.1983      2.5707      0.0474      4.8036    125.5355     25.3951
  1146.0000      8.2091      2.5616      0.0615      5.3556    126.8026     25.8874
  1146.1000      8.2091      2.5542      0.0277      5.8071    133.8136     26.1976
  1146.2000      8.2091      2.5647      0.0670      5.1725    142.2346     26.5530
  1146.3000      8.2378      2.5863      0.0704      3.8601    146.1791     26.9308
  1146.4000      8.2378      2.5964      0.0904      3.2469    146.4038     26.8989
  1146.5000      8.2878      2.5971      0.0003      3.2076    145.4112     26.4475
  1146.6000      8.2878      2.6024      0.0831      2.8849    142.1027     25.8944
  1146.7000      8.2878      2.6006      0.0841      2.9950    138.1296     25.3449
  1146.8000      8.1832      2.5842      0.0343      3.9881    135.1476     24.8325
  1146.9000      8.1832      2.5733      0.0611      4.6500    134.0136     24.4159
  1147.0000      8.1666      2.5841      0.1410      3.9937    136.1984     24.1870
  1147.1000      8.1666      2.6065      0.2086      2.6364    138.0112     24.3366
  1147.2000      8.1666      2.6146      0.2049      2.1454    135.9025     24.6982
  1147.3000      8.1597      2.5977      0.1204      3.1707    132.5864     24.9597
  1147.4000      8.1597      2.5656      0.1261      5.1174    132.6126     25.0691
  1147.5000      8.1532      2.5255      0.1005      7.5457    134.1737     25.0317
  1147.6000      8.1532      2.4914      0.0108      9.6145    130.4337     24.9588
  1147.7000      8.1532      2.4803      0.0313     10.2847    126.4125     24.9002
  1147.8000      8.1527      2.4866      0.0031      9.9032    132.9852     24.9890
  1147.9000      8.1527      2.4962      0.0165      9.3186    143.7975     25.3024
