~Version Information
VERS.                      2.0: CWLS Log ASCII Standard - VERSION 2.0
WRAP.                       NO: One line per depth step
~Well Information Block
STRT.FT               698.9000: 
STOP.FT              2459.5000: 
STEP.FT                 0.1000: 
NULL.                -999.2500: 
COMP.          Petrogulf Corporation: COMPANY
WELL.             State 16-23V: WELL
FLD.           Purgatorie River: FIELD
LOC.           2414' FSL & 2215' FWL: LOCATION
PROV.                 Colorado: PROVINCE
CNTY.               Las Animas: COUNTRY
SRVC.                         : SERVICE COMPANY
DATE.          Mon Jun 09 12:47:39 2003: LOG DATE
UWI.           05 071 07865 00: UNIQUE WELL ID
~Curve Information Block
DEPT.FT            0 000 00 00: Depth
SP.mV                         : DIL Spontaneous Potential
RILD.Ohm-m                    : DIL Deep Resistivity
RILM.Ohm-m                    : DIL Medium Resistivity
RLL3.Ohm-m                    : DIL Shallow Resistivity
GR.GAPI                       : Gamma Ray
~Parameter Information Block
~A  Depth        SP         RILD        RILM        RLL3         GR     
# ...
   822.1000   2000.0000     11.9939     15.5730   1998.0000    133.0112
   822.2000   2000.0000     11.9939     15.5730   1998.0000    135.0053
   822.3000   2000.0000     11.9903     15.6488   1998.0000    136.8832
   822.4000   2000.0000     11.9903     15.6488   1998.0000    138.6326
   822.5000   2000.0000     11.9250     15.4203   1998.0000    140.2513
   822.6000   2000.0000     11.9250     15.4203   1998.0000    141.7468
   822.7000   2000.0000     11.9250     15.4203   1998.0000    143.1371
   822.8000   2000.0000     11.8644     14.9802   1998.0000    144.4469
   822.9000   2000.0000     11.8644     14.9802   1998.0000    145.7086
   823.0000   2000.0000     11.8842     14.4922   1998.0000    146.9489
   823.1000   2000.0000     11.8842     14.4922   1998.0000    148.1855
   823.2000   2000.0000     11.8842     14.4922   1998.0000    149.4185
   823.3000   2000.0000     12.0180     14.1129   1998.0000    150.6261
   823.4000   2000.0000     12.0180     14.1129   1998.0000    151.7667
   823.5000   2000.0000     12.2266     13.9283   1998.0000    152.7875
   823.6000   2000.0000     12.2266     13.9283   1998.0000    153.6351
   823.7000   2000.0000     12.2266     13.9283   1998.0000    154.2671
   823.8000   2000.0000     12.4304     13.9233   1998.0000    154.6642
   823.9000   2000.0000     12.4304     13.9233   1998.0000    154.8358
   824.0000   2000.0000     12.5982     14.0065   1998.0000    154.8196
   824.1000   2000.0000     12.5982     14.0065   1998.0000    154.6734
   824.2000   2000.0000     12.5982     14.0065   1998.0000    154.4615
   824.3000   2000.0000     12.7804     14.0961   1998.0000    154.2433
   824.4000   2000.0000     12.7804     14.0961   1998.0000    154.0594
   824.5000   2000.0000     13.0395     14.2038   1998.0000    153.9257
   824.6000   2000.0000     13.0395     14.2038   1998.0000    153.8325
   824.7000   2000.0000     13.0395     14.2038   1998.0000    153.7549
   824.8000   2000.0000     13.3843     14.4344   1998.0000    153.6556
   824.9000   2000.0000     13.3843     14.4344   1998.0000    153.5037
   825.0000   2000.0000     13.7908     14.9073   1998.0000    153.2806
   825.1000   2000.0000     13.7908     14.9073   1998.0000    152.9865
   825.2000   2000.0000     13.7908     14.9073   1998.0000    152.6420
   825.3000   2000.0000     14.2463     15.6743   1998.0000    152.2837
   825.4000   2000.0000     14.2463     15.6743   1998.0000    151.9584
   825.5000   2000.0000     14.7367     16.6813   1998.0000    151.7169
   825.6000   2000.0000     14.7367     16.6813   1998.0000    151.6052
   825.7000   2000.0000     14.7367     16.6813   1998.0000    151.6543
   825.8000   2000.0000     15.2115     17.7934   1998.0000    151.8748
   825.9000   2000.0000     15.2115     17.7934   1998.0000    152.2530
   826.0000   2000.0000     15.6000     18.8751   1998.0000    152.7509
   826.1000   2000.0000     15.6000     18.8751   1998.0000    153.3065
   826.2000   2000.0000     15.6000     18.8751   1998.0000    153.8466
   826.3000   2000.0000     15.8694     19.8676   1998.0000    154.2940
   826.4000   2000.0000     15.8694     19.8676   1998.0000    154.5806
   826.5000   2000.0000     16.0670     20.8109   1998.0000    154.6608
   826.6000   2000.0000     16.0670     20.8109   1998.0000    154.5152
   826.7000   2000.0000     16.0670     20.8109   1998.0000    154.1525
   826.8000   2000.0000     16.3118     21.8142   1998.0000    153.6055
   826.9000   2000.0000     16.3118     21.8142   1998.0000    152.9188
   827.0000   2000.0000     16.7173     22.9978   1998.0000    152.1351
   827.1000   2000.0000     16.7173     22.9978   1998.0000    151.2919
   827.2000   2000.0000     16.7173     22.9978   1998.0000    150.4091
   827.3000   2000.0000     17.2880     24.4405   1998.0000    149.4934
   827.4000   2000.0000     17.2880     24.4405   1998.0000    148.5419
   827.5000   2000.0000     17.8987     26.1742   1998.0000    147.5469
   827.6000   2000.0000     17.8987     26.1742   1998.0000    146.5089
   827.7000   2000.0000     17.8987     26.1742   1998.0000    145.4394
   827.8000   2000.0000     18.4183     28.1903   1998.0000    144.3634
   827.9000   2000.0000     18.4183     28.1903   1998.0000    143.3182
   828.0000   2000.0000     18.8722     30.3911   1998.0000    142.3475
   828.1000   2000.0000     18.8722     30.3911   1998.0000    141.4921
   828.2000   2000.0000     18.8722     30.3911   1998.0000    140.7834
   828.3000   2000.0000     19.4433     32.5503   1998.0000    140.2350
   828.4000   2000.0000     19.4433     32.5503   1998.0000    139.8406
   828.5000   2000.0000     20.3149     34.4163   1998.0000    139.5724
   828.6000   2000.0000     20.3149     34.4163   1998.0000    139.3855
   828.7000   2000.0000     20.3149     34.4163   1998.0000    139.2263
   828.8000   2000.0000     21.5227     35.8758   1998.0000    139.0394
   828.9000   2000.0000     21.5227     35.8758   1998.0000    138.7814
   829.0000   2000.0000     22.8705     36.9568   1998.0000    138.4208
   829.1000   2000.0000     22.8705     36.9568   1998.0000    137.9429
   829.2000   2000.0000     22.8705     36.9568   1998.0000    137.3471
   829.3000   2000.0000     23.9321     37.7690   1998.0000    136.6420
   829.4000   2000.0000     23.9321     37.7690   1998.0000    135.8387
   829.5000   2000.0000     24.3110     38.5044   1998.0000    134.9433
   829.6000   2000.0000     24.3110     38.5044   1998.0000    133.9581
   829.7000   2000.0000     24.3110     38.5044   1998.0000    132.8797
   829.8000   2000.0000     24.0790     39.2968   1998.0000    131.7051
   829.9000   2000.0000     24.0790     39.2968   1998.0000    130.4374
   830.0000   2000.0000     23.7543     39.9643   1998.0000    129.0868
   830.1000   2000.0000     23.7543     39.9643   1998.0000    127.6795
   830.2000   2000.0000     23.7543     39.9643   1998.0000    126.2534
   830.3000   2000.0000     23.7748     40.1089   1998.0000    124.8559
   830.4000   2000.0000     23.7748     40.1089   1998.0000    123.5382
   830.5000   2000.0000     24.1559     39.6051   1998.0000    122.3468
   830.6000   2000.0000     24.1559     39.6051   1998.0000    121.3153
   830.7000   2000.0000     24.1559     39.6051   1998.0000    120.4576
   830.8000   2000.0000     24.5296     38.7269   1998.0000    119.7641
   830.9000   2000.0000     24.5296     38.7269   1998.0000    119.1998
   831.0000   2000.0000     24.4123     37.7434   1998.0000    118.7081
   831.1000   2000.0000     24.4123     37.7434   1998.0000    118.2185
   831.2000   2000.0000     24.4123     37.7434   1998.0000    117.6492
   831.3000   2000.0000     23.5809     36.7139   1998.0000    116.9173
   831.4000   2000.0000     23.5809     36.7139   1998.0000    115.9446
   831.5000   2000.0000     22.2517     35.6396   1998.0000    114.6597
   831.6000   2000.0000     22.2517     35.6396   1998.0000    113.0006
   831.7000   2000.0000     22.2517     35.6396   1998.0000    110.9157
   831.8000   2000.0000     20.8483     34.5839   1998.0000    108.3688
   831.9000   2000.0000     20.8483     34.5839   1998.0000    105.3426
   832.0000   2000.0000     19.6911     33.6321   1998.0000    101.8474
   832.1000   2000.0000     19.6911     33.6321   1998.0000     97.9293
   832.2000   2000.0000     19.6911     33.6321   1998.0000     93.6758
   832.3000   2000.0000     18.9210     32.7974   1998.0000     89.2220
   832.4000   2000.0000     18.9210     32.7974   1998.0000     84.7468
   832.5000   2000.0000     18.5555     31.9249   1998.0000     80.4644
   832.6000   2000.0000     18.5555     31.9249   1998.0000     76.6135
   832.7000   2000.0000     18.5555     31.9249   1998.0000     73.4406
   832.8000   2000.0000     18.5442     30.6749   1998.0000     71.1785
   832.9000   2000.0000     18.5442     30.6749   1998.0000     70.0282
   833.0000   2000.0000     18.8141     28.7705   1998.0000     70.1387
   833.1000   2000.0000     18.8141     28.7705   1998.0000     71.5903
   833.2000   2000.0000     18.8141     28.7705   1998.0000     74.3810
