~Version Information
VERS.                      2.0: CWLS Log ASCII Standard - VERSION 2.0
WRAP.                       NO: One line per depth step
~Well Information Block
STRT.FT               962.7000: 
STOP.FT              2435.5000: 
STEP.FT                 0.1000: 
NULL.                -999.2500: 
COMP.          Petrogulf Corporation: COMPANY
WELL.              Hand 8-44 V: WELL
FLD.           Purgatorie River: FIELD
LOC.           1076' FEL & 820' FSL: LOCATION
CNTY.               Las Animas: COUNTY
SRVC.                         : SERVICE COMPANY
DATE.          Fri Nov 21 14:12:41 2003: LOG DATE
UWI.                          : UNIQUE WELL ID
STAT.                 Colorado: STATE
~Curve Information Block
DEPT.FT            0 000 00 00: Depth
DCAL.in                       : CDL Caliper
RHOB.g/cc                     : CDL Bulk Density
RHOC.g/cc                     : CDL Density Correction
DPOR.pu                       : CDL Density Porosity
GR.GAPI                       : Gamma Ray
NPOR.pu                       : Neutron Porosity
~Parameter Information Block
~A  Depth       DCAL        RHOB        RHOC        DPOR         GR         NPOR    
# ...
  1365.9000      8.1482      2.6083      0.1478      2.5249     71.5186     28.2759
  1366.0000      8.1367      2.6226      0.0903      1.6604     67.7494     28.8422
  1366.1000      8.1367      2.6473      0.1867      0.1666     66.4092     29.1783
  1366.2000      8.1367      2.6626      0.1634     -0.7640     65.2313     29.0712
  1366.3000      8.1382      2.6808      0.0853     -1.8693     64.2989     28.7272
  1366.4000      8.1382      2.7235      0.0783     -4.4520     66.6860     28.3245
  1366.5000      8.1360      2.7678      0.2018     -7.1380     73.0332     27.9308
  1366.6000      8.1360      2.7783      0.1965     -7.7736     79.6343     27.6845
  1366.7000      8.1360      2.7649      0.1461     -6.9631     81.9750     27.5317
  1366.8000      8.1337      2.7523      0.1269     -6.1988     81.6471     27.2590
  1366.9000      8.1337      2.7525      0.0667     -6.2109     82.4153     26.8744
  1367.0000      8.1225      2.7774      0.0906     -7.7239     85.3004     26.5068
  1367.1000      8.1225      2.8198      0.1155    -10.2917     87.4108     26.2414
  1367.2000      8.1225      2.8447      0.0917    -11.8021     83.6551     26.1520
  1367.3000      8.1053      2.8319      0.0708    -11.0271     75.2043     26.2333
  1367.4000      8.1053      2.8017      0.0026     -9.1935     70.0179     26.2959
  1367.5000      8.1718      2.7672      0.0468     -7.1060     72.0106     26.3035
  1367.6000      8.1718      2.7259     -0.1066     -4.5984     76.6551     26.5982
  1367.7000      8.1718      2.6930     -0.0865     -2.6035     80.3940     27.1991
  1367.8000      8.2139      2.6685      0.0007     -1.1186     85.4384     27.7807
  1367.9000      8.2139      2.6403     -0.0274      0.5903     94.5426     28.0021
  1368.0000      8.2376      2.6156     -0.0023      2.0876    105.1543     27.8479
  1368.1000      8.2376      2.5933      0.1262      3.4341    112.7277     28.0267
  1368.2000      8.2376      2.5664      0.0312      5.0659    117.2912     28.6603
  1368.3000      8.3114      2.5346      0.1006      6.9930    121.9977     28.8455
  1368.4000      8.3114      2.4981      0.0348      9.2062    127.6939     28.5201
  1368.5000      8.3158      2.4717      0.0033     10.8072    131.0564     28.4590
  1368.6000      8.3158      2.4650      0.0212     11.2106    131.7897     28.6989
  1368.7000      8.3158      2.4716     -0.0155     10.8115    133.0121     28.9452
  1368.8000      8.2743      2.4901      0.0855      9.6909    134.1648     29.1939
  1368.9000      8.2743      2.5124      0.1093      8.3392    137.1469     29.4204
  1369.0000      8.2571      2.5256      0.0829      7.5422    145.0710     29.4591
  1369.1000      8.2571      2.5344      0.0378      7.0048    155.9106     29.3453
  1369.2000      8.2571      2.5545      0.0833      5.7908    164.9422     29.1339
  1369.3000      8.2641      2.5879      0.1581      3.7609    168.3239     28.9100
  1369.4000      8.2641      2.6276      0.1632      1.3558    166.8078     29.0112
  1369.5000      8.2230      2.6688      0.2106     -1.1384    164.5057     29.5066
  1369.6000      8.2230      2.7040      0.1891     -3.2756    162.7752     29.7496
  1369.7000      8.2230      2.7228      0.2319     -4.4126    159.2355     29.2916
  1369.8000      8.2117      2.7201      0.1740     -4.2507    152.3061     28.5553
  1369.9000      8.2117      2.7027      0.1591     -3.1941    146.9479     27.9133
  1370.0000      8.2201      2.6733      0.0828     -1.4134    147.1971     27.3601
  1370.1000      8.2201      2.6282      0.0938      1.3242    148.1698     27.0091
  1370.2000      8.2201      2.5663      0.0898      5.0735    147.1690     26.6173
  1370.3000      8.2599      2.5041      0.0018      8.8442    148.6742     25.7670
  1370.4000      8.2599      2.4716     -0.0285     10.8137    153.7389     24.6217
  1370.5000      8.2499      2.4720      0.0252     10.7878    156.5806     23.2732
  1370.6000      8.2499      2.4831      0.0345     10.1163    155.1372     21.9585
  1370.7000      8.2499      2.5006      0.0474      9.0532    151.3866     21.0963
  1370.8000      8.2847      2.5230      0.0961      7.6962    147.8510     20.2947
  1370.9000      8.2847      2.5280      0.1283      7.3955    145.0077     18.9411
  1371.0000      8.2593      2.5074      0.0645      8.6440    141.9897     17.3029
  1371.1000      8.2593      2.4788      0.0495     10.3784    141.9368     15.8844
  1371.2000      8.2593      2.4504      0.0835     12.0999    145.7274     14.8058
  1371.3000      8.3148      2.4137      0.0685     14.3200    148.8807     14.3785
  1371.4000      8.3148      2.3593      0.1182     17.6175    150.2881     14.8393
  1371.5000      8.2691      2.2808      0.0175     22.3736    150.9893     15.6791
  1371.6000      8.2691      2.1742     -0.0215     28.8340    148.7952     16.6028
  1371.7000      8.2691      2.0325      0.0121     37.4259    141.8191     17.8328
  1371.8000      8.2944      1.8821     -0.0492     46.5408    133.1472     19.0108
  1371.9000      8.2944      1.7857     -0.0070     52.3807    125.1101     19.5411
  1372.0000      8.3009      1.7655      0.0503     53.6050    120.4402     20.1344
  1372.1000      8.3009      1.7935      0.0798     51.9066    121.4302     21.8974
  1372.2000      8.3009      1.8487      0.1332     48.5658    123.0730     24.3274
  1372.3000      8.3341      1.9313      0.1955     43.5562    122.8861     26.1111
  1372.4000      8.3341      2.0345      0.3741     37.3051    123.2311     27.2204
  1372.5000      8.3315      2.1290      0.4492     31.5784    123.7264     28.3480
  1372.6000      8.3315      2.1827      0.4375     28.3191    123.7612     29.4848
  1372.7000      8.3315      2.1748      0.4354     28.7988    121.4631     30.2231
  1372.8000      8.2952      2.1240      0.2066     31.8767    114.8400     30.3489
  1372.9000      8.2952      2.1037     -0.0117     33.1108    106.2472     30.0367
  1373.0000      8.3649      2.1526      0.0165     30.1461    100.1037     29.5312
  1373.1000      8.3649      2.2196      0.0564     26.0855    100.9193     29.1793
  1373.2000      8.3649      2.2577      0.0371     23.7738    110.5689     29.3006
  1373.3000      8.3590      2.2909      0.0357     21.7616    123.9579     29.5342
  1373.4000      8.3590      2.3546      0.0798     17.9052    133.1939     29.4867
  1373.5000      8.2896      2.4346      0.1056     13.0567    132.7903     29.4054
  1373.6000      8.2896      2.4833      0.1536     10.1007    123.4151     29.5928
  1373.7000      8.2896      2.4864      0.0118      9.9138    115.8167     29.7634
  1373.8000      8.3346      2.4781      0.0188     10.4179    117.5229     29.7290
  1373.9000      8.3346      2.4804      0.0900     10.2787    124.4281     29.7463
  1374.0000      8.3527      2.4883      0.0375      9.7978    131.6811     29.7128
  1374.1000      8.3527      2.5030     -0.0075      8.9089    136.8250     29.2963
  1374.2000      8.3527      2.5316     -0.0219      7.1745    138.5142     28.6129
  1374.3000      8.3833      2.5673      0.0479      5.0147    140.8625     28.0840
  1374.4000      8.3833      2.5910      0.1054      3.5736    147.1375     28.0087
  1374.5000      8.3896      2.5998      0.1345      3.0445    150.9005     28.2012
  1374.6000      8.3896      2.6069      0.1434      2.6119    149.1228     28.1441
  1374.7000      8.3896      2.6067      0.1537      2.6222    150.6131     27.7641
  1374.8000      8.3389      2.5698      0.2353      4.8607    156.6413     27.5442
  1374.9000      8.3389      2.4987      0.0047      9.1676    162.7174     27.7532
  1375.0000      8.2933      2.4392     -0.0309     12.7775    170.7355     28.1813
  1375.1000      8.2933      2.4159     -0.0473     14.1895    177.7173     28.3160
  1375.2000      8.2933      2.4246     -0.0758     13.6600    176.9986     27.7845
  1375.3000      8.3244      2.4477     -0.0191     12.2595    167.7182     26.8625
  1375.4000      8.3244      2.4591      0.0184     11.5724    155.2772     26.1307
