~Version Information
VERS.                      2.0: CWLS Log ASCII Standard - VERSION 2.0
WRAP.                       NO: One line per depth step
~Well Information Block
STRT.FT               456.0000: 
STOP.FT              1703.0000: 
STEP.FT                 0.2500: 
NULL.                -999.2500: 
COMP.          Pioneer Natural Resources: COMPANY
WELL.                Mead 11-9: WELL
FLD.           Purgatoire River: FIELD
LOC.           1127' FNL & 668' FWL: LOCATION
PROV.                 Colorado: PROVINCE
CNTY.               Las Animas: COUNTRY
SRVC.                Patterson: SERVICE COMPANY
DATE.          Fri Feb 18 16:14:34 2005: LOG DATE
UWI.           05 071 08160 00: UNIQUE WELL ID
~Curve Information Block
DEPT.FT            0 000 00 00: Depth
SN.Ohm-m                      : IEL Short Normal
SP.mV                         : IEL Spontaneous Potential
DIR.Ohm-m                     : IEL Induction Resistivity
GR.GAPI                       : Gamma Ray
~Parameter Information Block
~A  Depth        SN          SP         DIR          GR     
# ...
   690.5000   2000.0000   2000.0000      8.5521    153.4767
   690.7500   2000.0000   2000.0000      8.7182    152.6258
   691.0000   2000.0000   2000.0000      8.9228    149.2941
   691.2500   2000.0000   2000.0000      9.1449    146.1461
   691.5000   2000.0000   2000.0000      9.3622    140.7572
   691.7500   2000.0000   2000.0000      9.5572    137.0749
   692.0000   2000.0000   2000.0000      9.7214    131.9289
   692.2500   2000.0000   2000.0000      9.8579    129.1070
   692.5000   2000.0000   2000.0000      9.9803    126.5248
   692.7500   2000.0000   2000.0000     10.1097    126.1781
   693.0000   2000.0000   2000.0000     10.2661    127.5899
   693.2500   2000.0000   2000.0000     10.4595    129.5534
   693.5000   2000.0000   2000.0000     10.6831    133.5804
   693.7500   2000.0000   2000.0000     10.9133    136.6165
   694.0000   2000.0000   2000.0000     11.1186    140.6917
   694.2500   2000.0000   2000.0000     11.2740    142.5320
   694.5000   2000.0000   2000.0000     11.3738    143.7714
   694.7500   2000.0000   2000.0000     11.4326    144.0117
   695.0000   2000.0000   2000.0000     11.4750    144.5602
   695.2500   2000.0000   2000.0000     11.5224    145.3874
   695.5000   2000.0000   2000.0000     11.5857    147.1392
   695.7500   2000.0000   2000.0000     11.6680    148.3672
   696.0000   2000.0000   2000.0000     11.7695    149.9447
   696.2500   2000.0000   2000.0000     11.8922    150.5682
   696.5000   2000.0000   2000.0000     12.0382    150.1799
   696.7500   2000.0000   2000.0000     12.2048    148.7414
   697.0000   2000.0000   2000.0000     12.3829    145.1549
   697.2500   2000.0000   2000.0000     12.5628    142.4432
   697.5000   2000.0000   2000.0000     12.7455    138.6878
   697.7500   2000.0000   2000.0000     12.9497    136.1801
   698.0000   2000.0000   2000.0000     13.2061    131.1044
   698.2500   2000.0000   2000.0000     13.5424    126.1940
   698.5000   2000.0000   2000.0000     13.9704    116.7797
   698.7500   2000.0000   2000.0000     14.4821    110.1664
   699.0000   2000.0000   2000.0000     15.0566    102.1908
   699.2500   2000.0000   2000.0000     15.6716     99.3301
   699.5000   2000.0000   2000.0000     16.3142     99.3596
   699.7500   2000.0000   2000.0000     16.9878    101.7792
   700.0000   2000.0000   2000.0000     17.7134    107.3824
   700.2500   2000.0000   2000.0000     18.5232    111.4910
   700.5000   2000.0000   2000.0000     19.4439    116.8069
   700.7500   2000.0000   2000.0000     20.4797    118.9110
   701.0000   2000.0000   2000.0000     21.6074    118.4248
   701.2500   2000.0000   2000.0000     22.7918    115.3543
   701.5000   2000.0000   2000.0000     24.0088    107.8455
   701.7500   2000.0000   2000.0000     25.2534    102.3295
   702.0000   2000.0000   2000.0000     26.5231     95.2223
   702.2500   2000.0000   2000.0000     27.7991     91.4608
   702.5000   2000.0000   2000.0000     29.0490     86.6562
   702.7500   2000.0000   2000.0000     30.2549     83.8690
   703.0000   2000.0000   2000.0000     31.4419     80.8648
   703.2500   2000.0000   2000.0000     32.6748     79.9654
   703.5000   2000.0000   2000.0000     34.0200     80.1232
   703.7500   2000.0000   2000.0000     35.4941     80.9037
   704.0000   2000.0000   2000.0000     37.0352     82.5286
   704.2500   2000.0000   2000.0000     38.5212     83.4685
   704.5000   2000.0000   2000.0000     39.8289     83.5736
   704.7500   2000.0000   2000.0000     40.8883     82.3723
   705.0000   2000.0000   2000.0000     41.6948     79.1778
   705.2500   2000.0000   2000.0000     42.2824     76.8682
   705.5000   2000.0000   2000.0000     42.6967     73.8711
   705.7500   2000.0000   2000.0000     42.9863     72.0285
   706.0000   2000.0000   2000.0000     43.2067     69.0308
   706.2500   2000.0000   2000.0000     43.4306     66.9487
   706.5000   2000.0000   2000.0000     43.7443     64.2471
   706.7500   2000.0000   2000.0000     44.2174     62.9257
   707.0000   2000.0000   2000.0000     44.8473     61.6686
   707.2500   2000.0000   2000.0000     45.5319     61.3345
   707.5000   2000.0000   2000.0000     46.1206     61.8101
   707.7500   2000.0000   2000.0000     46.5287     62.8453
   708.0000   2000.0000   2000.0000     46.8007     65.1811
   708.2500   2000.0000   2000.0000     47.0268     66.8715
   708.5000   2000.0000   2000.0000     47.1809     68.9313
   708.7500   2000.0000   2000.0000     47.0507     69.8066
   709.0000   2000.0000   2000.0000     46.3749     70.5555
   709.2500   2000.0000   2000.0000     45.1007     70.9326
   709.5000   2000.0000   2000.0000     43.4725     71.6318
   709.7500   2000.0000   2000.0000     41.8425     72.2116
   710.0000   2000.0000   2000.0000     40.4140     73.1462
   710.2500   2000.0000   2000.0000     39.1589     73.8333
   710.5000   2000.0000   2000.0000     37.9178     75.3568
   710.7500   2000.0000   2000.0000     36.5629     77.0798
   711.0000   2000.0000   2000.0000     35.0937     81.2976
   711.2500   2000.0000   2000.0000     33.6148     85.3038
   711.5000   2000.0000   2000.0000     32.2432     92.7972
   711.7500   2000.0000   2000.0000     31.0370     98.4225
   712.0000   2000.0000   2000.0000     29.9790    107.1130
   712.2500   2000.0000   2000.0000     29.0112    112.6726
   712.5000   2000.0000   2000.0000     28.0770    120.0145
   712.7500   2000.0000   2000.0000     27.1458    123.9408
   713.0000   2000.0000   2000.0000     26.2055    128.0076
   713.2500   2000.0000   2000.0000     25.2460    129.3792
   713.5000   2000.0000   2000.0000     24.2622    129.4875
   713.7500   2000.0000   2000.0000     23.2780    128.5492
   714.0000   2000.0000   2000.0000     22.3593    126.5378
   714.2500   2000.0000   2000.0000     21.5901    125.3757
   714.5000   2000.0000   2000.0000     21.0235    124.4554
   714.7500   2000.0000   2000.0000     20.6478    124.3255
   715.0000   2000.0000   2000.0000     20.3928    124.3690
   715.2500   2000.0000   2000.0000     20.1776    124.3587
   715.5000   2000.0000   2000.0000     19.9609    124.3940
   715.7500   2000.0000   2000.0000     19.7569    124.6651
   716.0000   2000.0000   2000.0000     19.6052    125.6590
   716.2500   2000.0000   2000.0000     19.5328    126.6950
   716.5000   2000.0000   2000.0000     19.5394    128.6782
   716.7500   2000.0000   2000.0000     19.6130    130.1415
   717.0000   2000.0000   2000.0000     19.7527    131.9107
   717.2500   2000.0000   2000.0000     19.9775    132.1466
   717.5000   2000.0000   2000.0000     20.3103    129.9299
   717.7500   2000.0000   2000.0000     20.7573    126.5323
   718.0000   2000.0000   2000.0000     21.2986    119.3964
   718.2500   2000.0000   2000.0000     21.9056    114.1617
   718.5000   2000.0000   2000.0000     22.5677    106.8360
   718.7500   2000.0000   2000.0000     23.3045    102.5979
   719.0000   2000.0000   2000.0000     24.1545     97.0709
   719.2500   2000.0000   2000.0000     25.1596     93.7032
   719.5000   2000.0000   2000.0000     26.3604     88.7481
   719.7500   2000.0000   2000.0000     27.7973     85.3044
   720.0000   2000.0000   2000.0000     29.4947     79.6454
   720.2500   2000.0000   2000.0000     31.4278     75.6182
   720.5000   2000.0000   2000.0000     33.5054     70.0235
   720.7500   2000.0000   2000.0000     35.6047     67.2789
   721.0000   2000.0000   2000.0000     37.6364     65.2696
   721.2500   2000.0000   2000.0000     39.5647     65.0635
   721.5000   2000.0000   2000.0000     41.3589     65.2337
   721.7500   2000.0000   2000.0000     42.9515     65.0345
   722.0000   2000.0000   2000.0000     44.2562     64.0456
   722.2500   2000.0000   2000.0000     45.2006     63.2854
   722.5000   2000.0000   2000.0000     45.7150     62.8995
   722.7500   2000.0000   2000.0000     45.7065     63.5428
   723.0000   2000.0000   2000.0000     45.0901     66.0709
   723.2500   2000.0000   2000.0000     43.8602     68.6524
   723.5000   2000.0000   2000.0000     42.1027     73.3605
   723.7500   2000.0000   2000.0000     39.9454     76.8223
