~Version Information
VERS.                      2.0: CWLS Log ASCII Standard - VERSION 2.0
WRAP.                       NO: One line per depth step
~Well Information Block
STRT.FT               575.0000: 
STOP.FT              2016.2000: 
STEP.FT                 0.1000: 
NULL.                -999.2500: 
COMP.          Pioneer Natural Resources: COMPANY
WELL.          Bucksnort 41-35: WELL
FLD.           Purgatoire River: FIELD
LOC.           117' FNL & 463' FEL--: LOCATION
PROV.                 Colorado: PROVINCE
CNTY.               Las Animas: COUNTRY
SRVC.                Patterson: SERVICE COMPANY
DATE.          Thu Jul 21 15:01:23 2005: LOG DATE
UWI.           05 071 08401 00: UNIQUE WELL ID
~Curve Information Block
DEPT.FT            0 000 00 00: Depth
DCAL.in                       : CDL Caliper
RHOB.g/cc                     : CDL Bulk Density
RHOC.g/cc                     : CDL Density Correction
DPOR.pu                       : CDL Density Porosity
NPOR.pu                       : Neutron Porosity
GR.GAPI                       : Gamma Ray
~Parameter Information Block
~A  Depth       DCAL        RHOB        RHOC        DPOR        NPOR         GR     
# ...
  1611.8000      7.8588      2.5713      0.0586      4.7719     28.7304    156.1609
  1611.9000      7.8588      2.5367      0.0572      6.8672     29.5307    156.1379
  1612.0000      7.8657      2.5157      0.0113      8.1422     29.4597    155.0687
  1612.1000      7.8657      2.5272      0.0265      7.4414     28.8852    156.6412
  1612.2000      7.8657      2.5525      0.0634      5.9083     28.5685    161.5281
  1612.3000      7.8669      2.5570      0.0764      5.6363     28.6493    168.1328
  1612.4000      7.8669      2.5436      0.0169      6.4481     28.8062    168.3813
  1612.5000      7.8660      2.5351      0.0847      6.9622     28.6925    163.8164
  1612.6000      7.8660      2.5296      0.0445      7.2973     28.2351    166.6544
  1612.7000      7.8660      2.5226      0.0484      7.7184     27.9732    176.1769
  1612.8000      7.8649      2.5223      0.0453      7.7414     28.2586    183.6512
  1612.9000      7.8649      2.5329      0.0552      7.0961     28.3356    187.4108
  1613.0000      7.8650      2.5558      0.0756      5.7087     27.5211    186.1706
  1613.1000      7.8650      2.5841      0.0986      3.9935     26.4550    178.6757
  1613.2000      7.8650      2.6015      0.1221      2.9370     26.0171    171.4826
  1613.3000      7.8668      2.6043      0.1114      2.7686     26.3130    171.0274
  1613.4000      7.8668      2.6070      0.1009      2.6046     26.8479    170.1938
  1613.5000      7.8680      2.6250      0.0762      1.5145     26.9378    165.2601
  1613.6000      7.8680      2.6545      0.1191     -0.2756     26.5651    162.0814
  1613.7000      7.8680      2.6750      0.1120     -1.5171     26.1224    158.1409
  1613.8000      7.8679      2.6765      0.1006     -1.6045     25.6378    148.9918
  1613.9000      7.8679      2.6618      0.1121     -0.7169     25.0490    142.1847
  1614.0000      7.8671      2.6358      0.0708      0.8580     24.5315    144.8740
  1614.1000      7.8671      2.6031      0.0567      2.8435     24.5272    152.2003
  1614.2000      7.8671      2.5695      0.0317      4.8776     25.0797    155.9570
  1614.3000      7.8659      2.5487     -0.0116      6.1391     25.5644    156.1532
  1614.4000      7.8659      2.5458      0.0212      6.3146     25.6870    156.9433
  1614.5000      7.8626      2.5483      0.0417      6.1611     25.6037    157.4608
  1614.6000      7.8626      2.5494      0.0431      6.0986     25.5749    160.1252
  1614.7000      7.8626      2.5494      0.0633      6.0987     25.9815    166.8900
  1614.8000      7.8543      2.5485      0.0428      6.1544     26.4983    171.5367
  1614.9000      7.8543      2.5545      0.0394      5.7865     26.4300    170.1011
  1615.0000      7.8455      2.5697      0.0743      4.8671     26.0171    164.7377
  1615.1000      7.8455      2.5791      0.0636      4.2945     25.6138    161.2872
  1615.2000      7.8455      2.5797      0.0405      4.2636     24.9634    162.5479
  1615.3000      7.8397      2.5862      0.0767      3.8667     24.1864    161.1191
  1615.4000      7.8397      2.6040      0.0821      2.7908     23.6736    152.6678
  1615.5000      7.8320      2.6238      0.1086      1.5853     23.4479    147.8314
  1615.6000      7.8320      2.6374      0.1079      0.7618     23.4233    153.2883
  1615.7000      7.8320      2.6457      0.0832      0.2601     23.5959    158.3583
  1615.8000      7.8174      2.6503      0.1102     -0.0165     23.5703    151.9103
  1615.9000      7.8174      2.6409      0.1323      0.5507     23.3578    138.9178
  1616.0000      7.8024      2.6130      0.1000      2.2403     23.6030    128.8066
  1616.1000      7.8024      2.5778      0.1018      4.3761     23.9882    122.8384
  1616.2000      7.8024      2.5543      0.0503      5.8004     24.0550    118.6655
  1616.3000      7.7974      2.5600      0.0210      5.4537     24.1161    116.2459
  1616.4000      7.7974      2.5914      0.0556      3.5525     24.1905    117.3750
  1616.5000      7.8072      2.6211      0.0779      1.7508     24.0054    120.2443
  1616.6000      7.8072      2.6274      0.0769      1.3714     23.6753    122.0827
  1616.7000      7.8072      2.6177      0.0187      1.9585     23.3379    124.4450
  1616.8000      7.8218      2.6071      0.0526      2.6024     23.1078    127.0851
  1616.9000      7.8218      2.5950      0.0706      3.3338     23.0996    131.4461
  1617.0000      7.8232      2.5833      0.0161      4.0405     23.1630    138.1602
  1617.1000      7.8232      2.5777      0.0393      4.3789     23.3502    142.8802
  1617.2000      7.8232      2.5747      0.0491      4.5649     23.7660    142.3462
  1617.3000      7.8144      2.5747      0.0256      4.5613     24.1818    136.1543
  1617.4000      7.8144      2.5871      0.0713      3.8122     24.3726    129.9740
  1617.5000      7.8123      2.6125      0.0502      2.2700     24.3438    130.6987
  1617.6000      7.8123      2.6336      0.0970      0.9911     24.2354    134.6662
  1617.7000      7.8123      2.6313      0.0842      1.1339     24.0237    136.3458
  1617.8000      7.8288      2.6097      0.0622      2.4439     23.6055    139.8119
  1617.9000      7.8288      2.5855      0.0530      3.9076     23.3921    144.7341
  1618.0000      7.8576      2.5675      0.0287      4.9971     23.7422    145.9129
  1618.1000      7.8576      2.5585      0.0439      5.5455     24.2159    146.6274
  1618.2000      7.8576      2.5578      0.0603      5.5864     24.4735    151.5013
  1618.3000      7.8808      2.5584      0.0650      5.5542     24.7315    155.8734
  1618.4000      7.8808      2.5549      0.0238      5.7624     25.3647    152.4565
  1618.5000      7.8904      2.5520      0.0515      5.9390     26.2234    146.8753
  1618.6000      7.8904      2.5550      0.0420      5.7586     27.0023    150.0450
  1618.7000      7.8904      2.5653      0.0264      5.1363     27.6712    157.1068
  1618.8000      7.8936      2.5778      0.0679      4.3784     28.0688    155.8614
  1618.9000      7.8936      2.5862      0.0716      3.8638     28.0839    149.1914
  1619.0000      7.8952      2.5898      0.0834      3.6495     27.8972    150.6032
  1619.1000      7.8952      2.5882      0.0757      3.7464     27.7510    158.7596
  1619.2000      7.8952      2.5873      0.0692      3.8004     27.7303    159.9420
  1619.3000      7.8917      2.5933      0.0994      3.4389     27.8301    155.3093
  1619.4000      7.8917      2.5984      0.1069      3.1273     28.1308    153.1770
  1619.5000      7.8815      2.5910      0.0993      3.5760     28.6591    155.6527
  1619.6000      7.8815      2.5767      0.0382      4.4442     29.0929    162.4691
  1619.7000      7.8815      2.5686      0.0849      4.9336     29.1316    169.8114
  1619.8000      7.8713      2.5615      0.0651      5.3629     28.7318    172.2860
  1619.9000      7.8713      2.5517      0.0429      5.9578     27.7154    168.6680
  1620.0000      7.8685      2.5486      0.0197      6.1441     26.3622    162.5659
  1620.1000      7.8685      2.5519      0.0407      5.9448     25.5795    159.4834
  1620.2000      7.8685      2.5571      0.0078      5.6321     25.8289    163.5312
  1620.3000      7.8706      2.5631      0.0692      5.2662     26.8289    171.5207
  1620.4000      7.8706      2.5624      0.0743      5.3102     27.8792    175.9348
  1620.5000      7.8707      2.5591      0.0407      5.5112     28.2737    175.0859
  1620.6000      7.8707      2.5653      0.0597      5.1321     27.9738    170.2924
  1620.7000      7.8707      2.5727      0.0896      4.6852     27.6380    164.7132
  1620.8000      7.8689      2.5695      0.0482      4.8788     27.4400    161.8282
  1620.9000      7.8689      2.5622      0.0553      5.3197     27.1299    161.8131
  1621.0000      7.8681      2.5538      0.0832      5.8302     27.0218    159.9719
  1621.1000      7.8681      2.5383      0.0515      6.7718     27.2276    152.3942
  1621.2000      7.8681      2.5176      0.0685      8.0273     27.2211    143.3329
  1621.3000      7.8624      2.4972      0.0630      9.2624     26.8685    141.3142
