~Version Information
VERS.                      2.0: CWLS Log ASCII Standard - VERSION 2.0
WRAP.                       NO: One line per depth step
~Well Information Block
STRT.FT               259.0000: 
STOP.FT              2382.0000: 
STEP.FT                 0.2500: 
NULL.                -999.2500: 
COMP.          Pioneer Natural Resources: COMPANY
WELL.          Foothills 12-36: WELL
FLD.           Purgatoire River: FIELD
LOC.           2450' FNL & 201' FWL: LOCATION
PROV.                 Colorado: PROVINCE
CNTY.               Las Animas: COUNTRY
SRVC.                Patterson: SERVICE COMPANY
DATE.          Thu Apr 21 03:00:58 2005: LOG DATE
UWI.           05 071 08339 00: UNIQUE WELL ID
~Curve Information Block
DEPT.FT            0 000 00 00: Depth
SN.Ohm-m                      : IEL Short Normal
SP.mV                         : IEL Spontaneous Potential
DIR.Ohm-m                     : IEL Induction Resistivity
GR.GAPI                       : Gamma Ray
~Parameter Information Block
~A  Depth        SN          SP         DIR          GR     
# ...
  1364.5000     20.1497   -174.8797     18.1714     94.9738
  1364.7500     19.9483   -174.6919     18.1895     97.0475
  1365.0000     19.6871   -174.4887     18.0048     98.5731
  1365.2500     19.3814   -174.2774     17.7045     98.5325
  1365.5000     19.0468   -174.0765     17.4079     97.6112
  1365.7500     18.7251   -173.9013     17.2068     97.1228
  1366.0000     18.4526   -173.7621     17.1373     97.3937
  1366.2500     18.2560   -173.6674     17.1820     98.2452
  1366.5000     18.1552   -173.6238     17.2863    100.0257
  1366.7500     18.1295   -173.6347     17.3849    101.1615
  1367.0000     18.1239   -173.7007     17.4342    101.9406
  1367.2500     18.1018   -173.8215     17.4322    101.3084
  1367.5000     18.0566   -173.9899     17.4121     98.3989
  1367.7500     18.0242   -174.1846     17.4211     95.6667
  1368.0000     18.1230   -174.3725     17.5031     91.6270
  1368.2500     18.4647   -174.5216     17.6902     89.3020
  1368.5000     19.0089   -174.6157     17.9926     86.1954
  1368.7500     19.5912   -174.6616     18.3870     84.2363
  1369.0000     20.0659   -174.6848     18.8135     81.4586
  1369.2500     20.4131   -174.7197     19.1905     79.7884
  1369.5000     20.7135   -174.7953     19.4473     77.8818
  1369.7500     21.0134   -174.9239     19.5559     77.3878
  1370.0000     21.2535   -175.0975     19.5376     78.5212
  1370.2500     21.3153   -175.2927     19.4414     80.6562
  1370.5000     21.1072   -175.4806     19.3096     85.3265
  1370.7500     20.6679   -175.6374     19.1597     88.7615
  1371.0000     20.2039   -175.7496     18.9900     93.3994
  1371.2500     19.8883   -175.8150     18.7993     95.7788
  1371.5000     19.6131   -175.8457     18.5984     97.8872
  1371.7500     19.1455   -175.8689     18.4065     98.3027
  1372.0000     18.5415   -175.9185     18.2416     98.0781
  1372.2500     18.1470   -176.0141     18.1134     98.0095
  1372.5000     18.1521   -176.1444     18.0223     98.8089
  1372.7500     18.3687   -176.2759     17.9600     99.8285
  1373.0000     18.5071   -176.3826     17.9105    100.8845
  1373.2500     18.5077   -176.4694     17.8523    100.3365
  1373.5000     18.5034   -176.5638     17.7631     96.5541
  1373.7500     18.5858   -176.6885     17.6272     92.1021
  1374.0000     18.7283   -176.8428     17.4433     83.7990
  1374.2500     18.8935   -177.0072     17.2303     78.2900
  1374.5000     19.1394   -177.1592     17.0280     71.7866
  1374.7500     19.5094   -177.2855     16.8883     69.3078
  1375.0000     19.8751   -177.3883     16.8598     69.1573
  1375.2500     20.0290   -177.4845     16.9696     71.7355
  1375.5000     19.8852   -177.5984     17.2128     79.4633
  1375.7500     19.5165   -177.7487     17.5576     86.3803
  1376.0000     19.0496   -177.9361     17.9629     96.7100
  1376.2500     18.6449   -178.1427     18.3960    101.6075
  1376.5000     18.5063   -178.3463     18.8358    103.2111
  1376.7500     18.6925   -178.5371     19.2629     99.8877
  1377.0000     19.0438   -178.7246     19.6525     89.6191
  1377.2500     19.4757   -178.9339     19.9854     80.9436
  1377.5000     20.1241   -179.1950     20.2680     68.3114
  1377.7500     21.1511   -179.5297     20.5434     61.4714
  1378.0000     22.5682   -179.9387     20.8798     54.4523
  1378.2500     24.1856   -180.3964     21.3467     51.6699
  1378.5000     25.7206   -180.8580     21.9947     49.2749
  1378.7500     26.9863   -181.2746     22.8422     48.3764
  1379.0000     27.9333   -181.6099     23.8706     47.9235
  1379.2500     28.6204   -181.8526     25.0280     48.3992
  1379.5000     29.2003   -182.0155     26.2462     50.5044
  1379.7500     29.7859   -182.1268     27.4696     52.7305
  1380.0000     30.3789   -182.2186     28.6731     56.7518
  1380.2500     30.9849   -182.3186     29.8437     59.4911
  1380.5000     31.6396   -182.4454     30.9327     63.1440
  1380.7500     32.3488   -182.5995     31.8253     65.1067
  1381.0000     33.1122   -182.7575     32.3817     67.1843
  1381.2500     33.9304   -182.8813     32.5487     67.8559
  1381.5000     34.7567   -182.9425     32.4422     67.5119
  1381.7500     35.5248   -182.9388     32.3038     66.2989
  1382.0000     36.2372   -182.8879     32.3684     62.9772
  1382.2500     36.9612   -182.8086     32.7575     59.7606
  1382.5000     37.7311   -182.7120     33.4551     53.7422
  1382.7500     38.5180   -182.6052     34.3422     49.4953
  1383.0000     39.2600   -182.4989     35.2558     44.0914
  1383.2500     39.8528   -182.4101     36.0426     41.6613
  1383.5000     40.1749   -182.3552     36.5828     39.7887
  1383.7500     40.2225   -182.3394     36.7826     39.3482
  1384.0000     40.2021   -182.3513     36.5612     39.1965
  1384.2500     40.3171   -182.3663     35.8693     39.2079
  1384.5000     40.5116   -182.3563     34.7404     39.3674
  1384.7500     40.5916   -182.3033     33.3158     39.6669
  1385.0000     40.4664   -182.2069     31.7922     40.5962
  1385.2500     40.1624   -182.0781     30.3338     41.6417
  1385.5000     39.6752   -181.9275     29.0243     44.1255
  1385.7500     38.8981   -181.7609     27.8791     46.6635
  1386.0000     37.7379   -181.5878     26.8799     52.4007
  1386.2500     36.2269   -181.4261     25.9937     57.8029
  1386.5000     34.4362   -181.2914     25.1738     68.2565
  1386.7500     32.3531   -181.1815     24.3600     76.2198
  1387.0000     30.0256   -181.0759     23.4915     87.5367
  1387.2500     27.7977   -180.9509     22.5290     93.1198
  1387.5000     26.0921   -180.7928     21.4681     96.6939
  1387.7500     24.9171   -180.6012     20.3330     95.7682
  1388.0000     23.9203   -180.3855     19.1592     90.9847
  1388.2500     22.8891   -180.1624     17.9818     87.2056
  1388.5000     21.9139   -179.9493     16.8361     83.9349
  1388.7500     21.1183   -179.7544     15.7574     84.8032
  1389.0000     20.4089   -179.5703     14.7756     91.2162
  1389.2500     19.5742   -179.3818     13.9060     98.0150
  1389.5000     18.5275   -179.1809     13.1483    109.4295
  1389.7500     17.3306   -178.9744     12.4930    116.4677
  1390.0000     16.0841   -178.7796     11.9321    124.8107
  1390.2500     14.8628   -178.6119     11.4643    128.7109
  1390.5000     13.7409   -178.4765     11.0929    132.3849
  1390.7500     12.8482   -178.3638     10.8184    133.7428
  1391.0000     12.3023   -178.2534     10.6322    134.8642
  1391.2500     12.0674   -178.1242     10.5174    135.3728
  1391.5000     11.9959   -177.9687     10.4556    136.0970
  1391.7500     12.0195   -177.8014     10.4340    136.4867
  1392.0000     12.1877   -177.6516     10.4483    136.3058
  1392.2500     12.4892   -177.5408     10.4981    134.9822
  1392.5000     12.7572   -177.4604     10.5810    129.7610
  1392.7500     12.8636   -177.3668     10.6894    123.5910
  1393.0000     12.8824   -177.2013     10.8126    110.6282
  1393.2500     12.9400   -176.9216     10.9419    100.4600
  1393.5000     13.0855   -176.5233     11.0719     85.3856
  1393.7500     13.3687   -176.0408     11.1984     77.0374
  1394.0000     13.8197   -175.5278     11.3137     69.2090
  1394.2500     14.3353   -175.0314     11.4055     67.6035
  1394.5000     14.7043   -174.5733     11.4582     69.8012
  1394.7500     14.7477   -174.1488     11.4580     73.1619
  1395.0000     14.4630   -173.7408     11.3961     78.9229
  1395.2500     14.0507   -173.3351     11.2700     82.4936
  1395.5000     13.7399   -172.9287     11.0825     87.2657
  1395.7500     13.5918   -172.5311     10.8401     90.3559
  1396.0000     13.5196   -172.1614     10.5537     95.4835
  1396.2500     13.4339   -171.8423     10.2397     99.4733
  1396.5000     13.2903   -171.5901      9.9203    106.2894
  1396.7500     13.0743   -171.4091      9.6193    111.0490
  1397.0000     12.8003   -171.2937      9.3553    117.6166
  1397.2500     12.4954   -171.2283      9.1370    121.2017
  1397.5000     12.1835   -171.1844      8.9635    125.2346
  1397.7500     11.8779   -171.1282      8.8273    127.2342
