~Version Information
 VERS.                                  2.0 : CWLS LAS VERSION
 WRAP.                                   NO : WRAPING MODE
 SWARE .                 MController 2.5.0J : SOFTWARE VERSION
~Well Information
 WELL.                       Montoya 07-21R : WELL
 COMP.                Petrogulf Corporation : COMPANY
 FLD.                      Purgatoire River : FIELD
 LOC.                 NE/NW Sec 7 T33S R67W : LOCATION
 DATE.                           9/13-15/05 : DATE(S) LOGGED
 SRVC.       BLANCO Geological Services LLC : SERVICE COMPANY
 STAT.                                   CO : STATE
 CNTY.                           Las Animas : COUNTY
 CTRY.                                  USA : COUNTRY
 API.                       05-071-08435-00 : API NUMBER
 STRT.FT                             374.00 : START DEPTH
 STOP.FT                            1830.00 : STOP DEPTH
 STEP.FT                               1.00 : DEPTH INCREMENT
 NULL.                                -9999 : NULL VALUE
~Curve information
 DEPTH.FT                                   :
 ROP.MIN/FT                                 :
 GAS.UNITS                                  :
~ASCII Log data
# ...
      1174.0         0.15         26.3 
      1175.0         0.13         27.6 
      1176.0         0.07         28.1 
      1177.0         0.10         28.6 
      1178.0         0.13         29.9 
      1179.0         0.23         31.1 
      1180.0         0.20         31.1 
      1181.0         0.30         28.9 
      1182.0         0.27         24.7 
      1183.0         0.30         22.7 
      1184.0         0.27         21.8 
      1185.0         0.13         19.2 
      1186.0         0.17         17.9 
      1187.0         0.17         17.7 
      1188.0         0.17         17.2 
      1189.0         0.22         17.1 
      1190.0         0.23         16.0 
      1191.0         0.23         13.8 
      1192.0         0.37         13.1 
      1193.0         0.23         12.2 
      1194.0         0.27         11.6 
      1195.0         0.20          9.8 
      1196.0         0.17          8.7 
      1197.0         0.20          7.0 
      1198.0         3.75       1556.3 
      1199.0         0.38        450.5 
      1200.0         0.20         86.7 
      1201.0         0.33         54.9 
      1202.0         0.40         29.2 
      1203.0         0.27         17.4 
      1204.0         0.33         13.0 
      1205.0         0.30         10.5 
      1206.0         0.23          8.3 
      1207.0         0.27          7.1 
      1208.0         0.27          7.9 
      1209.0         0.22          8.1 
      1210.0         0.23          7.3 
      1211.0         0.23          6.9 
      1212.0         0.20          7.7 
      1213.0         0.20          7.7 
      1214.0         0.20          7.2 
      1215.0         0.30          7.0 
      1216.0         0.30          6.3 
      1217.0         0.20          6.0 
      1218.0         0.10          5.1 
      1219.0         0.10          5.2 
      1220.0         0.17          4.7 
      1221.0         0.27          4.9 
      1222.0         0.23          5.2 
      1223.0         0.23          5.5 
      1224.0         0.28          4.8 
      1225.0         0.27          4.1 
      1226.0         0.30          3.8 
      1227.0         0.30          3.5 
      1228.0         2.10         26.4 
      1229.0         0.35         52.4 
      1230.0         0.30        102.0 
      1231.0         0.40        311.8 
      1232.0         0.47       1575.6 
      1233.0        95.70       9688.6 
      1234.0         0.42         13.7 
      1235.0         0.30         12.3 
      1236.0         0.23         11.3 
      1237.0         0.20         11.2 
      1238.0         0.23         10.7 
      1239.0         0.23         10.9 
      1240.0         0.23         11.4 
      1241.0         0.20         12.4 
      1242.0         0.27         12.3 
      1243.0         0.33         12.3 
      1244.0         0.30         12.4 
      1245.0         0.27         12.1 
      1246.0         0.25         11.3 
      1247.0         0.23         11.4 
      1248.0         0.23         11.5 
      1249.0         0.23         10.9 
      1250.0         0.27         10.8 
      1251.0         0.27         10.8 
      1252.0         0.23         10.3 
      1253.0         0.23          9.6 
      1254.0         0.23          9.6 
      1255.0         0.20         10.2 
      1256.0         0.20         10.8 
      1257.0         0.20         10.3 
      1258.0         3.12       1948.2 
      1259.0         0.40        690.5 
      1260.0         0.72        440.4 
      1261.0         0.50         33.5 
      1262.0         0.40         18.5 
      1263.0         0.37         12.4 
      1264.0         0.30         10.5 
      1265.0         0.27          9.0 
      1266.0         0.30          8.7 
      1267.0         0.27          8.3 
      1268.0         0.27          8.7 
      1269.0         0.28          8.7 
      1270.0         0.23          8.9 
      1271.0         0.27          8.6 
      1272.0         0.17          8.5 
      1273.0         0.13          8.6 
      1274.0         0.20          8.8 
      1275.0         0.20          9.4 
      1276.0         0.27         11.2 
      1277.0         0.20         11.7 
      1278.0         0.30         11.2 
      1279.0         0.30         11.1 
      1280.0         0.30         10.4 
      1281.0         0.27          9.8 
      1282.0         0.28          9.6 
      1283.0         0.27         10.2 
      1284.0         0.23         10.1 
      1285.0         0.27          9.6 
      1286.0         0.23          9.4 
      1287.0         0.17          8.9 
      1288.0         3.22        476.3 
      1289.0         0.33        116.9 
      1290.0         0.37         53.7 
      1291.0         0.33         30.4 
      1292.0         0.30         22.3 
      1293.0         0.30         17.0 
      1294.0         0.27         12.3 
      1295.0         0.42          9.4 
      1296.0         0.23          6.6 
      1297.0         0.30          6.3 
      1298.0         0.27          8.3 
      1299.0         0.20          7.8 
      1300.0         0.23          8.2 
      1301.0         0.23          8.0 
      1302.0         0.30          7.4 
      1303.0         0.20          6.5 
      1304.0         0.17          6.4 
      1305.0         0.23          7.1 
      1306.0         0.27          7.1 
      1307.0         0.20          6.7 
      1308.0         0.17          7.0 
      1309.0         0.32          7.5 
      1310.0         0.20          7.6 
      1311.0         0.23          8.0 
      1312.0         0.50          8.4 
      1313.0         0.23          7.1 
      1314.0         0.23         10.4 
      1315.0         0.23         12.2 
      1316.0         0.23         12.4 
      1317.0         0.23         11.8 
      1318.0         0.23         10.6 
      1319.0         0.23          9.7 
      1320.0         3.05         34.6 
      1321.0         0.40         15.9 
      1322.0         0.38         20.4 
      1323.0         0.47         21.5 
      1324.0         0.57         16.6 
      1325.0         0.43          8.2 
      1326.0         0.33          6.1 
      1327.0         0.30          5.8 
      1328.0         0.37          5.9 
      1329.0         0.20          6.1 
      1330.0         0.23          7.1 
      1331.0         0.17          7.5 
      1332.0         0.18          8.2 
      1333.0         0.17          8.8 
      1334.0         0.17          8.9 
      1335.0         0.27          8.6 
      1336.0         0.27          9.9 
      1337.0         0.23          9.7 
      1338.0         0.40          9.8 
      1339.0         0.37          9.2 
      1340.0         0.27          8.0 
      1341.0         0.30         10.0 
      1342.0         0.27          9.9 
      1343.0         0.23          8.9 
      1344.0         0.20          7.8 
      1345.0         0.22          7.2 
      1346.0         0.23          8.5 
      1347.0         0.27         10.6 
      1348.0         0.30         12.6 
      1349.0         0.27         12.1 
      1350.0         2.52         34.0 
      1351.0         0.50         20.6 
      1352.0         0.40         23.9 
      1353.0         0.37         23.2 
      1354.0         0.30         17.9 
      1355.0         0.27         12.6 
      1356.0         0.30          9.1 
      1357.0         0.40          7.2 
      1358.0         0.38          9.1 
      1359.0         0.37          9.6 
      1360.0         0.37          9.6 
      1361.0         0.33          9.6 
      1362.0         0.33         10.3 
      1363.0         0.30         11.7 
      1364.0         0.40         15.7 
      1365.0         0.37         15.6 
      1366.0         0.37         15.2 
      1367.0         0.35         12.8 
      1368.0         0.37         11.1 
      1369.0         0.33          9.2 
      1370.0         0.33          9.3 
      1371.0         0.37          9.1 
      1372.0         0.37          9.3 
      1373.0         0.37         12.3 
