~Version Information
VERS.                      2.0: CWLS Log ASCII Standard - VERSION 2.0
WRAP.                       NO: One line per depth step
~Well Information Block
STRT.FT               -11.0000: 
STOP.FT              1523.2500: 
STEP.FT                 0.2500: 
NULL.                -999.2500: 
COMP.          Petrogulf Corporation: COMPANY
WELL.             State 16-43R: WELL
FLD.           Purgatorie River: FIELD
LOC.           2538' FSL & 716' FEL--: LOCATION
PROV.                       CO: PROVINCE
CNTY.               Las Animas: COUNTRY
SRVC.          Patterson Wireline: SERVICE COMPANY
DATE.          Fri Sep 09 13:13:52 2005: LOG DATE
UWI.           05 071 08338 00: UNIQUE WELL ID
~Curve Information Block
DEPT.FT            0 000 00 00: Depth
CCL.                          : Casing Collar Locator
TT3.usec                      : CBL 3' Travel Time
AMP3.mV                       : CBL 3' Amplitude
GR.GAPI                       : Gamma Ray
~Parameter Information Block
~A  Depth       CCL         TT3         AMP3         GR     
# ...
  1496.5000      0.0000    664.1542      8.1576     47.0732
  1496.7500      0.0000    664.0451      8.0394     53.5879
  1497.0000      0.0000    664.0947      7.9827     60.4511
  1497.2500      0.0000    664.2991      7.9902     68.8766
  1497.5000      0.0000    664.5470      8.0335     80.6516
  1497.7500      0.0000    664.7005      8.0880     96.1771
  1498.0000      0.0000    664.6786      8.1495    113.1690
  1498.2500      0.0000    664.4816      8.2219    127.5837
  1498.5000      0.0000    664.1852      8.3022    136.2513
  1498.7500      0.0000    663.9320      8.3803    138.7576
  1499.0000      0.0000    663.8767      8.4512    136.9804
  1499.2500      0.0000    664.0925      8.5215    133.3578
  1499.5000      0.0000    664.5280      8.6036    129.7398
  1499.7500      0.0000    665.0995      8.7059    127.2627
  1500.0000      0.0000    665.8842      8.8267    126.5232
  1500.2500      0.0000    667.3197      8.9551    127.4825
  1500.5000      0.0000    670.1765      9.0764    129.4241
  1500.7500      0.0000    674.9934      9.1773    131.4053
  1501.0000      0.0000    681.0468      9.2505    132.6985
  1501.2500      0.0000    685.9016      9.2953    132.7824
  1501.5000      0.0000    686.7339      9.3130    131.5318
  1501.7500      0.0000    682.7395      9.3031    129.9503
  1502.0000      0.0000    676.0620      9.2674    130.0399
  1502.2500      0.0000    669.9734      9.2188    133.0252
  1502.5000      0.0000    666.3297      9.1806    137.8396
  1502.7500      0.0000    664.9275      9.1712    141.9105
  1503.0000      0.0000    664.6873      9.1912    143.3253
  1503.2500      0.0000    664.8010      9.2259    142.0968
  1503.5000      0.0000    664.9573      9.2544    139.7071
  1503.7500      0.0000    665.0968      9.2538    137.7470
  1504.0000      0.0000    665.2644      9.2012    136.8013
  1504.2500      0.0000    665.7140      9.0776    136.4581
  1504.5000      0.0000    667.1249      8.8758    136.2100
  1504.7500      0.0000    670.5438      8.6062    135.8559
  1505.0000      0.0000    676.5021      8.3002    135.0244
  1505.2500      0.0000    683.6152      8.0010    133.0815
  1505.5000      0.0000    688.4059      7.7453    129.7282
  1505.7500      0.0000    687.6484      7.5416    125.0860
  1506.0000      0.0000    681.3085      7.3664    119.2199
  1506.2500      0.0000    672.6894      7.1819    112.2434
  1506.5000      0.0000    665.7573      6.9624    105.0141
  1506.7500      0.0000    663.0284      6.7079     99.3269
  1507.0000      0.0000    665.7157      6.4366     97.1342
  1507.2500      0.0000    674.4313      6.1656     99.3449
  1507.5000      0.0000    688.6071      5.8955    105.1845
  1507.7500      0.0000    705.3239      5.6147    112.7136
  1508.0000      0.0000    719.5972      5.3148    119.8890
  1508.2500      0.0000    726.8376      5.0001    125.0628
  1508.5000      0.0000    725.8459      4.6808    126.5213
  1508.7500      0.0000    719.7953      4.3657    121.8121
  1509.0000      0.0000    713.8691      4.0638    108.3286
  1509.2500      0.0000    710.9252      3.7868     85.8109
  1509.5000      0.0000    709.0561      3.5456     58.4693
  1509.7500      0.0000    704.0057      3.3457     33.3096
  1510.0000      0.0000    694.0809      3.1907     15.5392
  1510.2500      0.0000    681.7121      3.0871      5.8499
  1510.5000      0.0000    670.4032      3.0430      1.7589
  1510.7500      0.0000    662.1539      3.0624      0.4190
  1511.0000      0.0000    658.3857      3.1441      0.0781
  1511.2500      0.0000    661.2922      3.2899      0.0105
  1511.5000      0.0000    672.1648      3.5108      0.0000
  1511.7500      0.0000    688.3000      3.8247   -999.2500
  1512.0000      0.0000    702.8179      4.2443   -999.2500
  1512.2500      0.0000    708.6842      4.7659   -999.2500
  1512.5000      0.0000    703.5135      5.3728   -999.2500
  1512.7500      0.0000    690.8909      6.0535   -999.2500
  1513.0000      0.0000    677.3421      6.8119   -999.2500
  1513.2500      0.0000    667.8654      7.6484   -999.2500
  1513.5000      0.0000    662.9800      8.5175   -999.2500
  1513.7500      0.0000    657.8312      9.2893   -999.2500
  1514.0000      0.0000    642.0203      9.7424   -999.2500
  1514.2500      0.0000    600.6895      9.6076   -999.2500
  1514.5000      0.0000    520.8092      8.6907   -999.2500
  1514.7500      0.0000    403.1877      7.0509   -999.2500
  1515.0000      0.0000    269.3032      5.0748   -999.2500
  1515.2500      0.0000    150.9293      3.2928   -999.2500
  1515.5000      0.0000     69.5061      2.0579   -999.2500
  1515.7500      0.0000     25.9080      1.3947   -999.2500
  1516.0000      0.0000      7.7317      1.1178   -999.2500
  1516.2500      0.0000      1.8308      1.0279   -999.2500
  1516.5000      0.0000      0.3388      1.0052   -999.2500
  1516.7500      0.0000      0.0450      1.0007   -999.2500
  1517.0000      0.0000   -999.2500   -999.2500   -999.2500
  1517.2500      0.0000   -999.2500   -999.2500   -999.2500
  1517.5000      0.0000   -999.2500   -999.2500   -999.2500
  1517.7500      0.0000   -999.2500   -999.2500   -999.2500
  1518.0000      0.0000   -999.2500   -999.2500   -999.2500
  1518.2500      0.0000   -999.2500   -999.2500   -999.2500
  1518.5000      0.0000   -999.2500   -999.2500   -999.2500
  1518.7500      0.0000   -999.2500   -999.2500   -999.2500
  1519.0000      0.0000   -999.2500   -999.2500   -999.2500
  1519.2500      0.0000   -999.2500   -999.2500   -999.2500
  1519.5000      0.0000   -999.2500   -999.2500   -999.2500
  1519.7500      0.0000   -999.2500   -999.2500   -999.2500
  1520.0000      0.0000   -999.2500   -999.2500   -999.2500
  1520.2500      0.0000   -999.2500   -999.2500   -999.2500
  1520.5000      0.0000   -999.2500   -999.2500   -999.2500
  1520.7500      0.0000   -999.2500   -999.2500   -999.2500
  1521.0000      0.0000   -999.2500   -999.2500   -999.2500
  1521.2500      0.0000   -999.2500   -999.2500   -999.2500
  1521.5000      0.0000   -999.2500   -999.2500   -999.2500
  1521.7500      0.0000   -999.2500   -999.2500   -999.2500
  1522.0000      0.0000   -999.2500   -999.2500   -999.2500
  1522.2500      0.0000   -999.2500   -999.2500   -999.2500
  1522.5000      0.0000   -999.2500   -999.2500   -999.2500
  1522.7500   -999.2500   -999.2500   -999.2500   -999.2500
  1523.0000   -999.2500   -999.2500   -999.2500   -999.2500
  1523.2500   -999.2500   -999.2500   -999.2500   -999.2500
