~Version Information
VERS.                      2.0: CWLS Log ASCII Standard - VERSION 2.0
WRAP.                       NO: One line per depth step
~Well Information Block
STRT.FT               948.2500: 
STOP.FT              2134.5000: 
STEP.FT                 0.2500: 
NULL.                -999.2500: 
COMP.          Petrogulf Corporation: COMPANY
WELL.             Valejo 8-12R: WELL
FLD.           Purgatorie River: FIELD
LOC.           1351'' FNL & 1562' FWL: LOCATION
CNTY.               Las Animas: COUNTY
SRVC.                         : SERVICE COMPANY
DATE.          Wed Apr 28 02:30:32 2004: LOG DATE
UWI.           05 071 08038 00: UNIQUE WELL ID
STAT.                 Colorado: STATE
~Curve Information Block
DEPT.FT            0 000 00 00: Depth
SP.mV                         : DIL Spontaneous Potential
RILD.Ohm-m                    : DIL Deep Resistivity
RILM.Ohm-m                    : DIL Medium Resistivity
RLL3.Ohm-m                    : DIL Shallow Resistivity
GR.GAPI                       : Gamma Ray
~Parameter Information Block
~A  Depth        SP         RILD        RILM        RLL3         GR     
# ...
  2012.2500    165.6664      8.2632      9.0744     11.9882    156.8059
  2012.5000    165.2929      8.2592      9.1617     12.4324    154.1940
  2012.7500    164.8238      8.2674      9.2250     12.7073    153.0227
  2013.0000    164.2587      8.2867      9.2548     12.6537    152.3005
  2013.2500    163.6140      8.3159      9.2554     12.2219    151.9421
  2013.5000    162.9230      8.3524      9.2394     11.5399    150.5155
  2013.7500    162.2173      8.3915      9.2200     10.8686    148.8388
  2014.0000    161.5072      8.4284      9.2062     10.4614    145.9675
  2014.2500    160.7930      8.4610      9.1996     10.4225    144.3788
  2014.5000    160.1072      8.4912      9.1964     10.6619    142.9137
  2014.7500    159.5376      8.5226      9.1925     10.9762    142.4219
  2015.0000    159.1865      8.5592      9.1897     11.1875    141.6904
  2015.2500    159.0813      8.6041      9.1980     11.2399    140.6511
  2015.5000    159.1208      8.6605      9.2324     11.1962    137.8606
  2015.7500    159.1288      8.7312      9.3075     11.1724    135.6157
  2016.0000    158.9762      8.8189      9.4330     11.2799    132.9540
  2016.2500    158.6523      8.9256      9.6114     11.5980    132.0314
  2016.5000    158.2246      9.0523      9.8390     12.1577    131.5919
  2016.7500    157.7474      9.1994     10.1074     12.9227    131.5164
  2017.0000    157.2229      9.3662     10.4062     13.7882    131.3835
  2017.2500    156.6319      9.5500     10.7247     14.6260    131.4344
  2017.5000    155.9759      9.7473     11.0535     15.3767    132.2985
  2017.7500    155.2795      9.9543     11.3851     16.1277    133.5284
  2018.0000    154.5549     10.1687     11.7130     17.0524    135.7566
  2018.2500    153.7747     10.3898     12.0303     18.1892    137.0196
  2018.5000    152.8917     10.6170     12.3292     19.2806    138.7439
  2018.7500    151.9001     10.8477     12.6034     19.9250    140.4333
  2019.0000    150.8870     11.0752     12.8514     19.9345    144.2244
  2019.2500    150.0197     11.2907     13.0771     19.5105    146.8718
  2019.5000    149.4582     11.4873     13.2878     19.0659    149.1311
  2019.7500    149.2469     11.6643     13.4891     18.9157    148.9150
  2020.0000    149.2774     11.8272     13.6829     19.1115    146.4720
  2020.2500    149.3601     11.9835     13.8680     19.4932    144.2737
  2020.5000    149.3365     12.1398     14.0431     19.8515    141.4966
  2020.7500    149.1328     12.3008     14.2107     20.0717    140.1692
  2021.0000    148.7391     12.4714     14.3785     20.1834    138.2069
  2021.2500    148.1699     12.6602     14.5600     20.3140    136.5447
  2021.5000    147.4543     12.8805     14.7706     20.5820    133.8768
  2021.7500    146.6494     13.1472     15.0237     21.0256    132.4112
  2022.0000    145.8376     13.4706     15.3270     21.6518    130.6310
  2022.2500    145.0929     13.8467     15.6847     22.5180    129.1811
  2022.5000    144.4467     14.2536     16.1032     23.6626    125.7323
  2022.7500    143.8889     14.6595     16.5972     24.9679    122.4361
  2023.0000    143.3955     15.0413     17.1902     26.2871    116.0740
  2023.2500    142.9461     15.3986     17.9073     27.8742    110.8700
  2023.5000    142.5233     15.7489     18.7635     30.5749    101.5984
  2023.7500    142.1109     16.1097     19.7539     35.2845     94.6497
  2024.0000    141.6959     16.4879     20.8518     42.0036     83.9362
  2024.2500    141.2757     16.8816     22.0153     49.4527     77.2643
  2024.5000    140.8677     17.2872     23.1989     55.7668     68.9243
  2024.7500    140.5141     17.6974     24.3556     59.6786     64.7084
  2025.0000    140.2698     18.0968     25.4239     61.1179     60.2718
  2025.2500    140.1731     18.4651     26.3128     60.8582     58.4725
  2025.5000    140.2253     18.7913     26.9164     59.7482     57.5835
  2025.7500    140.3989     19.0798     27.1655     58.2024     58.2549
  2026.0000    140.6543     19.3372     27.0751     56.1813     61.0598
  2026.2500    140.9468     19.5517     26.7401     53.4717     64.0100
  2026.5000    141.2386     19.6888     26.2836     49.9699     69.8171
  2026.7500    141.5221     19.7130     25.8065     45.8418     74.3079
  2027.0000    141.8257     19.6155     25.3644     41.6108     80.8749
  2027.2500    142.1802     19.4218     24.9699     38.1327     84.2711
  2027.5000    142.5841     19.1750     24.6071     36.2194     86.8221
  2027.7500    143.0088     18.9133     24.2520     35.9834     86.8194
  2028.0000    143.4289     18.6590     23.8872     36.5821     85.0527
  2028.2500    143.8340     18.4214     23.5093     36.8554     83.1570
  2028.5000    144.2134     18.2055     23.1290     36.2765     79.4231
  2028.7500    144.5435     18.0182     22.7689     35.1864     76.1578
  2029.0000    144.7953     17.8681     22.4565     34.2046     69.8930
  2029.2500    144.9507     17.7610     22.2124     33.6383     65.1278
  2029.5000    145.0067     17.6957     22.0404     33.4243     58.5162
  2029.7500    144.9671     17.6629     21.9257     33.3700     55.2920
  2030.0000    144.8350     17.6513     21.8456     33.3178     52.4935
  2030.2500    144.6235     17.6529     21.7841     33.1707     51.4614
  2030.5000    144.3736     17.6651     21.7418     32.8904     50.1098
  2030.7500    144.1463     17.6875     21.7323     32.5173     49.0574
  2031.0000    143.9813     17.7175     21.7704     32.1910     47.3362
  2031.2500    143.8637     17.7502     21.8603     32.1323     46.3330
  2031.5000    143.7386     17.7820     21.9912     32.5575     45.5901
  2031.7500    143.5655     17.8137     22.1411     33.5627     45.9286
  2032.0000    143.3630     17.8511     22.2847     35.0730     48.2036
  2032.2500    143.2005     17.9030     22.4028     36.8750     51.1933
  2032.5000    143.1475     17.9787     22.4857     38.6501     58.2767
  2032.7500    143.2277     18.0849     22.5310     39.9630     64.6099
  2033.0000    143.4179     18.2237     22.5387     40.3166     75.0373
  2033.2500    143.6751     18.3930     22.5121     39.4128     81.0448
  2033.5000    143.9553     18.5908     22.4667     37.5027     86.1188
  2033.7500    144.2153     18.8164     22.4370     35.4189     86.3912
  2034.0000    144.4189     19.0684     22.4720     34.0781     83.4277
  2034.2500    144.5555     19.3377     22.6184     33.8638     80.5997
  2034.5000    144.6518     19.6039     22.9033     34.5169     76.9088
  2034.7500    144.7566     19.8378     23.3247     35.6245     75.0355
  2035.0000    144.9112     20.0126     23.8506     37.1881     72.3203
  2035.2500    145.1331     20.1167     24.4216     39.7505     70.0345
  2035.5000    145.4244     20.1578     24.9572     43.9310     65.9519
  2035.7500    145.7868     20.1551     25.3695     49.6269     63.6507
  2036.0000    146.2288     20.1256     25.5868     55.4748     63.2122
  2036.2500    146.7627     20.0749     25.5786     59.2042     66.1274
  2036.5000    147.3965     19.9984     25.3653     58.9342     75.4011
  2036.7500    148.1207     19.8886     25.0043     54.5496     83.2766
  2037.0000    148.8992     19.7418     24.5573     47.9603     93.2178
  2037.2500    149.6786     19.5545     24.0543     41.8801     96.6291
  2037.5000    150.4137     19.3149     23.4763     38.0854     97.0312
  2037.7500    151.0891     19.0009     22.7744     36.5457     95.9940
  2038.0000    151.7221     18.5940     21.9171     35.9238     95.9934
  2038.2500    152.3435     18.1000     20.9333     34.7768     98.2169
  2038.5000    152.9700     17.5574     19.9070     32.4497    105.2534
  2038.7500    153.5876     17.0237     18.9340     29.1782    111.8528
  2039.0000    154.1572     16.5511     18.0837     25.6401    122.5750
  2039.2500    154.6336     16.1687     17.3926     22.4708    128.8278
  2039.5000    154.9868     15.8780     16.8771     20.0342    135.0924
  2039.7500    155.2132     15.6582     16.5454     18.4394    136.9540
  2040.0000    155.3382     15.4794     16.4003     17.6786    136.8364
