~Version Information
 VERS.                                  2.0 : CWLS LAS VERSION
 WRAP.                                   NO : WRAPING MODE
 SWARE .                 MController 2.5.0J : SOFTWARE VERSION
~Well Information
 WELL.                        Montoya 1-24V : WELL
 COMP.                       Petrogulf Corp : COMPANY
 FLD.                      Purgatoire River : FIELD
 LOC.                 SE/SW Sec 1 T33S R68W : LOCATION
 DATE.                          10/19-20/04 : DATE(S) LOGGED
 SRVC.       Blanco Geological Services LLC : SERVICE COMPANY
 STAT.                                   CO : STATE
 CNTY.                           Las Animas : COUNTY
 CTRY.                                  USA : COUNTRY
 API.                       05-071-08194-00 : API NUMBER
 STRT.FT                             116.00 : START DEPTH
 STOP.FT                            2700.00 : STOP DEPTH
 STEP.FT                               1.00 : DEPTH INCREMENT
 NULL.                                -9999 : NULL VALUE
~Curve information
 DEPTH.FT                                   :
 ROP.MIN/FT                                 :
 GAS.UNITS                                  :
~ASCII Log data
# ...
      1516.0         0.23        316.7 
      1517.0         0.20        316.7 
      1518.0         0.23        316.7 
      1519.0         0.33        392.0 
      1520.0         0.33        354.0 
      1521.0         0.23        328.9 
      1522.0         0.17        212.1 
      1523.0         0.37        137.1 
      1524.0         0.47         57.6 
      1525.0         0.37         12.6 
      1526.0         0.42         10.2 
      1527.0         0.40         10.6 
      1528.0         0.40          9.7 
      1529.0         0.30          6.7 
      1530.0         0.30          2.9 
      1531.0         0.17         -0.4 
      1532.0         0.17         -1.8 
      1533.0         0.17         -2.9 
      1534.0         0.27         -3.0 
      1535.0         0.20         -3.0 
      1536.0         0.13         -2.6 
      1537.0         0.17         -2.6 
      1538.0         0.17         -2.3 
      1539.0         0.22         -3.0 
      1540.0         0.13         -3.3 
      1541.0         0.13         -3.7 
      1542.0         0.17         -4.0 
      1543.0         0.10         -4.0 
      1544.0         0.20         -4.4 
      1545.0         0.27         -4.3 
      1546.0         0.37        378.2 
      1547.0         0.27        121.5 
      1548.0         0.23         68.8 
      1549.0         0.20         63.1 
      1550.0         0.17         34.1 
      1551.0         0.17         25.5 
      1552.0         0.17         18.7 
      1553.0         0.23         11.7 
      1554.0         0.27         11.2 
      1555.0         0.28          8.1 
      1556.0         0.20          6.0 
      1557.0         0.20          3.6 
      1558.0         0.20          3.3 
      1559.0         0.23         -2.3 
      1560.0         0.20         -2.7 
      1561.0         0.23         -1.7 
      1562.0         0.23          1.2 
      1563.0         0.20          3.6 
      1564.0         0.20          5.9 
      1565.0         0.17          9.9 
      1566.0         0.27         10.8 
      1567.0         0.32         10.4 
      1568.0         0.27          7.4 
      1569.0         0.27          3.7 
      1570.0         0.10          3.8 
      1571.0         0.20          0.7 
      1572.0         0.23          0.3 
      1573.0         0.17         -0.4 
      1574.0         0.23         -1.4 
      1575.0         0.27         -2.2 
      1576.0         0.37        313.5 
      1577.0         0.30        133.7 
      1578.0         0.17        133.7 
      1579.0         0.23        172.6 
      1580.0         0.23        223.0 
      1581.0         0.20        184.4 
      1582.0         0.08        184.4 
      1583.0         0.27        108.6 
      1584.0         0.27         60.3 
      1585.0         0.27         55.2 
      1586.0         0.38         30.8 
      1587.0         0.37         24.3 
      1588.0         0.23         16.5 
      1589.0         0.30         10.0 
      1590.0         0.27          3.8 
      1591.0         0.27          0.5 
      1592.0         0.23         -2.8 
      1593.0         0.17         -3.4 
      1594.0         0.17         -4.1 
      1595.0         0.17         -4.1 
      1596.0         0.20         -4.2 
      1597.0         0.23         -4.3 
      1598.0         0.20         -4.7 
      1599.0         0.17         -4.4 
      1600.0         0.20         -4.4 
      1601.0         0.22         -3.9 
      1602.0         0.17        188.6 
      1603.0         0.17        119.2 
      1604.0         0.20         95.4 
      1605.0         0.17         52.9 
      1606.0         0.20         48.4 
      1607.0         0.10         28.2 
      1608.0         0.13         41.7 
      1609.0         0.10         41.7 
      1610.0         0.17         53.7 
      1611.0         0.17         77.0 
      1612.0         0.20         85.3 
      1613.0         0.20         68.2 
      1614.0         0.17         50.2 
      1615.0         0.20         41.5 
      1616.0         0.32         26.4 
      1617.0         0.33         21.4 
      1618.0         0.33         16.0 
      1619.0         0.33         11.7 
      1620.0         0.27          7.9 
      1621.0         0.23          3.4 
      1622.0         0.27         -1.0 
      1623.0         0.23         -3.3 
      1624.0         0.23         -4.3 
      1625.0         0.23         -4.8 
      1626.0         0.23         -5.1 
      1627.0         0.20         -5.4 
      1628.0         0.20         -5.1 
      1629.0         0.25         -5.4 
      1630.0         0.23         -5.6 
      1631.0         0.23         -5.6 
      1632.0         0.20         -5.6 
      1633.0         0.23         -5.7 
      1634.0         0.23         -5.6 
      1635.0         0.20        160.8 
      1636.0         0.23        130.1 
      1637.0         0.20        110.4 
      1638.0         0.20        117.7 
      1639.0         0.23        120.0 
      1640.0         0.23        111.0 
      1641.0         0.20         73.1 
      1642.0         0.20         68.1 
      1643.0         0.20         36.0 
      1644.0         0.20         15.1 
      1645.0         0.32          6.2 
      1646.0         0.37         -2.5 
      1647.0         0.37         -2.2 
      1648.0         0.33         -3.7 
      1649.0         0.27         -2.0 
      1650.0         0.23         -1.9 
      1651.0         0.27         -1.5 
      1652.0         0.27         -1.2 
      1653.0         0.30         -1.3 
      1654.0         0.23         -3.0 
      1655.0         0.23         -4.1 
      1656.0         0.23         -5.9 
      1657.0         0.25         -6.4 
      1658.0         0.13         -6.6 
      1659.0         0.17         -6.4 
      1660.0         0.17         -6.5 
      1661.0         0.17         -6.6 
      1662.0         0.17         -6.5 
      1663.0         0.17          5.5 
      1664.0         0.20          5.5 
      1665.0         0.20         11.3 
      1666.0         0.17         11.3 
      1667.0         0.17         12.0 
      1668.0         0.13         12.0 
      1669.0         0.17          9.0 
      1670.0         0.17          7.9 
      1671.0         0.20          3.5 
      1672.0         0.17          0.2 
      1673.0         0.17         -0.6 
      1674.0         0.27         -1.9 
      1675.0         0.30         -4.2 
      1676.0         0.27         -4.7 
      1677.0         0.27         -5.0 
      1678.0         0.23         -5.2 
      1679.0         0.23         -5.1 
      1680.0         0.20         -4.9 
      1681.0         0.23         -4.9 
      1682.0         0.23         -5.0 
      1683.0         0.20         -5.5 
      1684.0         0.23         -6.1 
      1685.0         0.20         -6.5 
      1686.0         0.20         -6.4 
      1687.0         0.22         -6.4 
      1688.0         0.20         -6.7 
      1689.0         0.20         -6.5 
      1690.0         0.20         -6.6 
      1691.0         0.17         -6.4 
      1692.0         0.23         -6.7 
      1693.0         0.23         -6.7 
      1694.0         0.17         -6.7 
      1695.0         0.17         -6.8 
      1696.0         0.13         -7.2 
      1697.0         0.17         -7.1 
      1698.0         0.17         -7.4 
      1699.0         0.20          5.0 
      1700.0         0.27          4.3 
      1701.0         0.13          3.4 
      1702.0         0.27          3.5 
      1703.0         0.27          3.4 
      1704.0         0.28         44.9 
      1705.0         0.30         47.7 
      1706.0         0.33         40.8 
      1707.0         0.33         17.0 
      1708.0         0.38         16.9 
      1709.0         0.30          7.8 
      1710.0         0.27          7.0 
      1711.0         0.20          7.1 
      1712.0         0.20          7.2 
      1713.0         0.20          7.0 
      1714.0         0.20          7.3 
      1715.0         0.23          7.2 
