~Version Information
 VERS.                                  2.0 : CWLS LAS VERSION
 WRAP.                                   NO : WRAPING MODE
 SWARE .                 MController 2.5.0E : SOFTWARE VERSION
~Well Information
 WELL.                         STATE 16-24V : WELL
 COMP.                      Petrogulf Corp. : COMPANY
 FLD.                      Purgatorie River : FIELD
 LOC.                NW/SE Sec 16 T33S R67W : LOCATION
 DATE.                      5/02/04-5/03/04 : DATE(S) LOGGED
 SRVC.       Blanco Geological Services LLC : SERVICE COMPANY
 STAT.                                   CO : STATE
 CNTY.                           Las Animas : COUNTY
 CTRY.                                  USA : COUNTRY
 API.                       05-071-08014-00 : API NUMBER
 STRT.FT                              40.00 : START DEPTH
 STOP.FT                            2380.00 : STOP DEPTH
 STEP.FT                               1.00 : DEPTH INCREMENT
 NULL.                                -9999 : NULL VALUE
~Curve information
 DEPTH.FT                                   :
 ROP.MIN/FT                                 :
 GAS.UNITS                                  :
~ASCII Log data
# ...
     2240.00        0.200         35.1 
     2241.00        0.200         34.5 
     2242.00        0.200         34.6 
     2243.00        0.233         35.2 
     2244.00        0.217         35.2 
     2245.00        0.200         34.9 
     2246.00        3.217         34.5 
     2247.00        0.233         29.9 
     2248.00        0.400         29.0 
     2249.00        0.367         29.4 
     2250.00        0.300         29.0 
     2251.00        0.300         29.2 
     2252.00        0.300         29.4 
     2253.00        0.233         29.5 
     2254.00        0.267         29.1 
     2255.00        0.267         29.5 
     2256.00        0.233         31.0 
     2257.00        0.283         31.9 
     2258.00        0.500         31.6 
     2259.00        0.333         33.1 
     2260.00        0.233         32.7 
     2261.00        0.233         32.9 
     2262.00        0.200         34.0 
     2263.00        0.233         34.1 
     2264.00        0.200         34.1 
     2265.00        0.200         33.6 
     2266.00        0.233         32.7 
     2267.00        0.233         32.6 
     2268.00        0.200         32.4 
     2269.00        0.200         32.4 
     2270.00        0.233         34.2 
     2271.00        0.217         65.8 
     2272.00        0.267         40.9 
     2273.00        0.233         33.9 
     2274.00        0.233         31.5 
     2275.00        0.233         30.2 
     2276.00        3.250         29.9 
     2277.00        0.700         27.2 
     2278.00        0.333         26.1 
     2279.00        0.300         26.7 
     2280.00        0.300         26.6 
     2281.00        0.267         27.6 
     2282.00        0.300         28.0 
     2283.00        0.283         28.4 
     2284.00        0.267         28.4 
     2285.00        0.267         28.9 
     2286.00        0.267         29.6 
     2287.00        0.267         29.9 
     2288.00        0.367         30.9 
     2289.00        0.367         30.6 
     2290.00        0.300         31.2 
     2291.00        0.267         29.9 
     2292.00        0.267         31.1 
     2293.00        0.267         30.2 
     2294.00        0.300         29.9 
     2295.00        0.283         29.8 
     2296.00        0.267         29.6 
     2297.00        0.267         28.2 
     2298.00        0.200         27.8 
     2299.00        0.200         27.5 
     2300.00        0.233         27.5 
     2301.00        0.233         27.2 
     2302.00        0.233         26.9 
     2303.00        0.233         26.8 
     2304.00        0.200         26.8 
     2305.00        0.267         25.8 
     2306.00       11.900        161.9 
     2307.00        0.533        164.9 
     2308.00        0.567        156.0 
     2309.00        0.467        139.1 
     2310.00        0.533        129.2 
     2311.00       11.067        159.9 
     2312.00        0.367         99.7 
     2313.00        0.267         96.7 
     2314.00        0.567         87.2 
     2315.00        0.267         81.5 
     2316.00        0.633         80.7 
     2317.00        0.983         75.9 
     2318.00        1.200         74.6 
     2319.00        0.900         93.5 
     2320.00        0.783        100.7 
     2321.00        0.500         86.0 
     2322.00        0.633         76.0 
     2323.00        0.633         62.9 
     2324.00        0.633         64.2 
     2325.00        0.667         65.5 
     2326.00        0.783         68.3 
     2327.00        0.767         69.2 
     2328.00        0.700         69.7 
     2329.00        0.667         68.6 
     2330.00        0.750         78.9 
     2331.00        0.733         78.9 
     2332.00        0.800         75.4 
     2333.00        0.767         72.1 
     2334.00        0.850         73.8 
     2335.00        0.867         73.9 
     2336.00        6.433        398.4 
     2337.00        0.300        107.7 
     2338.00        0.633        105.2 
     2339.00        5.500        220.1 
     2340.00        0.667        162.2 
     2341.00        0.433        146.0 
     2342.00        0.900        129.1 
     2343.00        0.400         92.3 
     2344.00        0.400         90.0 
     2345.00        0.717         80.3 
     2346.00        0.467         65.3 
     2347.00        0.467         64.6 
     2348.00        0.500         61.1 
     2349.00        0.400         59.3 
     2350.00        0.600         55.9 
     2351.00        0.617         57.3 
     2352.00        0.600         58.2 
     2353.00        0.633         58.3 
     2354.00        0.467         57.1 
     2355.00        0.467         56.2 
     2356.00        0.533         58.5 
     2357.00        0.517         63.7 
     2358.00        0.533         64.9 
     2359.00        0.367         66.2 
     2360.00        0.467         67.3 
     2361.00        0.400         67.4 
     2362.00        0.433         67.2 
     2363.00        0.467         66.6 
     2364.00        0.467         64.5 
     2365.00        0.483         64.5 
     2366.00        0.433         62.6 
     2367.00        0.467         58.5 
     2368.00        7.933        358.8 
     2369.00        0.500        148.7 
     2370.00        0.850        245.8 
     2371.00        0.633        250.8 
     2372.00        0.600        248.2 
     2373.00        0.567        231.8 
     2374.00        0.867        183.7 
     2375.00        0.617        132.4 
     2376.00        0.633        107.7 
     2377.00        0.667         89.5 
     2378.00        0.667         83.1 
     2379.00        0.467         90.9 
     2380.00        0.433         92.4 
