~Version Information
VERS.                      2.0: CWLS Log ASCII Standard - VERSION 2.0
WRAP.                       NO: One line per depth step
~Well Information Block
STRT.FT               700.0000: 
STOP.FT              1869.5000: 
STEP.FT                 0.2500: 
NULL.                -999.2500: 
COMP.          Petrogulf Corporation: COMPANY
WELL.             State 16-24R: WELL
FLD.           Purgatorie River: FIELD
LOC.           541' FSL & 2371' FWL: LOCATION
PROV.                 Colorado: PROVINCE
CNTY.               Las Animas: COUNTRY
SRVC.                Patterson: SERVICE COMPANY
DATE.          Fri Aug 12 09:07:22 2005: LOG DATE
UWI.                071-08312 : UNIQUE WELL ID
~Curve Information Block
DEPT.FT            0 000 00 00: Depth
SP.mV                         : DIL Spontaneous Potential
RILD.Ohm-m                    : DIL Deep Resistivity
RILM.Ohm-m                    : DIL Medium Resistivity
RLL3.Ohm-m                    : DIL Shallow Resistivity
GR.GAPI                       : Gamma Ray
~Parameter Information Block
~A  Depth        SP         RILD        RILM        RLL3         GR     
# ...
  1008.0000     43.7468     36.5599     43.0362     41.1801     34.9420
  1008.2500     43.4202     35.4752     41.8703     43.4264     33.0212
  1008.5000     42.9179     33.9770     41.3222     46.4009     37.4024
  1008.7500     45.0482     31.0155     40.1892     47.0851     38.1173
  1009.0000     46.4198     30.7267     38.8849     44.4440     39.0282
  1009.2500     46.4579     29.9802     36.7494     40.8402     44.0139
  1009.5000     47.8837     29.6093     34.3405     39.0927     61.2516
  1009.7500     51.3955     28.8192     32.7146     34.7967     70.0673
  1010.0000     51.0242     25.8636     30.2742     30.2311     85.6319
  1010.2500     50.6611     24.7092     28.9011     24.0551     98.4384
  1010.5000     55.6201     25.3138     26.4656     12.4598     98.9245
  1010.7500     58.8855     25.3749     25.6699     22.5081    102.5502
  1011.0000     61.3464     25.8276     24.6851     22.5601    110.5427
  1011.2500     63.3691     25.8838     24.6037     22.1786    111.8342
  1011.5000     64.3824     26.3568     24.3047     22.8481    102.2611
  1011.7500     66.5539     25.0593     24.5597     23.3916     94.3413
  1012.0000     69.4584     25.4873     25.5095     21.6987     81.1571
  1012.2500     73.8048     26.6623     26.0334     22.6823     71.4488
  1012.5000     73.5023     26.0896     28.3046     35.1527     59.1338
  1012.7500     77.6791     26.8783     29.4070     83.2167     52.9909
  1013.0000     82.0165     27.9301     30.7015     93.1611     49.0063
  1013.2500     87.2581     27.0017     31.7760     63.9366     49.2825
  1013.5000     92.8765     27.9586     32.5569     60.2894     47.5280
  1013.7500     98.6341     27.3857     34.2815     80.7293     47.4610
  1014.0000    102.0437     27.6871     36.0911    109.5689     69.6713
  1014.2500    104.6614     28.6895     34.0364     89.4748     75.1997
  1014.5000    116.6630     28.1303     32.1763     42.6597     94.2992
  1014.7500    121.8443     28.1294     31.2481     27.8533    109.0871
  1015.0000    126.6034     29.3850     31.3373     25.7320    110.2834
  1015.2500    131.2390     29.9015     31.0417     27.4274    107.2305
  1015.5000    133.4414     28.8900     31.5799     30.2911    107.2327
  1015.7500    135.6210     27.4583     30.1439     33.4387    109.0236
  1016.0000    136.9939     27.2779     28.8412     32.6665    112.6031
  1016.2500    137.4870     26.4116     26.7675     31.2321    115.1861
  1016.5000    140.0129     25.7955     27.6525     30.7637    118.4166
  1016.7500    140.7038     26.5803     26.0952     29.4885    119.6108
  1017.0000    142.7990     25.9053     26.5386     26.5013    123.5964
  1017.2500    142.9765     25.9210     26.9759     26.0041    119.3237
  1017.5000    142.5912     24.3358     28.1601     28.1763    115.2729
  1017.7500    142.0171     24.7606     28.9846     32.2710    114.0625
  1018.0000    139.7413     27.3606     28.6243     35.0571    119.9328
  1018.2500    142.4439     26.9058     29.6338     36.2669    115.9578
  1018.5000    141.4900     26.6604     30.2913     36.3952    110.1940
  1018.7500    139.4433     26.3556     30.2047     36.8930    106.7377
  1019.0000    140.8328     27.1873     29.6435     37.3822    110.0170
  1019.2500    142.0158     27.6951     29.2997     37.4504    103.8554
  1019.5000    140.1118     27.6263     30.4929     36.6530    110.2335
  1019.7500    138.5715     27.3991     30.2740     34.4989    108.4114
  1020.0000    137.5207     28.7316     30.4532     34.0274     97.1022
  1020.2500    135.8667     31.5868     31.1448     35.1534     95.9055
  1020.5000    135.6352     29.9126     30.9648     35.8633    107.7468
  1020.7500    133.0843     32.0688     30.9002     35.4192    107.9818
  1021.0000    130.8399     33.1448     31.1519     34.9512    106.9134
  1021.2500    128.1383     32.0845     33.2539     31.2390    111.8774
  1021.5000    125.6302     32.3192     33.2623     14.8793    116.0434
  1021.7500    122.7877     32.8449     31.3380     10.0823    104.8444
  1022.0000    117.4372     31.0894     33.2260     10.0209     84.1729
  1022.2500    113.2927     31.2831     35.0280     10.3136     77.4643
  1022.5000    118.5720     32.4651     36.3660     10.9083     70.4947
  1022.7500    120.9733     32.1966     37.4604     12.0415     68.5345
  1023.0000    121.9153     32.6263     36.9253     13.4468     71.9914
  1023.2500    117.9380     32.3619     36.8918     19.9635     78.3218
  1023.5000    117.6432     30.8526     36.5316     51.4356     83.6119
  1023.7500    115.4739     30.9232     34.8933     44.6768     87.6811
  1024.0000    115.3289     34.6161     33.1052     38.0268     88.0866
  1024.2500    114.8508     34.4082     33.3073     37.9254     96.7922
  1024.5000    113.2250     31.2171     31.7955     33.8866     88.5132
  1024.7500    109.8514     32.8386     31.4493     31.9748     85.7122
  1025.0000    111.8993     32.4314     32.5889     33.6344     77.0163
  1025.2500    115.3858     34.6646     32.1872     34.1421     71.2186
  1025.5000    114.2915     34.7311     31.7673     34.2122     77.5408
  1025.7500    112.1903     34.5705     34.8770     34.5725     72.4083
  1026.0000    108.9389     35.4334     34.4404     35.4180     59.0606
  1026.2500    103.4942     32.5041     33.2361     36.8088     54.4433
  1026.5000    106.3582     33.1965     34.3380     38.1523     51.6859
  1026.7500    104.1120     33.8360     33.9409     39.0519     55.4976
  1027.0000    101.4584     33.8454     33.8399     39.7214     64.8774
  1027.2500     98.8682     35.3229     34.7148     39.8493     61.9334
  1027.5000    103.9112     33.7784     36.1839     39.9540     56.3105
  1027.7500    101.2986     35.8544     35.1647     39.9923     55.7850
  1028.0000     99.1231     34.6117     35.7120     40.2255     52.7794
  1028.2500     99.3433     34.5773     37.0026     41.4965     49.1664
  1028.5000     97.3209     34.4270     36.1861     43.1060     55.1362
  1028.7500     97.4024     35.4397     37.5525     44.5526     57.0421
  1029.0000     96.5111     37.2863     37.0901     45.4431     60.1840
  1029.2500     94.0362     35.6876     36.9983     45.4310     62.1298
  1029.5000     90.7988     37.9038     36.5996     44.7575     59.8855
  1029.7500     88.6170     37.5796     35.9274     42.7151     56.2711
  1030.0000     85.6016     36.2758     38.1462     41.4351     51.7920
  1030.2500     85.9663     36.2166     37.5290     41.7632     59.3095
  1030.5000     82.1244     35.5564     36.7810     41.7565     58.1151
  1030.7500     76.3357     36.0706     36.5340     41.2788     56.4469
  1031.0000     81.3172     36.6019     36.3454     41.3077     58.8033
  1031.2500     80.0123     37.3769     38.0652     41.4758     53.1022
  1031.5000     78.4008     33.6910     36.6562     40.9425     56.9050
  1031.7500     76.2267     36.2601     37.2785     40.5726     56.7735
  1032.0000     74.4524     36.7619     36.6557     40.0260     56.2101
  1032.2500     72.4886     33.6613     38.2417     40.9816     54.2647
  1032.5000     72.9284     37.4742     37.4443     42.4872     52.5253
  1032.7500     72.6150     33.7811     37.2836     43.2605     52.3156
  1033.0000     71.9359     34.0840     38.4386     34.1339     48.9687
  1033.2500     72.3865     35.5990     37.9733     44.9540     47.1719
  1033.5000     72.2541     37.1454     36.4353     43.8618     51.5932
  1033.7500     70.3964     35.7613     37.2692     41.5374     58.7304
  1034.0000     67.5094     34.8086     38.0683     45.5131     54.1412
  1034.2500     66.0471     34.3921     37.9615     46.8201     50.7097
  1034.5000     66.6152     36.4922     37.9281     46.1562     56.4717
  1034.7500     66.0425     35.6583     36.6873     45.2730     57.8658
  1035.0000     64.2049     37.6471     38.1978     43.7712     62.3415
  1035.2500     62.8985     35.4764     39.4613     41.5424     58.3844
  1035.5000     59.7584     35.0457     36.5288     40.5483     63.7957
  1035.7500     61.0166     35.2508     38.1933     40.5703     61.9589
