~Version Information
VERS.                      2.0: CWLS Log ASCII Standard - VERSION 2.0
WRAP.                       NO: One line per depth step
~Well Information Block
STRT.FT               750.0000: 
STOP.FT              2433.0000: 
STEP.FT                 0.2500: 
NULL.                -999.2500: 
COMP.          Petrogulf Corporation: COMPANY
WELL.           McDaniel 9-34V: WELL
FLD.           Purgatorie River: FIELD
LOC.           620' FSL & 1800' FEL: LOCATION
PROV.                 Colorado: PROVINCE
CNTY.               Las Animas: COUNTRY
SRVC.                Patterson: SERVICE COMPANY
DATE.          Tue Sep 27 19:56:11 2005: LOG DATE
UWI.                          : UNIQUE WELL ID
~Curve Information Block
DEPT.FT            0 000 00 00: Depth
SP.mV                         : DIL Spontaneous Potential
RILD.Ohm-m                    : DIL Deep Resistivity
RILM.Ohm-m                    : DIL Medium Resistivity
RLL3.Ohm-m                    : DIL Shallow Resistivity
GR.GAPI                       : Gamma Ray
~Parameter Information Block
~A  Depth        SP         RILD        RILM        RLL3         GR     
# ...
  1954.0000    144.2024     12.7289     11.9064     13.5055    120.5614
  1954.2500    144.3637     12.9982     12.2523     14.1385    126.8416
  1954.5000    144.5491     13.2522     12.6977     16.1519    135.5545
  1954.7500    144.7524     13.4843     13.2372     20.6802    139.4396
  1955.0000    144.9666     13.7009     13.8554     28.6702    140.9515
  1955.2500    145.1845     13.9189     14.5269     39.6136    139.7282
  1955.5000    145.3984     14.1593     15.2193     50.5754    137.5174
  1955.7500    145.6010     14.4368     15.8989     57.1145    137.0614
  1956.0000    145.7847     14.7533     16.5372     56.2274    136.9921
  1956.2500    145.9429     15.0933     17.1132     48.8394    135.4760
  1956.5000    146.0699     15.4240     17.6107     39.2335    128.8043
  1956.7500    146.1619     15.6982     18.0084     31.9762    121.9786
  1957.0000    146.2184     15.8610     18.2729     29.2970    110.8820
  1957.2500    146.2420     15.8641     18.3576     30.6649    103.8613
  1957.5000    146.2383     15.6858     18.2162     33.9094     93.6619
  1957.7500    146.2139     15.3468     17.8255     36.5965     86.9400
  1958.0000    146.1749     14.9085     17.2052     37.0458     78.5544
  1958.2500    146.1243     14.4495     16.4197     34.8128     75.7557
  1958.5000    146.0607     14.0372     15.5596     30.5722     77.4902
  1958.7500    145.9779     13.7100     14.7144     25.5672     82.0400
  1959.0000    145.8658     13.4756     13.9535     20.9858     90.8892
  1959.2500    145.7124     13.3206     13.3188     17.5616     96.4037
  1959.5000    145.5068     13.2245     12.8293     15.4904    102.9071
  1959.7500    145.2410     13.1712     12.4887     14.5799    106.2331
  1960.0000    144.9120     13.1558     12.2935     14.4759    110.2632
  1960.2500    144.5223     13.1851     12.2397     14.8312    112.4736
  1960.5000    144.0791     13.2747     12.3271     15.3863    114.9796
  1960.7500    143.5935     13.4429     12.5618     16.0287    115.7541
  1961.0000    143.0789     13.7067     12.9574     16.9550    114.7404
  1961.2500    142.5504     14.0793     13.5342     19.0696    112.5317
  1961.5000    142.0249     14.5693     14.3174     24.6612    107.9708
  1961.7500    141.5226     15.1815     15.3335     38.0048    105.0281
  1962.0000    141.0681     15.9132     16.6054     64.8977    101.4779
  1962.2500    140.6917     16.7468     18.1437    110.0569     99.0879
  1962.5000    140.4286     17.6441     19.9347    172.8596     93.0788
  1962.7500    140.3151     18.5467     21.9236    244.3694     86.1947
  1963.0000    140.3837     19.3857     23.9948    308.8021     71.5050
  1963.2500    140.6557     20.0923     25.9575    349.2316     60.2667
  1963.5000    141.1352     20.6036     27.5532    354.1324     44.9566
  1963.7500    141.8057     20.8662     28.5059    321.7950     37.5635
  1964.0000    142.6302     20.8433     28.6154    261.3847     31.8889
  1964.2500    143.5566     20.5281     27.8490    189.7244     31.3335
  1964.5000    144.5255     19.9511     26.3622    124.1922     33.6794
  1964.7500    145.4791     19.1749     24.4294     75.5704     36.4156
  1965.0000    146.3692     18.2772     22.3361     45.5620     41.4001
  1965.2500    147.1612     17.3329     20.3021     29.6672     45.1528
  1965.5000    147.8355     16.4016     18.4598     21.9195     51.2854
  1965.7500    148.3852     15.5223     16.8672     17.9563     55.5861
  1966.0000    148.8119     14.7159     15.5340     15.6039     62.1035
  1966.2500    149.1218     13.9904     14.4431     14.0988     66.3639
  1966.5000    149.3221     13.3455     13.5655     13.2090     72.6179
  1966.7500    149.4191     12.7754     12.8687     12.7877     76.8924
  1967.0000    149.4172     12.2708     12.3209     12.6809     83.8821
  1967.2500    149.3195     11.8208     11.8927     12.7560     88.8967
  1967.5000    149.1278     11.4165     11.5569     12.9366     96.0322
  1967.7500    148.8448     11.0515     11.2890     13.2386     99.6307
  1968.0000    148.4752     10.7231     11.0661     13.7905    102.0351
  1968.2500    148.0286     10.4303     10.8675     14.7535    101.6142
  1968.5000    147.5219     10.1733     10.6759     16.1136     99.1648
  1968.7500    146.9803      9.9524     10.4785     17.4974     97.2208
  1969.0000    146.4369      9.7666     10.2689     18.2580     94.6920
  1969.2500    145.9287      9.6128     10.0472     17.8806     93.2465
  1969.5000    145.4905      9.4864      9.8197     16.3872     91.0125
  1969.7500    145.1482      9.3816      9.5958     14.3454     89.5216
  1970.0000    144.9132      9.2931      9.3855     12.4740     88.5579
  1970.2500    144.7809      9.2159      9.1975     11.2275     89.8451
  1970.5000    144.7327      9.1454      9.0370     10.6665     95.3531
  1970.7500    144.7411      9.0786      8.9068     10.5845    100.6213
  1971.0000    144.7757      9.0158      8.8077     10.7027    108.3775
  1971.2500    144.8083      8.9615      8.7399     10.8064    112.0732
  1971.5000    144.8161      8.9233      8.7046     10.7940    114.0567
  1971.7500    144.7819      8.9084      8.7042     10.6655    113.0207
  1972.0000    144.6939      8.9204      8.7420     10.5005    109.5835
  1972.2500    144.5454      8.9577      8.8206     10.4514    107.5773
  1972.5000    144.3343      9.0142      8.9407     10.7234    106.7255
  1972.7500    144.0637      9.0818      9.0990     11.5092    107.3234
  1973.0000    143.7423      9.1527      9.2868     12.8751    108.0405
  1973.2500    143.3844      9.2206      9.4901     14.6574    107.5140
  1973.5000    143.0089      9.2813      9.6903     16.4612    105.1994
  1973.7500    142.6384      9.3325      9.8673     17.8212    103.1768
  1974.0000    142.2974      9.3751     10.0032     18.4496    100.2144
  1974.2500    142.0100      9.4135     10.0862     18.3812     98.5144
  1974.5000    141.7976      9.4550     10.1131     17.8798     96.6074
  1974.7500    141.6760      9.5056     10.0896     17.1750     95.7747
  1975.0000    141.6534      9.5650     10.0284     16.2852     94.9299
  1975.2500    141.7279      9.6236      9.9452     15.1192     94.5206
  1975.5000    141.8871      9.6634      9.8551     13.7376     94.2778
  1975.7500    142.1094      9.6644      9.7689     12.4614     94.5080
  1976.0000    142.3668      9.6127      9.6912     11.7151     95.4786
  1976.2500    142.6288      9.5061      9.6196     11.7814     96.4473
  1976.5000    142.8665      9.3544      9.5464     12.6338     98.2893
  1976.7500    143.0551      9.1752      9.4616     13.8800     99.8569
  1977.0000    143.1759      8.9883      9.3575     14.8774    102.7728
  1977.2500    143.2164      8.8123      9.2315     15.0667    104.7874
  1977.5000    143.1699      8.6618      9.0881     14.3284    106.9390
  1977.7500    143.0351      8.5463      8.9371     13.0362    107.4036
  1978.0000    142.8168      8.4687      8.7905     11.7526    106.7685
  1978.2500    142.5265      8.4247      8.6587     10.8644    105.7885
  1978.5000    142.1826      8.4037      8.5482     10.4471    103.7946
  1978.7500    141.8104      8.3914      8.4606     10.3672    101.9161
  1979.0000    141.4413      8.3758      8.3936     10.4511     97.4775
  1979.2500    141.1090      8.3509      8.3426     10.5814     93.2888
  1979.5000    140.8461      8.3182      8.3028     10.7046     86.4841
  1979.7500    140.6776      8.2849      8.2707     10.7974     82.9699
  1980.0000    140.6154      8.2599      8.2450     10.8415     80.6534
  1980.2500    140.6535      8.2508      8.2269     10.8223     80.7821
  1980.5000    140.7660      8.2627      8.2193     10.7408     81.8421
  1980.7500    140.9101      8.2981      8.2260     10.6210     82.3098
  1981.0000    141.0329      8.3584      8.2513     10.5013     82.3728
  1981.2500    141.0806      8.4441      8.2995     10.4154     82.4273
  1981.5000    141.0090      8.5551      8.3743     10.3792     83.4454
  1981.7500    140.7903      8.6895      8.4789     10.3992     84.9029
