~Version Information
VERS.                      2.0: CWLS Log ASCII Standard - VERSION 2.0
WRAP.                       NO: One line per depth step
~Well Information Block
STRT.FT               -16.5000: 
STOP.FT              1695.5000: 
STEP.FT                 0.2500: 
NULL.                -999.2500: 
COMP.          Pioneer Natural Resources: COMPANY
WELL.          Rancher 12-35 Tr: WELL
FLD.           Purgatorie River: FIELD
LOC.           2242' FNL & 308' FWL SWNW 35 32S 67W: LOCATION
PROV.                       CO: PROVINCE
CNTY.               Las Animas: COUNTRY
SRVC.                         : SERVICE COMPANY
DATE.         Fri Jul 08 09:39:00 2005: LOG DATE
UWI.                071 08430 : UNIQUE WELL ID
~Curve Information Block
DEPT.FT            0 000 00 00: Depth
CCL.                          : Casing Collar Locator
TT3.usec                      : CBL 3' Travel Time
AMP3.mV                       : CBL 3' Amplitude
GR.GAPI                       : Gamma Ray
~Parameter Information Block
~A  Depth       CCL         TT3         AMP3         GR     
# ...
   754.0000      0.0000    843.3555      7.0210    126.2609
   754.2500      0.0000    843.4129      6.9855    119.6156
   754.5000      0.0000    840.6416      6.9359    115.5199
   754.7500      0.0000    837.1176      6.8861    113.9009
   755.0000      0.0000    830.7427      6.8243    114.5633
   755.2500      0.0000    819.9009      6.7133    116.6266
   755.5000      0.0000    808.4717      6.5167    117.8955
   755.7500      0.0000    804.1147      6.2355    116.0229
   756.0000      0.0000    811.2801      5.9270    110.6304
   756.2500      0.0000    826.8011      5.6709    103.8225
   756.5000      0.0000    842.4019      5.5068     98.3485
   756.7500      0.0000    850.8713      5.4189     95.4845
   757.0000      3.0000    850.3723      5.3751     94.5806
   757.2500      3.0000    844.5668      5.3514     93.9981
   757.5000      0.0000    839.1150      5.3255     92.1969
   757.7500      0.0000    836.5114      5.2882     88.4100
   758.0000      0.0000    833.2375      5.2777     82.9112
   758.2500      0.0000    822.7346      5.3696     76.7621
   758.5000      0.0000    801.9782      5.6070     71.0475
   758.7500      0.0000    775.0542      5.9481     66.0713
   759.0000      0.0000    750.2582      6.2940     61.2770
   759.2500      0.0000    734.1387      6.5596     56.1060
   759.5000      0.0000    727.9927      6.7110     50.9217
   759.7500      0.0000    728.5946      6.7557     46.9435
   760.0000      0.0000    731.3949      6.7207     45.2795
   760.2500      0.0000    733.7552      6.6403     46.1868
   760.5000      0.0000    736.4291      6.5464     49.3489
   760.7500      0.0000    742.4117      6.4593     54.6200
   761.0000      0.0000    753.9613      6.3956     62.1844
   761.2500      0.0000    770.4096      6.3750     71.9240
   761.5000      0.0000    788.9464      6.4120     82.7314
   761.7500      0.0000    806.9675      6.4997     92.5228
   762.0000      0.0000    822.7100      6.6090     99.1225
   762.2500      0.0000    834.2328      6.6992    101.5229
   762.5000      0.0000    839.7936      6.7305    100.5564
   762.7500      0.0000    839.6116      6.6788     98.2826
   763.0000      0.0000    835.8676      6.5527     96.7213
   763.2500      0.0000    830.3654      6.3970     97.2494
   763.5000      0.0000    822.7745      6.2657    100.7141
   763.7500      0.0000    811.5657      6.1889    107.1676
   764.0000      0.0000    796.7421      6.1664    115.3307
   764.2500      0.0000    781.6621      6.1892    123.1830
   764.5000      0.0000    771.9282      6.2538    129.6079
   764.7500      0.0000    771.8653      6.3580    135.1406
   765.0000      0.0000    781.4755      6.4962    140.7244
   765.2500      0.0000    796.3738      6.6581    145.9137
   765.5000      0.0000    810.7396      6.8267    149.0013
   765.7500      0.0000    820.8044      6.9813    149.1569
   766.0000      0.0000    826.1280      7.1078    147.5564
   766.2500      0.0000    828.3794      7.2046    145.7968
   766.5000      0.0000    829.5723      7.2776    144.0769
   766.7500      0.0000    831.2695      7.3268    141.6749
   767.0000      0.0000    834.5880      7.3367    138.4433
   767.2500      0.0000    839.9927      7.2867    134.9704
   767.5000      0.0000    846.4367      7.1778    131.6127
   767.7500      0.0000    850.5007      7.0436    127.9991
   768.0000      0.0000    846.9225      6.9294    123.6433
   768.2500      0.0000    831.4788      6.8627    118.9769
   768.5000      0.0000    805.1475      6.8430    115.6041
   768.7500      0.0000    776.1882      6.8539    115.2977
   769.0000      0.0000    757.0051      6.8800    118.6170
   769.2500      0.0000    756.9236      6.9138    124.5261
   769.5000      0.0000    776.2333      6.9558    131.2908
   769.7500      0.0000    806.2396      7.0128    137.5901
   770.0000      0.0000    835.2809      7.0849    142.8011
   770.2500      0.0000    855.7068      7.1493    146.5413
   770.5000      0.0000    866.2903      7.1716    148.2569
   770.7500      0.0000    869.5377      7.1412    147.3713
   771.0000      0.0000    867.9973      7.0880    143.8933
   771.2500      0.0000    862.9491      7.0554    138.8230
   771.5000      0.0000    855.3386      7.0558    133.9248
   771.7500      0.0000    846.8131      7.0558    131.0108
   772.0000      0.0000    839.4068      7.0078    131.0641
   772.2500      0.0000    834.3341      6.8930    133.8051
   772.5000      0.0000    831.3659      6.7420    138.1642
   772.7500      0.0000    829.3500      6.6112    142.9455
   773.0000      0.0000    827.1696      6.5356    146.7968
   773.2500      0.0000    824.4881      6.5063    148.1575
   773.5000      0.0000    821.9808      6.4965    146.0780
   773.7500      0.0000    820.6858      6.5046    141.1337
   774.0000      0.0000    820.6801      6.5762    135.0744
   774.2500      0.0000    820.4556      6.7822    129.4631
   774.5000      0.0000    818.0712      7.1543    124.8483
   774.7500      0.0000    812.9796      7.6405    121.1448
   775.0000      0.0000    806.4852      8.1402    118.4031
   775.2500      0.0000    800.4716      8.5786    116.8740
   775.5000      0.0000    796.0244      8.9443    116.5064
   775.7500      0.0000    793.2957      9.2712    116.7853
   776.0000      0.0000    792.2484      9.5949    117.2612
   776.2500      0.0000    793.0414      9.9260    118.1355
   776.5000      0.0000    795.3389     10.2532    120.0292
   776.7500      0.0000    797.6317     10.5538    123.0196
   777.0000      0.0000    798.8166     10.7878    126.1876
   777.2500      0.0000    800.8833     10.8911    128.5048
   777.5000      0.0000    807.9576     10.7937    130.0458
   777.7500      0.0000    821.3927     10.4617    131.9018
   778.0000      0.0000    837.3395      9.9338    134.8096
   778.2500      0.0000    850.2828      9.3123    138.0957
   778.5000      0.0000    857.9231      8.7151    140.2668
   778.7500      0.0000    861.8366      8.2298    140.6984
   779.0000      0.0000    864.4166      7.8856    140.4301
   779.2500      0.0000    866.2621      7.6488    141.0013
   779.5000      0.0000    866.2820      7.4624    142.8015
   779.7500      0.0000    863.4366      7.3026    144.9397
   780.0000      0.0000    858.2378      7.1822    146.5021
   780.2500      0.0000    852.9004      7.1027    147.2294
   780.5000      0.0000    849.8790      7.0379    146.7981
   780.7500      0.0000    849.6531      6.9647    144.3081
   781.0000      0.0000    850.0613      6.8836    139.2310
   781.2500      0.0000    848.6484      6.8100    132.6372
   781.5000      0.0000    845.9144      6.7667    126.9414
   781.7500      0.0000    845.2723      6.7699    124.3062
   782.0000      0.0000    849.1694      6.8102    125.2919
   782.2500      0.0000    856.0471      6.8658    128.7747
   782.5000      0.0000    861.6232      6.9386    132.7146
   782.7500      0.0000    862.0595      7.0495    134.9176
   783.0000      0.0000    855.6174      7.1950    133.8150
   783.2500      0.0000    843.0851      7.3337    129.4594
   783.5000      0.0000    828.1581      7.4162    123.7410
   783.7500      0.0000    816.6530      7.4116    118.9193
   784.0000      0.0000    813.5348      7.3169    115.7760
   784.2500      0.0000    819.4779      7.1564    113.5352
   784.5000      0.0000    829.6875      6.9701    111.4054
   784.7500      0.0000    836.2165      6.8027    109.6448
   785.0000      0.0000    832.9336      6.6980    108.8875
   785.2500      0.0000    820.2516      6.6784    108.7728
   785.5000      0.0000    805.8747      6.7199    107.8626
   785.7500      0.0000    799.8911      6.7721    105.2323
   786.0000      0.0000    807.3847      6.8065    101.7981
   786.2500      0.0000    824.9794      6.8240     99.6471
   786.5000      0.0000    844.4163      6.8216     99.9501
   786.7500      0.0000    859.0882      6.7886    101.7185
   787.0000      0.0000    867.2967      6.7350    102.8318
   787.2500      0.0000    870.7953      6.6858    102.3387
