~Version Information
 VERS.                                  2.0 : CWLS LAS VERSION
 WRAP.                                   NO : WRAPING MODE
 SWARE .                 MController 2.5.0H : SOFTWARE VERSION
~Well Information
 WELL.                Scott Canyon 11-18 TR : WELL
 COMP.    Pioneer Natural Resources USA Inc : COMPANY
 FLD.                      Purgatoire River : FIELD
 LOC.                NW/NW Sec 18 T32S R65W : LOCATION
 DATE.                              2/16/05 : DATE(S) LOGGED
 SRVC.       Blanco Geological Services LLC : SERVICE COMPANY
 STAT.                                   CO : STATE
 CNTY.                           Las Animas : COUNTY
 CTRY.                                  USA : COUNTRY
 API.                       05-071-08286-00 : API NUMBER
 STRT.FT                             569.00 : START DEPTH
 STOP.FT                            1700.00 : STOP DEPTH
 STEP.FT                               1.00 : DEPTH INCREMENT
 NULL.                                -9999 : NULL VALUE
~Curve information
 DEPTH.FT                                   :
 ROP.MIN/FT                                 :
 GAS.UNITS                                  :
~ASCII Log data
# ...
     1369.00        0.167         48.7 
     1370.00        0.133         46.9 
     1371.00        0.300         45.7 
     1372.00        0.200         43.6 
     1373.00        0.267         42.2 
     1374.00        0.200         40.3 
     1375.00        0.317         38.4 
     1376.00        4.117         57.9 
     1377.00        0.300         61.5 
     1378.00        0.533         66.6 
     1379.00        0.267         68.4 
     1380.00        0.233         69.3 
     1381.00        0.300         69.4 
     1382.00        0.300         69.4 
     1383.00        0.300         68.5 
     1384.00        0.317         67.1 
     1385.00        0.300         65.7 
     1386.00        0.433         63.4 
     1387.00        0.233         59.5 
     1388.00        0.367         57.3 
     1389.00        0.167         54.0 
     1390.00        0.200         52.4 
     1391.00        0.233         51.3 
     1392.00        0.267         53.1 
     1393.00        0.200         56.0 
     1394.00        0.267         59.7 
     1395.00        0.200         60.9 
     1396.00        0.200         62.1 
     1397.00        0.217         62.4 
     1398.00        0.200         61.7 
     1399.00        0.200         59.7 
     1400.00        0.200         57.3 
     1401.00        0.167         55.2 
     1402.00        0.100         52.8 
     1403.00        0.100         51.2 
     1404.00        0.300         49.5 
     1405.00        0.200         45.0 
     1406.00        1.533         49.4 
     1407.00        0.217         59.2 
     1408.00        0.167         67.7 
     1409.00        0.367         86.5 
     1410.00        0.200         92.9 
     1411.00        0.533        101.8 
     1412.00        0.333        102.3 
     1413.00        0.367        101.7 
     1414.00        0.300         97.9 
     1415.00        0.267         94.4 
     1416.00        0.633         92.1 
     1417.00        0.250         81.5 
     1418.00        0.267         76.9 
     1419.00        0.233         72.8 
     1420.00        0.200         69.5 
     1421.00        0.167         67.2 
     1422.00        0.367         65.0 
     1423.00        0.400         61.8 
     1424.00        0.167         59.1 
     1425.00        0.167         57.9 
     1426.00        0.233         56.9 
     1427.00        0.233         55.5 
     1428.00        0.233         54.0 
     1429.00        0.167         53.8 
     1430.00        0.200         55.1 
     1431.00        0.167         56.5 
     1432.00        0.217         57.2 
     1433.00        0.233         56.8 
     1434.00        0.367         54.8 
     1435.00        0.367         49.4 
     1436.00        2.417         84.0 
     1437.00        0.367         93.3 
     1438.00        0.267         94.4 
     1439.00        0.200         94.4 
     1440.00        0.233         93.6 
     1441.00        0.233         90.7 
     1442.00        0.233         87.1 
     1443.00        0.167         84.0 
     1444.00        0.200         81.5 
     1445.00        0.167         78.5 
     1446.00        0.367         76.8 
     1447.00        0.267         78.8 
     1448.00        0.233         82.1 
     1449.00        0.283         87.0 
     1450.00        0.267         91.4 
     1451.00        0.167         93.6 
     1452.00        0.233         95.3 
     1453.00        0.233         96.2 
     1454.00        0.200         96.5 
     1455.00        0.233         96.7 
     1456.00        0.267         96.7 
     1457.00        0.233         97.1 
     1458.00        0.167         99.6 
     1459.00        0.267        104.5 
     1460.00        0.267        105.1 
     1461.00        0.333        103.9 
     1462.00        0.350         98.5 
     1463.00        0.233         89.0 
     1464.00        0.200         82.9 
     1465.00        0.233         77.8 
     1466.00        2.267        113.9 
     1467.00        0.300        123.7 
     1468.00        0.483        132.4 
     1469.00        0.400        133.0 
     1470.00        0.367        131.8 
     1471.00        0.400        126.0 
     1472.00        0.267        119.5 
     1473.00        0.400        116.8 
     1474.00        0.300        113.3 
     1475.00        0.267        110.1 
     1476.00        0.367        104.8 
     1477.00        0.283         96.1 
     1478.00        0.300         87.5 
     1479.00        0.200         76.7 
     1480.00        0.200         65.8 
     1481.00        0.200         56.5 
     1482.00        0.200         46.8 
     1483.00        0.200         39.5 
     1484.00        0.200         33.1 
     1485.00        0.200         34.4 
     1486.00        0.200         53.8 
     1487.00        0.200         63.1 
     1488.00        0.200         64.7 
     1489.00        0.233         64.2 
     1490.00        0.233         56.9 
     1491.00        0.233         54.1 
     1492.00        0.283         56.7 
     1493.00        0.200         56.6 
     1494.00        0.133         55.4 
     1495.00        0.133         54.1 
     1496.00        2.633         52.7 
     1497.00        0.250         19.9 
     1498.00        0.300         15.7 
     1499.00        0.233         12.3 
     1500.00        0.200          9.5 
     1501.00        0.167          7.8 
     1502.00        0.233          6.9 
     1503.00        0.233          5.4 
     1504.00        0.267          4.4 
     1505.00        0.267          3.8 
     1506.00        0.300          2.8 
     1507.00        0.233          2.7 
     1508.00        0.267          5.3 
     1509.00        0.233         10.4 
     1510.00        0.233         16.5 
     1511.00        0.183         20.6 
     1512.00        0.133         23.1 
     1513.00        0.200         29.1 
     1514.00        0.133         32.2 
     1515.00        0.267         38.1 
     1516.00        0.233         42.4 
     1517.00        0.367         49.5 
     1518.00        0.400         58.2 
     1519.00        0.333         60.5 
     1520.00        0.267         60.6 
     1521.00        0.133         60.4 
     1522.00        0.233         60.1 
     1523.00        0.267         59.4 
     1524.00        0.233         57.0 
     1525.00        0.217         53.8 
     1526.00        2.967         69.5 
     1527.00        0.317         76.5 
     1528.00        0.300         80.7 
     1529.00        0.267         82.3 
     1530.00        0.267         82.7 
     1531.00        0.267         82.4 
     1532.00        0.400         81.2 
     1533.00        0.267         78.2 
     1534.00        0.167         75.2 
     1535.00        0.267         73.1 
     1536.00        0.167         70.0 
     1537.00        0.167         68.0 
     1538.00        0.167         66.5 
     1539.00        0.233         64.9 
     1540.00        0.300         62.5 
     1541.00        0.317         59.9 
     1542.00        0.233         57.2 
     1543.00        0.167         55.6 
     1544.00        0.200         55.7 
     1545.00        0.167         55.3 
     1546.00        0.133         53.9 
     1547.00        0.167         52.4 
     1548.00        0.167         50.3 
     1549.00        0.167         48.3 
     1550.00        0.167         46.5 
     1551.00        0.133         44.5 
     1552.00        0.167         42.9 
     1553.00        0.167         41.1 
     1554.00        0.167         39.9 
     1555.00        0.133         38.5 
     1556.00        2.483         48.2 
     1557.00        0.300         54.4 
     1558.00        0.333         60.2 
     1559.00        0.367         64.8 
     1560.00        0.367         66.7 
     1561.00        0.200         66.7 
     1562.00        0.150         66.4 
     1563.00        0.133         65.9 
     1564.00        0.233         65.3 
     1565.00        0.200         64.2 
     1566.00        0.233         63.3 
     1567.00        0.267         62.2 
     1568.00        0.267         60.8 
