~Version Information
VERS.                      2.0: CWLS Log ASCII Standard - VERSION 2.0
WRAP.                       NO: One line per depth step
~Well Information Block
STRT.FT               -11.2500: 
STOP.FT              1767.0000: 
STEP.FT                 0.2500: 
NULL.                -999.2500: 
COMP.          Petrogulf Corporation: COMPANY
WELL.             McLeod 9-42R: WELL
FLD.           Purgatoire River: FIELD
LOC.           1748' FNL & 372' FEL--: LOCATION
PROV.                 Colorado: PROVINCE
CNTY.               Las Animas: COUNTRY
SRVC.                         : SERVICE COMPANY
DATE.          Thu Sep 29 13:28:07 2005: LOG DATE
UWI.                          : UNIQUE WELL ID
~Curve Information Block
DEPT.FT            0 000 00 00: Depth
GR.GAPI                       : Gamma Ray
CCL.                          : Casing Collar Locator
AMP3.mV                       : CBL 3' Amplitude
AMP5.mV                       : CBL 5' Amplitude
~Parameter Information Block
~A  Depth        GR         CCL         AMP3        AMP5    
# ...
  1027.2500    127.4673      0.0000      4.2619      0.4518
  1027.5000    129.6200      0.0000      4.2969      0.4394
  1027.7500    133.7199      0.0000      4.4592      0.4375
  1028.0000    139.3943      0.0000      4.5934      0.4465
  1028.2500    145.4418      0.0000      4.6005      0.4698
  1028.5000    150.7115      0.0000      4.4942      0.5072
  1028.7500    154.7547      0.0000      4.3552      0.5471
  1029.0000    157.6246      0.0000      4.2555      0.5726
  1029.2500    158.9346      0.0000      4.2195      0.5751
  1029.5000    157.4634      0.0000      4.2300      0.5581
  1029.7500    152.1669      0.0000      4.2577      0.5297
  1030.0000    143.5850      0.0000      4.2831      0.4979
  1030.2500    133.9726      0.0000      4.2966      0.4695
  1030.5000    125.9139      0.0000      4.2929      0.4490
  1030.7500    120.7185      0.0000      4.2717      0.4363
  1031.0000    118.0335      0.0000      4.2380      0.4282
  1031.2500    116.7506      0.0000      4.1990      0.4207
  1031.5000    116.0253      0.0000      4.1656      0.4140
  1031.7500    115.7234      0.0000      4.1516      0.4128
  1032.0000    116.3935      0.0000      4.1641      0.4210
  1032.2500    118.5837      0.0000      4.1948      0.4352
  1032.5000    121.6742      0.0000      4.2316      0.4454
  1032.7500    123.7743      0.0000      4.2762      0.4462
  1033.0000    123.5606      0.0000      4.3395      0.4426
  1033.2500    121.9669      0.0000      4.4184      0.4428
  1033.5000    121.3350      0.0000      4.4912      0.4479
  1033.7500    122.9588      0.0000      4.5355      0.4529
  1034.0000    125.8745      0.0000      4.5437      0.4553
  1034.2500    127.8568      0.0000      4.5210      0.4588
  1034.5000    127.2157      0.0000      4.4814      0.4678
  1034.7500    123.7711      0.0000      4.4483      0.4832
  1035.0000    118.6411      0.0000      4.4449      0.5040
  1035.2500    113.4042      0.0000      4.4780      0.5269
  1035.5000    109.3924      0.0000      4.5364      0.5444
  1035.7500    107.3381      0.0000      4.6026      0.5483
  1036.0000    107.0772      0.0000      4.6627      0.5385
  1036.2500    107.3773      0.0000      4.7101      0.5249
  1036.5000    106.5520      0.0000      4.7458      0.5178
  1036.7500    103.8628      0.0000      4.7748      0.5196
  1037.0000    100.4102      0.0000      4.7993      0.5252
  1037.2500     98.3911      0.0000      4.8169      0.5291
  1037.5000     99.3907      0.0000      4.8269      0.5289
  1037.7500    103.2364      0.0000      4.8359      0.5246
  1038.0000    108.2928      0.0000      4.8541      0.5158
  1038.2500    112.9021      0.0000      4.8859      0.5024
  1038.5000    116.6441      0.0000      4.9239      0.4865
  1038.7500    120.0523      0.0000      4.9520      0.4728
  1039.0000    123.2262      0.0000      4.9590      0.4665
  1039.2500    125.1050      0.0000      4.9461      0.4691
  1039.5000    124.2452      0.0000      4.9226      0.4766
  1039.7500    120.2198      0.0000      4.8982      0.4823
  1040.0000    114.3309      0.0000      4.8808      0.4818
  1040.2500    108.9340      0.0000      4.8754      0.4741
  1040.5000    105.8873      0.0000      4.8812      0.4611
  1040.7500    105.5060      0.0000      4.8908      0.4488
  1041.0000    106.8268      0.0000      4.8949      0.4467
  1041.2500    108.6266      0.0000      4.8897      0.4606
  1041.5000    110.1929      0.0000      4.8809      0.4861
  1041.7500    111.4699      0.0000      4.8807      0.5126
  1042.0000    112.8077      0.0000      4.8946      0.5311
  1042.2500    114.7233      0.0000      4.9154      0.5370
  1042.5000    117.6999      0.0000      4.9339      0.5303
  1042.7500    121.6740      0.0000      4.9506      0.5178
  1043.0000    125.5324      0.0000      4.9699      0.5107
  1043.2500    127.5502      0.0000      4.9893      0.5155
  1043.5000    126.7032      0.0000      5.0027      0.5285
  1043.7500    123.5359      0.0000      5.0073      0.5418
  1044.0000    119.8064      0.0000      4.9977      0.5499
  1044.2500    117.4707      0.0000      4.9620      0.5490
  1044.5000    117.7023      0.0000      4.8941      0.5380
  1044.7500    120.1839      0.0000      4.8069      0.5209
  1045.0000    123.2525      0.0000      4.7261      0.5073
  1045.2500    125.2196      0.0000      4.6745      0.5048
  1045.5000    125.6786      0.0000      4.6642      0.5141
  1045.7500    125.4324      0.0000      4.6952      0.5292
  1046.0000    125.3948      0.0000      4.7549      0.5414
  1046.2500    125.7848      0.0000      4.8231      0.5428
  1046.5000    126.0511      0.0000      4.8832      0.5329
  1046.7500    125.4242      0.0000      4.9260      0.5203
  1047.0000    123.8493      0.0000      4.9427      0.5171
  1047.2500    122.3899      0.0000      4.9241      0.5260
  1047.5000    122.4141      0.0000      4.8727      0.5385
  1047.7500    124.4616      0.0000      4.8116      0.5462
  1048.0000    127.9636      0.0000      4.7691      0.5500
  1048.2500    131.6538      0.0000      4.7567      0.5563
  1048.5000    133.9880      0.0000      4.7641      0.5653
  1048.7500    133.6509      0.0000      4.7747      0.5693
  1049.0000    130.2542      0.0000      4.7778      0.5602
  1049.2500    124.6051      0.0000      4.7667      0.5395
  1049.5000    118.1974      0.0000      4.7364      0.5187
  1049.7500    112.4732      0.0000      4.6839      0.5113
  1050.0000    108.3988      0.0000      4.6083      0.5199
  1050.2500    106.3560      0.0000      4.5103      0.5330
  1050.5000    106.2206      0.0000      4.4014      0.5354
  1050.7500    107.6357      0.0000      4.3114      0.5237
  1051.0000    110.3028      0.0000      4.2739      0.5072
  1051.2500    113.8680      0.0000      4.2991      0.4963
  1051.5000    117.6351      0.0000      4.3663      0.4933
  1051.7500    120.9113      0.0000      4.4418      0.4947
  1052.0000    123.7042      0.0000      4.5021      0.4960
  1052.2500    126.4966      0.0000      4.5430      0.4932
  1052.5000    129.0067      0.0000      4.5726      0.4851
  1052.7500    129.5627      0.0000      4.5948      0.4760
  1053.0000    126.3008      0.0000      4.6010      0.4741
  1053.2500    119.2246      0.0000      4.5786      0.4847
  1053.5000    110.8316      0.0000      4.5275      0.5068
  1053.7500    104.4175      0.0000      4.4648      0.5338
  1054.0000    101.8590      0.0000      4.4114      0.5538
  1054.2500    103.0885      0.0000      4.3760      0.5545
  1054.5000    107.1017      0.0000      4.3531      0.5328
  1054.7500    112.7326      0.0000      4.3347      0.4999
  1055.0000    118.7074      0.0000      4.3221      0.4706
  1055.2500    123.8404      0.0000      4.3255      0.4506
  1055.5000    127.5809      0.0000      4.3533      0.4386
  1055.7500    130.1264      0.0000      4.4020      0.4358
  1056.0000    131.7348      0.0000      4.4541      0.4455
  1056.2500    132.0014      0.0000      4.4869      0.4670
  1056.5000    130.1782      0.0000      4.4886      0.4929
  1056.7500    126.4019      0.0000      4.4698      0.5141
  1057.0000    122.2892      0.0000      4.4577      0.5246
  1057.2500    119.8890      0.0000      4.4732      0.5253
  1057.5000    120.1046      0.0000      4.5141      0.5228
  1057.7500    122.4083      0.0000      4.5583      0.5249
  1058.0000    125.8838      0.0000      4.5832      0.5359
  1058.2500    130.0085      0.0000      4.5822      0.5541
  1058.5000    134.3348      0.0000      4.5661      0.5755
  1058.7500    137.9289      0.0000      4.5528      0.5983
  1059.0000    139.6907      0.0000      4.5547      0.6223
  1059.2500    139.3612      0.0000      4.5716      0.6441
  1059.5000    137.8091      0.0000      4.5965      0.6563
  1059.7500    135.9593      0.0000      4.6284      0.6554
  1060.0000    133.6257      0.0000      4.6797      0.6465
  1060.2500    129.7696      0.0000      4.7688      0.6398
  1060.5000    123.6644      0.0000      4.9067      0.6424
