~Version Information
VERS.                      2.0: CWLS Log ASCII Standard - VERSION 2.0
WRAP.                       NO: One line per depth step
~Well Information Block
STRT.FT               846.6000: 
STOP.FT              2609.1000: 
STEP.FT                 0.1000: 
NULL.                -999.2500: 
COMP.          Petrogulf Corporation: COMPANY
WELL.            Lavedure 7-44: WELL
FLD.           Purgatoire River: FIELD
LOC.           969' FSL & 501' FEL: LOCATION
PROV.                 Colorado: PROVINCE
CNTY.               Las Animas: COUNTRY
SRVC.                Patterson: SERVICE COMPANY
DATE.          Sun Dec 07 14:55:17 2003: LOG DATE
UWI.                          : UNIQUE WELL ID
~Curve Information Block
DEPT.FT            0 000 00 00: Depth
DCAL.in                       : CDL Caliper
RHOB.g/cc                     : CDL Bulk Density
RHOC.g/cc                     : CDL Density Correction
DPOR.pu                       : CDL Density Porosity
GR.GAPI                       : Gamma Ray
NPOR.pu                       : Neutron Porosity
~Parameter Information Block
~A  Depth       DCAL        RHOB        RHOC        DPOR         GR         NPOR    
# ...
  1797.0000      8.1271      2.5153      0.0406      8.1655     59.2345      7.5716
  1797.1000      8.1271      2.5121      0.0410      8.3564     57.0754      7.5154
  1797.2000      8.1271      2.5087      0.0411      8.5629     55.0026      7.4829
  1797.3000      8.1260      2.5050      0.0411      8.7862     53.0679      7.4702
  1797.4000      8.1260      2.5011      0.0410      9.0260     51.3179      7.4730
  1797.5000      8.1274      2.4969      0.0409      9.2813     49.7950      7.4866
  1797.6000      8.1274      2.4924      0.0408      9.5498     48.5312      7.5067
  1797.7000      8.1274      2.4878      0.0410      9.8287     47.5454      7.5300
  1797.8000      8.1223      2.4831      0.0414     10.1140     46.8414      7.5549
  1797.9000      8.1223      2.4784      0.0421     10.4017     46.4082      7.5815
  1798.0000      8.1130      2.4737      0.0430     10.6871     46.2182      7.6117
  1798.1000      8.1130      2.4691      0.0440     10.9657     46.2308      7.6488
  1798.2000      8.1130      2.4647      0.0450     11.2329     46.3973      7.6968
  1798.3000      8.1096      2.4605      0.0459     11.4843     46.6653      7.7601
  1798.4000      8.1096      2.4567      0.0464     11.7156     46.9856      7.8424
  1798.5000      8.1199      2.4533      0.0466     11.9229     47.3169      7.9460
  1798.6000      8.1199      2.4503      0.0464     12.1027     47.6316      8.0715
  1798.7000      8.1199      2.4478      0.0459     12.2519     47.9157      8.2172
  1798.8000      8.1378      2.4459      0.0453     12.3683     48.1722      8.3790
  1798.9000      8.1378      2.4446      0.0446     12.4507     48.4170      8.5505
  1799.0000      8.1372      2.4438      0.0441     12.4991     48.6731      8.7233
  1799.1000      8.1372      2.4435      0.0439     12.5155     48.9688      8.8879
  1799.2000      8.1372      2.4437      0.0441     12.5032     49.3292      9.0337
  1799.3000      8.1147      2.4443      0.0446     12.4677     49.7710      9.1506
  1799.4000      8.1147      2.4451      0.0453     12.4161     50.3028      9.2299
  1799.5000      8.0970      2.4461      0.0460     12.3569     50.9205      9.2648
  1799.6000      8.0970      2.4471      0.0465     12.2997     51.6103      9.2513
  1799.7000      8.0970      2.4478      0.0466     12.2545     52.3451      9.1890
  1799.8000      8.0960      2.4482      0.0462     12.2313     53.0870      9.0809
  1799.9000      8.0960      2.4481      0.0452     12.2390     53.7897      8.9340
  1800.0000      8.1117      2.4473      0.0437     12.2855     54.4010      8.7581
  1800.1000      8.1117      2.4458      0.0419     12.3765     54.8646      8.5656
  1800.2000      8.1117      2.4435      0.0398     12.5158     55.1284      8.3700
  1800.3000      8.1262      2.4404      0.0377     12.7048     55.1506      8.1850
  1800.4000      8.1262      2.4364      0.0357     12.9425     54.9053      8.0229
  1800.5000      8.1254      2.4318      0.0340     13.2255     54.3887      7.8931
  1800.6000      8.1254      2.4265      0.0326     13.5484     53.6209      7.8016
  1800.7000      8.1254      2.4206      0.0314     13.9041     52.6422      7.7505
  1800.8000      8.1207      2.4143      0.0305     14.2837     51.5108      7.7376
  1800.9000      8.1207      2.4078      0.0298     14.6776     50.2919      7.7575
  1801.0000      8.1163      2.4013      0.0293     15.0754     49.0511      7.8020
  1801.1000      8.1163      2.3948      0.0289     15.4666     47.8452      7.8618
  1801.2000      8.1163      2.3886      0.0286     15.8408     46.7173      7.9273
  1801.3000      8.1147      2.3829      0.0286     16.1889     45.6924      7.9898
  1801.4000      8.1147      2.3777      0.0288     16.5028     44.7811      8.0418
  1801.5000      8.1142      2.3732      0.0294     16.7762     43.9818      8.0777
  1801.6000      8.1142      2.3694      0.0305     17.0051     43.2848      8.0932
  1801.7000      8.1142      2.3664      0.0321     17.1878     42.6781      8.0853
  1801.8000      8.1148      2.3641      0.0343     17.3251     42.1506      8.0526
  1801.9000      8.1148      2.3626      0.0369     17.4200     41.6928      7.9942
  1802.0000      8.1186      2.3616      0.0399     17.4777     41.2968      7.9109
  1802.1000      8.1186      2.3612      0.0429     17.5049     40.9546      7.8046
  1802.2000      8.1186      2.3611      0.0459     17.5096     40.6544      7.6786
  1802.3000      8.1221      2.3613      0.0486     17.4998     40.3796      7.5376
  1802.4000      8.1221      2.3615      0.0509     17.4832     40.1069      7.3871
  1802.5000      8.1283      2.3618      0.0525     17.4665     39.8081      7.2328
  1802.6000      8.1283      2.3620      0.0536     17.4547     39.4530      7.0795
  1802.7000      8.1283      2.3621      0.0541     17.4511     39.0131      6.9312
  1802.8000      8.1359      2.3620      0.0541     17.4567     38.4694      6.7895
  1802.9000      8.1359      2.3617      0.0537     17.4707     37.8119      6.6543
  1803.0000      8.1369      2.3614      0.0532     17.4909     37.0473      6.5233
  1803.1000      8.1369      2.3610      0.0528     17.5137     36.1982      6.3934
  1803.2000      8.1369      2.3607      0.0526     17.5354     35.2998      6.2606
  1803.3000      8.1357      2.3604      0.0527     17.5523     34.3985      6.1217
  1803.4000      8.1357      2.3602      0.0532     17.5616     33.5445      5.9745
  1803.5000      8.1331      2.3602      0.0540     17.5618     32.7850      5.8187
  1803.6000      8.1331      2.3604      0.0551     17.5527     32.1583      5.6552
  1803.7000      8.1331      2.3607      0.0562     17.5357     31.6883      5.4866
  1803.8000      8.1294      2.3610      0.0570     17.5133     31.3822      5.3162
  1803.9000      8.1294      2.3614      0.0573     17.4889     31.2310      5.1478
  1804.0000      8.1190      2.3618      0.0567     17.4660     31.2099      4.9851
  1804.1000      8.1190      2.3621      0.0551     17.4481     31.2849      4.8316
  1804.2000      8.1190      2.3623      0.0523     17.4372     31.4176      4.6906
  1804.3000      8.1119      2.3623      0.0485     17.4342     31.5671      4.5646
  1804.4000      8.1119      2.3623      0.0438     17.4384     31.6963      4.4554
  1804.5000      8.1152      2.3621      0.0385     17.4472     31.7736      4.3635
  1804.6000      8.1152      2.3620      0.0330     17.4566     31.7722      4.2888
  1804.7000      8.1152      2.3619      0.0277     17.4616     31.6723      4.2297
  1804.8000      8.1257      2.3620      0.0231     17.4570     31.4607      4.1839
  1804.9000      8.1257      2.3623      0.0196     17.4375     31.1309      4.1486
  1805.0000      8.1482      2.3629      0.0172     17.3993     30.6842      4.1211
  1805.1000      8.1482      2.3639      0.0162     17.3396     30.1306      4.0996
  1805.2000      8.1482      2.3652      0.0164     17.2579     29.4881      4.0831
  1805.3000      8.1714      2.3669      0.0176     17.1554     28.7808      4.0715
  1805.4000      8.1714      2.3689      0.0194     17.0355     28.0382      4.0654
  1805.5000      8.1705      2.3711      0.0214     16.9028     27.2906      4.0653
  1805.6000      8.1705      2.3734      0.0233     16.7627     26.5645      4.0709
  1805.7000      8.1705      2.3757      0.0249     16.6212     25.8812      4.0803
  1805.8000      8.1475      2.3780      0.0258     16.4836     25.2546      4.0907
  1805.9000      8.1475      2.3802      0.0260     16.3540     24.6905      4.0973
  1806.0000      8.1329      2.3821      0.0255     16.2353     24.1888      4.0951
  1806.1000      8.1329      2.3839      0.0247     16.1282     23.7452      4.0791
  1806.2000      8.1329      2.3855      0.0235     16.0318     23.3544      4.0456
  1806.3000      8.1336      2.3869      0.0224     15.9433     23.0118      3.9929
  1806.4000      8.1336      2.3883      0.0214     15.8585     22.7143      3.9215
  1806.5000      8.1349      2.3898      0.0209     15.7722     22.4600      3.8346
