~Version Information
VERS.                      2.0: CWLS Log ASCII Standard - VERSION 2.0
WRAP.                       NO: One line per depth step
~Well Information Block
STRT.FT               480.0000: 
STOP.FT              1625.5000: 
STEP.FT                 0.1000: 
NULL.                -999.2500: 
COMP.          Pioneer Natural Resources: COMPANY
WELL.          Dude Canyon 22-32 Tr: WELL
FLD.           Purgatoire River: FIELD
LOC.           1741' FNL & 2331' FWL: LOCATION
PROV.                 Colorado: PROVINCE
CNTY.               Las Animas: COUNTRY
SRVC.                Patterson: SERVICE COMPANY
DATE.          Mon Jul 11 10:33:06 2005: LOG DATE
UWI.           05 071 08421 00: UNIQUE WELL ID
~Curve Information Block
DEPT.FT            0 000 00 00: Depth
DCAL.in                       : CDL Caliper
RHOB.g/cc                     : CDL Bulk Density
RHOC.g/cc                     : CDL Density Correction
DPOR.pu                       : CDL Density Porosity
GR.GAPI                       : Gamma Ray
NPOR.pu                       : Neutron Porosity
~Parameter Information Block
~A  Depth       DCAL        RHOB        RHOC        DPOR         GR         NPOR    
# ...
  1315.2000      8.1072      2.5571      0.1136      5.6283    140.5908     29.1432
  1315.3000      8.1080      2.5276      0.0819      7.4199    147.0522     28.8086
  1315.4000      8.1080      2.4816      0.0460     10.2090    150.9367     28.8841
  1315.5000      8.1209      2.4426      0.0357     12.5683    147.2167     29.4731
  1315.6000      8.1209      2.4249      0.0056     13.6451    137.8049     30.6115
  1315.7000      8.1209      2.4334      0.0334     13.1246    132.2239     31.6403
  1315.8000      8.1260      2.4553      0.0662     11.7989    133.1045     32.1452
  1315.9000      8.1260      2.4685      0.0848     10.9991    134.9784     32.2707
  1316.0000      8.1231      2.4595      0.1375     11.5430    134.9330     32.2751
  1316.1000      8.1231      2.4221      0.0930     13.8115    134.8147     32.4316
  1316.2000      8.1231      2.3389      0.1132     18.8555    134.8951     32.5916
  1316.3000      8.1154      2.1925      0.0977     27.7279    132.3831     32.5368
  1316.4000      8.1154      2.0153      0.0085     38.4642    128.3278     32.4281
  1316.5000      8.1258      1.8690     -0.0097     47.3361    124.0378     32.4260
  1316.6000      8.1258      1.7578      0.0336     54.0710    114.2302     32.6311
  1316.7000      8.1258      1.6341      0.0155     61.5683     97.7782     32.8231
  1316.8000      8.1888      1.4934     -0.0830     70.0950     81.6797     32.7979
  1316.9000      8.1888      1.3954     -0.1120     76.0356     70.2704     32.9317
  1317.0000      8.3112      1.3738      0.0602     77.3426     62.5075     33.6823
  1317.1000      8.3112      1.4065      0.0611     75.3662     56.3109     34.6142
  1317.2000      8.3112      1.4720      0.0604     71.3954     51.6649     35.1123
  1317.3000      8.4943      1.5529      0.1283     66.4932     52.2283     35.4940
  1317.4000      8.4943      1.6192      0.1343     62.4743     58.7047     36.2264
  1317.5000      8.5376      1.6530      0.1810     60.4241     66.9160     36.6419
  1317.6000      8.5376      1.6573      0.1586     60.1614     73.9222     36.1124
  1317.7000      8.5376      1.6448      0.1403     60.9211     78.3809     35.3327
  1317.8000      8.5597      1.6269      0.1164     62.0049     79.7464     34.8198
  1317.9000      8.5597      1.6120      0.0071     62.9077     80.2425     34.4173
  1318.0000      8.5714      1.6013     -0.0122     63.5578     81.8025     34.5209
  1318.1000      8.5714      1.5937     -0.0580     64.0173     81.9417     35.3839
  1318.2000      8.5714      1.6067     -0.0519     63.2306     78.4440     36.0963
  1318.3000      8.3154      1.6506      0.1226     60.5697     73.2524     35.8522
  1318.4000      8.3154      1.7070      0.1749     57.1489     69.5920     34.9979
  1318.5000      8.2163      1.7664      0.1510     53.5530     70.3728     34.3479
  1318.6000      8.2163      1.8322      0.1116     49.5613     76.1879     34.1632
  1318.7000      8.2163      1.9014      0.0949     45.3714     86.9567     34.1810
  1318.8000      8.4007      1.9739      0.0506     40.9736    102.9989     34.3333
  1318.9000      8.4007      2.0544      0.1043     36.0976    117.8475     34.6073
  1319.0000      8.2400      2.1413      0.1025     30.8284    124.8383     34.5570
  1319.1000      8.2400      2.2306      0.2111     25.4196    129.0657     33.5575
  1319.2000      8.2400      2.3112      0.2289     20.5340    131.5917     32.2037
  1319.3000      8.0905      2.3574      0.3072     17.7363    127.7678     31.5493
  1319.4000      8.0905      2.3404      0.2389     18.7625    124.4368     31.3807
  1319.5000      8.0459      2.2761      0.0127     22.6623    128.2486     31.2622
  1319.6000      8.0459      2.2164     -0.0079     26.2772    133.7713     31.4013
  1319.7000      8.0459      2.1853     -0.0291     28.1662    137.7679     31.6170
  1319.8000      8.0499      2.1794     -0.0439     28.5204    140.4241     31.7913
  1319.9000      8.0499      2.1983      0.0242     27.3748    139.8662     32.0960
  1320.0000      8.0313      2.2336      0.0611     25.2340    136.2002     32.0875
  1320.1000      8.0313      2.2650      0.1272     23.3322    130.8066     31.6348
  1320.2000      8.0313      2.2741      0.1495     22.7844    124.3124     31.6645
  1320.3000      8.0568      2.2427      0.1937     24.6872    117.4539     32.2888
  1320.4000      8.0568      2.1581      0.0423     29.8117    112.0298     32.2325
  1320.5000      8.0643      2.0341     -0.0134     37.3263    110.1095     31.2038
  1320.6000      8.0643      1.9020     -0.0683     45.3323    110.8974     30.5209
  1320.7000      8.0643      1.7949     -0.1106     51.8246    111.9840     30.7246
  1320.8000      8.0577      1.7289     -0.0933     55.8263    110.6362     31.2654
  1320.9000      8.0577      1.6985     -0.1015     57.6675    107.0732     32.1956
  1321.0000      8.0587      1.7156     -0.1000     56.6293    103.9124     33.4401
  1321.1000      8.0587      1.7985      0.0276     51.6043    101.6543     34.3944
  1321.2000      8.0587      1.9202      0.1988     44.2294    101.2863     34.4962
  1321.3000      8.0645      2.0463      0.1915     36.5904    104.1184     33.7609
  1321.4000      8.0645      2.1789      0.2407     28.5534    106.4935     33.5447
  1321.5000      8.1392      2.3113      0.2849     20.5299    104.1814     34.6160
  1321.6000      8.1392      2.4150      0.2098     14.2423    101.5147     35.5389
  1321.7000      8.1392      2.4739      0.1943     10.6732    105.8496     35.3596
  1321.8000      8.2334      2.4988      0.1358      9.1632    115.1225     34.6752
  1321.9000      8.2334      2.5229      0.1402      7.7039    121.3355     33.9087
  1322.0000      8.1124      2.5611      0.1504      5.3893    124.2841     33.3348
  1322.1000      8.1124      2.5941      0.1622      3.3857    129.5686     33.3411
  1322.2000      8.1124      2.6036      0.1526      2.8109    136.4485     33.4872
  1322.3000      8.0870      2.5973      0.1049      3.1948    137.1783     32.7467
  1322.4000      8.0870      2.5910      0.1338      3.5759    131.9891     31.1779
  1322.5000      8.0521      2.5852      0.1238      3.9290    128.5958     30.0216
  1322.6000      8.0521      2.5800      0.1076      4.2419    126.6945     29.7342
  1322.7000      8.0521      2.5816      0.0556      4.1446    123.1365     29.6604
  1322.8000      8.0355      2.5858      0.1014      3.8926    120.6146     29.3248
  1322.9000      8.0355      2.5879      0.0652      3.7641    120.6597     28.4966
  1323.0000      8.0312      2.5921      0.1039      3.5096    120.1132     28.0483
  1323.1000      8.0312      2.5983      0.0770      3.1341    118.1179     29.2375
  1323.2000      8.0312      2.6004      0.0912      3.0039    119.1609     30.8637
  1323.3000      8.0372      2.5927      0.1191      3.4723    127.6261     30.9638
  1323.4000      8.0372      2.5702      0.0970      4.8362    140.9490     30.0444
  1323.5000      8.0539      2.5287      0.1179      7.3532    149.2851     29.4492
  1323.6000      8.0539      2.4812      0.0161     10.2301    148.5356     29.3790
  1323.7000      8.0539      2.4585     -0.0090     11.6053    144.5238     29.3970
  1323.8000      8.0528      2.4650      0.0630     11.2115    138.1910     29.5038
  1323.9000      8.0528      2.4749      0.1003     10.6147    127.8480     29.9430
  1324.0000      8.0412      2.4804      0.0269     10.2761    118.1984     30.2019
  1324.1000      8.0412      2.4938      0.0864      9.4682    112.9835     29.5592
  1324.2000      8.0412      2.5162      0.0879      8.1097    111.2994     28.4089
  1324.3000      8.0343      2.5458      0.1156      6.3139    113.7868     27.7618
  1324.4000      8.0343      2.5724      0.1696      4.7052    118.5191     27.6521
  1324.5000      8.0276      2.5637      0.2019      5.2301    121.4625     27.5720
  1324.6000      8.0276      2.5183      0.1016      7.9819    122.5676     27.4670
  1324.7000      8.0276      2.4882      0.0466      9.8089    122.7573     27.7412
