~Version Information
 VERS.                                  2.0 : CWLS LAS VERSION
 WRAP.                                   NO : WRAPING MODE
 SWARE .                 MController 2.5.0I : SOFTWARE VERSION
~Well Information
 WELL.                           J&P 12-33v : WELL
 COMP.             Petrogulf Operating Corp : COMPANY
 FLD.                      Purgatorie River : FIELD
 LOC.                NW/SE Sec 12 T33S R68W : LOCATION
 DATE.                              8/27/04 : DATE(S) LOGGED
 SRVC.       Blanco Geological services LLC : SERVICE COMPANY
 STAT.                                   CO : STATE
 CNTY.                           Las Animas : COUNTY
 CTRY.                                  USA : COUNTRY
 API.                       05-071-08091-00 : API NUMBER
 STRT.FT                             770.00 : START DEPTH
 STOP.FT                            2580.00 : STOP DEPTH
 STEP.FT                               1.00 : DEPTH INCREMENT
 NULL.                                -9999 : NULL VALUE
~Curve information
 DEPTH.FT                                   :
 ROP.MIN/FT                                 :
 GAS.UNITS                                  :
~ASCII Log data
# ...
       970.0          0.2          2.5 
       971.0          0.3          2.4 
       972.0          0.2          2.3 
       973.0          0.2          2.3 
       974.0          0.2          2.6 
       975.0          0.2          2.4 
       976.0          0.1          2.2 
       977.0          0.1          2.3 
       978.0          0.2          2.3 
       979.0          0.2          2.3 
       980.0          0.1          2.3 
       981.0          0.1          2.6 
       982.0          0.1          2.5 
       983.0          0.2          2.4 
       984.0          0.1          2.2 
       985.0          0.1          2.3 
       986.0          0.1          2.6 
       987.0          0.2          2.5 
       988.0          2.8          2.9 
       989.0          0.2          2.5 
       990.0          0.3          2.5 
       991.0          0.2          2.3 
       992.0          0.2          2.2 
       993.0          0.1          2.2 
       994.0          0.2          2.1 
       995.0          0.2          2.2 
       996.0          0.2          2.1 
       997.0          0.2          2.3 
       998.0          0.1          2.3 
       999.0          0.2          2.3 
      1000.0          0.2          2.3 
      1001.0          0.2          2.3 
      1002.0          0.1          2.3 
      1003.0          0.1          2.3 
      1004.0          0.2          2.2 
      1005.0          0.1          2.4 
      1006.0          0.1          2.3 
      1007.0          0.2          2.5 
      1008.0          0.1          2.6 
      1009.0          0.2          2.5 
      1010.0          0.2          2.3 
      1011.0          0.2          2.2 
      1012.0          0.2          2.0 
      1013.0          0.2          2.1 
      1014.0          0.2          2.3 
      1015.0          0.2          2.3 
      1016.0          0.2          2.4 
      1017.0          0.2          2.4 
      1018.0          2.8         13.5 
      1019.0          0.2          2.7 
      1020.0          0.2          1.7 
      1021.0          0.2          1.4 
      1022.0          0.3          1.4 
      1023.0          0.3          1.8 
      1024.0          0.2          1.8 
      1025.0          0.2          2.1 
      1026.0          0.2          2.3 
      1027.0          0.2          2.1 
      1028.0          0.2          2.4 
      1029.0          0.2          2.4 
      1030.0          0.2          2.3 
      1031.0          0.2          2.2 
      1032.0          0.2          2.3 
      1033.0          0.2          2.5 
      1034.0          0.2          2.6 
      1035.0          0.2          2.4 
      1036.0          0.2          2.6 
      1037.0          0.2          2.6 
      1038.0          0.2          2.6 
      1039.0          0.2          2.8 
      1040.0          0.2          2.5 
      1041.0          0.2          2.1 
      1042.0          0.2          2.1 
      1043.0          0.2          2.1 
      1044.0          0.2          2.2 
      1045.0          0.2          2.3 
      1046.0          0.2          2.2 
      1047.0          0.4          2.1 
      1048.0          2.2         13.2 
      1049.0          0.6          5.0 
      1050.0          0.3          3.3 
      1051.0          0.3          2.3 
      1052.0          0.3          1.6 
      1053.0          0.3          1.6 
      1054.0          0.3          1.6 
      1055.0          0.2          1.7 
      1056.0          0.2          2.0 
      1057.0          0.2          2.0 
      1058.0          0.2          2.1 
      1059.0          0.2          2.1 
      1060.0          0.2          2.4 
      1061.0          0.2          2.1 
      1062.0          0.2          2.0 
      1063.0          0.3          2.3 
      1064.0          0.3          2.2 
      1065.0          0.2          2.1 
      1066.0          0.2          1.9 
      1067.0          0.2          2.0 
      1068.0          0.2          2.1 
      1069.0          0.2          2.0 
      1070.0          0.2          2.2 
      1071.0          0.2          1.9 
      1072.0          0.2          1.8 
      1073.0          0.2          2.0 
      1074.0          0.2          2.2 
      1075.0          0.2          2.4 
      1076.0          0.2          2.2 
      1077.0          0.2          2.3 
      1078.0          2.7         15.9 
      1079.0          0.6          4.4 
      1080.0          0.3          2.8 
      1081.0          0.4          2.0 
      1082.0          0.3          1.4 
      1083.0          0.3          1.4 
      1084.0          0.3          1.5 
      1085.0          0.3          1.4 
      1086.0          0.2          1.4 
      1087.0          0.2          1.5 
      1088.0          0.2          1.5 
      1089.0          0.2          1.6 
      1090.0          0.2          1.6 
      1091.0          0.2          1.7 
      1092.0          0.2          1.8 
      1093.0          0.2          2.2 
      1094.0          0.2          2.3 
      1095.0          0.1          2.4 
      1096.0          0.1          2.4 
      1097.0          0.1          2.3 
      1098.0          0.1          2.8 
      1099.0          0.1          3.0 
      1100.0          0.2          3.4 
      1101.0          0.2          3.9 
      1102.0          0.2          3.5 
      1103.0          0.3          3.4 
      1104.0          0.2          2.9 
      1105.0          0.2          2.6 
      1106.0          0.2          2.7 
      1107.0          0.1          2.2 
      1108.0          2.7         13.6 
      1109.0          0.4          2.9 
      1110.0          0.3          2.8 
      1111.0          0.3          2.1 
      1112.0          0.3          1.4 
      1113.0          0.3          1.0 
      1114.0          0.3          1.1 
      1115.0          0.2          1.2 
      1116.0          0.4          1.5 
      1117.0          0.3          1.4 
      1118.0          0.3          1.6 
      1119.0          0.2          1.7 
      1120.0          0.2          1.7 
      1121.0          0.2          1.5 
      1122.0          0.3          1.9 
      1123.0          0.3          1.9 
      1124.0          0.2          1.8 
      1125.0          0.2          1.9 
      1126.0          0.2          1.8 
      1127.0          0.2          1.9 
      1128.0          0.2          2.1 
      1129.0          0.2          1.7 
      1130.0          0.2          1.8 
      1131.0          0.2          1.8 
      1132.0          0.2          2.0 
      1133.0          0.2          1.8 
      1134.0          0.2          1.6 
      1135.0          0.2          1.9 
      1136.0          0.2          2.1 
      1137.0          0.2          2.2 
      1138.0          3.3         14.0 
      1139.0          0.4          2.6 
      1140.0          0.2          1.6 
      1141.0          0.2          1.3 
      1142.0          0.3          1.2 
      1143.0          0.3          1.4 
      1144.0          0.3          1.4 
      1145.0          0.3          1.3 
      1146.0          0.2          1.5 
      1147.0          0.2          1.5 
      1148.0          0.2          1.5 
      1149.0          0.2          1.6 
      1150.0          0.2          1.7 
      1151.0          0.2          2.1 
      1152.0          0.2          2.0 
      1153.0          0.3          2.2 
      1154.0          0.2          2.1 
      1155.0          0.2          2.2 
      1156.0          0.2          2.1 
      1157.0          0.2          2.1 
      1158.0          0.2          1.7 
      1159.0          0.1          1.7 
      1160.0          0.2          1.7 
      1161.0          0.1          1.6 
      1162.0          0.2          1.7 
      1163.0          0.2          1.8 
      1164.0          0.2          1.8 
      1165.0          0.2          1.5 
      1166.0          0.2          1.4 
      1167.0          0.2          1.3 
      1168.0          2.8         13.4 
      1169.0          0.3          2.3 
