~Version Information
VERS.                      2.0: CWLS Log ASCII Standard - VERSION 2.0
WRAP.                       NO: One line per depth step
~Well Information Block
STRT.FT               528.0000: 
STOP.FT              2251.5000: 
STEP.FT                 0.2500: 
NULL.                -999.2500: 
COMP.          Pioneer Natural Resources: COMPANY
WELL.           Parklane 43-34: WELL
FLD.           Purgatorie River: FIELD
LOC.           1704' FSL & 1119' FEL: LOCATION
PROV.                 Colorado: PROVINCE
CNTY.               Las Animas: COUNTRY
SRVC.                         : SERVICE COMPANY
DATE.          Thu Oct 07 01:37:17 2004: LOG DATE
UWI.           05 071 08162 00: UNIQUE WELL ID
~Curve Information Block
DEPT.FT            0 000 00 00: Depth
LTEN.lb                       : Surface Line Tension
SN.Ohm-m                      : IEL Short Normal
SP.mV                         : IEL Spontaneous Potential
DIR.Ohm-m                     : IEL Induction Resistivity
GR.GAPI                       : Gamma Ray
~Parameter Information Block
~A  Depth       LTEN         SN          SP         DIR          GR     
# ...
  1900.0000    935.4406     13.0120    -70.3342      8.0666    102.8024
  1900.2500    935.6832     12.8346    -71.4570      8.4111    101.0329
  1900.5000    934.7075     12.7059    -72.3071      8.9214     97.2313
  1900.7500    933.7441     12.6374    -72.7620      9.7237     94.9179
  1901.0000    933.7359     12.6396    -72.8209     11.0149     93.1025
  1901.2500    934.4779     12.7147    -72.5903     13.0862     92.9363
  1901.5000    934.8235     12.8542    -72.2355     16.3443     93.2911
  1901.7500    933.8047     13.0442    -71.9201     21.2292     93.6803
  1902.0000    931.4950     13.2780    -71.7542     27.7071     94.9050
  1902.2500    929.0336     13.5638    -71.7684     34.0825     96.1843
  1902.5000    927.9247     13.9233    -71.9238     36.9505     97.7529
  1902.7500    928.9609     14.3812    -72.1410     34.9924     97.9032
  1903.0000    931.6228     14.9564    -72.3444     30.6571     96.9824
  1903.2500    934.5486     15.6566    -72.4897     26.5083     96.3454
  1903.5000    936.5552     16.4785    -72.5760     23.4773     96.2138
  1903.7500    937.2979     17.4084    -72.6378     21.5810     96.4994
  1904.0000    937.1602     18.4285    -72.7251     20.6004     96.4800
  1904.2500    936.6342     19.5272    -72.8840     20.3149     95.6530
  1904.5000    935.9005     20.7119    -73.1550     20.5331     93.1179
  1904.7500    934.9931     22.0112    -73.5770     21.0665     91.1102
  1905.0000    934.0986     23.4612    -74.1975     21.7134     89.0593
  1905.2500    933.4509     25.0850    -75.0744     22.3017     88.8328
  1905.5000    933.0396     26.8776    -76.2591     22.7689     89.5384
  1905.7500    932.6682     28.8038    -77.7719     23.1883     89.5196
  1906.0000    932.3151     30.8060    -79.5718     23.6923     86.6814
  1906.2500    932.2889     32.8144    -81.5480     24.3620     82.4860
  1906.5000    933.0532     34.7546    -83.5275     25.1700     73.7213
  1906.7500    935.1063     36.5476    -85.3128     25.9959     67.2545
  1907.0000    938.7850     38.0990    -86.7304     26.6817     57.8438
  1907.2500    943.5920     39.2848    -87.6578     27.0880     52.0041
  1907.5000    947.9077     39.9500    -88.0454     27.1192     44.2096
  1907.7500    950.1065     39.9401    -87.9015     26.7303     40.0747
  1908.0000    949.9528     39.1615    -87.2700     25.9454     36.2405
  1908.2500    948.4852     37.6394    -86.2022     24.8830     35.4746
  1908.5000    946.8925     35.5332    -84.7503     23.7358     37.0703
  1908.7500    945.8576     33.0926    -82.9671     22.6894     39.9423
  1909.0000    945.5462     30.5780    -80.9172     21.8367     46.4294
  1909.2500    945.7795     28.1878    -78.6918     21.1564     51.4473
  1909.5000    946.2075     26.0302    -76.4062     20.5602     58.6433
  1909.7500    946.3284     24.1405    -74.1919     19.9616     62.9285
  1910.0000    945.5926     22.5198    -72.1789     19.3165     69.0173
  1910.2500    943.9661     21.1651    -70.4736     18.6231     73.2035
  1910.5000    942.3312     20.0749    -69.1410     17.9007     79.8161
  1910.7500    941.7582     19.2398    -68.1955     17.1709     84.2379
  1911.0000    942.1958     18.6322    -67.6041     16.4442     90.2417
  1911.2500    942.3287     18.2042    -67.2994     15.7133     93.3542
  1911.5000    941.0252     17.8938    -67.2008     14.9624     95.9280
  1911.7500    938.5598     17.6407    -67.2391     14.1871     96.0939
  1912.0000    936.2155     17.4061    -67.3762     13.4079     94.4948
  1912.2500    935.0833     17.1863    -67.6135     12.6621     92.5792
  1912.5000    935.4379     17.0107    -67.9830     11.9819     88.4662
  1912.7500    936.8231     16.9221    -68.5281     11.3825     84.6448
  1913.0000    938.4821     16.9483    -69.2791     10.8702     77.3910
  1913.2500    939.8879     17.0803    -70.2268     10.4538     72.2365
  1913.5000    940.8994     17.2699    -71.3109     10.1441     65.8794
  1913.7500    941.4221     17.4459    -72.4149      9.9394     63.4484
  1914.0000    941.2736     17.5404    -73.3749      9.8127     62.8271
  1914.2500    940.6112     17.5106    -74.0114      9.7144     63.9280
  1914.5000    940.2447     17.3453    -74.1598      9.5935     66.7824
  1914.7500    941.1470     17.0539    -73.7158      9.4216     69.2544
  1915.0000    943.3991     16.6481    -72.6711      9.2004     74.0874
  1915.2500    945.7258     16.1292    -71.1293      8.9510     78.1976
  1915.5000    946.5479     15.4918    -69.3001      8.6988     85.2818
  1915.7500    945.6660     14.7422    -67.4561      8.4685     90.0148
  1916.0000    944.5182     13.9167    -65.8730      8.2832     95.9729
  1916.2500    944.5808     13.0850    -64.7653      8.1624     98.6709
  1916.5000    945.7651     12.3362    -64.2421      8.1156    100.3054
  1916.7500    946.6065     11.7545    -64.2920      8.1370     99.7435
  1917.0000    945.8226     11.3946    -64.8058      8.2039     97.0620
  1917.2500    943.3668     11.2638    -65.6231      8.2815     94.8965
  1917.5000    940.1749     11.3203    -66.5834      8.3354     92.6266
  1917.7500    937.4144     11.4860    -67.5705      8.3439     92.1178
  1918.0000    935.9704     11.6726    -68.5223      8.3067     92.3740
  1918.2500    936.1774     11.8079    -69.4253      8.2418     92.8401
  1918.5000    937.7363     11.8556    -70.2842      8.1750     93.7916
  1918.7500    939.9354     11.8213    -71.0965      8.1273     94.5166
  1919.0000    942.0861     11.7430    -71.8325      8.1074     95.2772
  1919.2500    943.7699     11.6687    -72.4368      8.1131     95.3323
  1919.5000    944.6939     11.6309    -72.8398      8.1377     94.8858
  1919.7500    944.4979     11.6354    -72.9887      8.1794     94.4990
  1920.0000    942.9489     11.6682    -72.8642      8.2429     93.9063
  1920.2500    940.4084     11.7166    -72.4949      8.3347     93.3549
  1920.5000    937.9219     11.7836    -71.9615      8.4555     92.2708
  1920.7500    936.5820     11.8849    -71.3780      8.6004     91.6397
  1921.0000    936.8362     12.0313    -70.8679      8.7642     91.1030
  1921.2500    938.6443     12.2151    -70.5351      8.9482     90.7164
  1921.5000    942.0198     12.4134    -70.4459      9.1595     89.0853
  1921.7500    946.6551     12.6032    -70.6087      9.4049     86.9254
  1922.0000    950.9357     12.7726    -70.9786      9.6873     82.6055
  1922.2500    952.2924     12.9213    -71.4724     10.0056     80.0513
  1922.5000    949.3221     13.0578    -71.9891     10.3531     78.8901
  1922.7500    943.3968     13.1963    -72.4385     10.7106     80.5680
  1923.0000    937.7952     13.3507    -72.7612     11.0428     85.8701
  1923.2500    935.1996     13.5244    -72.9305     11.3070     89.8153
  1923.5000    935.9920     13.7058    -72.9503     11.4748     93.9606
  1923.7500    938.7086     13.8721    -72.8349     11.5489     94.9362
  1924.0000    941.6032     14.0029    -72.5951     11.5611     93.8141
  1924.2500    943.4584     14.0912    -72.2273     11.5538     91.4731
  1924.5000    943.5622     14.1480    -71.7127     11.5604     85.7119
  1924.7500    941.9745     14.1994    -71.0283     11.5952     80.8740
  1925.0000    939.8315     14.2737    -70.1584     11.6554     74.0683
  1925.2500    938.5444     14.3851    -69.1113     11.7313     71.0596
  1925.5000    938.4943     14.5212    -67.9191     11.8162     69.8180
  1925.7500    938.9921     14.6447    -66.6347     11.9095     70.9533
  1926.0000    939.5118     14.7124    -65.3126     12.0147     74.5269
  1926.2500    940.3526     14.7009    -64.0008     12.1363     77.4425
  1926.5000    941.7505     14.6239    -62.7232     12.2780     81.3066
  1926.7500    942.8145     14.5306    -61.4960     12.4434     82.7681
  1927.0000    942.1435     14.4860    -60.3403     12.6390     82.6034
  1927.2500    939.7477     14.5447    -59.3113     12.8803     81.3327
  1927.5000    937.7496     14.7304    -58.5103     13.1911     79.4972
  1927.7500    938.4102     15.0316    -58.0774     13.5871     79.2119
