~Version Information
VERS.                      2.0: CWLS Log ASCII Standard - VERSION 2.0
WRAP.                       NO: One line per depth step
~Well Information Block
STRT.FT               698.9000: 
STOP.FT              2459.5000: 
STEP.FT                 0.1000: 
NULL.                -999.2500: 
COMP.          Petrogulf Corporation: COMPANY
WELL.             State 16-23V: WELL
FLD.           Purgatorie River: FIELD
LOC.           2414' FSL & 2215' FWL: LOCATION
PROV.                 Colorado: PROVINCE
CNTY.               Las Animas: COUNTRY
SRVC.                         : SERVICE COMPANY
DATE.          Mon Jun 09 12:47:39 2003: LOG DATE
UWI.           05 071 07865 00: UNIQUE WELL ID
~Curve Information Block
DEPT.FT            0 000 00 00: Depth
SP.mV                         : DIL Spontaneous Potential
RILD.Ohm-m                    : DIL Deep Resistivity
RILM.Ohm-m                    : DIL Medium Resistivity
RLL3.Ohm-m                    : DIL Shallow Resistivity
GR.GAPI                       : Gamma Ray
~Parameter Information Block
~A  Depth        SP         RILD        RILM        RLL3         GR     
# ...
   710.1000   2000.0000   -999.2500   -999.2500   -999.2500     63.4537
   710.2000   2000.0000   -999.2500   -999.2500   -999.2500     64.6957
   710.3000   2000.0000   -999.2500   -999.2500   -999.2500     65.9845
   710.4000   2000.0000   -999.2500   -999.2500   -999.2500     67.2921
   710.5000   2000.0000   -999.2500   -999.2500   -999.2500     68.5893
   710.6000   2000.0000   -999.2500   -999.2500   -999.2500     69.8446
   710.7000   2000.0000   -999.2500   -999.2500   -999.2500     71.0275
   710.8000   2000.0000   -999.2500   -999.2500   -999.2500     72.1061
   710.9000   2000.0000   -999.2500   -999.2500   -999.2500     73.0503
   711.0000   2000.0000   -999.2500   -999.2500   -999.2500     73.8325
   711.1000   2000.0000   -999.2500   -999.2500   -999.2500     74.4333
   711.2000   2000.0000   -999.2500   -999.2500   -999.2500     74.8415
   711.3000   2000.0000   -999.2500   -999.2500   -999.2500     75.0608
   711.4000   2000.0000   -999.2500   -999.2500   -999.2500     75.1062
   711.5000   2000.0000   -999.2500   -999.2500   -999.2500     75.0067
   711.6000   2000.0000   -999.2500   -999.2500   -999.2500     74.8003
   711.7000   2000.0000   -999.2500   -999.2500   -999.2500     74.5295
   711.8000   2000.0000   -999.2500   -999.2500   -999.2500     74.2375
   711.9000   2000.0000   -999.2500   -999.2500   -999.2500     73.9588
   712.0000   2000.0000   -999.2500   -999.2500   -999.2500     73.7194
   712.1000   2000.0000   -999.2500   -999.2500   -999.2500     73.5337
   712.2000   2000.0000   -999.2500   -999.2500   -999.2500     73.4042
   712.3000   2000.0000   -999.2500   -999.2500   -999.2500     73.3271
   712.4000   2000.0000   -999.2500   -999.2500   -999.2500     73.2989
   712.5000   2000.0000   -999.2500   -999.2500   -999.2500     73.3190
   712.6000   2000.0000   -999.2500   -999.2500   -999.2500     73.3974
   712.7000   2000.0000   -999.2500   -999.2500   -999.2500     73.5537
   712.8000   2000.0000   -999.2500   -999.2500   -999.2500     73.8151
   712.9000   2000.0000   -999.2500   -999.2500   -999.2500     74.2104
   713.0000   2000.0000   -999.2500   -999.2500   -999.2500     74.7647
   713.1000   2000.0000   -999.2500   -999.2500   -999.2500     75.4900
   713.2000   2000.0000   -999.2500   -999.2500   -999.2500     76.3801
   713.3000   2000.0000   -999.2500   -999.2500   -999.2500     77.4093
   713.4000   2000.0000   -999.2500   -999.2500   -999.2500     78.5336
   713.5000   2000.0000   -999.2500   -999.2500   -999.2500     79.6959
   713.6000   2000.0000   -999.2500   -999.2500   -999.2500     80.8348
   713.7000   2000.0000   -999.2500   -999.2500   -999.2500     81.8904
   713.8000   2000.0000   -999.2500   -999.2500   -999.2500     82.8146
   713.9000   2000.0000   -999.2500   -999.2500   -999.2500     83.5738
   714.0000   2000.0000   -999.2500   -999.2500   -999.2500     84.1531
   714.1000   2000.0000   -999.2500   -999.2500   -999.2500     84.5557
   714.2000   2000.0000   -999.2500   -999.2500   -999.2500     84.8038
   714.3000   2000.0000   -999.2500   -999.2500   -999.2500     84.9302
   714.4000   2000.0000   -999.2500   -999.2500   -999.2500     84.9752
   714.5000   2000.0000   -999.2500   -999.2500   -999.2500     84.9789
   714.6000   2000.0000   -999.2500   -999.2500   -999.2500     84.9762
   714.7000   2000.0000   -999.2500   -999.2500   -999.2500     84.9909
   714.8000   2000.0000   -999.2500   -999.2500   -999.2500     85.0285
   714.9000   2000.0000   -999.2500   -999.2500   -999.2500     85.0793
   715.0000   2000.0000   -999.2500   -999.2500   -999.2500     85.1187
   715.1000   2000.0000   -999.2500   -999.2500   -999.2500     85.1086
   715.2000   2000.0000   -999.2500   -999.2500   -999.2500     85.0097
   715.3000   2000.0000     72.0542   -999.2500   -999.2500     84.7836
   715.4000   2000.0000     72.0542   -999.2500   -999.2500     84.4052
   715.5000   2000.0000     71.1556   -999.2500   -999.2500     83.8658
   715.6000   2000.0000     71.1556   -999.2500   -999.2500     83.1793
   715.7000   2000.0000     71.1556   -999.2500   -999.2500     82.3809
   715.8000   2000.0000     70.1730   -999.2500   -999.2500     81.5256
   715.9000   2000.0000     70.1730   -999.2500   -999.2500     80.6782
   716.0000   2000.0000     70.2518   -999.2500   -999.2500     79.9088
   716.1000   2000.0000     70.2518   -999.2500   -999.2500     79.2803
   716.2000   2000.0000     70.2518   -999.2500   -999.2500     78.8415
   716.3000   2000.0000     72.7192   -999.2500   -999.2500     78.6227
   716.4000   2000.0000     72.7192   -999.2500   -999.2500     78.6318
   716.5000   2000.0000     78.6040   -999.2500   -999.2500     78.8553
   716.6000   2000.0000     78.6040   -999.2500   -999.2500     79.2627
   716.7000   2000.0000     78.6040   -999.2500   -999.2500     79.8061
   716.8000   2000.0000     88.0949   -999.2500   -999.2500     80.4288
   716.9000   2000.0000     88.0949   -999.2500   -999.2500     81.0679
   717.0000   2000.0000     99.3498   -999.2500   -999.2500     81.6596
   717.1000   2000.0000     99.3498   -999.2500   -999.2500     82.1423
   717.2000   2000.0000     99.3498   -999.2500   -999.2500     82.4656
   717.3000   2000.0000    107.8451   -999.2500   -999.2500     82.5954
   717.4000   2000.0000    107.8451   -999.2500   -999.2500     82.5208
   717.5000   2000.0000    110.1510   -999.2500   -999.2500     82.2557
   717.6000   2000.0000    110.1510   -999.2500   -999.2500     81.8407
   717.7000   2000.0000    110.1510   -999.2500   -999.2500     81.3397
   717.8000   2000.0000    108.6040   -999.2500   -999.2500     80.8286
   717.9000   2000.0000    108.6040   -999.2500   -999.2500     80.3853
   718.0000   2000.0000    108.0128   -999.2500   -999.2500     80.0777
   718.1000   2000.0000    108.0128   -999.2500   -999.2500     79.9530
   718.2000   2000.0000    108.0128   -999.2500   -999.2500     80.0278
   718.3000   2000.0000    110.6229   -999.2500   -999.2500     80.2900
   718.4000   2000.0000    110.6229   -999.2500   -999.2500     80.7004
   718.5000   2000.0000    115.3710   -999.2500   -999.2500     81.2022
   718.6000   2000.0000    115.3710   -999.2500   -999.2500     81.7307
   718.7000   2000.0000    115.3710   -999.2500   -999.2500     82.2212
   718.8000   2000.0000    118.9570   -999.2500   -999.2500     82.6197
   718.9000   2000.0000    118.9570   -999.2500   -999.2500     82.8852
   719.0000   2000.0000    118.1255   -999.2500   -999.2500     82.9897
   719.1000   2000.0000    118.1255   -999.2500   -999.2500     82.9165
   719.2000   2000.0000    118.1255   -999.2500   -999.2500     82.6574
   719.3000   2000.0000    112.7386   -999.2500   -999.2500     82.2073
   719.4000   2000.0000    112.7386   -999.2500   -999.2500     81.5658
   719.5000   2000.0000    105.5758   -999.2500   -999.2500     80.7333
   719.6000   2000.0000    105.5758   -999.2500   -999.2500     79.7187
   719.7000   2000.0000    105.5758   -999.2500   -999.2500     78.5342
   719.8000   2000.0000     98.9135   -999.2500   -999.2500     77.2030
   719.9000   2000.0000     98.9135   -999.2500   -999.2500     75.7566
   720.0000   2000.0000     93.1503    106.3302   -999.2500     74.2381
   720.1000   2000.0000     93.1503    106.3302   -999.2500     72.6988
   720.2000   2000.0000     93.1503    106.3302   -999.2500     71.1970
   720.3000   2000.0000     88.1501    104.2791   -999.2500     69.7940
   720.4000   2000.0000     88.1501    104.2791   -999.2500     68.5519
   720.5000   2000.0000     84.4594    100.2179   -999.2500     67.5273
   720.6000   2000.0000     84.4594    100.2179   -999.2500     66.7670
   720.7000   2000.0000     84.4594    100.2179   -999.2500     66.3035
   720.8000   2000.0000     82.9349     95.4481   -999.2500     66.1528
   720.9000   2000.0000     82.9349     95.4481   -999.2500     66.3088
   721.0000   2000.0000     83.6746     91.6101   -999.2500     66.7452
   721.1000   2000.0000     83.6746     91.6101   -999.2500     67.4178
   721.2000   2000.0000     83.6746     91.6101   -999.2500     68.2669
