~Version Information
VERS.                      2.0: CWLS Log ASCII Standard - VERSION 2.0
WRAP.                       NO: One line per depth step
~Well Information Block
STRT.FT                 5.5000: 
STOP.FT              1635.7500: 
STEP.FT                 0.2500: 
NULL.                -999.2500: 
COMP.          Pioneer Natural Resources: COMPANY
WELL.                Mead 11-9: WELL
FLD.           Purgatoire River: FIELD
LOC.           1127' FNL & 668' FWL: LOCATION
PROV.                 Colorado: PROVINCE
CNTY.               Las Animas: COUNTRY
SRVC.                Patterson: SERVICE COMPANY
DATE.          Wed Mar 02 13:48:38 2005: LOG DATE
UWI.           05 071 08160 00: UNIQUE WELL ID
~Curve Information Block
DEPT.FT            0 000 00 00: Depth
CCL.                          : Casing Collar Locator
TT3.usec                      : CBL 3' Travel Time
AMP3.mV                       : CBL 3' Amplitude
GR.GAPI                       : Gamma Ray
~Parameter Information Block
~A  Depth       CCL         TT3         AMP3         GR     
# ...
   742.5000      0.0000    705.4046      3.8466     96.6562
   742.7500      0.0000    708.8634      3.9002     97.2691
   743.0000      0.0000    715.5746      3.9633     94.5518
   743.2500      0.0000    726.5938      4.0420     89.6463
   743.5000      0.0000    742.2203      4.1441     84.4937
   743.7500      0.0000    761.8803      4.2670     80.6826
   744.0000      0.0000    783.8503      4.3930     78.8713
   744.2500      0.0000    805.0912      4.4963     78.9586
   744.5000      0.0000    822.3765      4.5553     80.5351
   744.7500      0.0000    834.6632      4.5621     83.1059
   745.0000      0.0000    844.2874      4.5207     86.1233
   745.2500      0.0000    855.3572      4.4394     89.0003
   745.5000      0.0000    872.1179      4.3241     90.9922
   745.7500      0.0000    900.7947      4.1781     91.0449
   746.0000      0.0000    950.1835      4.0089     88.3568
   746.2500      0.0000   1022.2687      3.8300     83.5509
   746.5000      0.0000   1100.9801      3.6559     78.8388
   746.7500      0.0000   1160.1919      3.4937     76.5316
   747.0000      0.0000   1188.4333      3.3424     77.4119
   747.2500      0.0000   1200.1470      3.1993     80.5055
   747.5000      0.0000   1219.8002      3.0656     84.0132
   747.7500      0.0000   1259.1974      2.9475     86.3728
   748.0000      0.0000   1310.8826      2.8531     86.8604
   748.2500      0.0000   1358.3271      2.7899     85.6366
   748.5000      0.0000   1388.5143      2.7625     83.3768
   748.7500      0.0000   1395.4540      2.7671     80.8995
   749.0000      0.0000   1376.0062      2.7861     79.1068
   749.2500      0.0000   1328.2921      2.7923     78.8529
   749.5000      0.0000   1258.0114      2.7718     80.2862
   749.7500      0.0000   1183.2600      2.7465     82.2635
   750.0000      0.0000   1125.9445      2.7607     82.9558
   750.2500      0.0000   1096.8616      2.8278     81.3586
   750.5000      0.0000   1093.9408      2.9027     78.0365
   750.7500      0.0000   1112.5291      2.9301     74.3164
   751.0000      0.0000   1146.6451      2.9063     71.1086
   751.2500      0.0000   1181.4028      2.8716     68.7310
   751.5000      0.0000   1198.1854      2.8583     67.4253
   751.7500      3.0000   1190.4812      2.8684     67.4382
   752.0000      0.0000   1165.4921      2.8940     68.5959
   752.2500      0.0000   1131.5328      2.9412     70.2686
   752.5000      0.0000   1095.4929      3.0284     71.8963
   752.7500      0.0000   1071.6749      3.1573     73.2821
   753.0000      0.0000   1077.4746      3.2826     74.3185
   753.2500      0.0000   1112.4430      3.3334     74.8111
   753.5000      0.0000   1150.2145      3.2832     74.9508
   753.7500      0.0000   1160.1404      3.1838     75.9044
   754.0000      0.0000   1134.8610      3.1149     79.4006
   754.2500      0.0000   1092.2474      3.1152     86.2200
   754.5000      0.0000   1054.5920      3.1716     95.0819
   754.7500      0.0000   1031.8812      3.2532    103.3935
   755.0000      0.0000   1022.1149      3.3387    109.3136
   755.2500      0.0000   1019.8393      3.4208    112.9515
   755.5000      0.0000   1021.6512      3.4984    115.4834
   755.7500      0.0000   1026.5862      3.5709    117.3796
   756.0000      0.0000   1033.9181      3.6370    117.7954
   756.2500      0.0000   1041.3074      3.6976    115.7014
   756.5000      0.0000   1045.8586      3.7559    111.2992
   756.7500      0.0000   1047.9199      3.8154    106.0703
   757.0000      0.0000   1053.1324      3.8763    101.6159
   757.2500      0.0000   1068.2700      3.9344     98.6387
   757.5000      0.0000   1092.8815      3.9821     96.6912
   757.7500      0.0000   1115.3649      4.0107     94.5195
   758.0000      0.0000   1120.4204      4.0131     90.8791
   758.2500      0.0000   1102.5283      3.9904     85.5096
   758.5000      0.0000   1070.6210      3.9550     79.4805
   758.7500      0.0000   1038.9771      3.9227     74.5270
   759.0000      0.0000   1016.2879      3.9009     72.0125
   759.2500      0.0000   1003.4567      3.8834     72.5267
   759.5000      0.0000    997.1119      3.8595     76.2770
   759.7500      0.0000    992.5351      3.8256     83.4813
   760.0000      0.0000    985.6653      3.7904     94.0171
   760.2500      0.0000    975.2314      3.7699    106.6382
   760.5000      0.0000    963.4404      3.7790    118.7775
   760.7500      0.0000    954.9556      3.8210    127.6635
   761.0000      0.0000    955.9418      3.8831    132.1886
   761.2500      0.0000    972.9459      3.9433    133.7435
   761.5000      0.0000   1009.9276      3.9879    134.8611
   761.7500      0.0000   1063.7367      4.0205    136.9202
   762.0000      0.0000   1120.9377      4.0532    139.4801
   762.2500      0.0000   1160.9602      4.0911    141.6914
   762.5000      0.0000   1169.0613      4.1284    143.3115
   762.7500      0.0000   1150.8872      4.1556    143.8873
   763.0000      0.0000   1131.5125      4.1675    142.0476
   763.2500      0.0000   1135.3914      4.1652    136.9024
   763.5000      0.0000   1166.0974      4.1523    130.1571
   763.7500      0.0000   1205.3800      4.1278    126.0298
   764.0000      0.0000   1230.8196      4.0823    128.3757
   764.2500      0.0000   1233.7009      4.0057    137.6853
   764.5000      0.0000   1222.3560      3.9029    150.7842
   764.7500      0.0000   1214.0260      3.7980    163.1600
   765.0000      0.0000   1224.5093      3.7197    171.2905
   765.2500      0.0000   1259.0631      3.6846    173.2964
   765.5000      0.0000   1308.2520      3.6910    168.8000
   765.7500      0.0000   1353.7797      3.7211    159.0435
   766.0000      0.0000   1379.3878      3.7515    146.5586
   766.2500      0.0000   1376.4973      3.7664    133.7849
   766.5000      0.0000   1343.7880      3.7660    121.9571
   766.7500      0.0000   1288.2832      3.7612    111.4477
   767.0000      0.0000   1227.6106      3.7632    102.5598
   767.2500      0.0000   1184.3928      3.7789     95.7291
   767.5000      0.0000   1171.3422      3.8121     91.6798
   767.7500      0.0000   1180.5156      3.8642     91.6113
   768.0000      0.0000   1189.7544      3.9316     96.4848
   768.2500      0.0000   1180.8906      4.0057    105.7624
   768.5000      0.0000   1152.0293      4.0752    117.0999
   768.7500      0.0000   1114.6490      4.1322    127.5380
   769.0000      0.0000   1082.2675      4.1784    135.1113
   769.2500      0.0000   1062.0183      4.2233    139.3643
   769.5000      0.0000   1053.4608      4.2745    140.2930
   769.7500      0.0000   1052.0859      4.3291    137.1367
   770.0000      0.0000   1053.4219      4.3768    128.8735
   770.2500      0.0000   1055.5009      4.4077    116.0581
   770.5000      0.0000   1059.4692      4.4170    101.5719
   770.7500      0.0000   1069.7975      4.4038     89.0949
   771.0000      0.0000   1093.8051      4.3680     80.9508
   771.2500      0.0000   1138.2753      4.3080     77.4151
   771.5000      0.0000   1202.7572      4.2208     77.5354
   771.7500      0.0000   1275.7155      4.1056     80.1749
   772.0000      0.0000   1340.0223      3.9679     84.4462
   772.2500      0.0000   1383.9860      3.8205     89.5758
   772.5000      0.0000   1406.3955      3.6772     94.6782
   772.7500      0.0000   1411.3323      3.5461     98.7162
   773.0000      0.0000   1399.5342      3.4326    100.5581
   773.2500      0.0000   1365.0663      3.3446     99.1915
   773.5000      0.0000   1301.5038      3.2932     94.3148
   773.7500      0.0000   1214.0844      3.2869     86.8941
   774.0000      0.0000   1124.9557      3.3236     78.8768
   774.2500      0.0000   1061.3241      3.3876     72.1121
   774.5000      0.0000   1036.6589      3.4536     67.4413
   774.7500      0.0000   1046.0021      3.5000     64.7547
   775.0000      0.0000   1077.5718      3.5224     63.7585
   775.2500      0.0000   1121.9700      3.5359     64.4288
   775.5000      0.0000   1169.9384      3.5626     66.6123
   775.7500      0.0000   1210.5624      3.6152     69.4765
