~Version Information
VERS.                      2.0: CWLS Log ASCII Standard - VERSION 2.0
WRAP.                       NO: One line per depth step
~Well Information Block
STRT.FT                -9.0000: 
STOP.FT              2130.0000: 
STEP.FT                 0.2500: 
NULL.                -999.2500: 
COMP.          Pioneer Natural Resources: COMPANY
WELL.               King 22-13: WELL
FLD.           Purgatorie River: FIELD
LOC.           2419' FNL & 1806' FWL: LOCATION
PROV.                 Colorado: PROVINCE
CNTY.               Las Animas: COUNTRY
SRVC.                Patterson: SERVICE COMPANY
DATE.          Wed Apr 20 09:20:28 2005: LOG DATE
UWI.           05-071-08318-00: UNIQUE WELL ID
~Curve Information Block
DEPT.FT            0 000 00 00: Depth
CCL.                          : Casing Collar Locator
TT3.usec                      : CBL 3' Travel Time
AMP3.mV                       : CBL 3' Amplitude
GR.GAPI                       : Gamma Ray
~Parameter Information Block
~A  Depth       CCL         TT3         AMP3         GR     
# ...
  1130.0000      0.0000    260.2182     64.6149     81.0793
  1130.2500      0.0000    259.9241     64.6429     79.8668
  1130.5000      0.0000    259.8959     64.5068     78.3666
  1130.7500      0.0000    259.9509     64.2998     77.3095
  1131.0000      0.0000    260.0317     64.0669     77.9052
  1131.2500      0.0000    260.1187     63.8338     80.3696
  1131.5000      0.0000    260.2023     63.6114     83.6616
  1131.7500      0.0000    260.2863     63.3853     86.7353
  1132.0000      0.0000    260.3913     63.1248     89.4753
  1132.2500      0.0000    260.5755     62.8141     92.1859
  1132.5000      0.0000    261.0059     62.4754     94.7820
  1132.7500      0.0000    262.0872     62.1549     96.8018
  1133.0000      0.0000    264.5050     61.8874     97.8896
  1133.2500      0.0000    268.9149     61.6771     98.0305
  1133.5000      0.0000    275.2764     61.5045     97.3590
  1133.7500      0.0000    282.4605     61.3481     95.8696
  1134.0000      0.0000    288.7898     61.2002     93.5544
  1134.2500      0.0000    293.1343     61.0676     90.8061
  1134.5000      0.0000    295.4583     60.9562     88.2409
  1134.7500      0.0000    296.4333     60.8543     85.9905
  1135.0000      0.0000    296.7639     60.7349     83.7434
  1135.2500      0.0000    296.8617     60.5760     81.7170
  1135.5000      0.0000    296.8844     60.3797     80.9559
  1135.7500      0.0000    296.8768     60.1689     82.3546
  1136.0000      0.0000    296.8567     59.9651     85.8936
  1136.2500      0.0000    296.8415     59.7675     91.0555
  1136.5000      0.0000    296.8458     59.5486     97.3180
  1136.7500      0.0000    296.8783     59.2645    103.8092
  1137.0000      0.0000    296.9417     58.8582    109.0764
  1137.2500      0.0000    297.0379     58.2449    111.9355
  1137.5000      0.0000    297.1913     57.3055    112.4853
  1137.7500      0.0000    297.4824     55.9113    111.7871
  1138.0000      0.0000    298.2080     53.9757    110.6443
  1138.2500      0.0000    300.2430     51.4918    109.2248
  1138.5000      0.0000    305.5098     48.5359    107.6833
  1138.7500      0.0000    316.9921     45.2457    106.4327
  1139.0000      0.0000    337.6019     41.7903    105.6437
  1139.2500      0.0000    368.9260     38.3328    104.9993
  1139.5000      0.0000    411.9901     34.9924    104.2194
  1139.7500      0.0000    468.6938     31.8383    103.5254
  1140.0000      0.0000    539.1466     28.9264    103.2328
  1140.2500      0.0000    616.2473     26.3312    103.1208
  1140.5000      0.0000    686.3663     24.1220    102.6568
  1140.7500      0.0000    738.0756     22.3091    101.6706
  1141.0000      0.0000    769.3733     20.8370    100.2599
  1141.2500      0.0000    786.7440     19.6465     98.1742
  1141.5000      0.0000    800.0478     18.7189     94.9212
  1141.7500      0.0000    818.5690     18.0369     90.5590
  1142.0000      0.0000    847.9315     17.5296     86.0444
  1142.2500      0.0000    885.8692     17.1322     82.6594
  1142.5000      0.0000    918.4913     16.9257     81.0415
  1142.7500      0.0000    922.5995     17.1449     80.5619
  1143.0000      0.0000    878.5690     17.9792     79.6213
  1143.2500      5.0000    789.3866     19.3794     76.9503
  1143.5000      0.0000    687.9422     21.0940     72.9253
  1143.7500     -5.0000    617.7418     22.8758     69.6683
  1144.0000      0.0000    599.2068     24.6600     69.6920
  1144.2500      0.0000    614.4424     26.5743     74.1617
  1144.5000      0.0000    625.6224     28.7928     82.2417
  1144.7500      0.0000    606.3661     31.3863     91.9753
  1145.0000      0.0000    555.6761     34.3546    101.5563
  1145.2500      0.0000    488.6342     37.7494    109.8370
  1145.5000      0.0000    421.9490     41.5642    116.3483
  1145.7500      0.0000    367.4216     45.4548    121.3068
  1146.0000      0.0000    330.5867     48.7911    125.1037
  1146.2500      0.0000    310.4917     51.1002    127.1274
  1146.5000      0.0000    301.8429     52.3698    125.4390
  1146.7500      0.0000    298.9738     52.9201    118.3209
  1147.0000      0.0000    298.2746     53.1065    106.1146
  1147.2500      0.0000    298.1912     53.1559     91.1692
  1147.5000      0.0000    298.2310     53.1654     76.3038
  1147.7500      0.0000    298.2919     53.1605     63.7247
  1148.0000      0.0000    298.3341     53.1519     54.7286
  1148.2500      0.0000    298.3451     53.1559     49.4470
  1148.5000      0.0000    298.3214     53.1825     46.9108
  1148.7500      0.0000    298.2732     53.2205     45.8141
  1149.0000      0.0000    298.2205     53.2435     45.1374
  1149.2500      0.0000    298.1820     53.2290     44.1300
  1149.5000      0.0000    298.1670     53.1712     42.3878
  1149.7500      0.0000    298.1736     53.0809     40.3993
  1150.0000      0.0000    298.1949     52.9791     39.5739
  1150.2500      0.0000    298.2255     52.8823     41.0866
  1150.5000      0.0000    298.2618     52.7937     44.7124
  1150.7500      0.0000    298.2958     52.7120     49.1226
  1151.0000      0.0000    298.3121     52.6467     53.2142
  1151.2500      0.0000    298.2964     52.6191     56.7129
  1151.5000      0.0000    298.2487     52.6486     59.5509
  1151.7500      0.0000    298.1879     52.7371     61.3698
  1152.0000      0.0000    298.1409     52.8632     62.0153
  1152.2500      0.0000    298.1253     52.9919     62.1187
  1152.5000      0.0000    298.1388     53.0992     62.7718
  1152.7500      0.0000    298.1624     53.1901     64.6406
  1153.0000      0.0000    298.1736     53.2881     67.4110
  1153.2500      0.0000    298.1609     53.4041     70.0220
  1153.5000      0.0000    298.1309     53.5137     71.6313
  1153.7500      0.0000    298.1020     53.5636     72.6477
  1154.0000      0.0000    298.0923     53.4999     74.7768
  1154.2500      0.0000    298.1120     53.2900     79.8337
  1154.5000      0.0000    298.1653     52.9231     88.3739
  1154.7500      0.0000    298.2543     52.3981     99.2319
  1155.0000      0.0000    298.3750     51.7273    110.1245
  1155.2500      0.0000    298.5118     50.9574    118.8753
  1155.5000      0.0000    298.6431     50.1739    124.5325
  1155.7500      0.0000    298.7556     49.4662    127.6336
  1156.0000      0.0000    298.8527     48.8787    129.5300
  1156.2500      0.0000    298.9472     48.3993    131.5540
  1156.5000      0.0000    299.0451     47.9962    134.5407
  1156.7500      0.0000    299.1380     47.6554    138.5612
  1157.0000      0.0000    299.2099     47.3828    142.8755
  1157.2500      0.0000    299.2498     47.1826    146.2988
  1157.5000      0.0000    299.2598     47.0451    147.7793
  1157.7500      0.0000    299.2521     46.9573    146.9196
  1158.0000      0.0000    299.2415     46.9133    144.1842
  1158.2500      0.0000    299.2371     46.9050    140.3713
  1158.5000      0.0000    299.2421     46.9024    135.7768
  1158.7500      0.0000    299.2592     46.8480    130.3762
  1159.0000      0.0000    299.2941     46.6751    124.9733
  1159.2500      0.0000    299.3530     46.3384    121.5020
  1159.5000      0.0000    299.4380     45.8313    121.6776
  1159.7500      0.0000    299.5482     45.1811    125.3969
  1160.0000      0.0000    299.6871     44.4352    130.5687
  1160.2500      0.0000    299.8645     43.6479    134.4292
  1160.5000      0.0000    300.0909     42.8662    135.1107
  1160.7500      0.0000    300.3755     42.1113    132.4343
  1161.0000      0.0000    300.7405     41.3738    127.7689
  1161.2500      0.0000    301.2854     40.6331    123.1883
  1161.5000      0.0000    302.3416     39.8924    120.1023
  1161.7500      0.0000    304.7175     39.1967    118.2549
  1162.0000      0.0000    309.7130     38.6112    116.3474
  1162.2500      0.0000    318.3142     38.1788    113.8556
  1162.5000      0.0000    329.5608     37.9041    111.8290
  1162.7500      0.0000    339.6707     37.7742    111.7353
  1163.0000      0.0000    343.8274     37.7810    113.8548
  1163.2500      0.0000    339.8926     37.9107    116.8975
