~Version Information
VERS.                      2.0: CWLS Log ASCII Standard - VERSION 2.0
WRAP.                       NO: One line per depth step
~Well Information Block
STRT.FT               340.0000: 
STOP.FT              1731.0000: 
STEP.FT                 0.1000: 
NULL.                -999.2500: 
COMP.          Pioneer Natural Resources: COMPANY
WELL.          Rancher 12-35 Tr: WELL
FLD.           Purgatoire River: FIELD
LOC.           2242' FNL & 308' FWL SWNW 35 32S 67W: LOCATION
PROV.                 Colorado: PROVINCE
CNTY.               Las Animas: COUNTRY
SRVC.                Patterson: SERVICE COMPANY
DATE.          Tue Jul 05 07:18:22 2005: LOG DATE
UWI.              05 071 08430 00: UNIQUE WELL ID
~Curve Information Block
DEPT.FT            0 000 00 00: Depth
DCAL.in                       : CDL Caliper
RHOB.g/cc                     : CDL Bulk Density
RHOC.g/cc                     : CDL Density Correction
DPOR.pu                       : CDL Density Porosity
GR.GAPI                       : Gamma Ray
NPOR.pu                       : Neutron Porosity
~Parameter Information Block
~A  Depth       DCAL        RHOB        RHOC        DPOR         GR         NPOR    
# ...
   522.4000      8.2150      2.4067      0.0757     14.7472     46.7972     17.4459
   522.5000      8.1863      2.4142      0.0957     14.2933     47.0029     17.2497
   522.6000      8.1863      2.4259      0.1264     13.5841     50.0897     17.1985
   522.7000      8.1863      2.4297      0.0815     13.3545     51.0478     17.4765
   522.8000      8.0919      2.4277      0.0886     13.4713     50.7347     17.9856
   522.9000      8.0919      2.4249      0.1065     13.6399     51.7403     18.2999
   523.0000      8.0957      2.4161      0.1004     14.1783     53.0626     18.1634
   523.1000      8.0957      2.4011      0.0394     15.0858     53.9655     17.8022
   523.2000      8.0957      2.3925      0.0561     15.6051     55.4920     17.5307
   523.3000      8.1282      2.3922      0.0593     15.6216     57.1468     17.4564
   523.4000      8.1282      2.3956      0.0119     15.4200     57.0371     17.5581
   523.5000      8.1751      2.4079      0.0603     14.6703     55.2080     17.5808
   523.6000      8.1751      2.4278      0.0766     13.4663     54.5122     17.3818
   523.7000      8.1751      2.4409      0.0559     12.6722     55.1703     17.4201
   523.8000      8.2069      2.4400      0.0604     12.7245     53.1600     17.9402
   523.9000      8.2069      2.4302      0.0282     13.3225     49.2066     18.3266
   524.0000      8.2089      2.4163      0.0712     14.1655     49.4430     18.1705
   524.1000      8.2089      2.4073      0.0183     14.7069     52.8457     17.9020
   524.2000      8.2089      2.4208      0.0346     13.8900     52.5027     18.0690
   524.3000      8.2128      2.4559      0.0698     11.7665     49.2608     18.7444
   524.4000      8.2128      2.4820      0.1256     10.1837     47.8738     19.4986
   524.5000      8.2098      2.4780      0.0849     10.4266     48.3021     19.9744
   524.6000      8.2098      2.4605      0.0536     11.4819     50.0311     20.2718
   524.7000      8.2098      2.4494      0.0518     12.1604     53.4911     20.6392
   524.8000      8.2065      2.4395      0.0336     12.7573     57.4342     21.2294
   524.9000      8.2065      2.4297      0.0080     13.3534     59.3564     21.8431
   525.0000      8.2058      2.4339     -0.0159     13.0959     57.9721     22.1588
   525.1000      8.2058      2.4579      0.0430     11.6415     55.9629     22.0597
   525.2000      8.2058      2.4866      0.0709      9.9015     56.7870     21.6983
   525.3000      8.2322      2.4998      0.0866      9.1030     62.9088     21.5804
   525.4000      8.2322      2.4980      0.0313      9.2126     72.4529     22.0106
   525.5000      8.2237      2.5021      0.0156      8.9631     78.1816     22.6450
   525.6000      8.2237      2.5115      0.0946      8.3966     80.1307     23.0961
   525.7000      8.2237      2.4995      0.0708      9.1211     85.0529     23.4901
   525.8000      8.1969      2.4584      0.0823     11.6140     93.5669     24.0035
   525.9000      8.1969      2.4172     -0.0323     14.1095    100.9642     24.5698
   526.0000      8.2145      2.4060      0.0536     14.7850    105.1458     25.0172
   526.1000      8.2145      2.4169      0.0617     14.1262    109.4180     25.2304
   526.2000      8.2145      2.4327      0.0577     13.1685    117.8082     25.4953
   526.3000      8.2412      2.4578      0.0298     11.6499    128.2515     26.1072
   526.4000      8.2412      2.4996      0.0970      9.1125    135.4392     26.8433
   526.5000      8.2566      2.5473      0.1553      6.2228    139.3784     27.4419
   526.6000      8.2566      2.5835      0.2011      4.0290    142.0948     27.7174
   526.7000      8.2566      2.6001      0.2360      3.0268    140.7837     27.5557
   526.8000      8.2567      2.5940      0.2347      3.3956    136.6831     27.2388
   526.9000      8.2567      2.5791      0.1779      4.2959    137.0931     27.3097
   527.0000      8.2874      2.5830      0.0969      4.0618    141.1646     27.9628
   527.1000      8.2874      2.5987      0.1304      3.1066    140.1727     28.7567
   527.2000      8.2874      2.5931      0.0767      3.4477    133.0735     29.2919
   527.3000      8.2593      2.5625      0.0828      5.3053    127.4555     29.7866
   527.4000      8.2593      2.5266      0.1149      7.4777    126.4335     30.1984
   527.5000      8.2515      2.5034      0.0258      8.8845    126.3818     30.1765
   527.6000      8.2515      2.4928      0.0849      9.5276    126.3221     29.9464
   527.7000      8.2515      2.4761      0.0507     10.5371    130.5360     29.6461
   527.8000      8.2357      2.4540      0.0072     11.8806    140.7086     29.0031
   527.9000      8.2357      2.4397      0.0137     12.7485    150.1775     28.0673
   528.0000      8.2218      2.4414     -0.0151     12.6452    151.1355     27.0651
   528.1000      8.2218      2.4685      0.0317     11.0002    145.7356     26.2644
   528.2000      8.2218      2.5101      0.1111      8.4777    141.9385     25.9631
   528.3000      8.2206      2.5415      0.1129      6.5750    140.1983     26.0774
   528.4000      8.2206      2.5636      0.1105      5.2366    136.8055     26.2724
   528.5000      8.2370      2.5920      0.1298      3.5168    133.8568     26.4688
   528.6000      8.2370      2.6098      0.1850      2.4375    132.4401     26.7295
   528.7000      8.2370      2.5973      0.0828      3.1911    131.6288     26.9982
   528.8000      8.2415      2.5843      0.0413      3.9844    133.1770     27.2251
   528.9000      8.2415      2.5879      0.1094      3.7661    136.7874     27.2736
   529.0000      8.2444      2.5865      0.0835      3.8496    140.5025     27.0460
   529.1000      8.2444      2.5851      0.0014      3.9314    141.6222     26.8777
   529.2000      8.2444      2.6046      0.0642      2.7528    136.7738     27.1868
   529.3000      8.2395      2.6322      0.0333      1.0810    130.1632     27.8757
   529.4000      8.2395      2.6393      0.0840      0.6509    128.2056     28.2875
   529.5000      8.2379      2.6144      0.0283      2.1569    130.0482     27.8570
   529.6000      8.2379      2.5719     -0.0106      4.7349    131.1161     26.9348
   529.7000      8.2379      2.5360     -0.0214      6.9095    128.3967     26.1674
   529.8000      8.2458      2.5181      0.0172      7.9950    125.0581     25.6540
   529.9000      8.2458      2.5113      0.0302      8.4087    127.8810     25.1870
   530.0000      8.2760      2.5109      0.0384      8.4274    134.7923     24.8399
   530.1000      8.2760      2.5211      0.0282      7.8118    137.5695     24.9801
   530.2000      8.2760      2.5244      0.0882      7.6151    136.1076     25.5017
   530.3000      8.2883      2.4875      0.0629      9.8500    136.2592     26.0315
   530.4000      8.2883      2.4137      0.0054     14.3237    138.6310     26.4487
   530.5000      8.3031      2.3562     -0.0252     17.8078    141.2250     26.5449
   530.6000      8.3031      2.3637      0.0131     17.3501    144.4408     26.3028
   530.7000      8.3031      2.4222      0.0872     13.8063    146.8668     26.1733
   530.8000      8.3623      2.4868      0.0800      9.8907    145.4036     26.2443
   530.9000      8.3623      2.5423      0.1403      6.5303    141.7919     26.2485
   531.0000      8.3819      2.5926      0.1615      3.4797    140.4037     26.2256
   531.1000      8.3819      2.6358      0.2352      0.8583    141.4720     26.2592
   531.2000      8.3819      2.6657      0.2749     -0.9536    142.5751     26.5076
   531.3000      8.3887      2.6772      0.3214     -1.6461    143.6713     26.9180
   531.4000      8.3887      2.6649      0.3182     -0.9052    144.5372     27.1008
   531.5000      8.4431      2.6318      0.1708      1.1010    143.2215     27.2145
   531.6000      8.4431      2.5932      0.0936      3.4444    138.6913     27.6346
   531.7000      8.4431      2.5625      0.0541      5.3020    132.5759     28.0452
   531.8000      8.4613      2.5378      0.0274      6.7973    125.9793     27.9990
   531.9000      8.4613      2.5174     -0.0215      8.0392    122.4044     27.8243
