~Version Information
VERS.                      2.0: CWLS Log ASCII Standard - VERSION 2.0
WRAP.                       NO: One line per depth step
~Well Information Block
STRT.FT               510.0000: 
STOP.FT              1848.7500: 
STEP.FT                 0.2500: 
NULL.                -999.2500: 
COMP.          Pioneer Natural Resources: COMPANY
WELL.           Stampede 42-18: WELL
FLD.           Purgatoire River: FIELD
LOC.           2479' FNL & 160' FEL--: LOCATION
CNTY.               Las Animas: COUNTY
SRVC.          Superior Well Services: SERVICE COMPANY
DATE.          Sat Jun 09 02:07:27 2007: LOG DATE
UWI.           05 071 08237 00: UNIQUE WELL ID
STAT.                 Colorado: STATE
~Curve Information Block
DEPT.FT            0 000 00 00: Depth
SN.Ohm-m                      : IEL Short Normal
SP.mV                         : IEL Spontaneous Potential
DIR.Ohm-m                     : IEL Induction Resistivity
GR.GAPI                       : Gamma Ray
~Parameter Information Block
~A  Depth        SN          SP         DIR          GR     
# ...
  1649.0000     33.5088     50.4975     20.6145     95.2151
  1649.2500     40.8389     47.8032     22.0810     86.2279
  1649.5000     51.2548     45.7147     23.8172     72.8327
  1649.7500     64.7122     44.3204     25.8974     65.4162
  1650.0000     80.0688     43.6081     28.4214     57.4191
  1650.2500     95.4542     43.4989     31.4883     53.6503
  1650.5000    109.0441     43.9013     35.1698     49.0732
  1650.7500    119.6738     44.7446     39.4898     46.5681
  1651.0000    127.1162     45.9814     44.3929     44.4805
  1651.2500    131.7740     47.5762     49.6652     44.8611
  1651.5000    133.9325     49.4969     54.8178     48.3673
  1651.7500    133.5015     51.7106     59.0449     52.0599
  1652.0000    130.4319     54.1815     61.4192     57.9106
  1652.2500    124.9026     56.8683     61.3107     61.3066
  1652.5000    117.0932     59.7272     58.7343     65.6835
  1652.7500    107.1951     62.7160     54.3301     68.6840
  1653.0000     95.6809     65.7923     49.0189     74.1533
  1653.2500     83.2745     68.9056     43.6192     78.3675
  1653.5000     70.6251     71.9932     38.6505     84.3605
  1653.7500     58.3006     74.9836     34.3434     87.3690
  1654.0000     47.1020     77.8056     30.7434     90.0759
  1654.2500     37.9587     80.3953     27.8098     91.1181
  1654.5000     31.3624     82.7021     25.4718     92.3854
  1654.7500     27.1506     84.6889     23.6485     93.1952
  1655.0000     24.8278     86.3286     22.2534     94.4387
  1655.2500     23.8616     87.6070     21.2004     95.5351
  1655.5000     23.7305     88.5341     20.4121     98.1393
  1655.7500     23.9594     89.1530     19.8265    100.5312
  1656.0000     24.2425     89.5324     19.3962    104.3579
  1656.2500     24.5026     89.7442     19.0835    106.4401
  1656.5000     24.8062     89.8457     18.8581    108.2143
  1656.7500     25.2294     89.8783     18.7007    108.5252
  1657.0000     25.7692     89.8773     18.6106    107.8811
  1657.2500     26.3403     89.8798     18.6082    106.6486
  1657.5000     26.8515     89.9161     18.7287    103.6218
  1657.7500     27.2955     89.9959     19.0063    101.3311
  1658.0000     27.7567     90.1038     19.4552     98.8495
  1658.2500     28.3308     90.2133     20.0567     98.1933
  1658.5000     29.0261     90.3047     20.7606     98.1427
  1658.7500     29.7198     90.3711     21.4984     98.2290
  1659.0000     30.2148     90.4124     22.1951     98.1826
  1659.2500     30.3584     90.4285     22.7721     98.0088
  1659.5000     30.1020     90.4180     23.1474     97.4905
  1659.7500     29.4959     90.3804     23.2500     97.0885
  1660.0000     28.6664     90.3138     23.0502     97.0856
  1660.2500     27.7508     90.2115     22.5797     98.0005
  1660.5000     26.8156     90.0638     21.9193    101.1778
  1660.7500     25.8492     89.8691     21.1641    104.3092
  1661.0000     24.8288     89.6458     20.3911    109.7926
  1661.2500     23.7743     89.4314     19.6448    113.6139
  1661.5000     22.7381     89.2668     18.9394    119.1659
  1661.7500     21.7638     89.1776     18.2669    122.4710
  1662.0000     20.8653     89.1655     17.6087    126.3977
  1662.2500     20.0486     89.2144     16.9480    128.2558
  1662.5000     19.3291     89.3019     16.2809    130.0990
  1662.7500     18.7117     89.4078     15.6216    130.8709
  1663.0000     18.1830     89.5165     14.9957    131.5713
  1663.2500     17.7379     89.6168     14.4263    131.7675
  1663.5000     17.3867     89.6977     13.9231    131.4475
  1663.7500     17.1266     89.7420     13.4800    130.6403
  1664.0000     16.9298     89.7217     13.0817    128.5676
  1664.2500     16.7687     89.6019     12.7139    126.9816
  1664.5000     16.6336     89.3545     12.3709    125.1808
  1664.7500     16.5185     88.9720     12.0576    124.6363
  1665.0000     16.4046     88.4700     11.7862    124.7221
  1665.2500     16.2701     87.8700     11.5689    125.3241
  1665.5000     16.1090     87.1784     11.4119    127.2562
  1665.7500     15.9317     86.3781     11.3124    129.3100
  1666.0000     15.7460     85.4434     11.2594    133.1543
  1666.2500     15.5599     84.3608     11.2380    135.7067
  1666.5000     15.4094     83.1377     11.2335    138.4184
  1666.7500     15.3484     81.7909     11.2354    138.9506
  1667.0000     15.4085     80.3253     11.2399    137.5900
  1667.2500     15.5960     78.7207     11.2520    135.5548
  1667.5000     15.8970     76.9383     11.2846    131.7838
  1667.7500     16.2570     74.9353     11.3542    129.4066
  1668.0000     16.5908     72.6741     11.4756    126.9987
  1668.2500     16.8494     70.1246     11.6575    126.4818
  1668.5000     17.0496     67.2697     11.8997    127.1359
  1668.7500     17.2310     64.1254     12.1941    128.1135
  1669.0000     17.4264     60.7645     12.5260    129.8698
  1669.2500     17.6643     57.3267     12.8767    131.1779
  1669.5000     17.9530     53.9940     13.2288    133.1943
  1669.7500     18.2691     50.9391     13.5732    134.1740
  1670.0000     18.5907     48.2757     13.9146    134.1379
  1670.2500     18.9269     46.0433     14.2671    132.8147
  1670.5000     19.3003     44.2293     14.6416    129.1130
  1670.7500     19.7200     42.8005     15.0351    125.8151
  1671.0000     20.1786     41.7169     15.4358    120.1429
  1671.2500     20.6617     40.9306     15.8395    116.3282
  1671.5000     21.1614     40.3864     16.2598    111.7369
  1671.7500     21.6675     40.0307     16.7190    110.0085
  1672.0000     22.1470     39.8235     17.2290    109.4779
  1672.2500     22.5583     39.7427     17.7810    110.1416
  1672.5000     22.8843     39.7801     18.3508    112.2804
  1672.7500     23.1433     39.9336     18.9116    114.4163
  1673.0000     23.3797     40.2039     19.4379    117.9255
  1673.2500     23.6372     40.5924     19.8985    119.4414
  1673.5000     23.9244     41.0928     20.2510    118.9792
  1673.7500     24.2131     41.6748     20.4544    116.9639
  1674.0000     24.4726     42.2743     20.4971    113.1369
  1674.2500     24.6921     42.7988     20.4138    111.0725
  1674.5000     24.8694     43.1463     20.2706    109.2970
  1674.7500     25.0046     43.2247     20.1283    108.8837
  1675.0000     25.1057     42.9741     20.0177    109.2905
  1675.2500     25.1736     42.3857     19.9427    110.2383
  1675.5000     25.1967     41.5085     19.9030    112.4204
  1675.7500     25.1869     40.4332     19.9134    114.1027
  1676.0000     25.2090     39.2582     20.0076    116.4787
  1676.2500     25.3624     38.0586     20.2273    117.7172
  1676.5000     25.7439     36.8782     20.6064    118.7547
  1676.7500     26.4287     35.7450     21.1567    118.8104
  1677.0000     27.4767     34.6917     21.8598    117.6428
  1677.2500     28.9716     33.7638     22.6718    115.5588
  1677.5000     31.0833     33.0175     23.5397    109.3081
  1677.7500     34.1086     32.5179     24.4212    102.6568
  1678.0000     38.4751     32.3383     25.2966     89.7281
  1678.2500     44.6577     32.5528     26.1730     80.5352
  1678.5000     52.8719     33.2155     27.0853     68.8197
  1678.7500     62.6497     34.3340     28.0880     63.5554
  1679.0000     72.8126     35.8534     29.2309     59.6320
  1679.2500     82.0571     37.6663     30.5295     58.8532
  1679.5000     89.4749     39.6508     31.9476     58.5833
  1679.7500     94.4495     41.7209     33.4020     58.2859
  1680.0000     96.4194     43.8583     34.7874     57.7421
  1680.2500     95.1066     46.1054     36.0070     57.9845
  1680.5000     90.8991     48.5239     36.9908     60.4610
  1680.7500     84.7269     51.1504     37.6853     63.8032
  1681.0000     77.5093     53.9667     38.0240     71.1175
  1681.2500     69.8551     56.8917     37.9182     77.1560
  1681.5000     62.2066     59.7970     37.2906     86.9594
  1681.7500     54.9810     62.5475     36.1234     93.1974
  1682.0000     48.4519     65.0493     34.4773    100.8812
  1682.2500     42.6812     67.2773     32.4789    104.5149
