~Version Information
 VERS.                                  2.0 : CWLS LAS VERSION
 WRAP.                                   NO : WRAPING MODE
 SWARE .                 MController 2.5.0J : SOFTWARE VERSION
~Well Information
 WELL.                       Montoya 07-21R : WELL
 COMP.                Petrogulf Corporation : COMPANY
 FLD.                      Purgatoire River : FIELD
 LOC.                 NE/NW Sec 7 T33S R67W : LOCATION
 DATE.                           9/13-15/05 : DATE(S) LOGGED
 SRVC.       BLANCO Geological Services LLC : SERVICE COMPANY
 STAT.                                   CO : STATE
 CNTY.                           Las Animas : COUNTY
 CTRY.                                  USA : COUNTRY
 API.                       05-071-08435-00 : API NUMBER
 STRT.FT                             374.00 : START DEPTH
 STOP.FT                            1830.00 : STOP DEPTH
 STEP.FT                               1.00 : DEPTH INCREMENT
 NULL.                                -9999 : NULL VALUE
~Curve information
 DEPTH.FT                                   :
 ROP.MIN/FT                                 :
 GAS.UNITS                                  :
~ASCII Log data
# ...
      1574.0         4.45        207.8 
      1575.0         0.30         91.7 
      1576.0         0.40         48.5 
      1577.0         0.32         35.1 
      1578.0         0.33         39.5 
      1579.0         0.30         42.7 
      1580.0         0.37         44.2 
      1581.0         0.37         43.7 
      1582.0         0.43         40.4 
      1583.0         0.37         37.6 
      1584.0         0.33         36.0 
      1585.0         0.35         35.8 
      1586.0         0.43         36.0 
      1587.0         1.00         36.4 
      1588.0         0.50         37.0 
      1589.0         0.70         38.4 
      1590.0         0.68         38.1 
      1591.0         0.50         36.9 
      1592.0         0.43         35.6 
      1593.0         0.67         35.2 
      1594.0         0.60         34.9 
      1595.0         0.47         34.8 
      1596.0         0.40         34.5 
      1597.0         0.32         34.9 
      1598.0         0.30         35.6 
      1599.0         0.33         36.1 
      1600.0         0.33         36.3 
      1601.0         0.30         36.5 
      1602.0         0.30         36.3 
      1603.0         0.37         35.3 
      1604.0         4.50        239.8 
      1605.0         0.33         62.8 
      1606.0         0.27         40.7 
      1607.0         0.27         38.8 
      1608.0         0.30         42.0 
      1609.0         0.30         44.5 
      1610.0         0.47         45.6 
      1611.0         0.50         44.6 
      1612.0         0.53         38.9 
      1613.0         0.48         35.2 
      1614.0         0.50         36.0 
      1615.0         0.53         36.9 
      1616.0         0.63         37.1 
      1617.0         0.60         36.0 
      1618.0         0.43         35.4 
      1619.0         0.52         34.3 
      1620.0         0.50         33.7 
      1621.0         0.60         33.2 
      1622.0         0.70         31.5 
      1623.0         0.50         30.8 
      1624.0         0.65         31.4 
      1625.0         0.70         33.7 
      1626.0         0.60         35.0 
      1627.0         0.53         36.0 
      1628.0         0.53         36.3 
      1629.0         0.43         36.3 
      1630.0         0.55         35.7 
      1631.0         0.57         35.8 
      1632.0         0.77         35.2 
      1633.0         0.53         35.1 
      1634.0         3.98        214.3 
      1635.0         0.53         86.3 
      1636.0         0.58         36.9 
      1637.0         0.67         43.9 
      1638.0         0.43         44.9 
      1639.0         0.37         44.2 
      1640.0         0.33         42.7 
      1641.0         0.23         40.0 
      1642.0         0.30         38.4 
      1643.0         0.30         37.3 
      1644.0         0.35         36.2 
      1645.0         0.27         35.3 
      1646.0         0.20         34.9 
      1647.0         0.30         34.1 
      1648.0         0.37         34.4 
      1649.0         0.50         35.1 
      1650.0         0.40         35.8 
      1651.0         0.33         36.4 
      1652.0         0.27         37.2 
      1653.0         0.92         39.4 
      1654.0         1.20         39.3 
      1655.0         0.90         35.9 
      1656.0         0.37         36.9 
      1657.0         0.55         37.4 
      1658.0         1.10         37.7 
      1659.0         0.93         36.7 
      1660.0         0.72         35.5 
      1661.0         0.50         36.8 
      1662.0         0.47         37.1 
      1663.0         0.67         36.7 
      1664.0         4.45        219.0 
      1665.0         0.28         81.2 
      1666.0         0.37         46.7 
      1667.0         0.23         34.4 
      1668.0         0.30         37.6 
      1669.0         0.30         42.1 
      1670.0         0.33         46.1 
      1671.0         0.40         47.9 
      1672.0         0.30         47.6 
      1673.0         0.50         45.1 
      1674.0         0.40         37.1 
      1675.0         0.32         32.8 
      1676.0         0.30         31.2 
      1677.0         0.27         31.9 
      1678.0         0.23         32.7 
      1679.0         0.27         33.1 
      1680.0         0.23         32.7 
      1681.0         0.30         34.2 
      1682.0         0.27         35.3 
      1683.0         0.23         35.7 
      1684.0         0.23         35.9 
      1685.0         0.27         36.0 
      1686.0         0.23         36.0 
      1687.0         0.32         35.5 
      1688.0         0.27         35.2 
      1689.0         0.27         35.2 
      1690.0         0.27         36.4 
      1691.0         0.27         37.6 
      1692.0         0.27         38.6 
      1693.0         0.23         39.5 
      1694.0         4.93        242.0 
      1695.0         0.77         70.6 
      1696.0         0.53         39.6 
      1697.0         0.83         47.3 
      1698.0         0.57         47.1 
      1699.0         0.47         79.6 
      1700.0         0.38        120.9 
      1701.0         0.37        116.5 
      1702.0         0.40         62.9 
      1703.0         0.37         34.6 
      1704.0         0.43         39.3 
      1705.0         0.27         44.7 
      1706.0         0.33         51.9 
      1707.0         0.30         61.0 
      1708.0         0.27         61.1 
      1709.0         0.38         53.5 
      1710.0         0.30         40.7 
      1711.0         0.27         38.1 
      1712.0         0.30         39.2 
      1713.0         0.30         39.1 
      1714.0         0.33         42.1 
      1715.0         0.30         44.4 
      1716.0         0.33         44.2 
      1717.0         0.27         42.1 
      1718.0         0.47         42.4 
      1719.0         0.28         40.5 
      1720.0         0.27         38.5 
      1721.0         0.30         38.8 
      1722.0         0.30         39.9 
      1723.0         0.50         41.0 
      1724.0         5.00        179.1 
      1725.0         0.70         69.6 
      1726.0         0.77         38.2 
      1727.0         0.70         44.1 
      1728.0         0.80         44.0 
      1729.0         0.35         39.8 
      1730.0         0.40         37.2 
      1731.0         0.33         34.6 
      1732.0         0.50         33.6 
      1733.0         0.27         32.5 
      1734.0         0.30         32.4 
      1735.0         0.87         34.5 
      1736.0         1.08         34.6 
      1737.0         0.97         35.1 
      1738.0         0.63         34.5 
      1739.0         0.88         32.8 
      1740.0         0.93         20.6 
      1741.0         0.33         24.0 
      1742.0         0.20         25.9 
      1743.0         0.20         26.8 
      1744.0         0.27         29.1 
      1745.0         0.33         31.5 
      1746.0         0.30         31.0 
      1747.0         0.28         23.5 
      1748.0         0.23         14.4 
      1749.0         0.23          8.3 
      1750.0         0.20          5.6 
      1751.0         0.17          4.4 
      1752.0         0.20          9.4 
      1753.0         0.30         20.5 
      1754.0         5.63        190.3 
      1755.0         0.67         38.2 
      1756.0         0.73         32.7 
      1757.0         0.53         37.6 
      1758.0         0.68         38.1 
      1759.0         0.50         32.4 
      1760.0         0.47         30.5 
      1761.0         0.57         18.4 
      1762.0         0.50         21.2 
      1763.0         0.43         21.7 
      1764.0         0.43         23.5 
      1765.0         0.48         24.3 
      1766.0         0.27         25.2 
      1767.0         0.33         25.3 
      1768.0         0.50         25.3 
      1769.0         1.73         25.9 
      1770.0         0.27         21.8 
      1771.0         0.25         22.0 
      1772.0         0.23         23.8 
      1773.0         0.30         25.6 
