~Version Information
VERS.                      2.0: CWLS Log ASCII Standard - VERSION 2.0
WRAP.                       NO: One line per depth step
~Well Information Block
STRT.FT               846.6000: 
STOP.FT              2609.1000: 
STEP.FT                 0.1000: 
NULL.                -999.2500: 
COMP.          Petrogulf Corporation: COMPANY
WELL.            Lavedure 7-44: WELL
FLD.           Purgatoire River: FIELD
LOC.           969' FSL & 501' FEL: LOCATION
PROV.                 Colorado: PROVINCE
CNTY.               Las Animas: COUNTRY
SRVC.                Patterson: SERVICE COMPANY
DATE.          Sun Dec 07 14:55:17 2003: LOG DATE
UWI.                          : UNIQUE WELL ID
~Curve Information Block
DEPT.FT            0 000 00 00: Depth
DCAL.in                       : CDL Caliper
RHOB.g/cc                     : CDL Bulk Density
RHOC.g/cc                     : CDL Density Correction
DPOR.pu                       : CDL Density Porosity
GR.GAPI                       : Gamma Ray
NPOR.pu                       : Neutron Porosity
~Parameter Information Block
~A  Depth       DCAL        RHOB        RHOC        DPOR         GR         NPOR    
# ...
  2488.2000      7.9450      2.5155      0.0748      8.1502     56.6704     15.9589
  2488.3000      7.9555      2.5160      0.0726      8.1189     57.3114     16.1158
  2488.4000      7.9555      2.5159      0.0693      8.1301     58.0662     16.2954
  2488.5000      7.9621      2.5150      0.0653      8.1826     58.9431     16.4924
  2488.6000      7.9621      2.5135      0.0608      8.2723     59.9508     16.7002
  2488.7000      7.9621      2.5115      0.0561      8.3925     61.0968     16.9106
  2488.8000      7.9616      2.5092      0.0515      8.5341     62.3871     17.1145
  2488.9000      7.9616      2.5067      0.0474      8.6861     63.8218     17.3026
  2489.0000      7.9597      2.5042      0.0442      8.8367     65.3959     17.4668
  2489.1000      7.9597      2.5019      0.0420      8.9742     67.0940     17.6006
  2489.2000      7.9597      2.5001      0.0411      9.0874     68.8891     17.7002
  2489.3000      7.9568      2.4987      0.0418      9.1674     70.7424     17.7648
  2489.4000      7.9568      2.4981      0.0441      9.2076     72.6031     17.7960
  2489.5000      7.9523      2.4981      0.0479      9.2047     74.4108     17.7981
  2489.6000      7.9523      2.4989      0.0531      9.1589     76.1006     17.7767
  2489.7000      7.9523      2.5003      0.0593      9.0742     77.6089     17.7383
  2489.8000      7.9512      2.5022      0.0660      8.9576     78.8803     17.6895
  2489.9000      7.9512      2.5045      0.0727      8.8187     79.8751     17.6362
  2490.0000      7.9543      2.5070      0.0786      8.6690     80.5746     17.5832
  2490.1000      7.9543      2.5094      0.0831      8.5205     80.9878     17.5340
  2490.2000      7.9543      2.5117      0.0859      8.3848     81.1491     17.4899
  2490.3000      7.9579      2.5135      0.0865      8.2715     81.1216     17.4504
  2490.4000      7.9579      2.5149      0.0848      8.1879     80.9846     17.4131
  2490.5000      7.9604      2.5157      0.0812      8.1378     80.8289     17.3734
  2490.6000      7.9604      2.5160      0.0759      8.1211     80.7380     17.3247
  2490.7000      7.9604      2.5158      0.0697      8.1342     80.7778     17.2604
  2490.8000      7.9614      2.5152      0.0632      8.1702     80.9837     17.1735
  2490.9000      7.9614      2.5144      0.0573      8.2195     81.3518     17.0589
  2491.0000      7.9609      2.5135      0.0528      8.2711     81.8434     16.9145
  2491.1000      7.9609      2.5128      0.0501      8.3137     82.3897     16.7425
  2491.2000      7.9609      2.5124      0.0496      8.3367     82.9070     16.5495
  2491.3000      7.9606      2.5125      0.0513      8.3315     83.3100     16.3462
  2491.4000      7.9606      2.5132      0.0550      8.2921     83.5299     16.1471
  2491.5000      7.9633      2.5144      0.0602      8.2159     83.5238     15.9681
  2491.6000      7.9633      2.5163      0.0664      8.1033     83.2808     15.8253
  2491.7000      7.9633      2.5187      0.0728      7.9579     82.8179     15.7334
  2491.8000      7.9627      2.5215      0.0788      7.7862     82.1770     15.7047
  2491.9000      7.9627      2.5247      0.0839      7.5961     81.4143     15.7478
  2492.0000      7.9390      2.5280      0.0876      7.3965     80.5908     15.8675
  2492.1000      7.9390      2.5313      0.0897      7.1962     79.7677     16.0646
  2492.2000      7.9390      2.5344      0.0902      7.0031     78.9995     16.3368
  2492.3000      7.8919      2.5374      0.0893      6.8234     78.3335     16.6776
  2492.4000      7.8919      2.5401      0.0872      6.6609     77.8154     17.0780
  2492.5000      7.8640      2.5425      0.0845      6.5171     77.4879     17.5260
  2492.6000      7.8640      2.5445      0.0818      6.3910     77.3959     18.0075
  2492.7000      7.8640      2.5464      0.0795      6.2798     77.5820     18.5067
  2492.8000      7.8874      2.5481      0.0781      6.1788     78.0821     19.0072
  2492.9000      7.8874      2.5496      0.0781      6.0828     78.9146     19.4926
  2493.0000      7.9185      2.5512      0.0797      5.9864     80.0746     19.9478
  2493.1000      7.9185      2.5529      0.0829      5.8851     81.5254     20.3601
  2493.2000      7.9185      2.5547      0.0879      5.7757     83.1984     20.7196
  2493.3000      7.9190      2.5567      0.0942      5.6567     85.0001     21.0204
  2493.4000      7.9190      2.5588      0.1015      5.5289     86.8200     21.2599
  2493.5000      7.9116      2.5610      0.1094      5.3948     88.5496     21.4388
  2493.6000      7.9116      2.5632      0.1174      5.2589     90.0957     21.5609
  2493.7000      7.9116      2.5654      0.1250      5.1269     91.3960     21.6316
  2493.8000      7.9170      2.5674      0.1317      5.0050     92.4249     21.6580
  2493.9000      7.9170      2.5692      0.1373      4.8996     93.1965     21.6476
  2494.0000      7.9240      2.5705      0.1415      4.8160     93.7538     21.6082
  2494.1000      7.9240      2.5715      0.1443      4.7583     94.1598     21.5473
  2494.2000      7.9240      2.5720      0.1457      4.7290     94.4814     21.4711
  2494.3000      7.9149      2.5720      0.1459      4.7280     94.7768     21.3851
  2494.4000      7.9149      2.5716      0.1450      4.7536     95.0826     21.2927
  2494.5000      7.9025      2.5708      0.1434      4.8018     95.4145     21.1953
  2494.6000      7.9025      2.5697      0.1411      4.8674     95.7644     21.0924
  2494.7000      7.9025      2.5684      0.1385      4.9437     96.1116     20.9818
  2494.8000      7.9024      2.5671      0.1357      5.0240     96.4269     20.8608
  2494.9000      7.9024      2.5658      0.1328      5.1014     96.6836     20.7266
  2495.0000      7.9138      2.5647      0.1301      5.1699     96.8682     20.5778
  2495.1000      7.9138      2.5638      0.1275      5.2247     96.9787     20.4148
  2495.2000      7.9138      2.5632      0.1253      5.2625     97.0270     20.2402
  2495.3000      7.9292      2.5629      0.1232      5.2816     97.0319     20.0584
  2495.4000      7.9292      2.5629      0.1212      5.2816     97.0154     19.8752
  2495.5000      7.9424      2.5632      0.1191      5.2633     96.9922     19.6969
  2495.6000      7.9424      2.5637      0.1167      5.2285     96.9648     19.5295
  2495.7000      7.9424      2.5645      0.1139      5.1790     96.9194     19.3776
  2495.8000      7.9552      2.5656      0.1105      5.1166     96.8252     19.2441
  2495.9000      7.9552      2.5668      0.1067      5.0424     96.6353     19.1294
  2496.0000      7.9549      2.5682      0.1027      4.9571     96.2938     19.0322
  2496.1000      7.9549      2.5698      0.0990      4.8604     95.7468     18.9488
  2496.2000      7.9549      2.5716      0.0958      4.7519     94.9503     18.8743
  2496.3000      7.9433      2.5736      0.0938      4.6310     93.8833     18.8030
  2496.4000      7.9433      2.5758      0.0932      4.4977     92.5519     18.7296
  2496.5000      7.9339      2.5782      0.0942      4.3530     90.9891     18.6491
  2496.6000      7.9339      2.5807      0.0965      4.1991     89.2519     18.5585
  2496.7000      7.9339      2.5833      0.0999      4.0403     87.4089     18.4561
  2496.8000      7.9203      2.5859      0.1036      3.8821     85.5262     18.3425
  2496.9000      7.9203      2.5884      0.1072      3.7317     83.6580     18.2197
  2497.0000      7.9121      2.5906      0.1098      3.5972     81.8353     18.0916
  2497.1000      7.9121      2.5925      0.1109      3.4869     80.0633     17.9631
  2497.2000      7.9121      2.5938      0.1101      3.4091     78.3260     17.8399
  2497.3000      7.9196      2.5944      0.1073      3.3704     76.5966     17.7277
  2497.4000      7.9196      2.5943      0.1026      3.3762     74.8450     17.6321
  2497.5000      7.9410      2.5934      0.0964      3.4296     73.0513     17.5578
  2497.6000      7.9410      2.5917      0.0890      3.5314     71.2114     17.5081
  2497.7000      7.9410      2.5893      0.0811      3.6802     69.3420     17.4845
