~Version Information
VERS.                      2.0: CWLS Log ASCII Standard - VERSION 2.0
WRAP.                       NO: One line per depth step
~Well Information Block
STRT.FT                -8.2500: 
STOP.FT               836.2500: 
STEP.FT                 0.2500: 
NULL.                -999.2500: 
COMP.          Pioneer Natural Res.: COMPANY
WELL.            Hustler 12-17: WELL
FLD.           Purgatorie River: FIELD
LOC.           2150' FNL & 450' FWL----------: LOCATION
PROV.                       CO: PROVINCE
CNTY.               Las Animas: COUNTRY
SRVC.                Patterson: SERVICE COMPANY
DATE.          Wed Dec 29 13:37:10 2004: LOG DATE
UWI.           05 071 08236 00: UNIQUE WELL ID
~Curve Information Block
DEPT.FT            0 000 00 00: Depth
AMP3.mV                       : CBL 3' Amplitude
CCL.                          : Casing Collar Locator
GR.GAPI                       : Gamma Ray
TT3.usec                      : CBL 3' Travel Time
~Parameter Information Block
~A  Depth       AMP3        CCL          GR         TT3     
# ...
   460.7500      6.4836      0.0000    169.6115    817.0186
   461.0000      6.4247      0.0000    167.6951    814.4619
   461.2500      6.4840      0.0000    164.3970    812.5863
   461.5000      6.6561      0.0000    159.7693    811.6033
   461.7500      6.9147      0.0000    154.9305    811.2167
   462.0000      7.2293      0.0000    152.0876    810.9008
   462.2500      7.5549      0.0000    152.8621    809.8958
   462.5000      7.8334      0.0000    156.7617    807.6232
   462.7500      8.0279      0.0000    161.5831    804.7958
   463.0000      8.1467      0.0000    165.0853    803.7380
   463.2500      8.2257      0.0000    166.2036    806.4606
   463.5000      8.2989      0.0000    165.3082    812.2051
   463.7500      8.3898      0.0000    163.9724    817.6649
   464.0000      8.5095      0.0000    164.0865    819.7861
   464.2500      8.6464      0.0000    166.2983    817.9036
   464.5000      8.7746      0.0000    169.2929    813.4857
   464.7500      8.8862      0.0000    171.1038    808.5712
   465.0000      9.0008      0.0000    170.9931    804.5598
   465.2500      9.1295      0.0000    169.5771    801.8181
   465.5000      9.2431      0.0000    167.4985    800.1763
   465.7500      9.2924      0.0000    164.8423    800.1396
   466.0000      9.2575      0.0000    161.8371    803.1976
   466.2500      9.1639      0.0000    159.2616    809.6882
   466.5000      9.0569      0.0000    157.8086    816.2716
   466.7500      8.9666      0.0000    157.2734    817.1416
   467.0000      8.8902      0.0000    156.5820    808.8153
   467.2500      8.7963      0.0000    154.9369    793.3367
   467.5000      8.6542      0.0000    153.1236    776.5317
   467.7500      8.4733      0.0000    153.0391    763.7311
   468.0000      8.3040      0.0000    155.3541    757.0616
   468.2500      8.1941      0.0000    158.2726    755.4855
   468.5000      8.1523      0.0000    159.2397    756.2621
   468.7500      8.1559      0.0000    157.3079    756.6589
   469.0000      8.1724      0.0000    153.3713    755.3848
   469.2500      8.1704      0.0000    148.8772    752.9599
   469.5000      8.1248      0.0000    145.0684    750.8005
   469.7500      8.0160      0.0000    142.8134    750.1386
   470.0000      7.8297      0.0000    142.1149    751.7739
   470.2500      7.5720      0.0000    141.7084    756.1613
   470.5000      7.2824      0.0000    139.7770    763.0384
   470.7500      7.0085      0.0000    135.3844    771.0353
   471.0000      6.7690      0.0000    129.1560    778.2073
   471.2500      6.5594      0.0000    122.4614    783.2061
   471.5000      6.3857      0.0000    116.1187    785.8724
   471.7500      6.2617      0.0000    110.0522    786.8467
   472.0000      6.1835      0.0000    103.9186    787.0535
   472.2500      6.1315      0.0000     97.6572    787.7209
   472.5000      6.0934      0.0000     91.5690    790.3502
   472.7500      6.0657      0.0000     86.1839    795.6840
   473.0000      6.0458      0.0000     82.0428    802.3329
   473.2500      6.0396      0.0000     79.4065    807.1653
   473.5000      6.0620      0.0000     78.1732    807.8986
   473.7500      6.1101      0.0000     78.1110    805.0663
   474.0000      6.1496      0.0000     79.0631    801.0382
   474.2500      6.1449      0.0000     80.7659    797.5416
   474.5000      6.0956      0.0000     82.6023    794.7503
   474.7500      6.0336      0.0000     83.9714    792.3417
   475.0000      5.9992      0.0000     85.0337    790.5408
   475.2500      6.0223      0.0000     86.5033    790.0628
   475.5000      6.1024      0.0000     88.3551    791.4969
   475.7500      6.1954      0.0000     89.3172    794.5237
   476.0000      6.2439      0.0000     88.0269    797.3384
   476.2500      6.2394      0.0000     84.2681    797.3303
   476.5000      6.2344      0.0000     78.9138    793.0938
   476.7500      6.2857      0.0000     73.2205    785.5543
   477.0000      6.4045      0.0000     68.3640    776.7120
   477.2500      6.5710      0.0000     65.1067    767.8669
   477.5000      6.7631      0.0000     63.5324    759.5757
   477.7500      6.9545      0.0000     63.1859    752.4771
   478.0000      7.1123      0.0000     63.5524    747.2668
   478.2500      7.2195      0.0000     64.3259    744.0619
   478.5000      7.2864      0.0000     65.2911    742.3321
   478.7500      7.3310      0.0000     66.1443    741.3855
   479.0000      7.3636      0.0000     66.4967    740.7645
   479.2500      7.3848      0.0000     66.0085    740.2942
   479.5000      7.3853      0.0000     64.5968    739.9885
   479.7500      7.3508      0.0000     62.5953    740.0372
   480.0000      7.2738      0.0000     60.6950    740.9102
   480.2500      7.1511      0.0000     59.6532    743.4493
   480.5000      6.9719      0.0000     59.8868    748.5026
   480.7500      6.7331      0.0000     61.1555    755.7818
   481.0000      6.4653      0.0000     62.6172    762.8357
   481.2500      6.2184      0.0000     63.4006    766.0661
   481.5000      6.0188      0.0000     63.3210    763.7789
   481.7500      5.8666      0.0000     63.0452    758.0918
   482.0000      5.7664      0.0000     63.5636    753.6098
   482.2500      5.7249      0.0000     65.5681    755.1293
   482.5000      5.7221      0.0000     69.1262    766.7747
   482.7500      5.7187      0.0000     73.5301    790.7728
   483.0000      5.6935      0.0000     77.3791    824.0303
   483.2500      5.6540      0.0000     79.2183    856.2172
   483.5000      5.6180      0.0000     78.5807    874.8225
   483.7500      5.5998      0.0000     76.5506    874.7972
   484.0000      5.6056      0.0000     75.0850    862.9619
   484.2500      5.6270      0.0000     75.5716    851.9583
   484.5000      5.6484      0.0000     78.0979    849.5237
   484.7500      5.6632      0.0000     82.1292    853.1070
   485.0000      5.6735      0.0000     87.4443    853.9588
   485.2500      5.6757      0.0000     93.8975    845.7690
   485.5000      5.6691      0.0000    100.4853    829.6813
   485.7500      5.6720      0.0000    105.4514    812.4635
   486.0000      5.6991      0.0000    107.6449    801.0964
   486.2500      5.7282      0.0000    107.4020    798.4780
   486.5000      5.7220      0.0000    105.9342    802.4131
   486.7500      5.6796      0.0000    104.2721    807.5909
   487.0000      5.6325      0.0000    102.9262    808.8945
   487.2500      5.5990      0.0000    102.0707    804.0865
   487.5000      5.5725      0.0000    101.6442    795.0836
   487.7500      5.5461      0.0000    101.3819    787.5999
   488.0000      5.5213      0.0000    100.9636    788.4655
   488.2500      5.5008      0.0000    100.1859    801.0317
   488.5000      5.4911      0.0000     98.9377    822.0229
   488.7500      5.5015      0.0000     97.0206    843.0317
   489.0000      5.5183      0.0000     94.0515    855.5059
   489.2500      5.4940      0.0000     89.7388    855.0818
   489.5000      5.3857      0.0000     84.3628    843.3781
   489.7500      5.1952      0.0000     78.7498    827.2800
   490.0000      4.9522      0.0000     73.5402    815.0227
   490.2500      4.6705      0.0000     68.6319    810.8101
   490.5000      4.3525      0.0000     63.5243    813.1926
   490.7500      4.0243      0.0000     58.1143    818.1846
   491.0000      3.7299      0.0000     53.1142    822.2233
   491.2500      3.4846      0.0000     49.8311    822.7349
   491.5000      3.2610      0.0000     49.3962    818.4733
   491.7500      3.0325      0.0000     51.7990    810.0543
   492.0000      2.8128      0.0000     55.5760    799.4799
   492.2500      2.6419      0.0000     58.6654    789.1219
   492.5000      2.5445      0.0000     59.7227    780.7560
   492.7500      2.5130      0.0000     58.6815    774.2744
   493.0000      2.5197      0.0000     56.2709    767.3521
   493.2500      2.5329      0.0000     53.3204    757.6299
   493.5000      2.5354      0.0000     50.5067    745.6257
   493.7500      2.5481      0.0000     48.3779    735.1888
   494.0000      2.6259      0.0000     47.3341    731.3830
