~Version Information
VERS.                      2.0: CWLS Log ASCII Standard - VERSION 2.0
WRAP.                       NO: One line per depth step
~Well Information Block
STRT.FT               -12.5000: 
STOP.FT              1647.5000: 
STEP.FT                 0.2500: 
NULL.                -999.2500: 
COMP.          Pioneer Natural Resources: COMPANY
WELL.            Harlee L 34-9: WELL
FLD.           Purgatorie River`: FIELD
LOC.           600' FSL & 2125' FEL----: LOCATION
PROV.                       CO: PROVINCE
CNTY.               Las Animas: COUNTRY
SRVC.                Patterson: SERVICE COMPANY
DATE.          Sat Feb 12 09:31:33 2005: LOG DATE
UWI.           05 071 08009 00: UNIQUE WELL ID
~Curve Information Block
DEPT.FT            0 000 00 00: Depth
CCL.                          : Casing Collar Locator
TT3.usec                      : CBL 3' Travel Time
AMP3.mV                       : CBL 3' Amplitude
AMP5.mV                       : CBL 5' Amplitude
GR.GAPI                       : Gamma Ray
~Parameter Information Block
~A  Depth       CCL         TT3         AMP3        AMP5         GR     
# ...
   323.5000      0.0000    286.4422     78.5337     69.8565     68.1228
   323.7500      0.0000    286.4447     78.5201     69.6656     68.0887
   324.0000      0.0000    286.4483     78.4863     69.8565     65.9365
   324.2500      0.0000    286.4520     78.4494     68.9018     63.1001
   324.5000      0.0000    286.4552     78.4275     69.7419     61.0952
   324.7500      0.0000    286.4568     78.4340     69.3983     60.3245
   325.0000      0.0000    286.4558     78.4688     68.7873     60.1031
   325.2500      0.0000    286.4526     78.5155     69.6656     59.5526
   325.5000      0.0000    286.4488     78.5508     68.9400     58.3361
   325.7500      0.0000    286.4463     78.5603     69.3601     56.6555
   326.0000      0.0000    286.4457     78.5441     68.7109     54.7963
   326.2500      0.0000    286.4472     78.5147     69.8565     52.9098
   326.5000      0.0000    286.4504     78.4894     68.8637     51.2513
   326.7500      0.0000    286.4541     78.4807     69.0546     50.2873
   327.0000      0.0000    286.4562     78.4881     68.8637     50.3615
   327.2500      0.0000    286.4550     78.5013     69.7038     51.4920
   327.5000      0.0000    286.4509     78.5109     70.2002     53.6819
   327.7500      0.0000    286.4459     78.5139     69.4364     57.0617
   328.0000      0.0000    286.4424     78.5107     69.5128     61.3378
   328.2500      0.0000    286.4420     78.5006     69.4746     65.3016
   328.5000      0.0000    286.4453     78.4850     70.2765     67.4320
   328.7500      0.0000    286.4517     78.4708     68.9400     67.1303
   329.0000      0.0000    286.4592     78.4690     70.0856     65.1419
   329.2500      0.0000    286.4644     78.4853     69.1310     62.7238
   329.5000      0.0000    286.4641     78.5121     69.7801     60.4989
   329.7500      0.0000    286.4566     78.5335     69.4746     58.0847
   330.0000      0.0000    286.4438     78.5380     69.6656     54.7945
   330.2500      0.0000    286.4299     78.5277     69.4364     50.7566
   330.5000      0.0000    286.4188     78.5139     70.1620     47.2051
   330.7500      0.0000    286.4111     78.5070     69.5892     45.4556
   331.0000      0.0000    286.4056     78.5125     69.7801     45.7666
   331.2500      0.0000    286.4013     78.5305     69.7038     47.4545
   331.5000      0.0000    286.3984     78.5552     69.7801     49.7989
   331.7500      0.0000    286.3970     78.5785     69.6656     52.3865
   332.0000      0.0000    286.3968     78.5934     70.1620     54.7485
   332.2500      0.0000    286.3969     78.5956     69.2073     56.1942
   332.5000      0.0000    286.3966     78.5856     69.4364     56.4188
   332.7500      0.0000    286.3943     78.5707     69.9711     56.2519
   333.0000      0.0000    286.3891     78.5623     69.4746     57.2849
   333.2500      0.0000    286.3808     78.5693     70.0092     60.3323
   333.5000      0.0000    286.3712     78.5912     69.4746     64.4997
   333.7500      0.0000    286.3628     78.6178     70.0474     68.0422
   334.0000      0.0000    286.3572     78.6356     69.8183     69.8819
   334.2500      0.0000    286.3541     78.6353     70.2765     70.0694
   334.5000      0.0000    286.3516     78.6095     68.8255     69.1319
   334.7500      0.0000    286.3469     78.5349     68.4818     67.4357
   335.0000      0.0000    286.3378     78.3558     68.0999     65.1353
   335.2500      0.0000    286.3239     77.9978     67.6035     62.3763
   335.5000      0.0000    286.3072     77.4284     67.4889     59.3993
   335.7500      0.0000    286.2908     76.7195     67.8708     56.5190
   336.0000      0.0000    286.2758     76.0336     67.9090     53.9535
   336.2500      0.0000    286.2606     75.5249     68.0617     51.5066
   336.5000      0.0000    286.2435     75.2474     67.4889     48.5052
   336.7500      0.0000    286.2256     75.1535     68.2527     44.3988
   337.0000      0.0000    286.2114     75.1588     67.9090     39.5914
   337.2500      0.0000    286.2054     75.1926     68.1763     35.5555
   337.5000      0.0000    286.2083     75.1947     68.2527     33.9556
   337.7500      0.0000    286.2169     75.0887     67.8708     35.4016
   338.0000      0.0000    286.2258     74.7880     68.8255     38.8055
   338.2500      0.0000    286.2304     74.2532     67.8708     42.0989
   338.5000      0.0000    286.2278     73.5533     68.5582     43.8436
   338.7500      0.0000    286.2181     72.8521     68.7873     44.1203
   339.0000      0.0000    286.2047     72.3094     67.7562     43.9723
   339.2500      0.0000    286.1925     71.9858     68.9018     44.3450
   339.5000      0.0000    286.1846     71.8376     67.6417     45.4865
   339.7500      0.0000    286.1809     71.7840     66.0760     46.8802
   340.0000      0.0000    286.1787     71.7665     66.0379     47.6418
   340.2500      0.0000    286.1747     71.7620     65.4269     47.3098
   340.5000      0.0000    286.1678     71.7670     65.7706     46.4293
   340.7500      0.0000    286.1592     71.7795     65.4651     46.2078
   341.0000      0.0000    286.1507     71.7919     65.9233     47.4630
   341.2500      0.0000    286.1437     71.7950     65.5414     49.9617
   341.5000      0.0000    286.1389     71.7828     65.6560     52.7614
   341.7500      0.0000    286.1371     71.7533     65.2360     54.9573
   342.0000      0.0000    286.1384     71.7096     65.0450     56.0935
   342.2500      0.0000    286.1427     71.6616     65.3123     56.3315
   342.5000      0.0000    286.1535     71.6207     64.7395     56.5007
   342.7500      0.0000    286.1872     71.5624     66.1906     57.6688
   343.0000      0.0000    286.2890     71.3587     63.0975     60.3343
   343.2500      0.0000    286.5472     70.7055     38.4674     64.0353
   343.5000      0.0000    287.0784     69.1919     70.1238     67.7266
   343.7500      0.0000    287.9650     66.5911     38.1237     70.4165
   344.0000      0.0000    289.1748     63.1187     39.1165     71.7018
   344.2500      0.0000    290.5377     59.2756     38.0855     72.1162
   344.5000      0.0000    291.8155     55.4585     38.5819     72.8883
   344.7500      0.0000    292.8153     51.9024     38.3146     74.9544
   345.0000      0.0000    293.4653     48.8873     38.0091     78.1460
   345.2500      0.0000    293.8137     46.6836     38.1237     81.4466
   345.5000      2.2845    293.9642     45.3008     37.7800     83.9066
   345.7500     -2.3447    293.9978     44.5025     38.5819     85.1783
   346.0000      0.0000    293.9269     44.1338     38.0855     85.2777
   346.2500      0.0000    293.6912     44.4492     38.5819     84.0385
   346.5000      0.0000    293.1881     46.0945     37.8946     80.9871
   346.7500      0.0000    292.3334     49.5503     38.7728     75.8896
   347.0000      0.0000    291.1363     54.4363     38.3910     69.3303
   347.2500      0.0000    289.7442     59.5497     38.5055     62.6641
   347.5000      0.0000    288.4071     63.7812     38.3910     57.4392
   347.7500      0.0000    287.3589     66.8220     34.0759     54.6317
   348.0000      0.0000    286.6982     68.9364     55.7276     54.1141
   348.2500      0.0000    286.3690     70.3929     75.4699     54.9085
   348.5000      0.0000    286.2404     71.3048     46.9065     56.1716
   348.7500      0.0000    286.1992     71.7744     59.7371     57.7426
   349.0000      0.0000    286.1842     71.9520     65.2741     59.5979
   349.2500      0.0000    286.1741     71.9762     65.8469     61.1620
   349.5000      0.0000    286.1646     71.9342     65.1596     61.5334
   349.7500      0.0000    286.1557     71.8717     66.2288     60.2965
   350.0000      0.0000    286.1473     71.8112     65.7706     57.8999
   350.2500      0.0000    286.1386     71.7629     65.8469     55.2490
   350.5000      0.0000    286.1296     71.7290     65.1214     53.0089
   350.7500      0.0000    286.1218     71.7075     65.8087     51.3816
   351.0000      0.0000    286.1183     71.6935     65.5796     50.4610
   351.2500      0.0000    286.1210     71.6802     65.5414     50.4901
