~Version Information
VERS.                      2.0: CWLS Log ASCII Standard - VERSION 2.0
WRAP.                       NO: One line per depth step
~Well Information Block
STRT.FT                -2.7500: 
STOP.FT              2141.2500: 
STEP.FT                 0.2500: 
NULL.                -999.2500: 
COMP.          Pioneer Nautural Resources: COMPANY
WELL.             Enzo 43-8 Tr: WELL
FLD.           Purgatorie River: FIELD
LOC.           2303' FSL & 604' FEL--: LOCATION
PROV.                       CO: PROVINCE
CNTY.               Las Animas: COUNTRY
SRVC.                         : SERVICE COMPANY
DATE.          Thu Nov 04 09:01:55 2004: LOG DATE
UWI.            05-071-08213  : UNIQUE WELL ID
~Curve Information Block
DEPT.FT            0 000 00 00: Depth
GR.GAPI                       : Gamma Ray
CCL.                          : Casing Collar Locator
TT3.usec                      : CBL 3' Travel Time
AMP3.mV                       : CBL 3' Amplitude
~Parameter Information Block
~A  Depth        GR         CCL         TT3         AMP3    
# ...
  1839.7500    139.0680      0.0000    696.4688      4.3241
  1840.0000    138.1037      2.0000    687.5571      4.3973
  1840.2500    139.3982      0.0000    689.9199      4.5133
  1840.5000    143.4925      0.0000    709.3839      4.6383
  1840.7500    148.4978      0.0000    746.0142      4.7707
  1841.0000    151.4909      0.0000    789.7429      4.9198
  1841.2500    150.7373      0.0000    825.9256      5.0702
  1841.5000    147.1516      0.0000    845.7584      5.1920
  1841.7500    143.4041      0.0000    850.8576      5.3014
  1842.0000    141.3298      0.0000    848.2419      5.4671
  1842.2500    140.5440      0.0000    842.7701      5.7208
  1842.5000    139.5223      0.0000    835.0233      5.9998
  1842.7500    137.2520      0.0000    824.5203      6.2124
  1843.0000    133.7116      0.0000    812.6957      6.3301
  1843.2500    129.4180      0.0000    802.2811      6.3958
  1843.5000    124.9039      0.0000    794.7505      6.4697
  1843.7500    120.6893      0.0000    789.4005      6.5873
  1844.0000    117.8319      0.0000    785.1395      6.7536
  1844.2500    118.1940      0.0000    782.2192      6.9510
  1844.5000    123.2496      0.0000    781.4727      7.1501
  1844.7500    132.1504      0.0000    782.4139      7.3237
  1845.0000    141.5671      0.0000    783.1422      7.4596
  1845.2500    148.0645      0.0000    782.2115      7.5609
  1845.5000    150.4577      0.0000    779.8821      7.6360
  1845.7500    149.9802      0.0000    777.4195      7.6874
  1846.0000    149.0930      0.0000    775.7692      7.7016
  1846.2500    150.1810      0.0000    775.1719      7.6497
  1846.5000    154.1404      0.0000    775.6262      7.5034
  1846.7500    159.6032      0.0000    777.2339      7.2572
  1847.0000    163.9698      0.0000    779.9255      6.9409
  1847.2500    165.3801      0.0000    782.8741      6.6120
  1847.5000    163.5473      0.0000    784.4794      6.3279
  1847.7500    159.2249      0.0000    783.4386      6.1172
  1848.0000    153.8192      0.0000    780.1080      5.9736
  1848.2500    149.5132      0.0000    776.5392      5.8746
  1848.5000    148.6809      0.0000    774.7725      5.8011
  1848.7500    152.2230      0.0000    775.2388      5.7414
  1849.0000    158.4257      0.0000    777.1372      5.6865
  1849.2500    163.7815      0.0000    779.8793      5.6289
  1849.5000    165.1330      0.0000    783.3508      5.5685
  1849.7500    161.3049      0.0000    787.1117      5.5129
  1850.0000    153.2343      0.0000    790.2174      5.4706
  1850.2500    143.1042      0.0000    791.7598      5.4437
  1850.5000    133.3993      0.0000    791.0795      5.4293
  1850.7500    126.0518      0.0000    787.7090      5.4236
  1851.0000    121.5658      0.0000    781.7488      5.4241
  1851.2500    118.8070      0.0000    774.3380      5.4307
  1851.5000    116.1388      0.0000    767.2803      5.4436
  1851.7500    113.1221      0.0000    761.9624      5.4597
  1852.0000    110.8663      0.0000    758.7040      5.4713
  1852.2500    110.3399      0.0000    757.0422      5.4672
  1852.5000    110.6963      0.0000    756.3274      5.4334
  1852.7500    109.8512      0.0000    755.9644      5.3581
  1853.0000    106.4227      0.0000    755.3352      5.2461
  1853.2500    100.6934      0.0000    753.8579      5.1285
  1853.5000     94.2032      0.0000    751.4318      5.0493
  1853.7500     88.8605      0.0000    748.8665      5.0362
  1854.0000     85.9913      0.0000    747.5183      5.0802
  1854.2500     85.6366      0.0000    748.1456      5.1405
  1854.5000     86.6930      0.0000    750.2340      5.1729
  1854.7500     87.8438      0.0000    752.6106      5.1573
  1855.0000     88.3446      0.0000    754.4815      5.1037
  1855.2500     88.0104      0.0000    755.7159      5.0363
  1855.5000     86.8873      0.0000    756.4421      4.9740
  1855.7500     85.2444      0.0000    756.7076      4.9278
  1856.0000     83.7214      0.0000    756.5131      4.9074
  1856.2500     83.1647      0.0000    755.9823      4.9202
  1856.5000     84.2447      0.0000    755.3576      4.9602
  1856.7500     87.2402      0.0000    754.8260      5.0051
  1857.0000     91.8767      0.0000    754.4022      5.0344
  1857.2500     97.0747      0.0000    753.9990      5.0489
  1857.5000    101.1287      0.0000    753.5576      5.0736
  1857.7500    102.6246      0.0000    753.1050      5.1423
  1858.0000    101.3318      0.0000    752.7341      5.2777
  1858.2500     98.1910      0.0000    752.5438      5.4816
  1858.5000     94.4755      0.0000    752.5668      5.7405
  1858.7500     90.8897      0.0000    752.7321      6.0356
  1859.0000     87.3443      0.0000    752.9128      6.3419
  1859.2500     83.5463      0.0000    753.0357      6.6252
  1859.5000     79.6932      0.0000    753.1585      6.8550
  1859.7500     76.4208      0.0000    753.4236      7.0222
  1860.0000     74.2470      0.0000    753.9177      7.1381
  1860.2500     73.3030      0.0000    754.5767      7.2136
  1860.5000     73.4920      0.0000    755.2214      7.2446
  1860.7500     74.6602      0.0000    755.6626      7.2203
  1861.0000     76.5520      0.0000    755.7893      7.1382
  1861.2500     78.7047      0.0000    755.6180      7.0098
  1861.5000     80.4691      0.0000    755.3028      6.8521
  1861.7500     81.2429      0.0000    755.0723      6.6803
  1862.0000     80.7685      0.0000    755.0903      6.5080
  1862.2500     79.2460      0.0000    755.3329      6.3504
  1862.5000     77.2583      0.0000    755.6136      6.2223
  1862.7500     75.6377      0.0000    755.7527      6.1304
  1863.0000     75.3983      0.0000    755.7271      6.0717
  1863.2500     77.6071      0.0000    755.6639      6.0432
  1863.5000     82.7446      0.0000    755.7274      6.0530
  1863.7500     89.7244      0.0000    756.0326      6.1126
  1864.0000     96.0757      0.0000    756.6022      6.2153
  1864.2500     99.9164      0.0000    757.2902      6.3291
  1864.5000    101.5029      0.0000    757.6284      6.4207
  1864.7500    102.3736      0.0000    756.8274      6.4835
  1865.0000    103.6972      0.0000    754.2533      6.5334
  1865.2500    105.8525      0.0000    750.2195      6.5777
  1865.5000    108.5424      0.0000    746.2530      6.6007
  1865.7500    110.6504      0.0000    744.3143      6.5897
  1866.0000    110.6928      0.0000    745.6103      6.5646
  1866.2500    108.0925      0.0000    750.0850      6.5654
  1866.5000    103.9107      0.0000    756.8493      6.6048
  1866.7500    100.0766      0.0000    764.8275      6.6442
  1867.0000     97.9325      0.0000    772.8154      6.6263
  1867.2500     97.7170      0.0000    779.2158      6.5369
  1867.5000     99.3801      0.0000    782.5236      6.4238
  1867.7500    103.3353      0.0000    782.5516      6.3497
  1868.0000    110.0658      0.0000    780.7371      6.3349
  1868.2500    119.3457      0.0000    778.6089      6.3497
  1868.5000    130.1266      0.0000    776.1428      6.3501
  1868.7500    141.0204      0.0000    772.3064      6.3137
  1869.0000    150.8593      0.0000    767.0823      6.2500
  1869.2500    159.0888      0.0000    762.1719      6.1901
  1869.5000    165.9172      0.0000    759.5645      6.1738
  1869.7500    172.1452      0.0000    759.8947      6.2453
  1870.0000    178.7215      0.0000    762.2455      6.4434
  1870.2500    186.0367      0.0000    765.2797      6.7727
  1870.5000    193.1035      0.0000    768.3923      7.1832
  1870.7500    197.4245      0.0000    771.6364      7.5922
  1871.0000    196.5083      0.0000    774.7312      7.9318
  1871.2500    190.2926      0.0000    776.8696      8.1739
  1871.5000    181.6628      0.0000    777.5932      8.3199
  1871.7500    173.6776      0.0000    777.1326      8.3851
  1872.0000    166.3867      0.0000    775.7979      8.3925
  1872.2500    157.1535      0.0000    773.7884      8.3609
  1872.5000    144.0475      0.0000    771.8118      8.2920
  1872.7500    128.1364      0.0000    771.1246      8.1745
  1873.0000    112.4637      0.0000    772.2706      8.0050
