~Version Information
VERS.                      2.0: CWLS Log ASCII Standard - VERSION 2.0
WRAP.                       NO: One line per depth step
~Well Information Block
STRT.FT               902.0000: 
STOP.FT              2428.2000: 
STEP.FT                 0.1000: 
NULL.                -999.2500: 
COMP.          Pioneer Natural Resources: COMPANY
WELL.            Victory 12-14: WELL
FLD.           Purgatoire River: FIELD
LOC.           2434' FNL & 188' FWL: LOCATION
PROV.                 Colorado: PROVINCE
CNTY.               Las Animas: COUNTRY
SRVC.                Patterson: SERVICE COMPANY
DATE.          Mon Apr 18 07:24:17 2005: LOG DATE
UWI.           05 071 08332 00: UNIQUE WELL ID
~Curve Information Block
DEPT.FT            0 000 00 00: Depth
DCAL.in                       : CDL Caliper
RHOB.g/cc                     : CDL Bulk Density
RHOC.g/cc                     : CDL Density Correction
DPOR.pu                       : CDL Density Porosity
GR.GAPI                       : Gamma Ray
NPOR.pu                       : Neutron Porosity
~Parameter Information Block
~A  Depth       DCAL        RHOB        RHOC        DPOR         GR         NPOR    
# ...
  2207.6000      7.9220      2.5726      0.0080      4.6920     54.2242     20.5235
  2207.7000      7.9220      2.5720      0.0269      4.7266     53.4334     21.3049
  2207.8000      7.9115      2.5963      0.0583      3.2571     52.9507     21.4422
  2207.9000      7.9115      2.6356      0.1077      0.8726     48.8913     20.3760
  2208.0000      7.9069      2.6680      0.1354     -1.0881     43.7486     19.1000
  2208.1000      7.9069      2.6824      0.0777     -1.9663     42.3189     18.4162
  2208.2000      7.9069      2.6860      0.0451     -2.1814     45.1935     18.5683
  2208.3000      7.9088      2.6828      0.0823     -1.9874     49.9785     19.3850
  2208.4000      7.9088      2.6701      0.0959     -1.2206     53.3325     19.6368
  2208.5000      7.9051      2.6439      0.0983      0.3704     51.7262     18.8540
  2208.6000      7.9051      2.6100     -0.0035      2.4242     46.8939     18.0606
  2208.7000      7.9051      2.5861      0.0033      3.8698     43.9847     18.1680
  2208.8000      7.9028      2.5728      0.0354      4.6778     44.2654     19.0244
  2208.9000      7.9028      2.5618      0.0057      5.3483     46.0167     19.6243
  2209.0000      7.9075      2.5548      0.0232      5.7681     47.9801     19.2927
  2209.1000      7.9075      2.5483      0.0145      6.1665     49.7760     18.2621
  2209.2000      7.9075      2.5408     -0.0371      6.6161     52.5905     17.3732
  2209.3000      7.9127      2.5395      0.0199      6.6944     56.6646     17.2566
  2209.4000      7.9127      2.5427      0.0172      6.5040     59.3529     18.0567
  2209.5000      7.9070      2.5480      0.0219      6.1821     57.9865     19.0386
  2209.6000      7.9070      2.5558      0.0448      5.7105     53.0899     18.7981
  2209.7000      7.9070      2.5667      0.0096      5.0487     48.8962     17.7455
  2209.8000      7.9083      2.5738      0.0752      4.6212     48.2141     17.4580
  2209.9000      7.9083      2.5700      0.0273      4.8461     48.6751     18.2440
  2210.0000      7.8927      2.5728      0.0153      4.6794     48.5070     19.3745
  2210.1000      7.8927      2.5927      0.0628      3.4741     49.8790     19.8360
  2210.2000      7.8927      2.6184      0.0480      1.9133     53.2877     19.3284
  2210.3000      7.8817      2.6430      0.0903      0.4244     56.2734     19.0716
  2210.4000      7.8817      2.6571      0.1440     -0.4326     56.5532     19.8154
  2210.5000      7.8777      2.6573      0.0916     -0.4413     54.3658     20.6574
  2210.6000      7.8777      2.6607      0.0884     -0.6486     53.0785     20.6924
  2210.7000      7.8777      2.6685      0.0966     -1.1197     53.5818     20.3646
  2210.8000      7.8832      2.6621      0.1148     -0.7304     53.4538     20.0942
  2210.9000      7.8832      2.6494      0.0501      0.0371     52.2353     19.6802
  2211.0000      7.8761      2.6544      0.0539     -0.2665     52.6131     19.0662
  2211.1000      7.8761      2.6687      0.0654     -1.1329     54.6608     18.5330
  2211.2000      7.8761      2.6660      0.0769     -0.9706     55.5345     18.3618
  2211.3000      7.8714      2.6447      0.0654      0.3217     54.0978     18.4022
  2211.4000      7.8714      2.6260      0.0491      1.4571     50.7833     18.2174
  2211.5000      7.8777      2.6277      0.0536      1.3532     46.6480     18.1497
  2211.6000      7.8777      2.6419      0.1027      0.4914     42.8538     18.4901
  2211.7000      7.8777      2.6453      0.1142      0.2856     40.9284     18.7654
  2211.8000      7.8741      2.6285      0.0650      1.3044     41.5616     18.6980
  2211.9000      7.8741      2.6021      0.0492      2.9041     42.5312     18.5135
  2212.0000      7.8698      2.5875      0.0054      3.7856     41.9020     18.7173
  2212.1000      7.8698      2.5950      0.0363      3.3326     41.0969     18.8693
  2212.2000      7.8698      2.6109      0.0845      2.3686     41.2288     17.9134
  2212.3000      7.8901      2.6196      0.0313      1.8430     42.0328     16.2853
  2212.4000      7.8901      2.6159      0.0945      2.0683     44.2917     15.3922
  2212.5000      7.8967      2.5977      0.0352      3.1707     48.8041     15.5996
  2212.6000      7.8967      2.5765      0.0282      4.4520     53.5617     15.9469
  2212.7000      7.8967      2.5741      0.0042      4.5989     55.2307     15.9857
  2212.8000      7.8938      2.5978      0.0257      3.1630     54.7029     16.4260
  2212.9000      7.8938      2.6290      0.0586      1.2701     54.1644     17.3034
  2213.0000      7.8918      2.6465      0.0540      0.2123     52.0484     17.9920
  2213.1000      7.8918      2.6474      0.0886      0.1570     48.3441     18.4542
  2213.2000      7.8918      2.6390      0.0028      0.6677     46.2424     18.6598
  2213.3000      7.8947      2.6302      0.0299      1.2025     47.0945     18.2562
  2213.4000      7.8947      2.6259      0.0362      1.4578     49.9967     17.5923
  2213.5000      7.9013      2.6262      0.0595      1.4448     53.2699     17.1239
  2213.6000      7.9013      2.6331      0.0515      1.0268     55.5705     16.9376
  2213.7000      7.9013      2.6485      0.0614      0.0938     57.4830     17.0914
  2213.8000      7.8987      2.6522      0.0948     -0.1356     60.1490     17.2645
  2213.9000      7.8987      2.6306      0.0345      1.1773     63.1997     17.1169
  2214.0000      7.8908      2.6093     -0.0410      2.4643     66.4108     16.6847
  2214.1000      7.8908      2.6074      0.0360      2.5800     69.2960     16.3893
  2214.2000      7.8908      2.6080      0.0447      2.5456     72.3426     16.7537
  2214.3000      7.8954      2.6019      0.0393      2.9148     78.1945     17.8434
  2214.4000      7.8954      2.5935      0.0426      3.4213     86.2283     18.8551
  2214.5000      7.8923      2.5735      0.0699      4.6369     94.1157     19.3330
  2214.6000      7.8923      2.5355      0.0699      6.9392    100.1214     19.7463
  2214.7000      7.8923      2.4964      0.0150      9.3073    100.3516     20.4309
  2214.8000      7.8805      2.4743     -0.0384     10.6464     95.9877     21.1072
  2214.9000      7.8805      2.4717      0.0400     10.8040     91.6661     21.4329
  2215.0000      7.8805      2.4865      0.0307      9.9083     88.2922     21.6324
  2215.1000      7.8805      2.5174      0.0878      8.0352     85.8176     21.8656
  2215.2000      7.8805      2.5496      0.0830      6.0866     80.5066     22.1484
  2215.3000      7.8808      2.5639      0.0746      5.2170     73.5315     22.8118
  2215.4000      7.8808      2.5567      0.0852      5.6543     72.3777     23.5402
  2215.5000      7.8938      2.5344      0.0647      7.0040     75.9245     23.3346
  2215.6000      7.8938      2.5051      0.0629      8.7792     77.9337     22.5719
  2215.7000      7.8938      2.4781      0.0137     10.4156     76.2912     22.6165
  2215.8000      7.8935      2.4738     -0.0173     10.6762     73.8533     23.4120
  2215.9000      7.8935      2.5072      0.0411      8.6536     74.6800     23.7203
  2216.0000      7.8955      2.5573      0.0679      5.6173     77.5942     22.6016
  2216.1000      7.8955      2.5883      0.0823      3.7392     78.6313     20.7371
  2216.2000      7.8955      2.5878      0.0937      3.7698     76.1884     19.7586
  2216.3000      7.9022      2.5689      0.0396      4.9175     72.9910     20.1620
  2216.4000      7.9022      2.5464      0.0332      6.2769     74.2576     21.1222
  2216.5000      7.8994      2.5316      0.0046      7.1768     78.3743     21.7436
  2216.6000      7.8994      2.5349      0.0411      6.9776     78.1433     21.6261
  2216.7000      7.8994      2.5491      0.0891      6.1143     73.5136     21.0999
  2216.8000      7.8972      2.5627      0.0439      5.2920     69.3945     21.1015
  2216.9000      7.8972      2.5798      0.0741      4.2556     68.7328     21.7607
  2217.0000      7.8886      2.5996      0.0512      3.0542     71.7696     21.9684
  2217.1000      7.8886      2.6155      0.0978      2.0925     73.3222     21.3521
