~Version Information
VERS.                      2.0: CWLS Log ASCII Standard - VERSION 2.0
WRAP.                       NO: One line per depth step
~Well Information Block
STRT.FT                 0.5000: 
STOP.FT              2891.5000: 
STEP.FT                 0.2500: 
NULL.                -999.2500: 
COMP.          Petrogulf Corporation: COMPANY
WELL.            Montoya 1-41V: WELL
FLD.           Purgatoire River: FIELD
LOC.           610' FNL & 1205' FEL--: LOCATION
PROV.                 Colorado: PROVINCE
CNTY.               Las Animas: COUNTRY
SRVC.                Patterson: SERVICE COMPANY
DATE.          Mon Sep 12 11:42:30 2005: LOG DATE
UWI.           05 071 08144 00: UNIQUE WELL ID
~Curve Information Block
DEPT.FT            0 000 00 00: Depth
CCL.                          : Casing Collar Locator
TT3.usec                      : CBL 3' Travel Time
AMP3.mV                       : CBL 3' Amplitude
GR.GAPI                       : Gamma Ray
~Parameter Information Block
~A  Depth       CCL         TT3         AMP3         GR     
# ...
   771.0000      0.0000    760.5038      7.2953    155.0323
   771.2500      0.0000    762.8688      7.3773    157.3282
   771.5000      0.0000    764.2631      7.4690    155.3381
   771.7500      0.0000    764.5549      7.5734    149.8308
   772.0000      0.0000    763.9968      7.6735    143.2298
   772.2500      0.0000    763.0559      7.7409    137.7569
   772.5000      0.0000    762.3262      7.7540    134.2406
   772.7500      0.0000    761.9001      7.7146    132.3523
   773.0000      0.0000    761.0282      7.6467    131.3980
   773.2500      0.0000    759.0180      7.5759    130.7757
   773.5000      0.0000    756.2283      7.5082    130.2473
   773.7500      0.0000    753.7986      7.4315    130.0223
   774.0000      0.0000    752.7288      7.3379    130.0817
   774.2500      0.0000    753.5926      7.2397    129.2381
   774.5000      0.0000    756.4731      7.1588    125.4757
   774.7500      0.0000    760.0959      7.1041    117.7341
   775.0000      0.0000    761.1442      7.0631    107.2291
   775.2500      0.0000    756.1466      7.0131     96.6809
   775.5000      0.0000    745.3755      6.9394     88.3804
   775.7500      0.0000    733.9668      6.8451     83.2948
   776.0000      0.0000    727.8184      6.7443     81.5905
   776.2500      0.0000    728.9171      6.6467     82.8506
   776.5000      0.0000    735.2933      6.5482     85.3608
   776.7500      0.0000    744.1142      6.4356     86.0943
   777.0000      0.0000    753.1364      6.3011     82.6262
   777.2500      0.0000    760.7303      6.1554     75.3520
   777.5000      0.0000    766.9359      6.0261     67.2763
   777.7500      0.0000    772.8636      5.9387     61.4497
   778.0000      0.0000    776.1958      5.8955     58.9848
   778.2500      0.0000    770.0402      5.8718     59.4319
   778.5000      0.0000    750.5873      5.8350     62.1423
   778.7500      0.0000    723.8843      5.7662     66.6437
   779.0000      0.0000    701.0149      5.6670     72.0378
   779.2500      0.0000    688.1802      5.5527     76.7124
   779.5000      0.0000    684.1880      5.4411     79.1829
   779.7500      0.0000    685.1753      5.3427     79.3975
   780.0000      0.0000    688.3883      5.2603     78.8670
   780.2500      0.0000    692.3580      5.1941     79.1640
   780.5000      0.0000    696.3085      5.1438     80.6085
   780.7500      0.0000    700.2849      5.1031     82.7347
   781.0000      0.0000    704.9402      5.0573     85.5039
   781.2500      0.0000    710.6553      4.9914     89.4325
   781.5000      0.0000    716.8542      4.9027     94.7193
   781.7500      0.0000    722.3417      4.8035    100.6984
   782.0000      0.0000    726.2259      4.7128    106.0649
   782.2500      0.0000    728.4078      4.6419    109.5227
   782.5000      0.0000    729.3390      4.5900    110.4359
   782.7500      0.0000    729.5798      4.5503    109.0813
   783.0000      0.0000    729.5894      4.5196    106.2254
   783.2500      0.0000    729.6826      4.4999    102.4132
   783.5000      0.0000    730.0198      4.4930     97.7572
   783.7500      0.0000    730.6497      4.4984     92.4207
   784.0000      0.0000    731.4695      4.5170     87.2766
   784.2500      0.0000    731.8972      4.5551     84.0968
   784.5000      0.0000    730.6605      4.6228     84.8963
   784.7500      0.0000    726.5295      4.7277     90.7720
   785.0000      0.0000    719.7148      4.8647    101.1338
   785.2500      0.0000    712.2011      5.0154    113.8976
   785.5000      0.0000    706.2921      5.1620    126.3683
   785.7500      0.0000    703.0336      5.3057    136.1874
   786.0000      0.0000    702.1359      5.4664    141.9716
   786.2500      0.0000    702.9515      5.6670    143.7887
   786.5000      0.0000    705.1119      5.9166    143.4612
   786.7500      0.0000    708.2811      6.2059    143.8663
   787.0000      0.0000    711.6682      6.5130    146.8484
   787.2500      0.0000    714.4067      6.8182    151.5608
   787.5000      0.0000    716.7865      7.1216    155.3741
   787.7500      0.0000    720.6964      7.4448    156.5045
   788.0000      0.0000    728.0832      7.8110    155.4128
   788.2500      0.0000    739.0275      8.2227    153.7608
   788.5000      0.0000    751.9080      8.6611    152.6402
   788.7500      0.0000    765.6569      9.1020    151.9268
   789.0000      0.0000    781.2874      9.5256    150.8854
   789.2500      0.0000    800.8797      9.9106    149.3220
   789.5000      0.0000    824.8701     10.2263    148.3300
   789.7500      0.0000    849.4886     10.4405    149.6425
   790.0000      0.0000    866.9421     10.5391    153.7970
   790.2500      0.0000    870.6136     10.5359    159.0570
   790.5000      0.0000    861.4471     10.4568    162.4790
   790.7500      0.0000    846.7618     10.3172    162.0883
   791.0000      0.0000    832.3967     10.1156    158.0569
   791.2500      0.0000    819.4470      9.8464    152.1494
   791.5000      0.0000    807.8026      9.5147    146.3297
   791.7500      0.0000    797.9620      9.1423    141.6605
   792.0000      0.0000    788.9110      8.7644    138.1098
   792.2500      0.0000    777.6509      8.4198    135.2766
   792.5000      0.0000    762.0439      8.1387    133.3445
   792.7500      0.0000    743.8794      7.9310    133.0437
   793.0000      0.0000    729.2686      7.7768    134.4774
   793.2500      0.0000    726.8495      7.6276    136.3916
   793.5000      0.0000    744.5617      7.4293    137.1467
   793.7500      0.0000    785.0194      7.1609    136.1325
   794.0000      0.0000    840.9640      6.8567    133.5940
   794.2500      0.0000    896.7625      6.5769    129.7097
   794.5000      0.0000    938.6414      6.3538    124.9949
   794.7500      2.0000    964.0099      6.1765    121.2042
   795.0000      0.0000    977.7204      6.0215    120.3508
   795.2500      0.0000    979.3362      5.8882    122.7079
   795.5000      0.0000    959.2957      5.8135    126.7516
   795.7500      0.0000    911.3595      5.8485    131.0747
   796.0000      0.0000    845.6548      5.9915    135.5347
   796.2500      0.0000    784.7728      6.1390    140.4355
   796.5000      0.0000    747.4720      6.1478    145.3270
   796.7500      0.0000    737.6411      5.9677    149.1358
   797.0000      0.0000    746.0570      5.6857    151.3860
   797.2500      0.0000    759.5377      5.4330    152.8162
   797.5000      0.0000    768.8712      5.2789    154.4242
   797.7500      0.0000    770.7108      5.2149    156.1676
   798.0000      0.0000    764.7166      5.2024    157.1364
   798.2500      0.0000    751.9039      5.2150    156.8737
   798.5000      0.0000    735.5491      5.2493    155.9757
   798.7500      0.0000    720.5405      5.3131    155.4562
   799.0000      0.0000    710.2701      5.4082    155.8735
   799.2500      0.0000    704.9450      5.5200    156.9309
   799.5000      0.0000    702.8249      5.6211    157.6138
   799.7500      0.0000    702.1670      5.6872    157.0482
   800.0000      0.0000    702.0016      5.7129    155.6536
   800.2500      0.0000    701.9613      5.7121    155.2090
   800.5000      0.0000    701.8679      5.7060    157.2274
   800.7500      0.0000    701.4182      5.7115    161.1746
   801.0000      0.0000    700.0563      5.7368    164.5955
   801.2500      0.0000    697.1788      5.7806    164.9852
   801.5000      0.0000    692.8668      5.8372    161.5231
   801.7500      0.0000    688.6011      5.9036    155.6475
   802.0000      0.0000    686.6863      5.9829    150.3787
   802.2500      0.0000    688.2991      6.0762    148.2162
   802.5000      0.0000    692.3063      6.1743    148.7745
   802.7500      0.0000    696.3497      6.2592    148.9216
   803.0000      0.0000    698.6811      6.3162    145.9129
   803.2500      0.0000    698.5844      6.3455    140.0557
   803.5000      0.0000    695.6772      6.3604    134.0443
   803.7500      0.0000    689.7269      6.3752    130.2682
   804.0000      0.0000    681.3264      6.3917    128.9890
   804.2500      0.0000    672.4092      6.3984    128.5464
