~Version Information
 VERS.                                  2.0 : CWLS LAS VERSION
 WRAP.                                   NO : WRAPING MODE
 SWARE .                 MController 2.5.0E : SOFTWARE VERSION
~Well Information
 WELL.                          Enzo 43-8TR : WELL
 COMP.        Pioneer Natural Resources Inc : COMPANY
 FLD.                      Purgatorie River : FIELD
 LOC.                 NE/SE Sec 8 T32S R66W : LOCATION
 DATE.                             10/29/04 : DATE(S) LOGGED
 SRVC.       Blanco Geological Services LLC : SERVICE COMPANY
 STAT.                                   CO : STATE
 CNTY.                           Las Animas : COUNTY
 CTRY.                                  USA : COUNTRY
 API.                       05-071-08213-00 : API NUMBER
 STRT.FT                             562.00 : START DEPTH
 STOP.FT                            2170.00 : STOP DEPTH
 STEP.FT                               1.00 : DEPTH INCREMENT
 NULL.                                -9999 : NULL VALUE
~Curve information
 DEPTH.FT                                   :
 ROP.MIN/FT                                 :
 GAS.UNITS                                  :
~ASCII Log data
      562.00    -9999.000          2.5 
      563.00        0.133          2.3 
      564.00        0.100          2.7 
      565.00       20.233          3.8 
      566.00        0.283          3.6 
      567.00        0.367          3.7 
      568.00        0.267          3.6 
      569.00        0.267          3.2 
      570.00        0.333          3.6 
      571.00        0.300          3.5 
      572.00        0.300          3.6 
      573.00        0.200          3.1 
      574.00        0.200          3.3 
      575.00        0.167          3.1 
      576.00        0.200          3.5 
      577.00        0.167          3.3 
      578.00        0.133          3.0 
      579.00        0.167          3.5 
      580.00        0.150          3.5 
      581.00        0.167          3.4 
      582.00        0.167          3.2 
      583.00        0.167          3.4 
      584.00        0.167          3.4 
      585.00        0.167          3.1 
      586.00        0.167          3.3 
      587.00        0.167          3.6 
      588.00        0.233          3.0 
      589.00        0.200          3.8 
      590.00        0.167          3.3 
      591.00        0.200          3.5 
      592.00        0.167          3.9 
      593.00        0.167          3.9 
      594.00        0.167          3.8 
      595.00        0.200          3.6 
      596.00        2.350          4.5 
      597.00        0.333          3.5 
      598.00        0.300          3.8 
      599.00        0.267          3.8 
      600.00        0.200          4.0 
      601.00        0.200          3.8 
      602.00        0.200          3.9 
      603.00        0.183          4.2 
      604.00        0.167          3.2 
      605.00        0.167          3.9 
      606.00        0.167          3.5 
      607.00        0.200          3.2 
      608.00        0.200          3.1 
      609.00        0.167          3.6 
      610.00        0.200          3.8 
      611.00        0.200          3.3 
      612.00        0.167          3.9 
      613.00        0.167          4.0 
      614.00        0.167          3.5 
      615.00        0.167          3.5 
      616.00        0.167          3.7 
      617.00        0.167          3.4 
      618.00        0.200          3.7 
      619.00        0.200          4.3 
      620.00        0.167          3.4 
      621.00        0.167          4.1 
      622.00        0.217          4.0 
      623.00        0.167          3.9 
      624.00        0.200          4.3 
      625.00        0.200          3.8 
      626.00        2.433          4.4 
      627.00        0.383          4.3 
      628.00        0.433          4.4 
      629.00        0.267          4.2 
      630.00        0.267          4.5 
      631.00        0.267          3.9 
      632.00        0.267          3.7 
      633.00        0.233          3.7 
      634.00        0.267          3.9 
      635.00        0.267          3.6 
      636.00        0.233          3.6 
      637.00        0.233          4.6 
      638.00        0.167          4.4 
      639.00        0.200          4.1 
      640.00        0.217          4.8 
      641.00        0.200          4.5 
      642.00        0.167          4.6 
      643.00        0.167          4.7 
      644.00        0.167          4.5 
      645.00        0.167          4.4 
      646.00        0.167          4.5 
      647.00        0.167          4.6 
      648.00        0.133          4.0 
      649.00        0.200          4.6 
      650.00        0.133          4.1 
      651.00        0.167          4.8 
      652.00        0.133          4.0 
      653.00        0.167          4.5 
      654.00        0.167          4.7 
      655.00        0.167          4.4 
      656.00        2.283          5.0 
      657.00        0.367          4.0 
      658.00        0.300          4.5 
      659.00        0.267          4.5 
      660.00        0.233          4.7 
      661.00        0.267          4.8 
      662.00        0.200          4.8 
      663.00        0.183          4.2 
      664.00        0.233          5.0 
      665.00        0.200          4.1 
      666.00        0.167          4.7 
      667.00        0.200          4.7 
      668.00        0.167          4.9 
      669.00        0.200          5.2 
      670.00        0.167          5.3 
      671.00        0.200          5.2 
      672.00        0.167          4.6 
      673.00        0.167          5.5 
      674.00        0.233          4.9 
      675.00        0.200          5.2 
      676.00        0.200          4.7 
      677.00        0.200          5.0 
      678.00        0.200          5.0 
      679.00        0.233          4.9 
      680.00        0.183          4.9 
      681.00        0.200          4.9 
      682.00        0.200          5.2 
      683.00        0.200          5.1 
      684.00        0.167          4.9 
      685.00        0.167          5.0 
      686.00        3.483         72.6 
      687.00        0.233          3.0 
      688.00        0.267          2.8 
      689.00        0.200          3.2 
      690.00        0.167          3.5 
      691.00        0.167          3.3 
      692.00        0.167          3.3 
      693.00        0.167          3.7 
      694.00        0.200          4.0 
      695.00        0.167          3.7 
      696.00        0.200          3.7 
      697.00        0.200          4.7 
      698.00        0.250          4.6 
      699.00        0.167          4.7 
      700.00        0.167          4.3 
      701.00        0.167          4.1 
      702.00        0.167          5.0 
      703.00        0.167          4.8 
      704.00        0.167          4.7 
      705.00        0.167          4.1 
      706.00        0.167          5.0 
      707.00        0.133          4.2 
      708.00        0.200          4.6 
      709.00        0.133          5.2 
      710.00        0.133          5.1 
      711.00        0.133          5.1 
      712.00        0.167          4.8 
      713.00        0.167          5.1 
      714.00        0.200          5.6 
      715.00        0.167          4.8 
      716.00        3.483          6.1 
      717.00        0.417          6.0 
      718.00        0.367          5.6 
      719.00        0.333          5.5 
      720.00        0.300          5.9 
      721.00        0.200          6.1 
      722.00        0.233          6.2 
      723.00        0.133          6.4 
      724.00        0.233          6.3 
      725.00        0.200          6.6 
      726.00        0.167          6.5 
      727.00        0.200          6.6 
      728.00        0.233          6.1 
      729.00        0.167          6.2 
      730.00        0.200          6.7 
      731.00        0.233          6.6 
      732.00        0.217          6.6 
      733.00        0.167          6.5 
      734.00        0.133          6.0 
      735.00        0.167          6.0 
      736.00        0.167          6.6 
      737.00        0.200          5.8 
      738.00        0.200          6.4 
      739.00        0.200          6.6 
      740.00        0.200          6.4 
      741.00        0.200          6.2 
      742.00        0.200          5.9 
      743.00        0.167          6.0 
      744.00        0.200          6.4 
      745.00        0.200          6.4 
      746.00        2.817          7.1 
      747.00        0.267          7.1 
      748.00        0.267          6.9 
      749.00        0.267          6.3 
      750.00        0.200          7.1 
      751.00        0.167          7.2 
      752.00        0.183          7.2 
      753.00        0.200          6.6 
      754.00        0.233          7.3 
      755.00        0.167          6.5 
      756.00        0.200          7.1 
      757.00        0.133          6.7 
      758.00        0.167          7.2 
      759.00        0.167          7.0 
      760.00        0.133          6.9 
      761.00        0.167          6.6 
