~Version Information
VERS.                      2.0: CWLS Log ASCII Standard - VERSION 2.0
WRAP.                       NO: One line per depth step
~Well Information Block
STRT.FT               -17.7500: 
STOP.FT              1590.5000: 
STEP.FT                 0.2500: 
NULL.                -999.2500: 
COMP.          Petrogulf Corporation: COMPANY
WELL.          Great Plains 22-21V: WELL
FLD.           Purgatorie River: FIELD
LOC.           63' FNL & 1895' FWL--: LOCATION
CNTY.               Las Animas: COUNTY
SRVC.          Superior Well Services: SERVICE COMPANY
DATE.          Fri Dec 08 14:45:19 2006: LOG DATE
UWI.           05 071 08346 00: UNIQUE WELL ID
STAT.                       CO: STATE
~Curve Information Block
DEPT.FT            0 000 00 00: Depth
CCL.                          : Casing Collar Locator
TT3.usec                      : CBL 3' Travel Time
AMP3.mV                       : CBL 3' Amplitude
GR.GAPI                       : Gamma Ray
~Parameter Information Block
~A  Depth       CCL         TT3         AMP3         GR     
# ...
  1255.2500      0.0000    678.6680      3.9574     67.9751
  1255.5000      0.0000    681.7598      4.1103     68.3038
  1255.7500      0.0000    691.7994      4.3669     67.9209
  1256.0000      0.0000    706.3895      4.7114     67.1158
  1256.2500      0.0000    721.5201      5.1136     66.9861
  1256.5000      0.0000    733.1923      5.5398     68.3106
  1256.7500      0.0000    739.5094      5.9673     70.7022
  1257.0000      0.0000    740.4974      6.3902     73.0314
  1257.2500      0.0000    736.4072      6.8126     74.4183
  1257.5000      0.0000    727.5392      7.2349     74.5832
  1257.7500      0.0000    715.7869      7.6442     73.6433
  1258.0000      0.0000    704.9807      8.0145     72.1309
  1258.2500      0.0000    698.4192      8.3178     71.0430
  1258.5000      0.0000    695.4088      8.5372     71.3228
  1258.7500      0.0000    689.7143      8.6808     73.1093
  1259.0000      0.0000    671.9188      8.7817     75.6141
  1259.2500      0.0000    635.7812      8.8772     77.7015
  1259.5000      0.0000    585.7138      8.9744     78.6290
  1259.7500      0.0000    538.8801      9.0374     78.4072
  1260.0000      0.0000    516.3484      9.0105     77.4829
  1260.2500      0.0000    527.8803      8.8593     76.0796
  1260.5000      0.0000    564.5774      8.5929     74.0841
  1260.7500      0.0000    607.1824      8.2465     71.7167
  1261.0000      0.0000    640.9482      7.8441     69.9872
  1261.2500      0.0000    662.4604      7.3827     70.0269
  1261.5000      0.0000    675.3116      6.8548     71.9415
  1261.7500      0.0000    683.0128      6.2821     74.5244
  1262.0000      0.0000    686.5557      5.7201     76.0657
  1262.2500      0.0000    686.3658      5.2278     75.4896
  1262.5000      0.0000    684.2438      4.8334     73.0620
  1262.7500      0.0000    682.6564      4.5245     70.1391
  1263.0000      0.0000    682.8547      4.2649     68.0900
  1263.2500      0.0000    684.3326      4.0207     67.3413
  1263.5000      0.0000    685.7525      3.7762     67.2688
  1263.7500      0.0000    685.8356      3.5342     66.8034
  1264.0000      0.0000    684.1203      3.3057     65.4362
  1264.2500      0.0000    681.9603      3.1019     63.9385
  1264.5000      0.0000    682.3860      2.9305     63.7462
  1264.7500      0.0000    687.7432      2.7989     65.3100
  1265.0000      0.0000    697.3918      2.7145     67.3459
  1265.2500      0.0000    708.3900      2.6815     67.9895
  1265.5000      0.0000    718.2129      2.6965     66.4353
  1265.7500      0.0000    725.9832      2.7485     63.3246
  1266.0000      0.0000    731.2555      2.8243     60.0283
  1266.2500      0.0000    732.8779      2.9150     57.9705
  1266.5000      0.0000    729.5626      3.0170     58.2811
  1266.7500      0.0000    720.9954      3.1301     61.3852
  1267.0000      0.0000    708.2919      3.2562     66.5737
  1267.2500      0.0000    693.8384      3.4009     72.1126
  1267.5000      0.0000    680.5684      3.5701     76.2000
  1267.7500      0.0000    670.9363      3.7572     78.1721
  1268.0000      0.0000    666.3820      3.9361     78.7703
  1268.2500      0.0000    667.2162      4.0772     79.0699
  1268.5000      0.0000    672.3043      4.1740     79.2881
  1268.7500      0.0000    679.1091      4.2459     78.7418
  1269.0000     -2.0000    685.1044      4.3138     76.8303
  1269.2500      2.0000    689.4996      4.3811     73.9981
  1269.5000      0.0000    693.2878      4.4373     71.7014
  1269.7500      0.0000    697.6182      4.4773     71.2389
  1270.0000      0.0000    702.6285      4.5109     72.5738
  1270.2500      0.0000    707.7136      4.5494     74.3950
  1270.5000      0.0000    712.1510      4.5872     75.2387
  1270.7500      0.0000    715.3597      4.6103     74.4841
  1271.0000      0.0000    717.1464      4.6289     72.5248
  1271.2500      0.0000    717.7920      4.6804     70.2142
  1271.5000      0.0000    717.6821      4.7855     68.0576
  1271.7500      0.0000    717.1526      4.9168     65.9454
  1272.0000      0.0000    717.2280      5.0213     63.7758
  1272.2500      0.0000    720.2394      5.0619     62.0904
  1272.5000      0.0000    728.3074      5.0315     61.7521
  1272.7500      0.0000    740.0656      4.9406     63.0295
  1273.0000      0.0000    749.9207      4.8054     65.2654
  1273.2500      0.0000    752.8932      4.6472     67.3472
  1273.5000      0.0000    750.4500      4.4949     68.2866
  1273.7500      0.0000    749.2203      4.3825     67.6873
  1274.0000      0.0000    752.9678      4.3372     66.1976
  1274.2500      0.0000    757.7829      4.3656     65.3547
  1274.5000      0.0000    756.8423      4.4461     66.4724
  1274.7500      0.0000    748.7120      4.5337     69.4668
  1275.0000      0.0000    738.7983      4.5793     72.8972
  1275.2500      0.0000    732.6703      4.5557     75.2346
  1275.5000      0.0000    730.0251      4.4715     76.1486
  1275.7500      0.0000    726.2664      4.3597     76.7243
  1276.0000      0.0000    718.6328      4.2514     78.4965
  1276.2500      0.0000    708.8469      4.1574     82.2830
  1276.5000      0.0000    700.2284      4.0707     87.9205
  1276.7500      0.0000    694.2927      3.9797     94.8735
  1277.0000      0.0000    690.4807      3.8772    102.7701
  1277.2500      0.0000    687.5942      3.7603    111.2300
  1277.5000      0.0000    684.7951      3.6272    119.2508
  1277.7500      0.0000    682.0823      3.4806    125.1920
  1278.0000      0.0000    680.4750      3.3342    127.9961
  1278.2500      0.0000    681.5970      3.2164    128.3586
  1278.5000      0.0000    686.6312      3.1596    127.9617
  1278.7500      0.0000    695.3782      3.1833    127.4426
  1279.0000      0.0000    705.9953      3.2835    125.8287
  1279.2500      0.0000    715.2385      3.4371    122.2007
  1279.5000      0.0000    719.1568      3.6144    117.2819
  1279.7500      0.0000    715.2380      3.7920    113.0619
  1280.0000      0.0000    705.2924      3.9615    111.2058
  1280.2500      0.0000    695.3101      4.1287    111.9437
  1280.5000      0.0000    691.0123      4.3011    114.0019
  1280.7500      0.0000    693.5371      4.4720    115.4355
  1281.0000      0.0000    699.6690      4.6173    115.0256
  1281.2500      0.0000    705.2642      4.7067    113.1896
  1281.5000      0.0000    707.9606      4.7158    111.3465
  1281.7500      0.0000    708.1192      4.6344    110.4404
  1282.0000      0.0000    709.3911      4.4726    110.4796
  1282.2500      0.0000    717.7180      4.2608    111.2891
  1282.5000      0.0000    736.1450      4.0375    113.0550
  1282.7500      0.0000    758.8948      3.8348    116.0957
  1283.0000      0.0000    773.3404      3.6747    120.5227
  1283.2500      0.0000    770.3944      3.5712    125.9853
  1283.5000      0.0000    751.8727      3.5251    131.3398
  1283.7500      0.0000    727.4026      3.5178    134.6901
  1284.0000      0.0000    706.7469      3.5206    134.3518
  1284.2500      0.0000    695.4323      3.5180    130.2419
  1284.5000      0.0000    694.1298      3.5199    124.2351
  1284.7500      0.0000    699.5449      3.5493    118.8876
  1285.0000      0.0000    706.4084      3.6190    115.8325
  1285.2500      0.0000    709.9785      3.7182    115.3828
  1285.5000      0.0000    707.5765      3.8200    117.0909
  1285.7500      0.0000    699.0169      3.9018    120.2232
  1286.0000      0.0000    686.6735      3.9598    124.0546
  1286.2500      0.0000    674.6270      4.0107    128.1522
  1286.5000      0.0000    667.0067      4.0784    132.2575
  1286.7500      0.0000    667.0020      4.1798    135.8360
  1287.0000      0.0000    676.5934      4.3168    138.1989
  1287.2500      0.0000    695.1698      4.4804    139.2595
  1287.5000      0.0000    717.7810      4.6585    139.8492
  1287.7500      0.0000    736.6155      4.8394    141.0097
  1288.0000      0.0000    746.0604      5.0086    142.9158
  1288.2500      0.0000    746.6564      5.1507    144.4918
  1288.5000      0.0000    743.8521      5.2554    144.2615
