~Version Information
VERS.                      2.0: CWLS Log ASCII Standard - VERSION 2.0
WRAP.                       NO: One line per depth step
~Well Information Block
STRT.FT               700.0000: 
STOP.FT              1869.5000: 
STEP.FT                 0.1000: 
NULL.                -999.2500: 
COMP.          Petrogulf Corporation: COMPANY
WELL.             State 16-24R: WELL
FLD.           Purgatorie River: FIELD
LOC.           541' FSL & 2371' FWL: LOCATION
PROV.                 Colorado: PROVINCE
CNTY.               Las Animas: COUNTRY
SRVC.                Patterson: SERVICE COMPANY
DATE.          Fri Aug 12 09:07:22 2005: LOG DATE
UWI.                071-08312 : UNIQUE WELL ID
~Curve Information Block
DEPT.FT            0 000 00 00: Depth
DCAL.in                       : CDL Caliper
RHOB.g/cc                     : CDL Bulk Density
RHOC.g/cc                     : CDL Density Correction
DPOR.pu                       : CDL Density Porosity
GR.GAPI                       : Gamma Ray
NPOR.pu                       : Neutron Porosity
~Parameter Information Block
~A  Depth       DCAL        RHOB        RHOC        DPOR         GR         NPOR    
# ...
  1832.8000      7.8535      2.5384      0.0267      6.7606     38.0516   -999.2500
  1832.9000      7.8535      2.5335      0.0758      7.0616     34.8901   -999.2500
  1833.0000      7.8190      2.5207      0.1058      7.8385     33.1740   -999.2500
  1833.1000      7.8190      2.4947      0.0768      9.4131     32.5619   -999.2500
  1833.2000      7.8190      2.4680      0.0410     11.0275     32.3694   -999.2500
  1833.3000      7.7791      2.4518      0.0508     12.0144     32.5194   -999.2500
  1833.4000      7.7791      2.4402      0.0493     12.7171     33.3017   -999.2500
  1833.5000      7.8026      2.4245      0.0110     13.6649     34.9672   -999.2500
  1833.6000      7.8026      2.4046      0.0496     14.8714     37.2118   -999.2500
  1833.7000      7.8026      2.3873     -0.0101     15.9199     38.8816   -999.2500
  1833.8000      7.8202      2.3836     -0.0117     16.1448     39.9484   -999.2500
  1833.9000      7.8202      2.3979      0.0285     15.2792     40.5389   -999.2500
  1834.0000      7.7823      2.4273      0.0394     13.4944     39.9529   -999.2500
  1834.1000      7.7823      2.4623      0.0932     11.3732     39.3784   -999.2500
  1834.2000      7.7823      2.4880      0.1056      9.8161     39.8143   -999.2500
  1834.3000      7.7832      2.4972      0.1261      9.2626     39.7225   -999.2500
  1834.4000      7.7832      2.4935      0.0894      9.4821     39.0105   -999.2500
  1834.5000      7.7520      2.4818      0.1159     10.1942     39.3148   -999.2500
  1834.6000      7.7520      2.4628      0.0837     11.3435     41.0003   -999.2500
  1834.7000      7.7520      2.4449      0.0500     12.4306     42.9030   -999.2500
  1834.8000      7.7270      2.4379      0.0384     12.8570     43.7454   -999.2500
  1834.9000      7.7270      2.4348      0.0680     13.0435     42.9962   -999.2500
  1835.0000      7.7813      2.4224      0.0545     13.7965     41.1793   -999.2500
  1835.1000      7.7813      2.4054      0.0162     14.8242     39.3435   -999.2500
  1835.2000      7.7813      2.3986      0.0443     15.2355     37.4676   -999.2500
  1835.3000      7.8718      2.4007      0.0460     15.1105     35.2756   -999.2500
  1835.4000      7.8718      2.4004      0.0301     15.1282     33.7139   -999.2500
  1835.5000      7.9112      2.3961      0.0334     15.3893     32.7633   -999.2500
  1835.6000      7.9112      2.3923      0.0347     15.6188     29.2632   -999.2500
  1835.7000      7.9112      2.3881      0.0642     15.8706     20.7176   -999.2500
  1835.8000      7.9038      2.3815      0.0407     16.2755     10.1822   -999.2500
  1835.9000      7.9038      2.3770      0.0215     16.5458      3.1320   -999.2500
  1836.0000      7.9041      2.3765      0.0510     16.5741      0.5611   -999.2500
  1836.1000      7.9041      2.3717      0.0485     16.8685      0.0559   -999.2500
  1836.2000      7.9041      2.3608      0.0323     17.5279      0.0029   -999.2500
  1836.3000      7.8952      2.3598     -0.0214     17.5890      0.0000   -999.2500
  1836.4000      7.8952      2.3808      0.0267     16.3169   -999.2500   -999.2500
  1836.5000      7.8672      2.4103      0.0521     14.5275   -999.2500   -999.2500
  1836.6000      7.8672      2.4255      0.0955     13.6058   -999.2500   -999.2500
  1836.7000      7.8672      2.4210      0.0618     13.8768   -999.2500   -999.2500
  1836.8000      7.8858      2.4079      0.0543     14.6737   -999.2500   -999.2500
  1836.9000      7.8858      2.3965      0.0470     15.3657   -999.2500   -999.2500
  1837.0000      7.8978      2.3911      0.0504     15.6891   -999.2500   -999.2500
  1837.1000      7.8978      2.3917      0.0453     15.6547   -999.2500   -999.2500
  1837.2000      7.8978      2.4000      0.0268     15.1486   -999.2500   -999.2500
  1837.3000      7.8669      2.4179      0.0650     14.0665   -999.2500   -999.2500
  1837.4000      7.8669      2.4339      0.0975     13.0948   -999.2500   -999.2500
  1837.5000      7.8355      2.4372      0.0828     12.8964   -999.2500   -999.2500
  1837.6000      7.8355      2.4289      0.0860     13.4021   -999.2500   -999.2500
  1837.7000      7.8355      2.4128      0.0520     14.3730   -999.2500   -999.2500
  1837.8000      7.8428      2.3989      0.0320     15.2209   -999.2500   -999.2500
  1837.9000      7.8428      2.3958      0.0610     15.4057   -999.2500   -999.2500
  1838.0000      7.8530      2.3995      0.0456     15.1822   -999.2500   -999.2500
  1838.1000      7.8530      2.4027      0.0491     14.9867   -999.2500   -999.2500
  1838.2000      7.8530      2.4017      0.0544     15.0484   -999.2500   -999.2500
  1838.3000      7.8800      2.3998      0.0211     15.1628   -999.2500   -999.2500
  1838.4000      7.8800      2.4053      0.0498     14.8331   -999.2500   -999.2500
  1838.5000      7.8810      2.4130      0.0824     14.3614   -999.2500   -999.2500
  1838.6000      7.8810      2.4133      0.0398     14.3462   -999.2500   -999.2500
  1838.7000      7.8810      2.4089      0.0535     14.6142   -999.2500   -999.2500
  1838.8000      7.8607      2.4048      0.0540     14.8583   -999.2500   -999.2500
  1838.9000      7.8607      2.4031      0.0565     14.9633   -999.2500   -999.2500
  1839.0000      7.8438      2.4091      0.0184     14.5996   -999.2500   -999.2500
  1839.1000      7.8438      2.4237      0.0567     13.7166   -999.2500   -999.2500
  1839.2000      7.8438      2.4322      0.0710     13.2028   -999.2500   -999.2500
  1839.3000      7.8424      2.4241      0.0735     13.6902   -999.2500   -999.2500
  1839.4000      7.8424      2.4102      0.0271     14.5318   -999.2500   -999.2500
  1839.5000      7.8479      2.4042      0.0481     14.8949   -999.2500   -999.2500
  1839.6000      7.8479      2.4067      0.0353     14.7442   -999.2500   -999.2500
  1839.7000      7.8479      2.4118      0.0722     14.4380   -999.2500   -999.2500
  1839.8000      7.8569      2.4149      0.0688     14.2468   -999.2500   -999.2500
  1839.9000      7.8569      2.4217      0.0761     13.8350   -999.2500   -999.2500
  1840.0000      7.8302      2.4398      0.0644     12.7398   -999.2500   -999.2500
  1840.1000      7.8302      2.4597      0.1185     11.5347   -999.2500   -999.2500
  1840.2000      7.8302      2.4663      0.0938     11.1311   -999.2500   -999.2500
  1840.3000      7.8074      2.4626      0.0721     11.3573   -999.2500   -999.2500
  1840.4000      7.8074      2.4616      0.0521     11.4187   -999.2500   -999.2500
  1840.5000      7.8486      2.4666      0.1016     11.1148   -999.2500   -999.2500
  1840.6000      7.8486      2.4761      0.0444     10.5396   -999.2500   -999.2500
  1840.7000      7.8486      2.4911      0.0639      9.6323   -999.2500   -999.2500
  1840.8000      7.8781      2.5068      0.0671      8.6759   -999.2500   -999.2500
  1840.9000      7.8781      2.5252      0.0149      7.5606   -999.2500   -999.2500
  1841.0000      7.8465      2.5497      0.0907      6.0817   -999.2500   -999.2500
  1841.1000      7.8465      2.5659      0.0999      5.0999   -999.2500   -999.2500
  1841.2000      7.8465      2.5665      0.0599      5.0601   -999.2500   -999.2500
  1841.3000      7.8338      2.5561      0.0800      5.6885   -999.2500   -999.2500
  1841.4000      7.8338      2.5315      0.0809      7.1840   -999.2500   -999.2500
  1841.5000      7.7888      2.4995      0.0241      9.1217   -999.2500   -999.2500
  1841.6000      7.7888      2.4818      0.0181     10.1919   -999.2500   -999.2500
  1841.7000      7.7888      2.4836      0.0290     10.0854   -999.2500   -999.2500
  1841.8000      7.8141      2.4878      0.0380      9.8297   -999.2500   -999.2500
  1841.9000      7.8141      2.4817      0.0356     10.1991   -999.2500   -999.2500
  1842.0000      7.8432      2.4743      0.0180     10.6485   -999.2500   -999.2500
  1842.1000      7.8432      2.4779      0.0609     10.4329   -999.2500   -999.2500
  1842.2000      7.8432      2.4889      0.0761      9.7665   -999.2500   -999.2500
  1842.3000      7.7979      2.4971      0.0794      9.2691   -999.2500   -999.2500
