~Version Information
VERS.                      2.0: CWLS Log ASCII Standard - VERSION 2.0
WRAP.                       NO: One line per depth step
~Well Information Block
STRT.FT               750.6000: 
STOP.FT              2495.5000: 
STEP.FT                 0.1000: 
NULL.                -999.2500: 
COMP.                         : COMPANY
WELL.                         : WELL
FLD.                          : FIELD
LOC.                          : LOCATION
CNTY.                         : COUNTY
SRVC.                         : SERVICE COMPANY
DATE.          Sat Feb 28 14:05:57 2004: LOG DATE
UWI.                          : UNIQUE WELL ID
STAT.                         : STATE
~Curve Information Block
DEPT.FT            0 000 00 00: Depth
DCAL.in                       : CDL Caliper
RHOB.g/cc                     : CDL Bulk Density
RHOC.g/cc                     : CDL Density Correction
DPOR.pu                       : CDL Density Porosity
GR.GAPI                       : Gamma Ray
NPOR.pu                       : Neutron Porosity
~Parameter Information Block
~A  Depth       DCAL        RHOB        RHOC        DPOR         GR         NPOR    
# ...
  2142.6000      7.9206      2.6734      0.0958     -1.4196     35.5711     22.8384
  2142.7000      7.9206      2.6757      0.1537     -1.5559     34.8419     23.5078
  2142.8000      7.9037      2.6761      0.1010     -1.5831     35.5889     23.8185
  2142.9000      7.9037      2.6803      0.0896     -1.8365     35.3967     23.5385
  2143.0000      7.9113      2.6815      0.1557     -1.9074     32.1591     23.3071
  2143.1000      7.9113      2.6669      0.0390     -1.0226     28.9717     23.4107
  2143.2000      7.9113      2.6492      0.0992      0.0458     30.0866     23.4294
  2143.3000      7.9476      2.6321      0.0868      1.0874     32.2755     23.3307
  2143.4000      7.9476      2.6139      0.0604      2.1853     31.0558     23.2811
  2143.5000      7.9895      2.6131     -0.0372      2.2379     29.9192     22.9824
  2143.6000      7.9895      2.6388      0.0432      0.6813     33.2258     22.5127
  2143.7000      7.9895      2.6664      0.1264     -0.9911     38.5728     22.2575
  2143.8000      7.9878      2.6751      0.1126     -1.5211     40.4282     22.1866
  2143.9000      7.9878      2.6725      0.1267     -1.3640     37.5239     22.3553
  2144.0000      7.9744      2.6585      0.1210     -0.5146     34.0439     22.7419
  2144.1000      7.9744      2.6232      0.0828      1.6218     33.1089     22.8999
  2144.2000      7.9744      2.5813      0.0558      4.1663     32.4709     22.8487
  2144.3000      7.9575      2.5560      0.0492      5.6942     29.6443     23.0048
  2144.4000      7.9575      2.5483      0.0115      6.1635     26.3078     23.4327
  2144.5000      7.9838      2.5554      0.0306      5.7349     25.6582     23.8360
  2144.6000      7.9838      2.5790      0.0442      4.3054     29.2439     23.8535
  2144.7000      7.9838      2.6027      0.0701      2.8686     35.1249     23.5432
  2144.8000      7.9995      2.6058      0.0309      2.6759     37.6315     23.2115
  2144.9000      7.9995      2.5901      0.0880      3.6328     35.1788     22.9354
  2145.0000      8.0096      2.5760      0.0031      4.4864     32.8431     22.9211
  2145.1000      8.0096      2.5767      0.0777      4.4432     33.4525     23.2142
  2145.2000      8.0096      2.5874      0.0528      3.7954     34.7774     23.1831
  2145.3000      7.9735      2.6143      0.0209      2.1614     34.1189     22.6698
  2145.4000      7.9735      2.6568      0.1476     -0.4091     32.6148     22.5720
  2145.5000      7.9607      2.6829      0.1254     -1.9934     32.5513     23.1872
  2145.6000      7.9607      2.6765      0.0960     -1.6071     32.9211     23.5438
  2145.7000      7.9607      2.6576      0.0813     -0.4613     32.4686     23.2052
  2145.8000      7.9686      2.6501      0.0690     -0.0036     31.9547     22.6201
  2145.9000      7.9686      2.6648      0.0813     -0.8987     32.3594     22.3762
  2146.0000      7.9617      2.6959      0.0992     -2.7846     33.2691     22.6803
  2146.1000      7.9617      2.7097      0.1398     -3.6193     34.1704     23.1065
  2146.2000      7.9617      2.6652      0.0588     -0.9200     35.5096     23.3885
  2146.3000      7.9571      2.5817     -0.0706      4.1388     35.6369     23.6822
  2146.4000      7.9571      2.5296     -0.0173      7.2992     33.2388     24.1266
  2146.5000      7.9784      2.5291      0.0109      7.3270     31.4676     24.9185
  2146.6000      7.9784      2.5390      0.0312      6.7260     34.0455     25.9445
  2146.7000      7.9784      2.5314      0.0340      7.1887     39.9111     26.3288
  2146.8000      7.9973      2.5163     -0.0099      8.1015     44.3335     25.8119
  2146.9000      7.9973      2.5128      0.0673      8.3181     46.7337     25.4359
  2147.0000      8.0074      2.5254      0.0245      7.5518     50.4364     25.7982
  2147.1000      8.0074      2.5440      0.0719      6.4249     54.3297     26.2277
  2147.2000      8.0074      2.5461      0.0871      6.2957     56.7564     26.3275
  2147.3000      7.9888      2.5287      0.0261      7.3536     61.1910     26.5279
  2147.4000      7.9888      2.5160      0.0609      8.1233     68.4180     27.0162
  2147.5000      8.0023      2.5107      0.1487      8.4410     74.3165     27.6147
  2147.6000      8.0023      2.4964      0.0614      9.3078     76.6490     28.0699
  2147.7000      8.0023      2.4827     -0.0288     10.1389     75.2441     28.3886
  2147.8000      8.0171      2.4795      0.0497     10.3338     73.6564     28.6673
  2147.9000      8.0171      2.4780      0.0255     10.4259     76.8884     29.0012
  2148.0000      8.0191      2.4809      0.0068     10.2476     82.7525     29.2545
  2148.1000      8.0191      2.4919      0.0513      9.5822     85.0987     29.0845
  2148.2000      8.0191      2.5014      0.0381      9.0044     80.1521     28.6346
  2148.3000      8.0208      2.5014      0.0415      9.0077     70.8154     28.5085
  2148.4000      8.0208      2.4877      0.0612      9.8369     63.3741     28.8791
  2148.5000      8.0191      2.4703      0.0445     10.8883     58.7973     29.3109
  2148.6000      8.0191      2.4660      0.0913     11.1500     58.7478     29.5222
  2148.7000      8.0191      2.4669      0.1177     11.0973     63.6614     29.3365
  2148.8000      8.0074      2.4573      0.0823     11.6801     66.7239     28.7151
  2148.9000      8.0074      2.4421      0.0692     12.5989     66.0889     28.2942
  2149.0000      7.9671      2.4414      0.0426     12.6424     65.7458     28.6468
  2149.1000      7.9671      2.4597      0.1210     11.5330     66.5091     29.2431
  2149.2000      7.9671      2.4668      0.1877     11.1031     67.8825     29.3807
  2149.3000      7.9111      2.4468      0.0656     12.3141     68.8224     29.0831
  2149.4000      7.9111      2.4274      0.1174     13.4924     68.3806     28.5963
  2149.5000      7.9582      2.4293      0.1058     13.3751     66.9513     28.3775
  2149.6000      7.9582      2.4433      0.1121     12.5252     66.2382     28.5612
  2149.7000      7.9582      2.4535      0.1042     11.9117     68.5665     28.6250
  2149.8000      7.9429      2.4635      0.0383     11.3014     73.1999     28.5620
  2149.9000      7.9429      2.4878      0.0850      9.8311     75.2791     28.8089
  2150.0000      7.9653      2.5129      0.1597      8.3109     71.7006     29.3643
  2150.1000      7.9653      2.5099      0.1347      8.4934     65.8962     29.9712
  2150.2000      7.9653      2.4843      0.0506     10.0414     64.0269     30.2602
  2150.3000      7.9740      2.4701      0.0406     10.9053     67.4791     29.9254
  2150.4000      7.9740      2.4747      0.0613     10.6236     69.6359     29.2811
  2150.5000      7.9492      2.4857      0.1054      9.9583     66.9466     28.8609
  2150.6000      7.9492      2.5012      0.0780      9.0204     64.4845     28.6830
  2150.7000      7.9492      2.5153      0.0317      8.1612     64.4555     28.6635
  2150.8000      7.9661      2.5172      0.0689      8.0510     65.0381     28.6662
  2150.9000      7.9661      2.5175      0.0346      8.0292     65.8500     28.2699
  2151.0000      7.9935      2.5358      0.0921      6.9193     65.1233     27.6376
  2151.1000      7.9935      2.5597      0.1487      5.4752     60.9601     27.2680
  2151.2000      7.9935      2.5645      0.0609      5.1843     55.2203     27.1876
  2151.3000      8.0004      2.5536      0.0524      5.8439     51.7870     27.0959
  2151.4000      8.0004      2.5470     -0.0096      6.2410     51.0330     26.9832
  2151.5000      8.0127      2.5569      0.0106      5.6422     50.1897     26.9236
  2151.6000      8.0127      2.5788      0.0115      4.3134     50.3798     26.8694
  2151.7000      8.0127      2.6017      0.1089      2.9257     51.8983     26.9237
  2151.8000      8.0132      2.6190      0.0905      1.8790     50.4764     27.0463
  2151.9000      8.0132      2.6339      0.1419      0.9766     46.3088     26.9639
  2152.0000      7.9826      2.6459      0.1400      0.2468     45.8855     26.7764
  2152.1000      7.9826      2.6458      0.1406      0.2539     51.7078     26.6249
