~Version Information
VERS.                      2.0: CWLS Log ASCII Standard - VERSION 2.0
WRAP.                       NO: One line per depth step
~Well Information Block
STRT.FT               -11.0000: 
STOP.FT              1523.2500: 
STEP.FT                 0.2500: 
NULL.                -999.2500: 
COMP.          Petrogulf Corporation: COMPANY
WELL.             State 16-43R: WELL
FLD.           Purgatorie River: FIELD
LOC.           2538' FSL & 716' FEL--: LOCATION
PROV.                       CO: PROVINCE
CNTY.               Las Animas: COUNTRY
SRVC.          Patterson Wireline: SERVICE COMPANY
DATE.          Fri Sep 09 13:13:52 2005: LOG DATE
UWI.           05 071 08338 00: UNIQUE WELL ID
~Curve Information Block
DEPT.FT            0 000 00 00: Depth
CCL.                          : Casing Collar Locator
TT3.usec                      : CBL 3' Travel Time
AMP3.mV                       : CBL 3' Amplitude
GR.GAPI                       : Gamma Ray
~Parameter Information Block
~A  Depth       CCL         TT3         AMP3         GR     
# ...
   893.5000      0.0000    660.1580     13.5514    118.3603
   893.7500      0.0000    652.3700     13.4467    120.3755
   894.0000      0.0000    645.9625     13.3033    121.6901
   894.2500      0.0000    642.9807     13.1415    122.2964
   894.5000      0.0000    643.9205     12.9540    122.2524
   894.7500      0.0000    648.8373     12.7005    121.2764
   895.0000      0.0000    658.0630     12.3515    119.2962
   895.2500      0.0000    670.8066     11.9385    116.9955
   895.5000      0.0000    683.4207     11.5462    115.2092
   895.7500      0.0000    690.9291     11.2493    113.9252
   896.0000      0.0000    691.2070     11.0703    112.3979
   896.2500      0.0000    686.6985     10.9990    110.3161
   896.5000      0.0000    681.6530     11.0329    108.6134
   896.7500      0.0000    678.7458     11.1878    108.9499
   897.0000      0.0000    678.2491     11.4734    112.3394
   897.2500      0.0000    678.8930     11.8616    118.2562
   897.5000      0.0000    678.9623     12.2780    124.9559
   897.7500      0.0000    677.4381     12.6313    130.5945
   898.0000      0.0000    674.9016     12.8627    134.3826
   898.2500      0.0000    673.6218     12.9726    136.9113
   898.5000      0.0000    676.6496     13.0002    139.1427
   898.7500      0.0000    686.1644     12.9796    141.1548
   899.0000      0.0000    701.6991     12.9185    142.3327
   899.2500      0.0000    719.3785     12.8159    142.6625
   899.5000      0.0000    733.3566     12.6858    143.0950
   899.7500      0.0000    738.7853     12.5547    144.4597
   900.0000      0.0000    734.0479     12.4301    146.6514
   900.2500      0.0000    720.9500     12.2638    149.0530
   900.5000      0.0000    703.7807     11.9530    151.1550
   900.7500      0.0000    688.2062     11.4233    152.3996
   901.0000      0.0000    679.4626     10.7375    151.9829
   901.2500      0.0000    679.8342     10.0900    149.6238
   901.5000      0.0000    687.4689      9.6632    146.5622
   901.7500      0.0000    698.0600      9.5092    144.9513
   902.0000     -2.0000    708.0121      9.5741    145.6267
   902.2500      0.0000    716.3973      9.7853    146.7609
   902.5000      0.0000    724.3087     10.1027    145.3037
   902.7500      0.0000    732.5130     10.5138    139.8401
   903.0000      0.0000    739.7313     10.9977    131.9389
   903.2500      0.0000    743.0920     11.4898    124.7635
   903.5000      0.0000    740.8723     11.9112    120.4602
   903.7500      0.0000    735.0048     12.2540    118.7969
   904.0000      0.0000    729.8721     12.5898    118.1702
   904.2500      0.0000    728.3796     12.9686    117.7080
   904.5000      0.0000    730.2714     13.3586    118.0778
   904.7500      0.0000    733.8250     13.7026    120.0947
   905.0000      0.0000    737.6638     13.9807    122.9924
   905.2500      0.0000    740.9813     14.1998    124.7198
   905.5000      0.0000    743.2854     14.3621    123.9215
   905.7500      0.0000    744.3812     14.4627    121.1650
   906.0000      0.0000    744.2074     14.4984    118.1383
   906.2500      0.0000    742.5345     14.4612    115.8695
   906.5000      0.0000    739.0374     14.3374    113.8033
   906.7500      0.0000    733.8192     14.1202    110.6194
   907.0000      0.0000    727.8209     13.8211    105.8629
   907.2500      0.0000    722.4420     13.4635    100.6291
   907.5000      0.0000    718.6240     13.0736     96.8626
   907.7500      0.0000    716.2509     12.6797     96.2237
   908.0000      0.0000    714.2478     12.3055     99.2533
   908.2500      0.0000    711.1031     11.9564    105.0005
   908.5000      0.0000    705.6196     11.6220    111.4473
   908.7500      0.0000    697.7968     11.3017    116.7509
   909.0000      0.0000    689.2562     11.0186    120.3230
   909.2500      0.0000    682.5638     10.8064    122.7617
   909.5000      0.0000    679.8217     10.6904    124.9172
   909.7500      0.0000    681.5930     10.6848    127.1331
   910.0000      0.0000    686.7017     10.7920    129.3581
   910.2500      0.0000    693.0035     10.9974    131.8486
   910.5000      0.0000    698.8118     11.2687    135.3978
   910.7500      0.0000    703.8227     11.5627    140.4174
   911.0000      0.0000    708.6702     11.8350    145.8035
   911.2500      0.0000    714.0201     12.0536    149.1708
   911.5000      0.0000    720.2162     12.2106    148.3553
   911.7500      0.0000    726.9718     12.3207    142.5946
   912.0000      0.0000    732.8997     12.4055    132.5735
   912.2500      0.0000    735.6884     12.4796    120.0088
   912.5000      0.0000    732.8740     12.5450    107.2782
   912.7500      0.0000    722.7579     12.5896     96.6621
   913.0000      0.0000    705.8354     12.5893     89.2619
   913.2500      0.0000    686.3704     12.5235     84.7288
   913.5000      0.0000    671.8952     12.3931     82.1280
   913.7500      0.0000    669.3496     12.2192     80.7765
   914.0000      0.0000    680.3151     12.0261     80.2325
   914.2500      0.0000    699.6832     11.8295     79.8921
   914.5000      0.0000    719.2726     11.6421     79.0141
   914.7500      0.0000    733.0783     11.4802     77.3595
   915.0000      0.0000    739.6187     11.3586     75.7096
   915.2500      0.0000    740.6378     11.2801     75.2712
   915.5000      0.0000    738.8583     11.2350     76.2727
   915.7500      0.0000    736.7318     11.2105     77.4904
   916.0000      0.0000    735.9734     11.1971     77.5630
   916.2500      0.0000    737.2565     11.1870     76.6500
   916.5000      0.0000    740.1160     11.1691     76.5180
   916.7500      0.0000    743.3494     11.1334     78.9528
   917.0000      0.0000    745.7791     11.0821     84.2403
   917.2500      0.0000    746.8014     11.0357     91.1320
   917.5000      0.0000    746.2777     11.0206     97.8673
   917.7500      0.0000    744.1005     11.0488    102.9780
   918.0000      0.0000    740.1478     11.1093    105.5599
   918.2500      0.0000    734.8147     11.1802    105.3956
   918.5000      0.0000    729.4813     11.2491    102.9046
   918.7500      0.0000    726.1082     11.3191     98.8397
   919.0000      0.0000    726.0594     11.3956     93.9904
   919.2500      0.0000    728.9396     11.4708     89.0865
   919.5000      0.0000    732.2811     11.5265     84.7673
   919.7500      0.0000    732.2537     11.5530     81.5735
   920.0000      0.0000    725.4786     11.5596     80.0181
   920.2500      0.0000    711.8210     11.5656     80.5018
   920.5000      0.0000    696.1677     11.5795     82.9160
   920.7500      0.0000    685.7499     11.5898     86.2679
   921.0000      0.0000    683.9153     11.5781     88.9463
   921.2500      0.0000    687.7320     11.5385     89.6535
   921.5000      0.0000    692.9056     11.4827     88.3534
   921.7500      0.0000    698.8938     11.4276     86.3209
   922.0000      0.0000    707.5226     11.3824     85.0486
   922.2500      0.0000    718.6541     11.3499     84.9443
   922.5000      0.0000    729.3815     11.3319     85.1281
   922.7500      0.0000    736.6996     11.3282     84.4402
   923.0000      0.0000    739.5701     11.3316     82.3703
   923.2500      0.0000    738.8247     11.3294     79.1297
   923.5000      0.0000    736.3555     11.3130     75.3364
   923.7500      0.0000    734.3729     11.2840     71.8904
   924.0000      0.0000    734.3739     11.2484     69.8188
   924.2500      0.0000    736.0456     11.2083     69.7204
   924.5000      0.0000    737.3024     11.1632     71.2451
   924.7500      0.0000    735.6560     11.1192     73.3160
   925.0000      0.0000    729.7258     11.0900     74.8841
   925.2500      0.0000    719.9418     11.0831     75.3231
   925.5000      0.0000    708.4570     11.0881     74.4708
   925.7500      0.0000    698.3932     11.0830     72.7497
   926.0000      0.0000    692.4417     11.0539     71.0631
   926.2500      0.0000    691.5171     11.0075     70.0513
   926.5000      0.0000    694.5917     10.9644     69.6112
   926.7500      0.0000    699.7386     10.9402     69.5702
