~Version Information
VERS.                      2.0: CWLS Log ASCII Standard - VERSION 2.0
WRAP.                       NO: One line per depth step
~Well Information Block
STRT.FT               340.0000: 
STOP.FT              1731.0000: 
STEP.FT                 0.1000: 
NULL.                -999.2500: 
COMP.          Pioneer Natural Resources: COMPANY
WELL.          Rancher 12-35 Tr: WELL
FLD.           Purgatoire River: FIELD
LOC.           2242' FNL & 308' FWL SWNW 35 32S 67W: LOCATION
PROV.                 Colorado: PROVINCE
CNTY.               Las Animas: COUNTRY
SRVC.                Patterson: SERVICE COMPANY
DATE.          Tue Jul 05 07:18:22 2005: LOG DATE
UWI.              05 071 08430 00: UNIQUE WELL ID
~Curve Information Block
DEPT.FT            0 000 00 00: Depth
DCAL.in                       : CDL Caliper
RHOB.g/cc                     : CDL Bulk Density
RHOC.g/cc                     : CDL Density Correction
DPOR.pu                       : CDL Density Porosity
GR.GAPI                       : Gamma Ray
NPOR.pu                       : Neutron Porosity
~Parameter Information Block
~A  Depth       DCAL        RHOB        RHOC        DPOR         GR         NPOR    
# ...
  1348.0000      8.9738      2.3684      0.1021     17.0652    145.2960     27.9798
  1348.1000      8.9738      2.4247      0.2446     13.6520    141.5908     27.0556
  1348.2000      8.9738      2.4994      0.3178      9.1278    137.1681     27.3840
  1348.3000      9.1478      2.5650      0.3841      5.1500    132.7747     27.7236
  1348.4000      9.1478      2.6042      0.3517      2.7755    129.2725     27.3680
  1348.5000      9.2737      2.6215      0.3832      1.7299    129.4377     27.5598
  1348.6000      9.2737      2.6273      0.3709      1.3746    131.9708     28.8110
  1348.7000      9.2737      2.6276      0.3461      1.3546    131.8498     29.9500
  1348.8000      8.8978      2.6182      0.3003      1.9265    126.5732     29.5419
  1348.9000      8.8978      2.5905      0.2264      3.6080    120.2239     28.1003
  1349.0000      8.7109      2.5526      0.1653      5.9052    120.4664     27.2601
  1349.1000      8.7109      2.5248      0.1075      7.5876    127.6309     27.2273
  1349.2000      8.7109      2.5194      0.1305      7.9124    134.4007     27.5255
  1349.3000      8.6394      2.5373      0.1084      6.8296    135.8032     27.7710
  1349.4000      8.6394      2.5770      0.1488      4.4273    132.7588     27.4797
  1349.5000      8.6361      2.6448      0.1446      0.3182    127.8139     26.9908
  1349.6000      8.6361      2.7633      0.1620     -6.8675    121.2412     27.1121
  1349.7000      8.6361      2.9418      0.1917    -17.6823    114.7838     27.7868
  1349.8000      8.0481      3.1285      0.3380    -28.9978    113.1102     28.2069
  1349.9000      8.0481      3.2435      0.3638    -35.9675    114.0813     27.8786
  1350.0000      7.9502      3.2620      0.3337    -37.0937    111.6478     26.9659
  1350.1000      7.9502      3.2113      0.3213    -34.0156    105.3664     26.2248
  1350.2000      7.9502      3.1222      0.2533    -28.6165     98.5315     25.9795
  1350.3000      8.0311      3.0155      0.0762    -22.1511     95.4435     25.7148
  1350.4000      8.0311      2.8916     -0.0112    -14.6411     99.2831     25.6421
  1350.5000      8.0638      2.7590     -0.1685     -6.6083    104.9398     26.0280
  1350.6000      8.0638      2.6628     -0.1901     -0.7729    103.8298     26.5057
  1350.7000      8.0638      2.6184     -0.0592      1.9143     98.7885     26.4606
  1350.8000      7.9737      2.5946     -0.0348      3.3562    100.4068     25.6655
  1350.9000      7.9737      2.5742      0.0095      4.5935    111.5768     24.9342
  1351.0000      7.9744      2.5540      0.0425      5.8206    123.6986     25.1864
  1351.1000      7.9744      2.5271      0.0972      7.4474    127.5452     26.4356
  1351.2000      7.9744      2.4990      0.0728      9.1523    124.1626     27.7733
  1351.3000      8.0657      2.4780      0.0473     10.4213    121.6899     28.1122
  1351.4000      8.0657      2.4650      0.0263     11.2102    124.9999     27.2081
  1351.5000      8.1570      2.4584      0.0927     11.6108    132.7032     26.3116
  1351.6000      8.1570      2.4525      0.0867     11.9676    141.7856     26.4433
  1351.7000      8.1570      2.4468      0.0589     12.3122    147.6034     27.0831
  1351.8000      8.1159      2.4500      0.0158     12.1191    147.4441     27.7786
  1351.9000      8.1159      2.4646      0.0741     11.2360    145.2353     28.4991
  1352.0000      8.0334      2.4733      0.1061     10.7115    146.2322     29.0190
  1352.1000      8.0334      2.4522      0.1145     11.9860    149.7337     29.2511
  1352.2000      8.0334      2.3963      0.0875     15.3741    152.5094     29.1203
  1352.3000      8.0315      2.3372      0.0599     18.9571    152.3088     28.9867
  1352.4000      8.0315      2.3171      0.0019     20.1784    149.0622     29.3212
  1352.5000      8.0222      2.3375      0.0772     18.9381    145.6455     29.7228
  1352.6000      8.0222      2.3630      0.0736     17.3916    145.4474     29.5148
  1352.7000      8.0222      2.3723      0.0913     16.8299    147.8329     28.7704
  1352.8000      8.1086      2.3759      0.0753     16.6128    149.7667     28.2608
  1352.9000      8.1086      2.3895      0.1642     15.7897    150.1509     28.4767
  1353.0000      8.1495      2.4110      0.2343     14.4844    150.0883     29.2821
  1353.1000      8.1495      2.4263      0.2581     13.5558    148.4086     30.8799
  1353.2000      8.1495      2.4240      0.2702     13.6956    141.2132     33.0354
  1353.3000      8.1706      2.4002      0.2075     15.1375    131.1333     34.2938
  1353.4000      8.1706      2.3656      0.1534     17.2382    128.1874     34.1695
  1353.5000      8.1490      2.3277      0.1549     19.5318    133.5538     33.6327
  1353.6000      8.1490      2.2808      0.1031     22.3752    140.5846     33.2012
  1353.7000      8.1490      2.2295      0.0807     25.4866    147.5446     32.6609
  1353.8000      8.2268      2.1888      0.0590     27.9535    151.9728     32.0205
  1353.9000      8.2268      2.1661      0.0655     29.3259    146.6546     31.2055
  1354.0000      8.3763      2.1598      0.0766     29.7094    135.2605     30.1475
  1354.1000      8.3763      2.1692      0.0713     29.1417    130.2863     29.9255
  1354.2000      8.3763      2.1958      0.1153     27.5288    133.9644     31.2195
  1354.3000      8.4171      2.2418      0.0871     24.7378    140.0533     32.7737
  1354.4000      8.4171      2.3137      0.1653     20.3806    142.7468     33.3947
  1354.5000      8.3749      2.4053      0.2565     14.8315    140.1381     32.7191
  1354.6000      8.3749      2.4838      0.4051     10.0740    134.5741     31.1800
  1354.7000      8.3749      2.5106      0.3064      8.4484    134.2359     30.0275
  1354.8000      8.6048      2.4830      0.2493     10.1189    144.7473     29.8372
  1354.9000      8.6048      2.4388      0.1536     12.7971    156.0378     30.2574
  1355.0000      8.8286      2.4257      0.0712     13.5928    159.3546     30.9231
  1355.1000      8.8286      2.4676      0.1235     11.0565    155.2552     31.2886
  1355.2000      8.8286      2.5530      0.1387      5.8788    144.0772     30.6614
  1355.3000      8.5826      2.6574      0.1653     -0.4465    132.4741     29.4788
  1355.4000      8.5826      2.7642      0.1895     -6.9211    129.3917     28.8266
  1355.5000      8.1010      2.8622      0.2478    -12.8584    131.9551     28.9849
  1355.6000      8.1010      2.9296      0.3441    -16.9479    129.7236     29.4604
  1355.7000      8.1010      2.9395      0.3705    -17.5463    121.1235     29.6928
  1355.8000      8.0254      2.8835      0.2869    -14.1536    113.1177     29.5654
  1355.9000      8.0254      2.7723      0.1651     -7.4091    109.2893     29.6729
  1356.0000      7.9437      2.6198      0.0066      1.8289    109.5031     30.5091
  1356.1000      7.9437      2.4578     -0.2029     11.6468    112.1214     31.2304
  1356.2000      7.9437      2.3409     -0.2420     18.7339    113.7408     30.4995
  1356.3000      7.8434      2.3001     -0.1819     21.2053    115.5190     28.8291
  1356.4000      7.8434      2.3232     -0.0710     19.8038    119.3598     27.7714
  1356.5000      7.8866      2.3810      0.1228     16.3047    123.1497     27.5306
  1356.6000      7.8866      2.4381      0.2644     12.8442    127.9768     27.4994
  1356.7000      7.8866      2.4643      0.3061     11.2572    134.9804     27.5772
  1356.8000      7.9622      2.4539      0.2637     11.8854    139.4442     28.2153
  1356.9000      7.9622      2.4216      0.2634     13.8454    138.6396     29.4350
  1357.0000      8.1717      2.3851      0.2295     16.0525    134.0922     30.3595
  1357.1000      8.1717      2.3675      0.1588     17.1223    125.9571     30.5265
  1357.2000      8.1717      2.3866      0.1542     15.9637    119.7969     30.4718
  1357.3000      8.2404      2.4318      0.1607     13.2260    121.7162     30.4959
  1357.4000      8.2404      2.4820      0.1409     10.1814    123.9337     29.8983
  1357.5000      8.1403      2.5227      0.2679      7.7129    120.3493     28.5147
