~Version Information
VERS.                      2.0: CWLS Log ASCII Standard - VERSION 2.0
WRAP.                       NO: One line per depth step
~Well Information Block
STRT.FT                30.0000: 
STOP.FT              2789.0000: 
STEP.FT                 0.1000: 
NULL.                -999.2500: 
COMP.          Pioneer Natural Resources: COMPANY
WELL.          Rabbit Bush Federal 44-19: WELL
FLD.           Purgatorie River: FIELD
LOC.           826' FSL & 1127' FEL: LOCATION
CNTY.               Las Animas: COUNTY
SRVC.                Patterson: SERVICE COMPANY
DATE.          Mon Aug 28 10:56:57 2006: LOG DATE
UWI.           05-071-08149-00: UNIQUE WELL ID
STAT.                 Colorado: STATE
~Curve Information Block
DEPT.FT            0 000 00 00: Depth
DCAL.in                       : CDL Caliper
RHOB.g/cc                     : CDL Bulk Density
RHOC.g/cc                     : CDL Density Correction
DPOR.pu                       : CDL Density Porosity
GR.GAPI                       : Gamma Ray
NPOR.pu                       : Neutron Porosity
~Parameter Information Block
~A  Depth       DCAL        RHOB        RHOC        DPOR         GR         NPOR    
# ...
   942.0000      7.9151      2.5568      0.1080      5.6480     86.4534     17.3527
   942.1000      7.9151      2.5524      0.0854      5.9154     83.6225     17.2428
   942.2000      7.9151      2.5456      0.0251      6.3283     82.1644     17.3435
   942.3000      7.9221      2.5447      0.0952      6.3799     82.6363     17.6308
   942.4000      7.9221      2.5315      0.0854      7.1828     83.3011     18.1330
   942.5000      7.9204      2.5094      0.0666      8.5225     82.2935     18.6877
   942.6000      7.9204      2.4988      0.0136      9.1650     78.4432     18.9651
   942.7000      7.9204      2.5037      0.0751      8.8693     73.1594     18.9223
   942.8000      7.9108      2.5176      0.0579      8.0258     70.9744     18.9788
   942.9000      7.9108      2.5349      0.0417      6.9746     71.4235     19.1822
   943.0000      7.8943      2.5419      0.1044      6.5519     70.1537     19.0746
   943.1000      7.8943      2.5267      0.0866      7.4754     69.5823     18.6930
   943.2000      7.8943      2.5077      0.0180      8.6221     72.6557     18.4513
   943.3000      7.8852      2.5131      0.0386      8.2998     76.0754     18.3219
   943.4000      7.8852      2.5361      0.0733      6.9047     76.8232     18.0403
   943.5000      7.8872      2.5511      0.0926      5.9913     75.6925     17.6137
   943.6000      7.8872      2.5532      0.1003      5.8694     75.2079     17.2475
   943.7000      7.8872      2.5563      0.0998      5.6788     76.9105     17.2009
   943.8000      7.8931      2.5700      0.0738      4.8458     79.3219     17.5797
   943.9000      7.8931      2.5827      0.1662      4.0793     80.5010     18.0584
   944.0000      7.9029      2.5731      0.1375      4.6591     81.8725     18.2177
   944.1000      7.9029      2.5492      0.0780      6.1093     85.0646     18.0466
   944.2000      7.9029      2.5409      0.0857      6.6122     88.8649     17.8935
   944.3000      7.9087      2.5503      0.1322      6.0406     90.4841     17.8902
   944.4000      7.9087      2.5474      0.1416      6.2195     88.6380     17.8026
   944.5000      7.9079      2.5185      0.0882      7.9670     84.3390     17.5825
   944.6000      7.9079      2.4824      0.0765     10.1586     79.6726     17.4826
   944.7000      7.9079      2.4611      0.0636     11.4464     77.6731     17.6194
   944.8000      7.9160      2.4668      0.0739     11.1035     78.7014     17.9728
   944.9000      7.9160      2.4972      0.1371      9.2608     79.7952     18.4640
   945.0000      7.9245      2.5329      0.1694      7.0987     80.5761     18.6393
   945.1000      7.9245      2.5505      0.2170      6.0329     82.1999     18.3110
   945.2000      7.9245      2.5491      0.1651      6.1169     82.7844     18.0295
   945.3000      7.9355      2.5480      0.1986      6.1793     80.7800     18.1998
   945.4000      7.9355      2.5579      0.1676      5.5837     77.6324     18.5819
   945.5000      7.9566      2.5793      0.1336      4.2870     75.9370     18.8475
   945.6000      7.9566      2.5989      0.2384      3.0968     77.6031     18.9333
   945.7000      7.9566      2.5913      0.1941      3.5546     82.6641     18.7836
   945.8000      7.9674      2.5622      0.1259      5.3195     88.4748     18.5196
   945.9000      7.9674      2.5460      0.0955      6.3023     91.6275     18.5776
   946.0000      7.9525      2.5529      0.1147      5.8878     93.1115     18.8920
   946.1000      7.9525      2.5622      0.1088      5.3224     96.6384     19.1403
   946.2000      7.9525      2.5591      0.0981      5.5080    100.4122     19.3602
   946.3000      7.9303      2.5475      0.0809      6.2108     99.2055     19.6607
   946.4000      7.9303      2.5355      0.1254      6.9404     93.4498     19.9702
   946.5000      7.9083      2.5252      0.1002      7.5653     88.1100     20.0610
   946.6000      7.9083      2.5207      0.1147      7.8339     86.6246     19.9946
   946.7000      7.9083      2.5316      0.0857      7.1751     89.0344     20.1043
   946.8000      7.8843      2.5560      0.1396      5.6996     92.6694     20.5073
   946.9000      7.8843      2.5763      0.1324      4.4665     96.4616     21.0796
   947.0000      7.8733      2.5925      0.1157      3.4819     99.3777     21.6467
   947.1000      7.8733      2.6214      0.1470      1.7331     98.7739     22.2539
   947.2000      7.8733      2.6556      0.1866     -0.3390     96.6587     22.9751
   947.3000      7.8665      2.6691      0.2223     -1.1575     97.2494     23.5432
   947.4000      7.8665      2.6640      0.1618     -0.8490    101.3060     23.6664
   947.5000      7.8602      2.6703      0.1895     -1.2314    106.6538     23.4529
   947.6000      7.8602      2.6938      0.2055     -2.6562    111.5519     23.2718
   947.7000      7.8602      2.7069      0.2194     -3.4508    115.0412     23.3054
   947.8000      7.8728      2.6903      0.1866     -2.4434    114.2776     23.4544
   947.9000      7.8728      2.6532      0.1484     -0.1936    108.2016     23.4799
   948.0000      7.9006      2.6115      0.0972      2.3343    100.2967     23.2296
   948.1000      7.9006      2.5675      0.0842      4.9977     94.5551     22.9116
   948.2000      7.9006      2.5222      0.0222      7.7476     92.6266     22.8462
   948.3000      7.9217      2.4901      0.0342      9.6911     92.8264     23.0021
   948.4000      7.9217      2.4910      0.0132      9.6342     92.2276     23.1405
   948.5000      7.9357      2.5301      0.0737      7.2693     91.5217     23.1371
   948.6000      7.9357      2.5827      0.1647      4.0779     92.9422     23.0550
   948.7000      7.9357      2.6157      0.1883      2.0814     95.0488     23.0955
   948.8000      7.9329      2.6254      0.1666      1.4879     93.3705     23.4690
   948.9000      7.9329      2.6353      0.1664      0.8934     88.4723     24.0156
   949.0000      7.9120      2.6562      0.2049     -0.3739     86.8974     24.2199
   949.1000      7.9120      2.6802      0.1938     -1.8286     89.4749     23.9093
   949.2000      7.9120      2.6993      0.2107     -2.9852     91.2750     23.3565
   949.3000      7.8920      2.6973      0.2332     -2.8688     91.9724     22.9618
   949.4000      7.8920      2.6568      0.1875     -0.4136     95.4684     23.0009
   949.5000      7.8886      2.5876      0.1552      3.7799    102.7679     23.3008
   949.6000      7.8886      2.5155      0.0909      8.1535    109.9506     23.3681
   949.7000      7.8886      2.4609      0.0544     11.4628    112.9348     23.2064
   949.8000      7.8934      2.4331      0.0266     13.1433    113.5088     23.2382
   949.9000      7.8934      2.4245      0.0575     13.6645    116.7975     23.5238
   950.0000      7.8883      2.4196      0.1079     13.9641    123.0667     23.8530
   950.1000      7.8883      2.4268      0.1197     13.5291    128.4208     24.1216
   950.2000      7.8883      2.4828      0.1367     10.1324    131.0029     24.4336
   950.3000      7.8781      2.5858      0.4221      3.8910    130.8792     24.7488
   950.4000      7.8781      2.6735      0.5095     -1.4269    127.6972     24.9004
   950.5000      7.8746      2.7052      0.4767     -3.3436    122.1844     24.9589
   950.6000      7.8746      2.6899      0.4392     -2.4201    117.5099     24.9616
   950.7000      7.8746      2.6604      0.3353     -0.6306    116.3383     24.8924
   950.8000      7.8823      2.6580      0.2464     -0.4834    116.8211     24.9857
   950.9000      7.8823      2.6931      0.2522     -2.6136    116.7048     25.3734
   951.0000      7.8924      2.7321      0.2441     -4.9730    117.4107     25.8608
   951.1000      7.8924      2.7431      0.1970     -5.6433    118.3389     26.1711
   951.2000      7.8924      2.7231      0.2277     -4.4301    118.7175     26.1907
   951.3000      7.8927      2.6814      0.2311     -1.9002    119.0507     25.9733
   951.4000      7.8927      2.6252      0.2376      1.5049    117.3945     25.6134
   951.5000      7.8902      2.5621      0.1544      5.3296    115.9385     25.1335
