~Version Information
VERS.                      2.0: CWLS Log ASCII Standard - VERSION 2.0
WRAP.                       NO: One line per depth step
~Well Information Block
STRT.FT                 0.6000: 
STOP.FT              2735.2000: 
STEP.FT                 0.1000: 
NULL.                -999.2500: 
COMP.          Pioneer Natural Resources: COMPANY
WELL.              Cluck 21-25: WELL
FLD.           Purgatoire River: FIELD
LOC.           91' FNL & 1834' FWL--: LOCATION
PROV.                 Colorado: PROVINCE
CNTY.               Las Animas: COUNTRY
SRVC.                Patterson: SERVICE COMPANY
DATE.          Mon Jun 06 19:08:34 2005: LOG DATE
UWI.           05 071 08397 00: UNIQUE WELL ID
~Curve Information Block
DEPT.FT            0 000 00 00: Depth
SN.Ohm-m                      : IEL Short Normal
SP.mV                         : IEL Spontaneous Potential
DIR.Ohm-m                     : IEL Induction Resistivity
GR.GAPI                       : Gamma Ray
~Parameter Information Block
~A  Depth        SN          SP         DIR          GR     
# ...
  2720.8000     15.7560     23.5904     12.9046   -999.2500
  2720.9000     15.7560     23.5904     12.9046   -999.2500
  2721.0000     16.8537     23.0407     13.4550   -999.2500
  2721.1000     16.8537     23.0407     13.4550   -999.2500
  2721.2000     16.8537     23.0407     13.4550   -999.2500
  2721.3000     18.0475     22.3420     14.0838   -999.2500
  2721.4000     18.0475     22.3420     14.0838   -999.2500
  2721.5000     19.3126     21.5479     14.7941   -999.2500
  2721.6000     19.3126     21.5479     14.7941   -999.2500
  2721.7000     19.3126     21.5479     14.7941   -999.2500
  2721.8000     20.6614     20.7256     15.5961   -999.2500
  2721.9000     20.6614     20.7256     15.5961   -999.2500
  2722.0000     22.1260     19.9477     16.5073   -999.2500
  2722.1000     22.1260     19.9477     16.5073   -999.2500
  2722.2000     22.1260     19.9477     16.5073   -999.2500
  2722.3000     23.7159     19.2821     17.7309   -999.2500
  2722.4000     23.7159     19.2821     17.7309   -999.2500
  2722.5000     25.3778     18.7813     18.9333   -999.2500
  2722.6000     25.3778     18.7813     18.9333   -999.2500
  2722.7000     25.3778     18.7813     18.9333   -999.2500
  2722.8000     26.9881     18.4750     20.2692   -999.2500
  2722.9000     26.9881     18.4750     20.2692   -999.2500
  2723.0000     28.3941     18.3673     21.6957   -999.2500
  2723.1000     28.3941     18.3673     21.6957   -999.2500
  2723.2000     28.3941     18.3673     21.6957   -999.2500
  2723.3000     29.4826     18.4373     23.1266   -999.2500
  2723.4000     29.4826     18.4373     23.1266   -999.2500
  2723.5000     30.2254     18.6451     24.4373   -999.2500
  2723.6000     30.2254     18.6451     24.4373   -999.2500
  2723.7000     30.2254     18.6451     24.4373   -999.2500
  2723.8000     30.6699     18.9377     25.4990   -999.2500
  2723.9000     30.6699     18.9377     25.4990   -999.2500
  2724.0000     30.8938     19.2569     26.2339   -999.2500
  2724.1000     30.8938     19.2569     26.2339   -999.2500
  2724.2000     30.8938     19.2569     26.2339   -999.2500
  2724.3000     30.9658     19.5454     26.6686   -999.2500
  2724.4000     30.9658     19.5454     26.6686   -999.2500
  2724.5000     30.9328     19.7515     26.9542   -999.2500
  2724.6000     30.9328     19.7515     26.9542   -999.2500
  2724.7000     30.9328     19.7515     26.9542   -999.2500
  2724.8000     30.8281     19.8327     27.3628   -999.2500
  2724.9000     30.8281     19.8327     27.3628   -999.2500
  2725.0000     30.6812     19.7578     28.3030   -999.2500
  2725.1000     30.6812     19.7578     28.3030   -999.2500
  2725.2000     30.6812     19.7578     28.3030   -999.2500
  2725.3000     30.5226     19.5071     30.4153   -999.2500
  2725.4000     30.5226     19.5071     30.4153   -999.2500
  2725.5000     30.3806     19.0722     34.8635   -999.2500
  2725.6000     30.3806     19.0722     34.8635   -999.2500
  2725.7000     30.3806     19.0722     34.8635   -999.2500
  2725.8000     30.2743     18.4532     42.9499   -999.2500
  2725.9000     30.2743     18.4532     42.9499   -999.2500
  2726.0000     30.2067     17.6574     63.4170   -999.2500
  2726.1000     30.2067     17.6574     63.4170   -999.2500
  2726.2000     30.2067     17.6574     63.4170   -999.2500
  2726.3000     30.1639     16.6961    127.1408   -999.2500
  2726.4000     30.1639     16.6961    127.1408   -999.2500
  2726.5000     30.1219     15.5832   1256.5948   -999.2500
  2726.6000     30.1219     15.5832   1256.5948   -999.2500
  2726.7000     30.1219     15.5832   1256.5948   -999.2500
  2726.8000     30.0611     14.3360 100000.0000   -999.2500
  2726.9000     30.0611     14.3360 100000.0000   -999.2500
  2727.0000     29.9753     12.9746 100000.0000   -999.2500
  2727.1000     29.9753     12.9746 100000.0000   -999.2500
  2727.2000     29.9753     12.9746 100000.0000   -999.2500
  2727.3000     29.8697     11.5237 100000.0000   -999.2500
  2727.4000     29.8697     11.5237 100000.0000   -999.2500
  2727.5000     29.7503     10.0125 100000.0000   -999.2500
  2727.6000     29.7503     10.0125 100000.0000   -999.2500
  2727.7000     29.7503     10.0125 100000.0000   -999.2500
  2727.8000     29.6158      8.4736 100000.0000   -999.2500
  2727.9000     29.6158      8.4736 100000.0000   -999.2500
  2728.0000     29.4557      6.9396 100000.0000   -999.2500
  2728.1000     29.4557      6.9396 100000.0000   -999.2500
  2728.2000     29.4557      6.9396 100000.0000   -999.2500
  2728.3000     29.2531      5.4366 100000.0000   -999.2500
  2728.4000     29.2531      5.4366 100000.0000   -999.2500
  2728.5000     28.9900      3.9769 100000.0000   -999.2500
  2728.6000     28.9900      3.9769 100000.0000   -999.2500
  2728.7000     28.9900      3.9769 100000.0000   -999.2500
  2728.8000     28.6514      2.5520 100000.0000   -999.2500
  2728.9000     28.6514      2.5520 100000.0000   -999.2500
  2729.0000     28.2275      1.1307 100000.0000   -999.2500
  2729.1000     28.2275      1.1307 100000.0000   -999.2500
  2729.2000     28.2275      1.1307 100000.0000   -999.2500
  2729.3000     27.7175     -0.3364 100000.0000   -999.2500
  2729.4000     27.7175     -0.3364 100000.0000   -999.2500
  2729.5000     27.1183     -1.9039 100000.0000   -999.2500
  2729.6000     27.1183     -1.9039 100000.0000   -999.2500
  2729.7000     27.1183     -1.9039 100000.0000   -999.2500
  2729.8000     26.3646     -3.6134 100000.0000   -999.2500
  2729.9000     26.3646     -3.6134 100000.0000   -999.2500
  2730.0000     25.2061     -5.4753 100000.0000   -999.2500
  2730.1000     25.2061     -5.4753 100000.0000   -999.2500
  2730.2000     25.2061     -5.4753 100000.0000   -999.2500
  2730.3000     23.1421     -7.4576 100000.0000   -999.2500
  2730.4000     23.1421     -7.4576 100000.0000   -999.2500
  2730.5000     19.6483     -9.4873 100000.0000   -999.2500
  2730.6000     19.6483     -9.4873 100000.0000   -999.2500
  2730.7000     19.6483     -9.4873 100000.0000   -999.2500
  2730.8000     14.7088    -11.4648 100000.0000   -999.2500
  2730.9000     14.7088    -11.4648 100000.0000   -999.2500
  2731.0000      9.1516    -13.2859 100000.0000   -999.2500
  2731.1000      9.1516    -13.2859 100000.0000   -999.2500
  2731.2000      9.1516    -13.2859 100000.0000   -999.2500
  2731.3000      4.2516    -14.8654 100000.0000   -999.2500
  2731.4000      4.2516    -14.8654 100000.0000   -999.2500
  2731.5000      0.8810    -16.1529 100000.0000   -999.2500
  2731.6000      0.8810    -16.1529 100000.0000   -999.2500
  2731.7000      0.8810    -16.1529 100000.0000   -999.2500
  2731.8000     -0.9253    -17.1383 100000.0000   -999.2500
  2731.9000     -0.9253    -17.1383 100000.0000   -999.2500
  2732.0000     -1.6790    -17.8460 100000.0000   -999.2500
  2732.1000     -1.6790    -17.8460 100000.0000   -999.2500
  2732.2000     -1.6790    -17.8460 100000.0000   -999.2500
  2732.3000     -1.9239    -18.3229 100000.0000   -999.2500
  2732.4000     -1.9239    -18.3229 100000.0000   -999.2500
  2732.5000     -1.9859    -18.6244 100000.0000   -999.2500
  2732.6000     -1.9859    -18.6244 100000.0000   -999.2500
  2732.7000     -1.9859    -18.6244 100000.0000   -999.2500
  2732.8000     -1.9981    -18.8032 100000.0000   -999.2500
  2732.9000     -1.9981    -18.8032 100000.0000   -999.2500
  2733.0000   -999.2500    -18.9027 100000.0000   -999.2500
  2733.1000   -999.2500    -18.9027 100000.0000   -999.2500
  2733.2000   -999.2500    -18.9027 100000.0000   -999.2500
  2733.3000   -999.2500    -18.9547   6192.0581   -999.2500
  2733.4000   -999.2500    -18.9547   6192.0581   -999.2500
  2733.5000   -999.2500    -18.9802   2876.0811   -999.2500
  2733.6000   -999.2500    -18.9802   2876.0811   -999.2500
  2733.7000   -999.2500    -18.9802   2876.0811   -999.2500
  2733.8000   -999.2500    -18.9920   2203.3501   -999.2500
  2733.9000   -999.2500    -18.9920   2203.3501   -999.2500
  2734.0000   -999.2500    -18.9971   1978.4658   -999.2500
  2734.1000   -999.2500    -18.9971   1978.4658   -999.2500
