~Version Information
VERS.                      2.0: CWLS Log ASCII Standard - VERSION 2.0
WRAP.                       NO: One line per depth step
~Well Information Block
STRT.FT               -12.5000: 
STOP.FT              2284.7500: 
STEP.FT                 0.2500: 
NULL.                -999.2500: 
COMP.          Pioneer Natural Resources: COMPANY
WELL.          Hill Climb 22-2: WELL
FLD.           Purgatorie River: FIELD
LOC.           1820' FNL & 2193' FWL--: LOCATION
PROV.                       CO: PROVINCE
CNTY.               Las Animas: COUNTRY
SRVC.                         : SERVICE COMPANY
DATE.          Fri Oct 22 11:44:16 2004: LOG DATE
UWI.                          : UNIQUE WELL ID
~Curve Information Block
DEPT.FT            0 000 00 00: Depth
GR.GAPI                       : Gamma Ray
CCL.                          : Casing Collar Locator
TT3.usec                      : CBL 3' Travel Time
AMP3.mV                       : CBL 3' Amplitude
~Parameter Information Block
~A  Depth        GR         CCL         TT3         AMP3    
# ...
  2265.5000     45.9567      0.0000    258.0815     74.7994
  2265.7500     45.9794      0.0000    258.0663     74.8103
  2266.0000     45.4932      0.0000    258.0487     74.7741
  2266.2500     45.1914      0.0000    258.0310     74.6788
  2266.5000     45.6486      0.0000    258.0185     74.5426
  2266.7500     46.9212      0.0000    258.0175     74.4008
  2267.0000     48.5566      0.0000    258.0300     74.2841
  2267.2500     49.8688      0.0000    258.0543     74.2184
  2267.5000     50.1099      0.0000    258.0898     74.2278
  2267.7500     48.4968      0.0000    258.1367     74.3200
  2268.0000     44.5505      0.0000    258.1908     74.4727
  2268.2500     38.7851      0.0000    258.2402     74.6494
  2268.5000     32.8737      0.0000    258.2704     74.8221
  2268.7500     28.7763      0.0000    258.2752     74.9731
  2269.0000     27.5520      0.0000    258.2644     75.0854
  2269.2500     28.8709      0.0000    258.2596     75.1412
  2269.5000     31.5978      0.0000    258.2782     75.1298
  2269.7500     34.9857      0.0000    258.3201     75.0566
  2270.0000     39.2878      0.0000    258.3720     74.9482
  2270.2500     44.9612      0.0000    258.4208     74.8419
  2270.5000     51.5086      0.0000    258.4613     74.7655
  2270.7500     57.6970      0.0000    258.4770     74.7279
  2271.0000     62.7921      0.0000    258.3940     74.7191
  2271.2500     66.9019      0.0000    257.8520     74.6443
  2271.5000     70.2440      0.0000    255.6193     74.1300
  2271.7500     72.8705      0.0000    248.6721     72.2295
  2272.0000     75.2165      0.0000    231.9545     67.3575
  2272.2500     78.2262      0.0000    200.6852     58.0140
  2272.5000     82.4754      0.0000    155.1637     44.2665
  2272.7500     87.2605      0.0000    103.5656     28.6073
  2273.0000     90.8878      0.0000     58.0218     14.7516
  2273.2500     92.1274      0.0000     26.7162      5.2150
  2273.5000     91.2232      0.0000      9.9581      0.1063
  2273.7500     89.2846      0.0000      2.9719     -2.0244
  2274.0000     87.1415      0.0000      0.7038     -2.7163
  2274.2500     85.2891      0.0000      0.1303     -2.8913
  2274.5000     84.4252      0.0000      0.0173     -2.9257
  2274.7500     85.0826      0.0000   -999.2500   -999.2500
  2275.0000     86.7852      0.0000   -999.2500   -999.2500
  2275.2500     88.3707      0.0000   -999.2500   -999.2500
  2275.5000     89.2145      0.0000   -999.2500   -999.2500
  2275.7500     89.6387      0.0000   -999.2500   -999.2500
  2276.0000     90.2984      0.0000   -999.2500   -999.2500
  2276.2500     91.6994      0.0000   -999.2500   -999.2500
  2276.5000     93.9969      0.0000   -999.2500   -999.2500
  2276.7500     96.5203      0.0000   -999.2500   -999.2500
  2277.0000     97.6945      0.0000   -999.2500   -999.2500
  2277.2500     96.2227      0.0000   -999.2500   -999.2500
  2277.5000     92.4285      0.0000   -999.2500   -999.2500
  2277.7500     88.0487      0.0000   -999.2500   -999.2500
  2278.0000     84.7956      0.0000   -999.2500   -999.2500
  2278.2500     83.3144      0.0000   -999.2500   -999.2500
  2278.5000     83.2103      0.0000   -999.2500   -999.2500
  2278.7500     83.6275      0.0000   -999.2500   -999.2500
  2279.0000     83.8370      0.0000   -999.2500   -999.2500
  2279.2500     83.6215      0.0000   -999.2500   -999.2500
  2279.5000     83.2942      0.0000   -999.2500   -999.2500
  2279.7500     83.3518      0.0000   -999.2500   -999.2500
  2280.0000     84.0657      0.0000   -999.2500   -999.2500
  2280.2500     85.2123   -999.2500   -999.2500   -999.2500
  2280.5000     86.0412   -999.2500   -999.2500   -999.2500
  2280.7500     85.6728   -999.2500   -999.2500   -999.2500
  2281.0000     83.7790   -999.2500   -999.2500   -999.2500
  2281.2500     80.7912   -999.2500   -999.2500   -999.2500
  2281.5000     77.2238   -999.2500   -999.2500   -999.2500
  2281.7500     72.7123   -999.2500   -999.2500   -999.2500
  2282.0000     65.8265   -999.2500   -999.2500   -999.2500
  2282.2500     55.1869   -999.2500   -999.2500   -999.2500
  2282.5000     41.1720   -999.2500   -999.2500   -999.2500
  2282.7500     26.4173   -999.2500   -999.2500   -999.2500
  2283.0000     14.2066   -999.2500   -999.2500   -999.2500
  2283.2500      6.2856   -999.2500   -999.2500   -999.2500
  2283.5000      2.2580   -999.2500   -999.2500   -999.2500
  2283.7500      0.6519   -999.2500   -999.2500   -999.2500
  2284.0000      0.1500   -999.2500   -999.2500   -999.2500
  2284.2500      0.0269   -999.2500   -999.2500   -999.2500
  2284.5000      0.0033   -999.2500   -999.2500   -999.2500
  2284.7500      0.0000   -999.2500   -999.2500   -999.2500
