~Version Information
VERS.                      2.0: CWLS Log ASCII Standard - VERSION 2.0
WRAP.                       NO: One line per depth step
~Well Information Block
STRT.FT               583.0000: 
STOP.FT              1701.5000: 
STEP.FT                 0.2500: 
NULL.                -999.2500: 
COMP.          Pioneer Natural Resources: COMPANY
WELL.          Scott Canyon 11-18 Tr: WELL
FLD.           Purgatoire River: FIELD
LOC.           411' FNL & 580' FWL: LOCATION
PROV.                 Colorado: PROVINCE
CNTY.               Las Animas: COUNTRY
SRVC.                Patterson: SERVICE COMPANY
DATE.          Thu Feb 17 02:07:21 2005: LOG DATE
UWI.           05 071 08286 00: UNIQUE WELL ID
~Curve Information Block
DEPT.FT            0 000 00 00: Depth
SN.Ohm-m                      : IEL Short Normal
SP.mV                         : IEL Spontaneous Potential
DIR.Ohm-m                     : IEL Induction Resistivity
GR.GAPI                       : Gamma Ray
~Parameter Information Block
~A  Depth        SN          SP         DIR          GR     
# ...
  1018.5000     23.3177    -46.3134     21.4473     73.6058
  1018.7500     23.9626    -46.1257     21.5110     73.1779
  1019.0000     24.5106    -46.0165     21.3988     71.4901
  1019.2500     24.9330    -45.9984     21.1451     70.4333
  1019.5000     25.1709    -46.0606     20.8036     70.7850
  1019.7500     25.1958    -46.1773     20.4365     73.1158
  1020.0000     25.0653    -46.3147     20.1043     79.7530
  1020.2500     24.8636    -46.4402     19.8562     85.4297
  1020.5000     24.5898    -46.5289     19.7206     93.9386
  1020.7500     24.1637    -46.5647     19.6993     98.9154
  1021.0000     23.5510    -46.5396     19.7673    105.1654
  1021.2500     22.8302    -46.4553     19.8824    108.6378
  1021.5000     22.1420    -46.3274     20.0021    112.5835
  1021.7500     21.6189    -46.1793     20.0979    113.9465
  1022.0000     21.3446    -46.0289     20.1607    113.5986
  1022.2500     21.3516    -45.8779     20.1957    112.0316
  1022.5000     21.6491    -45.7103     20.2145    108.7453
  1022.7500     22.2285    -45.4979     20.2303    106.2351
  1023.0000     23.0358    -45.2084     20.2569    101.3837
  1023.2500     23.9780    -44.8194     20.3066     96.9090
  1023.5000     24.9982    -44.3395     20.3879     88.4147
  1023.7500     26.1304    -43.8267     20.5041     82.2456
  1024.0000     27.4478    -43.3811     20.6537     73.7946
  1024.2500     28.9403    -43.1035     20.8293     69.5664
  1024.5000     30.4087    -43.0332     21.0136     66.5916
  1024.7500     31.4688    -43.1130     21.1772     67.2445
  1025.0000     31.7449    -43.2212     21.2839     71.6843
  1025.2500     31.1450    -43.2493     21.3034     75.9021
  1025.5000     29.8561    -43.1574     21.2222     81.7928
  1025.7500     28.0265    -42.9694     21.0442     84.4694
  1026.0000     25.7350    -42.7330     20.7829     86.4161
  1026.2500     23.3369    -42.4880     20.4527     86.8413
  1026.5000     21.4552    -42.2570     20.0647     86.9576
  1026.7500     20.5159    -42.0516     19.6278     86.7611
  1027.0000     20.4754    -41.8834     19.1550     85.8789
  1027.2500     20.9611    -41.7691     18.6689     84.9914
  1027.5000     21.5653    -41.7241     18.2004     83.8732
  1027.7500     22.0413    -41.7529     17.7770     83.7453
  1028.0000     22.2864    -41.8443     17.4119     85.0529
  1028.2500     22.2241    -41.9717     17.1025     87.0842
  1028.5000     21.7931    -42.0969     16.8393     91.8767
  1028.7500     21.0310    -42.1798     16.6154     95.9621
  1029.0000     20.1038    -42.1958     16.4267    102.3586
  1029.2500     19.2320    -42.1496     16.2665    106.0938
  1029.5000     18.5499    -42.0738     16.1201    110.3671
  1029.7500     18.0181    -42.0105     15.9671    112.5235
  1030.0000     17.5373    -41.9901     15.7892    115.3111
  1030.2500     17.1110    -42.0192     15.5846    117.0705
  1030.5000     16.8058    -42.0800     15.3771    119.7817
  1030.7500     16.6437    -42.1389     15.2129    121.7700
  1031.0000     16.6017    -42.1618     15.1410    124.8084
  1031.2500     16.6570    -42.1292     15.1951    126.3024
  1031.5000     16.8176    -42.0431     15.3858    126.4495
  1031.7500     17.1167    -41.9203     15.7068    124.5792
  1032.0000     17.5767    -41.7843     16.1424    118.5878
  1032.2500     18.1868    -41.6586     16.6694    112.8751
  1032.5000     18.9176    -41.5606     17.2597    103.1012
  1032.7500     19.7679    -41.4945     17.8857     96.5690
  1033.0000     20.7896    -41.4472     18.5293     87.6155
  1033.2500     22.0302    -41.3940     19.1850     82.6075
  1033.5000     23.4502    -41.3130     19.8582     77.3637
  1033.7500     24.9150    -41.1999     20.5642     75.7326
  1034.0000     26.2532    -41.0779     21.3354     75.7403
  1034.2500     27.3373    -40.9887     22.2307     76.6184
  1034.5000     28.1519    -40.9646     23.3284     77.8531
  1034.7500     28.7860    -41.0057     24.6887     78.2178
  1035.0000     29.3526    -41.0842     26.2933     78.0910
  1035.2500     29.9182    -41.1712     27.9957     77.7149
  1035.5000     30.5207    -41.2598     29.5486     76.8837
  1035.7500     31.2865    -41.3644     30.7384     76.1082
  1036.0000     32.4665    -41.5010     31.5320     74.3557
  1036.2500     34.2469    -41.6682     32.0834     72.6733
  1036.5000     36.5199    -41.8438     32.6054     69.4080
  1036.7500     38.8918    -41.9954     33.2441     66.8823
  1037.0000     40.9630    -42.0950     34.0359     62.9986
  1037.2500     42.5892    -42.1285     34.9306     60.6694
  1037.5000     43.8592    -42.0969     35.8447     57.9738
  1037.7500     44.9122    -42.0133     36.7084     56.7008
  1038.0000     45.8135    -41.8979     37.4788     55.2811
  1038.2500     46.5383    -41.7740     38.1082     54.5655
  1038.5000     47.0478    -41.6639     38.5137     53.9300
  1038.7500     47.3861    -41.5814     38.5891     53.7378
  1039.0000     47.6844    -41.5273     38.2523     53.0844
  1039.2500     48.0721    -41.4936     37.4551     51.8605
  1039.5000     48.6065    -41.4733     36.1407     48.6667
  1039.7500     49.2772    -41.4646     34.2245     46.1965
  1040.0000     50.0460    -41.4692     31.6787     43.3708
  1040.2500     50.8739    -41.4908     28.6577     42.5603
  1040.5000     51.6992    -41.5372     25.5010     42.9247
  1040.7500     52.4035    -41.6187     22.5789     43.9288
  1041.0000     52.8354    -41.7380     20.1361     46.0227
  1041.2500     52.8723    -41.8793     18.2486     47.4805
  1041.5000     52.4331    -42.0094     16.8731     49.2549
  1041.7500     51.4630    -42.0949     15.9221     50.1061
  1042.0000     49.9186    -42.1205     15.3395     51.6278
  1042.2500     47.7456    -42.0917     15.1820     53.6397
  1042.5000     44.8999    -42.0224     15.7397     59.3089
  1042.7500     41.4412    -41.9236     17.8698     64.8362
  1043.0000     37.6105    -41.8030     24.7456     74.6484
  1043.2500     33.7772    -41.6713     67.1718     81.5585
  1043.5000     30.2551    -41.5471 100000.0000     92.1681
  1043.7500     27.1616    -41.4555 100000.0000     99.4704
  1044.0000     24.4591    -41.4222 100000.0000    110.3202
  1044.2500     22.0858    -41.4631 100000.0000    116.7117
  1044.5000     20.0246    -41.5745 100000.0000    123.5545
  1044.7500     18.2812    -41.7297 100000.0000    125.9505
  1045.0000     16.8468    -41.8867 100000.0000    127.0244
  1045.2500     15.7013    -42.0063 100000.0000    126.8090
  1045.5000     14.8309    -42.0722 100000.0000    125.8187
  1045.7500     14.2070    -42.0990 100000.0000    124.7403
  1046.0000     13.7724    -42.1237 100000.0000    122.4572
  1046.2500     13.4835    -42.1838 100000.0000    120.5739
  1046.5000     13.3129    -42.2996 100000.0000    117.4061
  1046.7500     13.2235    -42.4664 100000.0000    115.2620
  1047.0000     13.2118    -42.6589 100000.0000    112.7268
  1047.2500     13.2973    -42.8466 100000.0000    112.0822
  1047.5000     13.4464    -43.0139 100000.0000    113.3931
  1047.7500     13.5692    -43.1728 100000.0000    115.7108
  1048.0000     13.5809    -43.3591 100000.0000    120.3793
  1048.2500     13.4444    -43.6235 100000.0000    123.5760
  1048.5000     13.1720    -44.0294 100000.0000    127.7420
  1048.7500     12.8085    -44.6560 100000.0000    130.0137
  1049.0000     12.4030    -45.5960 100000.0000    132.7957
  1049.2500     11.9754    -46.9527     14.0617    134.3133
  1049.5000     11.5101    -48.8531      2.2021    136.0890
  1049.7500     10.9836    -51.4836      0.8203    136.7496
  1050.0000     10.3712    -55.1273      0.3617    136.1666
  1050.2500      9.6220    -60.1714      0.1576    134.2523
  1050.5000      8.6507    -67.0670      0.0676    129.1679
  1050.7500      7.3729    -76.2445      0.0323    125.0214
  1051.0000      5.7849    -87.9837      0.0186    119.1301
  1051.2500      4.0505   -102.2175      0.0131    115.7023
  1051.5000      2.4863   -118.2733      0.0109    110.3381
  1051.7500      1.3875   -134.6822      0.0101    105.6693
