~Version Information
VERS.                      2.0: CWLS Log ASCII Standard - VERSION 2.0
WRAP.                       NO: One line per depth step
~Well Information Block
STRT.FT                -4.0000: 
STOP.FT              2638.2500: 
STEP.FT                 0.2500: 
NULL.                -999.2500: 
COMP.          Petrogulf Corporation: COMPANY
WELL.            Montoya 6-14V: WELL
FLD.           Purgatorie River: FIELD
LOC.           318' FSL & 882' FWL--: LOCATION
PROV.                       CO: PROVINCE
CNTY.               Las Animas: COUNTRY
SRVC.                         : SERVICE COMPANY
DATE.          Mon May 02 08:32:04 2005: LOG DATE
UWI.      005 071 08020: UNIQUE WELL ID
~Curve Information Block
DEPT.FT            0 000 00 00: Depth
AMP3.mV                       : CBL 3' Amplitude
CCL.                          : Casing Collar Locator
GR.GAPI                       : Gamma Ray
TT3.usec                      : CBL 3' Travel Time
~Parameter Information Block
~A  Depth       AMP3        CCL          GR         TT3     
# ...
  2274.0000      1.2943      0.0000     98.3328    688.0850
  2274.2500      1.1916      0.0000    102.3887    683.4847
  2274.5000      1.2505      0.0000    104.8705    677.3244
  2274.7500      1.4523      0.0000    105.2694    672.4479
  2275.0000      1.6882      0.0000    103.8566    669.5986
  2275.2500      1.8435      0.0000    101.0539    668.0663
  2275.5000      1.8846      0.0000     97.4397    666.9933
  2275.7500      1.8691      0.0000     94.0911    665.9963
  2276.0000      1.8739      0.0000     92.1895    665.1843
  2276.2500      1.9112      0.0000     92.0429    665.1403
  2276.5000      1.9195      0.0000     92.8756    666.9019
  2276.7500      1.8401      0.0000     93.7384    671.4477
  2277.0000      1.6939      0.0000     94.2269    678.6105
  2277.2500      1.5711      0.0000     94.1972    686.3948
  2277.5000      1.5437      0.0000     93.3842    691.8790
  2277.7500      1.6022      0.0000     91.9538    693.1750
  2278.0000      1.6824      0.0000     91.2224    690.5099
  2278.2500      1.7342      0.0000     92.7576    685.6060
  2278.5000      1.7461      0.0000     96.1088    680.4242
  2278.7500      1.7268      0.0000     98.3266    676.2441
  2279.0000      1.7017      0.0000     96.7938    673.1377
  2279.2500      1.7198      0.0000     92.0068    670.1359
  2279.5000      1.8206      0.0000     86.7654    666.1798
  2279.7500      1.9823      0.0000     83.2770    661.0345
  2280.0000      2.1280      0.0000     81.7368    655.6909
  2280.2500      2.1917      0.0000     81.1439    652.6235
  2280.5000      2.1632      0.0000     80.7582    655.1019
  2280.7500      2.0701      0.0000     80.8668    664.5722
  2281.0000      1.9457      0.0000     82.4156    678.3619
  2281.2500      1.8185      0.0000     85.7926    691.0571
  2281.5000      1.7095      0.0000     89.9375    698.5746
  2281.7500      1.6257      0.0000     93.0793    700.5879
  2282.0000      1.5685      0.0000     94.5300    699.3532
  2282.2500      1.5495      0.0000     95.2575    697.2472
  2282.5000      1.5817      0.0000     96.5276    695.7626
  2282.7500      1.6615      0.0000     98.4976    695.7112
  2283.0000      1.7719      0.0000    100.2242    697.1112
  2283.2500      1.8957      0.0000    100.5596    698.9716
  2283.5000      2.0167      0.0000     99.0303    699.8820
  2283.7500      2.1182      0.0000     96.2702    699.0532
  2284.0000      2.1927      0.0000     93.6732    696.8787
  2284.2500      2.2480      0.0000     92.4331    694.6185
  2284.5000      2.2933      0.0000     92.8139    693.3444
  2284.7500      2.3134      0.0000     94.2402    693.0250
  2285.0000      2.2621      0.0000     95.9388    692.8642
  2285.2500      2.0967      0.0000     97.4710    692.5076
  2285.5000      1.8346      0.0000     98.7726    692.4782
  2285.7500      1.5726      0.0000     99.8657    693.4454
  2286.0000      1.4363      0.0000    100.5341    695.5354
  2286.2500      1.4929      0.0000    100.2440    698.2987
  2286.5000      1.7034      0.0000     98.6410    700.7926
  2286.7500      1.9466      0.0000     96.4112    701.8177
  2287.0000      2.0917      0.0000     95.2512    700.7859
  2287.2500      2.0690      0.0000     96.3074    698.6606
  2287.5000      1.8994      0.0000     98.7730    697.6204
  2287.7500      1.6669      0.0000    100.7399    699.2082
  2288.0000      1.4542      0.0000    101.4745    702.7310
  2288.2500      1.2980      0.0000    102.1612    705.7557
  2288.5000      1.1995      0.0000    104.1989    706.1017
  2288.7500      1.1601      0.0000    107.4425    703.0239
  2289.0000      1.1916      0.0000    110.4299    696.9799
  2289.2500      1.2986      0.0000    111.8259    689.2170
  2289.5000      1.4642      0.0000    111.3349    681.5002
  2289.7500      1.6473      0.0000    109.5665    675.3622
  2290.0000      1.7880      0.0000    107.3946    671.3281
  2290.2500      1.8245      0.0000    105.5438    668.9734
  2290.5000      1.7293      0.0000    104.6142    667.5449
  2290.7500      1.5369      0.0000    105.0115    666.4129
  2291.0000      1.3301      0.0000    106.5470    665.2078
  2291.2500      1.1899      0.0000    108.4795    663.8252
  2291.5000      1.1556      0.0000    110.1923    662.3294
  2291.7500      1.2263      0.0000    111.4093    660.7781
  2292.0000      1.3792      0.0000    111.5313    659.0473
  2292.2500      1.5736      0.0000    109.3898    656.8226
  2292.5000      1.7496      0.0000    104.1949    653.9218
  2292.7500      1.8490      0.0000     96.4170    650.8595
  2293.0000      1.8530      0.0000     87.3985    649.0948
  2293.2500      1.7989      0.0000     78.5042    650.5292
  2293.5000      1.7499      0.0000     70.8535    656.4099
  2293.7500      1.7456      0.0000     65.3523    666.1607
  2294.0000      1.7791      0.0000     62.5414    676.9769
  2294.2500      1.8165      0.0000     62.4638    685.1166
  2294.5000      1.8285      0.0000     64.7829    688.5011
  2294.7500      1.8040      0.0000     68.9425    688.3889
  2295.0000      1.7430      0.0000     74.0409    688.4427
  2295.2500      1.6533      0.0000     78.6944    691.9364
  2295.5000      1.5671      0.0000     81.5620    699.2469
  2295.7500      1.5444      0.0000     82.3069    707.4620
  2296.0000      1.6263      0.0000     81.7590    712.4849
  2296.2500      1.7795      0.0000     80.9595    711.8859
  2296.5000      1.9159      0.0000     80.2827    706.0178
  2296.7500      1.9828      0.0000     79.5667    697.1623
  2297.0000      2.0095      0.0000     78.6914    688.4117
  2297.2500      2.0579      0.0000     77.8311    682.9039
  2297.5000      2.1425      0.0000     77.3758    682.5488
  2297.7500      2.2128      0.0000     77.6699    686.7176
  2298.0000      2.2021      0.0000     78.5964    692.5740
  2298.2500      2.0882      0.0000     79.4788    696.9879
  2298.5000      1.9220      0.0000     79.7183    698.0614
  2298.7500      1.8103      0.0000     79.4559    695.2258
  2299.0000      1.8541      0.0000     79.2314    688.4778
  2299.2500      2.0797      0.0000     79.1203    677.8271
  2299.5000      2.4177      0.0000     78.6880    663.9069
  2299.7500      2.7487      0.0000     77.7802    649.3611
  2300.0000      2.9733      0.0000     76.8263    638.2134
  2300.2500      3.0577      0.0000     76.2504    631.4708
  2300.5000      3.0430      0.0000     76.0430    623.2540
  2300.7500      3.0156      0.0000     76.0954    603.9905
  2301.0000      3.0383      0.0000     76.6068    569.4962
  2301.2500      3.0904      0.0000     77.9527    526.2539
  2301.5000      3.0824      0.0000     80.1325    486.5573
  2301.7500      2.9483      0.0000     82.3458    459.0175
  2302.0000      2.7243      0.0000     83.2666    444.2949
  2302.2500      2.5228      0.0000     82.0764    438.1416
  2302.5000      2.4343      0.0000     79.2328    436.3079
  2302.7500      2.4729      0.0000     75.9747    437.1781
  2303.0000      2.6069      0.0000     73.1363    442.4395
  2303.2500      2.7931      0.0000     70.6628    457.0081
  2303.5000      2.9675      0.0000     68.1644    487.0235
  2303.7500      3.0507      0.0000     65.7485    534.6238
  2304.0000      2.9919      0.0000     64.2495    592.5289
  2304.2500      2.7928      0.0000     64.5904    644.8553
  2304.5000      2.4930      0.0000     66.8211    675.5138
  2304.7500      2.1607      0.0000     69.9952    677.1123
  2305.0000      1.8882      0.0000     73.2343    654.2360
  2305.2500      1.7537      0.0000     76.5466    621.8619
  2305.5000      1.7668      0.0000     80.0207    599.7400
  2305.7500      1.8616      0.0000     82.5192    601.7132
  2306.0000      1.9545      0.0000     82.0147    626.1812
  2306.2500      2.0085      0.0000     77.4108    658.5066
  2306.5000      2.0480      0.0000     69.7648    683.8334
  2306.7500      2.1261      0.0000     61.9597    696.2128
  2307.0000      2.2782      0.0000     57.3428    696.6035
  2307.2500      2.4909      0.0000     57.8999    687.0598
