~Version Information
VERS.                      2.0: CWLS Log ASCII Standard - VERSION 2.0
WRAP.                       NO: One line per depth step
~Well Information Block
STRT.FT                -6.7500: 
STOP.FT              1766.5000: 
STEP.FT                 0.2500: 
NULL.                -999.2500: 
COMP.          Pioneer Natural Resources: COMPANY
WELL.            Hill 33-22 Tr: WELL
FLD.           Purgatorie River: FIELD
LOC.           1573' FSL & 1585' FEL: LOCATION
PROV.                 Colorado: PROVINCE
CNTY.               Las Animas: COUNTRY
SRVC.          Patterson Wireline: SERVICE COMPANY
DATE.          Tue Apr 19 09:26:19 2005: LOG DATE
UWI.           05-071-08316-00: UNIQUE WELL ID
~Curve Information Block
DEPT.FT            0 000 00 00: Depth
CCL.                          : Casing Collar Locator
TT3.usec                      : CBL 3' Travel Time
AMP3.mV                       : CBL 3' Amplitude
GR.GAPI                       : Gamma Ray
~Parameter Information Block
~A  Depth       CCL         TT3         AMP3         GR     
# ...
  1400.2500      0.0000    751.0300      8.5760    102.5636
  1400.5000      0.0000    749.8358      8.7966    104.0329
  1400.7500      0.0000    749.4935      9.0919    103.4584
  1401.0000      0.0000    749.4607      9.4039    102.3181
  1401.2500      0.0000    749.4872      9.6785    102.1503
  1401.5000      0.0000    749.4968      9.8990    103.5873
  1401.7500      0.0000    749.5035     10.0782    105.6562
  1402.0000      0.0000    749.5508     10.2270    106.2372
  1402.2500      0.0000    749.6686     10.3366    103.6802
  1402.5000      0.0000    749.8557     10.3900     98.2884
  1402.7500      0.0000    750.0824     10.3824     92.3585
  1403.0000      0.0000    750.3011     10.3273     88.7200
  1403.2500      0.0000    750.4608     10.2519     88.9686
  1403.5000      0.0000    750.5346     10.1891     92.6689
  1403.7500      0.0000    750.5453     10.1704     97.9296
  1404.0000      0.0000    750.5605     10.2181    102.7368
  1404.2500      0.0000    750.6578     10.3398    106.0307
  1404.5000      0.0000    750.8856     10.5253    107.8643
  1404.7500      0.0000    751.2755     10.7414    108.8521
  1405.0000      0.0000    751.9163     10.9382    109.5848
  1405.2500      0.0000    753.0461     11.0751    110.2893
  1405.5000      0.0000    754.9640     11.1476    110.8019
  1405.7500      0.0000    757.6012     11.1887    111.0393
  1406.0000      0.0000    760.0938     11.2415    111.5797
  1406.2500      0.0000    761.1213     11.3251    113.4268
  1406.5000      0.0000    760.0441     11.4194    116.9391
  1406.7500      0.0000    757.5714     11.4767    121.0759
  1407.0000      0.0000    755.0692     11.4541    123.8266
  1407.2500      0.0000    753.3979     11.3422    123.5197
  1407.5000      0.0000    752.5686     11.1683    120.0005
  1407.7500      0.0000    752.1971     10.9776    114.9410
  1408.0000      0.0000    751.9689     10.8098    111.0133
  1408.2500      0.0000    751.7480     10.6824    110.1058
  1408.5000      0.0000    751.4807     10.5837    111.9060
  1408.7500      0.0000    751.1118     10.4803    114.3847
  1409.0000      0.0000    750.5512     10.3398    115.8368
  1409.2500      0.0000    749.6216     10.1516    116.2556
  1409.5000      0.0000    747.9022      9.9320    116.7379
  1409.7500      0.0000    744.6705      9.7122    117.9816
  1410.0000      0.0000    739.3515      9.5220    119.6596
  1410.2500      0.0000    732.4967      9.3760    121.0216
  1410.5000      0.0000    726.3384      9.2743    121.7334
  1410.7500      0.0000    723.7624      9.2156    122.0647
  1411.0000      0.0000    726.1439      9.2068    122.4323
  1411.2500      0.0000    732.1704      9.2538    122.9301
  1411.5000      0.0000    738.9534      9.3454    123.3282
  1411.7500      0.0000    744.1898      9.4538    123.4255
  1412.0000      0.0000    747.2383      9.5531    123.3467
  1412.2500      0.0000    748.6285      9.6326    123.5943
  1412.5000      0.0000    749.1241      9.6943    124.7201
  1412.7500      0.0000    749.2500      9.7415    126.5126
  1413.0000      0.0000    749.2684      9.7711    127.4188
  1413.2500      0.0000    749.2838      9.7767    125.3239
  1413.5000      0.0000    749.3242      9.7544    119.4867
  1413.7500      0.0000    749.3921      9.7048    111.6392
  1414.0000      0.0000    749.4776      9.6329    104.7552
  1414.2500      0.0000    749.5576      9.5475    100.5745
  1414.5000      0.0000    749.6024      9.4606     98.4517
  1414.7500      0.0000    749.5945      9.3820     96.6200
  1415.0000      0.0000    749.5414      9.3123     94.2722
  1415.2500      0.0000    749.4670      9.2414     92.1567
  1415.5000      0.0000    749.3901      9.1575     91.5197
  1415.7500      0.0000    749.3116      9.0590     93.0213
  1416.0000      0.0000    749.2258      8.9578     96.4049
  1416.2500      0.0000    749.1401      8.8722    100.4962
  1416.5000      0.0000    749.0776      8.8162    103.6085
  1416.7500      0.0000    749.0552      8.7948    104.7244
  1417.0000      0.0000    749.0632      8.8048    104.4638
  1417.2500      0.0000    749.0720      8.8396    104.4956
  1417.5000      0.0000    749.0615      8.8934    105.9657
  1417.7500      0.0000    749.0483      8.9615    108.6965
  1418.0000      0.0000    749.0797      9.0380    111.6232
  1418.2500      0.0000    749.2251      9.1121    113.6610
  1418.5000      0.0000    749.6145      9.1698    114.2699
  1418.7500      0.0000    750.5187      9.2027    113.4625
  1419.0000      0.0000    752.3096      9.2178    111.5183
  1419.2500      0.0000    755.1391      9.2319    108.9635
  1419.5000      0.0000    758.6266      9.2559    106.7907
  1419.7500      0.0000    762.1232      9.2897    106.1957
  1420.0000      0.0000    765.3138      9.3300    107.7281
  1420.2500      0.0000    768.0963      9.3762    110.7667
  1420.5000      0.0000    769.9039      9.4261    113.9414
  1420.7500      0.0000    769.9485      9.4746    116.0229
  1421.0000      0.0000    768.2477      9.5187    116.4607
  1421.2500      0.0000    765.6426      9.5637    115.3531
  1421.5000      0.0000    762.8633      9.6224    113.1671
  1421.7500      0.0000    760.4848      9.7051    110.5790
  1422.0000      0.0000    759.6484      9.8036    108.3194
  1422.2500      0.0000    761.6812      9.8903    106.6691
  1422.5000      0.0000    766.5087      9.9424    105.0539
  1422.7500      0.0000    771.9017      9.9642    102.6891
  1423.0000      0.0000    774.8883      9.9816     99.8659
  1423.2500      0.0000    774.1393     10.0166     98.1367
  1423.5000      0.0000    770.7706     10.0729     98.8868
  1423.7500      0.0000    766.7297     10.1409    101.8987
  1424.0000      0.0000    762.9072     10.2072    105.4443
  1424.2500      0.0000    759.1780     10.2619    107.5964
  1424.5000      0.0000    755.6058     10.3029    107.3446
  1424.7500      0.0000    752.7905     10.3317    104.7250
  1425.0000      0.0000    751.2718     10.3406    100.4718
  1425.2500      0.0000    751.2172     10.3038     95.9207
  1425.5000      0.0000    752.5738     10.1885     92.6898
  1425.7500      0.0000    754.9824      9.9850     91.5701
  1426.0000      0.0000    757.4292      9.7242     91.7836
  1426.2500      0.0000    758.5099      9.4613     91.9343
  1426.5000      0.0000    757.5087      9.2388     91.5776
  1426.7500      0.0000    755.0696      9.0631     91.3433
  1427.0000      0.0000    752.5334      8.9070     91.7764
  1427.2500      0.0000    750.7544      8.7294     92.7418
  1427.5000      0.0000    749.7088      8.4986     93.8615
  1427.7500      0.0000    748.9536      8.2028     94.8029
  1428.0000      0.0000    748.3712      7.8341     95.0584
  1428.2500      0.0000    748.8283      7.3642     94.1558
  1428.5000      0.0000    752.3202      6.7554     92.3800
  1428.7500      0.0000    760.9651      6.0230     90.7581
  1429.0000      0.0000    775.7349      5.2833     89.9368
  1429.2500      0.0000    796.4106      4.7017     89.4249
  1429.5000      0.0000    822.3250      4.3752     88.2831
  1429.7500      0.0000    851.7422      4.2735     86.2895
  1430.0000     -5.0000    880.2867      4.2965     84.1161
  1430.2500      5.0000    901.3619      4.3721     82.6308
  1430.5000      0.0000    909.3386      4.5016     82.2985
  1430.7500      0.0000    902.5780      4.7414     83.0498
  1431.0000      0.0000    883.3076      5.1465     84.3996
  1431.2500      0.0000    855.4913      5.7044     85.6917
  1431.5000      0.0000    824.0306      6.3158     86.3319
  1431.7500      0.0000    794.8140      6.8649     85.9881
  1432.0000      0.0000    772.8694      7.3050     84.9486
  1432.2500      0.0000    759.7791      7.6527     84.2799
  1432.5000      0.0000    753.6426      7.9240     85.0343
  1432.7500      0.0000    751.3613      8.1142     87.0980
  1433.0000      0.0000    750.6355      8.2317     89.1838
  1433.2500      0.0000    750.3501      8.3114     90.0768
  1433.5000      0.0000    750.1559      8.3907     89.8518
