~Version Information
VERS.                      2.0: CWLS Log ASCII Standard - VERSION 2.0
WRAP.                       NO: One line per depth step
~Well Information Block
STRT.FT                -7.2500: 
STOP.FT              2827.7500: 
STEP.FT                 0.2500: 
NULL.                -999.2500: 
COMP.          Pioneer Natural Resources: COMPANY
WELL.           Ei-ei-oh 31-24: WELL
FLD.           Purgatorie River: FIELD
LOC.           235' FNL & 2001' FEL--: LOCATION
PROV.                       CO: PROVINCE
CNTY.               Las Animas: COUNTRY
SRVC.          Patterson Wireline: SERVICE COMPANY
DATE.          Tue Aug 23 12:06:00 2005: LOG DATE
UWI.           05 071 08403 00: UNIQUE WELL ID
~Curve Information Block
DEPT.FT            0 000 00 00: Depth
CCL.                          : Casing Collar Locator
TT3.usec                      : CBL 3' Travel Time
AMP3.mV                       : CBL 3' Amplitude
GR.GAPI                       : Gamma Ray
~Parameter Information Block
~A  Depth       CCL         TT3         AMP3         GR     
# ...
  2237.2500      0.0000    610.5054      4.2923    122.0783
  2237.5000      0.0000    586.0196      4.2296    123.9524
  2237.7500      0.0000    568.0198      4.1917    122.9153
  2238.0000      0.0000    567.3559      4.1648    120.8505
  2238.2500      0.0000    583.7184      4.1397    119.6861
  2238.5000      0.0000    605.7242      4.1204    119.8756
  2238.7500      0.0000    620.9846      4.1154    120.2695
  2239.0000      0.0000    624.8077      4.1298    119.3423
  2239.2500      0.0000    620.3196      4.1601    116.9061
  2239.5000      0.0000    613.2428      4.1936    114.6396
  2239.7500      0.0000    607.5122      4.2132    114.7497
  2240.0000      0.0000    604.2100      4.2090    117.9666
  2240.2500      0.0000    602.7290      4.1838    122.6885
  2240.5000      0.0000    602.1919      4.1490    125.9669
  2240.7500      0.0000    602.1057      4.1175    125.5449
  2241.0000      0.0000    602.4056      4.0970    121.3777
  2241.2500      0.0000    603.3610      4.0872    115.5142
  2241.5000      0.0000    605.4757      4.0830    110.6440
  2241.7500      0.0000    609.2739      4.0856    108.6517
  2242.0000      0.0000    615.0075      4.1078    109.9759
  2242.2500      0.0000    622.6173      4.1621    113.5302
  2242.5000      0.0000    632.1002      4.2441    117.1217
  2242.7500      0.0000    643.6755      4.3335    118.7508
  2243.0000      0.0000    656.9968      4.4090    118.0844
  2243.2500      0.0000    669.9885      4.4604    116.4390
  2243.5000      0.0000    679.1486      4.4884    115.0842
  2243.7500      0.0000    682.0612      4.4987    113.8564
  2244.0000      0.0000    679.6450      4.4963    111.7378
  2244.2500      0.0000    674.8884      4.4845    108.6169
  2244.5000      0.0000    669.1384      4.4687    105.9491
  2244.7500      0.0000    660.8339      4.4602    105.5563
  2245.0000      0.0000    648.4640      4.4718    108.0313
  2245.2500      0.0000    633.4882      4.5072    112.2921
  2245.5000      0.0000    619.1804      4.5549    116.4558
  2245.7500      0.0000    607.1669      4.5959    119.0915
  2246.0000      0.0000    596.1869      4.6164    119.6217
  2246.2500      0.0000    584.2731      4.6119    117.7840
  2246.5000      0.0000    571.2084      4.5856    113.4318
  2246.7500      0.0000    557.9910      4.5461    107.3004
  2247.0000      0.0000    545.0134      4.5049    101.4841
  2247.2500      0.0000    533.5898      4.4696     98.2711
  2247.5000      0.0000    529.0434      4.4407     98.1511
  2247.7500      0.0000    537.8044      4.4149     99.3686
  2248.0000      0.0000    559.5252      4.3909     99.7544
  2248.2500      0.0000    585.2541      4.3701     98.8600
  2248.5000      0.0000    604.9774      4.3536     98.2642
  2248.7500      0.0000    614.9241      4.3402     99.9350
  2249.0000      0.0000    617.5259      4.3267    104.2038
  2249.2500      0.0000    617.2717      4.3108    109.3136
  2249.5000      0.0000    617.9690      4.2937    113.0923
  2249.7500      0.0000    622.0356      4.2797    114.9449
  2250.0000      0.0000    629.9025      4.2705    115.9271
  2250.2500      0.0000    639.2922      4.2623    117.1460
  2250.5000      0.0000    646.0878      4.2486    118.6393
  2250.7500      0.0000    647.2852      4.2264    119.8769
  2251.0000      0.0000    643.4031      4.2005    120.8229
  2251.2500      0.0000    637.6223      4.1797    122.0424
  2251.5000      0.0000    632.8688      4.1695    123.8889
  2251.7500      0.0000    630.1359      4.1679    126.0734
  2252.0000      0.0000    628.9674      4.1666    128.1517
  2252.2500      0.0000    628.6061      4.1563    129.9696
  2252.5000      0.0000    628.5912      4.1322    131.3644
  2252.7500      0.0000    628.8505      4.0942    131.9774
  2253.0000      0.0000    629.6735      4.0476    131.9130
  2253.2500      0.0000    631.7162      4.0022    132.1635
  2253.5000      0.0000    635.7740      3.9690    133.6367
  2253.7500      0.0000    641.9944      3.9555    135.9068
  2254.0000      0.0000    649.1143      3.9631    137.6514
  2254.2500      0.0000    655.2265      3.9907    138.2185
  2254.5000      0.0000    659.9669      4.0430    137.8841
  2254.7500      0.0000    665.2452      4.1383    136.8368
  2255.0000      0.0000    672.7208      4.3061    135.0286
  2255.2500      0.0000    680.9352      4.5681    132.6195
  2255.5000      0.0000    686.0947      4.9132    129.4279
  2255.7500      0.0000    685.9146      5.2932    124.4550
  2256.0000      0.0000    682.0026      5.6463    117.0306
  2256.2500      0.0000    678.0392      5.9307    108.1264
  2256.5000      0.0000    676.0167      6.1369     99.9049
  2256.7500      0.0000    675.0938      6.2740     94.3190
  2257.0000      0.0000    674.1533      6.3497     92.3719
  2257.2500      0.0000    674.4700      6.3591     94.1407
  2257.5000      0.0000    679.1427      6.2831     98.9584
  2257.7500      0.0000    690.1389      6.0959    105.5908
  2258.0000      0.0000    705.7571      5.7869    112.5612
  2258.2500      0.0000    720.5438      5.3820    118.6737
  2258.5000      0.0000    728.0716      4.9430    123.4581
  2258.7500      0.0000    724.6398      4.5389    127.0891
  2259.0000      0.0000    710.8201      4.2163    129.7691
  2259.2500      0.0000    690.4114      3.9913    131.2799
  2259.5000      0.0000    668.6465      3.8608    131.3705
  2259.7500      0.0000    650.4142      3.8110    130.4904
  2260.0000      0.0000    638.5177      3.8173    129.5802
  2260.2500      0.0000    633.0076      3.8472    128.7952
  2260.5000      0.0000    631.9316      3.8744    126.8797
  2260.7500      0.0000    632.3997      3.8882    122.3961
  2261.0000      0.0000    631.4811      3.8905    115.4864
  2261.2500      0.0000    627.5336      3.8866    108.1484
  2261.5000      0.0000    621.4961      3.8803    102.7953
  2261.7500      0.0000    616.7375      3.8765    100.5502
  2262.0000      0.0000    617.3535      3.8825    100.7236
  2262.2500      0.0000    626.0906      3.9044    101.8303
  2262.5000      0.0000    642.5760      3.9413    103.1589
  2262.7500      0.0000    662.5672      3.9833    105.2497
  2263.0000      0.0000    679.6109      4.0186    108.7287
  2263.2500      0.0000    688.8032      4.0400    112.8779
  2263.5000      0.0000    689.4033      4.0469    115.7254
  2263.7500      0.0000    683.9352      4.0432    115.7182
  2264.0000      0.0000    675.6478      4.0331    113.2154
  2264.2500      0.0000    667.4493      4.0180    110.0715
  2264.5000      0.0000    662.1235      3.9948    107.8073
  2264.7500      0.0000    661.5563      3.9611    106.5741
  2265.0000      0.0000    665.1536      3.9218    105.8988
  2265.2500      0.0000    669.8839      3.8912    105.8538
  2265.5000      0.0000    672.4419      3.8850    107.1610
  2265.7500      0.0000    671.3284      3.9102    110.3950
  2266.0000      0.0000    667.1691      3.9611    115.2858
  2266.2500      0.0000    661.6201      4.0242    120.6690
  2266.5000      0.0000    655.9841      4.0839    124.9836
  2266.7500      0.0000    650.5009      4.1287    126.9342
  2267.0000      0.0000    644.6944      4.1570    125.8553
  2267.2500      0.0000    638.2908      4.1798    121.6560
  2267.5000      0.0000    631.7182      4.2142    114.6771
  2267.7500      0.0000    625.6525      4.2714    105.6219
  2268.0000      0.0000    620.3332      4.3502     95.5355
  2268.2500      0.0000    615.7495      4.4411     85.7141
  2268.5000      0.0000    612.4379      4.5319     77.2772
  2268.7500      0.0000    611.5412      4.6073     70.5733
  2269.0000      0.0000    613.7013      4.6494     65.2307
  2269.2500      0.0000    618.0451      4.6438     60.9657
  2269.5000      0.0000    622.6476      4.5908     58.0957
  2269.7500      0.0000    625.9796      4.5114     57.1228
  2270.0000      0.0000    627.7232      4.4401     58.0233
  2270.2500      0.0000    628.3959      4.4066     60.0792
  2270.5000      0.0000    628.5923      4.4201     62.3989
