~Version Information
VERS.                      2.0: CWLS Log ASCII Standard - VERSION 2.0
WRAP.                       NO: One line per depth step
~Well Information Block
STRT.FT               920.0000: 
STOP.FT              3300.2000: 
STEP.FT                 0.1000: 
NULL.                -999.2500: 
COMP.          Pioneer Natural Resources: COMPANY
WELL.              Vespar 43-7: WELL
FLD.           Purgatoire River: FIELD
LOC.           2338' FSL & 1141' FEL: LOCATION
PROV.                 Colorado: PROVINCE
CNTY.               Las Animas: COUNTRY
SRVC.                Patterson: SERVICE COMPANY
DATE.          Wed Jan 26 13:38:02 2005: LOG DATE
UWI.           05 071 07955 00: UNIQUE WELL ID
~Curve Information Block
DEPT.FT            0 000 00 00: Depth
DCAL.in                       : CDL Caliper
RHOB.g/cc                     : CDL Bulk Density
RHOC.g/cc                     : CDL Density Correction
DPOR.pu                       : CDL Density Porosity
NPOR.pu                       : Neutron Porosity
GR.GAPI                       : Gamma Ray
~Parameter Information Block
~A  Depth       DCAL        RHOB        RHOC        DPOR        NPOR         GR     
# ...
  2331.2000      8.5759      2.6998      0.3508     -3.0166     23.7741    107.1808
  2331.3000      8.2025      2.6729      0.3100     -1.3860     24.3646    115.1736
  2331.4000      8.2025      2.6742      0.3547     -1.4668     24.8547    122.3307
  2331.5000      8.0673      2.6620      0.2725     -0.7267     24.8332    126.0620
  2331.6000      8.0673      2.6261      0.1503      1.4467     24.4458    130.2849
  2331.7000      8.0673      2.5841      0.1370      3.9958     23.9083    136.4218
  2331.8000      8.0443      2.5325      0.1225      7.1238     23.2150    139.5367
  2331.9000      8.0443      2.4731      0.0406     10.7241     22.6095    137.2076
  2332.0000      8.0564      2.4418      0.0023     12.6163     22.3222    135.5036
  2332.1000      8.0564      2.4544      0.0606     11.8535     22.2837    133.0632
  2332.2000      8.0564      2.4782      0.0839     10.4098     22.6231    124.7614
  2332.3000      8.0868      2.4925      0.0274      9.5482     23.4333    119.7824
  2332.4000      8.0868      2.5173      0.0440      8.0431     24.2881    122.1769
  2332.5000      8.0903      2.5690      0.0763      4.9095     24.8092    122.5569
  2332.6000      8.0903      2.6368      0.1146      0.7994     25.1891    118.7241
  2332.7000      8.0903      2.7105      0.1544     -3.6653     25.8696    116.8851
  2332.8000      8.0339      2.7931      0.1970     -8.6716     26.8300    117.5784
  2332.9000      8.0339      2.8744      0.2549    -13.6013     27.6623    116.2490
  2333.0000      7.9809      2.9222      0.3089    -16.4955     28.1578    110.5545
  2333.1000      7.9809      2.9143      0.2932    -16.0206     28.3665    102.5280
  2333.2000      7.9809      2.8662      0.1549    -13.1035     28.1601     97.3656
  2333.3000      7.9641      2.8080      0.1388     -9.5768     27.5990     98.2797
  2333.4000      7.9641      2.7526      0.1008     -6.2201     26.9472    101.5364
  2333.5000      7.9618      2.7100     -0.0074     -3.6364     26.1630    102.4635
  2333.6000      7.9618      2.6828      0.0098     -1.9904     25.2131    103.0854
  2333.7000      7.9618      2.6538     -0.0014     -0.2330     24.1653    105.5550
  2333.8000      7.9607      2.6195      0.0025      1.8484     23.3748    107.0932
  2333.9000      7.9607      2.5891      0.0221      3.6883     23.1402    106.7673
  2334.0000      7.9620      2.5627      0.0638      5.2912     22.8762    109.5395
  2334.1000      7.9620      2.5420      0.0057      6.5448     22.1934    115.7369
  2334.2000      7.9620      2.5398      0.0443      6.6767     21.3948    118.4957
  2334.3000      7.9707      2.5560      0.0883      5.6980     20.7912    117.8545
  2334.4000      7.9707      2.5704      0.0927      4.8250     20.6498    116.6326
  2334.5000      7.9780      2.5715      0.0560      4.7592     20.6415    114.5816
  2334.6000      7.9780      2.5649      0.0535      5.1584     20.3752    114.6816
  2334.7000      7.9780      2.5595      0.0303      5.4866     20.2051    118.1447
  2334.8000      7.9705      2.5553      0.0259      5.7396     20.1574    120.4887
  2334.9000      7.9705      2.5476      0.0628      6.2072     19.6614    122.0441
  2335.0000      7.9630      2.5407      0.0189      6.6263     19.0722    126.3076
  2335.1000      7.9630      2.5393      0.0552      6.7108     19.1773    129.2266
  2335.2000      7.9630      2.5348      0.0521      6.9803     19.8815    126.1370
  2335.3000      7.9642      2.5317      0.0174      7.1678     20.5335    118.5520
  2335.4000      7.9642      2.5512      0.0520      5.9853     20.9134    109.5995
  2335.5000      7.9737      2.5889      0.0630      3.7060     21.4296    100.4013
  2335.6000      7.9737      2.6133      0.1125      2.2255     22.1085     91.8214
  2335.7000      7.9737      2.6100      0.0587      2.4215     22.3825     85.2712
  2335.8000      7.9811      2.5915      0.0667      3.5478     22.1712     81.7638
  2335.9000      7.9811      2.5697      0.0346      4.8651     21.7913     82.1547
  2336.0000      7.9719      2.5498      0.0060      6.0733     21.5567     84.7955
  2336.1000      7.9719      2.5330      0.0401      7.0915     21.5768     87.7393
  2336.2000      7.9719      2.5188      0.0149      7.9517     21.4288     90.0944
  2336.3000      7.9632      2.5135      0.0129      8.2736     20.9250     90.1721
  2336.4000      7.9632      2.5261      0.0257      7.5098     20.6157     88.8317
  2336.5000      7.9627      2.5512      0.0626      5.9894     20.5845     89.1893
  2336.6000      7.9627      2.5638      0.0999      5.2217     20.2947     91.1373
  2336.7000      7.9627      2.5510      0.0701      6.0001     19.8091     91.0499
  2336.8000      7.9633      2.5371      0.0295      6.8416     19.3726     89.0452
  2336.9000      7.9633      2.5487      0.0626      6.1366     19.0717     88.0536
  2337.0000      7.9619      2.5784      0.1271      4.3383     19.2652     85.6626
  2337.1000      7.9619      2.6075      0.1147      2.5775     19.9006     80.4212
  2337.2000      7.9619      2.6247      0.1312      1.5315     20.3414     77.2408
  2337.3000      7.9598      2.6247      0.1189      1.5330     20.4438     76.7933
  2337.4000      7.9598      2.6170      0.0772      1.9984     20.7068     74.5108
  2337.5000      7.9582      2.6129      0.0947      2.2514     21.1034     70.1967
  2337.6000      7.9582      2.6065      0.0781      2.6360     21.0667     68.2255
  2337.7000      7.9582      2.5950      0.0652      3.3313     20.7256     70.6413
  2337.8000      7.9580      2.5848      0.0910      3.9538     20.6887     74.7393
  2337.9000      7.9580      2.5744      0.1114      4.5793     21.0640     76.6209
  2338.0000      7.9586      2.5665      0.0375      5.0600     21.3869     76.4945
  2338.1000      7.9586      2.5642      0.0948      5.1985     21.2130     78.6375
  2338.2000      7.9586      2.5542      0.0774      5.8047     20.7671     82.6572
  2338.3000      7.9587      2.5359      0.0252      6.9134     20.5169     84.8802
  2338.4000      7.9587      2.5277      0.0464      7.4110     20.5155     85.8977
  2338.5000      7.9587      2.5322      0.0309      7.1398     20.4976     85.9396
  2338.6000      7.9587      2.5342      0.0331      7.0199     20.1218     83.9019
  2338.7000      7.9587      2.5249      0.0301      7.5837     19.3895     81.7425
  2338.8000      7.9578      2.5161      0.0213      8.1163     18.8073     80.6203
  2338.9000      7.9578      2.5199      0.0477      7.8818     18.7793     79.9808
  2339.0000      7.9577      2.5264      0.0596      7.4921     19.1823     82.1164
  2339.1000      7.9577      2.5231      0.0597      7.6903     19.7007     87.5598
  2339.2000      7.9577      2.5209      0.0294      7.8259     20.2453     93.4673
  2339.3000      7.9597      2.5382      0.0475      6.7785     20.6871     98.7581
  2339.4000      7.9597      2.5711      0.0742      4.7812     20.8158    104.3772
  2339.5000      7.9612      2.5976      0.1119      3.1747     20.9111    110.1592
  2339.6000      7.9612      2.6018      0.1151      2.9220     21.4305    110.2112
  2339.7000      7.9612      2.5879      0.0734      3.7629     22.2069    101.5490
  2339.8000      7.9612      2.5730      0.0787      4.6657     22.7184     93.3953
  2339.9000      7.9612      2.5649      0.0257      5.1575     22.8952     91.6707
  2340.0000      7.9632      2.5591      0.1053      5.5104     23.0150     93.1428
  2340.1000      7.9632      2.5541      0.0614      5.8120     22.9961     94.7730
  2340.2000      7.9632      2.5561      0.0699      5.6928     22.8634     94.4851
  2340.3000      7.9725      2.5619      0.0701      5.3389     22.9405     92.1478
  2340.4000      7.9725      2.5635      0.0308      5.2437     23.1328     92.0004
  2340.5000      7.9843      2.5615      0.0485      5.3615     23.3497     97.5786
  2340.6000      7.9843      2.5619      0.0615      5.3408     23.6009    106.1537
  2340.7000      7.9843      2.5686      0.0563      4.9340     23.4209    113.1421
