~Version Information
VERS.                      2.0: CWLS Log ASCII Standard - VERSION 2.0
WRAP.                       NO: One line per depth step
~Well Information Block
STRT.FT                15.0000: 
STOP.FT              2265.2500: 
STEP.FT                 0.2500: 
NULL.                -999.2500: 
COMP.          Pioneer Natural Resources: COMPANY
WELL.             Vector 33-23: WELL
FLD.           Purgatoire River: FIELD
LOC.           1988' FSL & 1560' FEL: LOCATION
PROV.                 Colorado: PROVINCE
CNTY.               Las Animas: COUNTRY
SRVC.                Patterson: SERVICE COMPANY
DATE.          Fri Apr 01 13:14:24 2005: LOG DATE
UWI.           05 071 08336 00: UNIQUE WELL ID
~Curve Information Block
DEPT.FT            0 000 00 00: Depth
GR.GAPI                       : Gamma Ray
CCL.                          : Casing Collar Locator
TT3.usec                      : CBL 3' Travel Time
AMP3.mV                       : CBL 3' Amplitude
AMP5.mV                       : CBL 5' Amplitude
~Parameter Information Block
~A  Depth        GR         CCL         TT3         AMP3        AMP5    
# ...
  1779.0000    107.2246      0.0000    808.7811      8.4925      0.9048
  1779.2500    112.7204      0.0000    809.8923      8.6363      0.9360
  1779.5000    119.9093      0.0000    811.9190      8.7768      0.9631
  1779.7500    126.5267      0.0000    813.7871      8.9269      0.9864
  1780.0000    130.6641      0.0000    813.9969      9.0888      1.0093
  1780.2500    131.7731      0.0000    811.5694      9.2519      1.0357
  1780.5000    130.7686      0.0000    806.9674      9.4016      1.0668
  1780.7500    129.2704      0.0000    801.8863      9.5369      1.1004
  1781.0000    128.7744      0.0000    797.9513      9.6754      1.1327
  1781.2500    130.1374      0.0000    795.6999      9.8374      1.1607
  1781.5000    133.3000      0.0000    794.7181     10.0266      1.1828
  1781.7500    137.1649      0.0000    794.3632     10.2248      1.1995
  1782.0000    139.7799      0.0000    794.2153     10.3995      1.2133
  1782.2500    139.2498      0.0000    794.1138     10.5196      1.2268
  1782.5000    135.2272      0.0000    794.0426     10.5736      1.2410
  1782.7500    129.6021      0.0000    794.0267     10.5764      1.2552
  1783.0000    125.2517      0.0000    794.0767     10.5599      1.2690
  1783.2500    123.8779      0.0000    794.1691     10.5538      1.2824
  1783.5000    125.0714      0.0000    794.2542     10.5728      1.2939
  1783.7500    127.1958      0.0000    794.2859     10.6161      1.2996
  1784.0000    128.7910      0.0000    794.2469     10.6740      1.2969
  1784.2500    129.2788      0.0000    794.1537     10.7343      1.2873
  1784.5000    128.8660      0.0000    794.0435     10.7874      1.2748
  1784.7500    128.0463      0.0000    793.9508     10.8292      1.2626
  1785.0000    127.1036      0.0000    793.8871     10.8584      1.2517
  1785.2500    125.9514      0.0000    793.8381     10.8696      1.2421
  1785.5000    124.3627      0.0000    793.7842     10.8498      1.2332
  1785.7500    122.2314      0.0000    793.7155     10.7838      1.2232
  1786.0000    119.6006      0.0000    793.6301     10.6634      1.2099
  1786.2500    116.6432      0.0000    793.5248     10.4929      1.1917
  1786.5000    113.8710      0.0000    793.3959     10.2884      1.1707
  1786.7500    112.2282      0.0000    793.2490     10.0715      1.1514
  1787.0000    112.4604      0.0000    793.1399      9.8604      1.1376
  1787.2500    114.3226      0.0000    793.2720      9.6677      1.1249
  1787.5000    116.8403      0.0000    794.1200      9.5046      1.0965
  1787.7500    119.3459      0.0000    796.3974      9.3823      1.0319
  1788.0000    121.7865      0.0000    800.5275      9.2907      0.9289
  1788.2500    124.0595      0.0000    805.8974      9.1609      0.8125
  1788.5000    125.6240      0.0000    811.0458      8.8668      0.7171
  1788.7500    125.8977      0.0000    815.5235      8.3190      0.6605
  1789.0000    124.6803      0.0000    821.2753      7.5808      0.6373
  1789.2500    122.2706      0.0000    830.3530      6.8565      0.6310
  1789.5000    119.5541      0.0000    840.6563      6.3358      0.6275
  1789.7500    117.7473      0.0000    846.1705      6.0641      0.6190
  1790.0000    117.6187     -2.6611    843.1582      5.9667      0.6039
  1790.2500    119.0822     -3.0000    834.4788      5.9500      0.5855
  1790.5000    121.6355      0.0000    826.2437      5.9629      0.5702
  1790.7500    124.6559      0.0000    821.7985      5.9979      0.5638
  1791.0000    127.0798      0.0000    820.1721      6.0763      0.5681
  1791.2500    127.5802      0.0000    818.7383      6.2357      0.5814
  1791.5000    125.7174      0.0000    815.8098      6.5113      0.6033
  1791.7500    122.6983      0.0000    811.2836      6.9059      0.6397
  1792.0000    120.6654      0.0000    806.2166      7.3626      0.7007
  1792.2500    121.2176      0.0000    802.3099      7.7803      0.7886
  1792.5000    124.3934      0.0000    801.2765      8.0783      0.8864
  1792.7500    128.6854      0.0000    804.0682      8.2465      0.9646
  1793.0000    131.9751      0.0000    810.2366      8.3274      1.0025
  1793.2500    133.0729      0.0000    817.9189      8.3656      1.0016
  1793.5000    132.8627      0.0000    824.6723      8.3842      0.9794
  1793.7500    133.6466      0.0000    828.6099      8.3896      0.9537
  1794.0000    136.7313      0.0000    828.9430      8.3795      0.9350
  1794.2500    140.7589      0.0000    825.9041      8.3512      0.9267
  1794.5000    142.9660      0.0000    820.6292      8.3146      0.9265
  1794.7500    141.9784      0.0000    814.8817      8.2970      0.9285
  1795.0000    138.7793      0.0000    810.1382      8.3287      0.9255
  1795.2500    135.1425      0.0000    806.8294      8.4162      0.9134
  1795.5000    131.9275      0.0000    804.7316      8.5224      0.8946
  1795.7500    129.0104      0.0000    803.7044      8.5746      0.8772
  1796.0000    126.1845      0.0000    803.5561      8.5082      0.8686
  1796.2500    123.6859      0.0000    803.7908      8.3233      0.8700
  1796.5000    121.9715      0.0000    804.2870      8.0962      0.8773
  1796.7500    121.1396      0.0000    805.7549      7.9217      0.8857
  1797.0000    120.5211      0.0000    808.7047      7.8387      0.8927
  1797.2500    118.8774      0.0000    812.2774      7.8170      0.8983
  1797.5000    115.2190      0.0000    814.9010      7.8079      0.9037
  1797.7500    109.7871      0.0000    815.9428      7.7926      0.9102
  1798.0000    104.2228      0.0000    816.0065      7.7850      0.9167
  1798.2500    100.4797      0.0000    815.6167      7.8056      0.9204
  1798.5000     99.4519      0.0000    814.2453      7.8620      0.9183
  1798.7500    100.6650      0.0000    810.9949      7.9497      0.9096
  1799.0000    103.0297      0.0000    805.9745      8.0610      0.8970
  1799.2500    105.6346      0.0000    800.5532      8.1920      0.8853
  1799.5000    107.9560      0.0000    796.2328      8.3389      0.8790
  1799.7500    109.7496      0.0000    793.6149      8.4877      0.8805
  1800.0000    111.0820      0.0000    792.4600      8.6131      0.8904
  1800.2500    112.5270      0.0000    792.3517      8.6937      0.9081
  1800.5000    114.9651      0.0000    793.1484      8.7243      0.9308
  1800.7500    118.7861      0.0000    794.9131      8.7106      0.9537
  1801.0000    123.3344      0.0000    797.4526      8.6574      0.9712
  1801.2500    127.2855      0.0000    799.9305      8.5692      0.9785
  1801.5000    129.3726      0.0000    801.2657      8.4572      0.9741
  1801.7500    128.7914      0.0000    801.2604      8.3397      0.9608
  1802.0000    125.5343      0.0000    801.1398      8.2351      0.9438
  1802.2500    120.6806      0.0000    802.4525      8.1537      0.9283
  1802.5000    115.8049      0.0000    805.2910      8.0978      0.9162
  1802.7500    111.4616      0.0000    807.9593      8.0703      0.9076
  1803.0000    106.6577      0.0000    808.8015      8.0811      0.9015
  1803.2500    100.5179      0.0000    808.2378      8.1361      0.8973
  1803.5000     94.1373      0.0000    808.4646      8.2229      0.8948
  1803.7500     90.0529      0.0000    810.9738      8.3133      0.8938
  1804.0000     89.9124      0.0000    814.8062      8.3842      0.8948
  1804.2500     93.0114      0.0000    817.4579      8.4348      0.8987
  1804.5000     97.0742      0.0000    817.1301      8.4810      0.9054
  1804.7500    100.3434      0.0000    813.8140      8.5340      0.9126
  1805.0000    102.9180      0.0000    808.6830      8.5865      0.9172
  1805.2500    106.1056      0.0000    803.1549      8.6223      0.9172
  1805.5000    110.8006      0.0000    798.4876      8.6366      0.9130
  1805.7500    116.8088      0.0000    795.6026      8.6396      0.9066
  1806.0000    123.3279      0.0000    794.9739      8.6412      0.9000
  1806.2500    129.3440      0.0000    796.7142      8.6384      0.8948
  1806.5000    133.6811      0.0000    800.5084      8.6220      0.8927
  1806.7500    135.4226      0.0000    805.1428      8.5935      0.8937
