~Version Information
VERS.                      2.0: CWLS Log ASCII Standard - VERSION 2.0
WRAP.                       NO: One line per depth step
~Well Information Block
STRT.FT               765.6000: 
STOP.FT              2431.0000: 
STEP.FT                 0.1000: 
NULL.                -999.2500: 
COMP.          Petrogulf Corporation: COMPANY
WELL.             Norton 9-14V: WELL
FLD.           Purgatorie River: FIELD
LOC.           230' FSL & 225' FWL: LOCATION
CNTY.               Las Animas: COUNTY
SRVC.                         : SERVICE COMPANY
DATE.          Thu Oct 28 06:20:25 2004: LOG DATE
UWI.           05 071 07891 00: UNIQUE WELL ID
STAT.                 Colorado: STATE
~Curve Information Block
DEPT.FT            0 000 00 00: Depth
DCAL.in                       : CDL Caliper
RHOB.g/cc                     : CDL Bulk Density
RHOC.g/cc                     : CDL Density Correction
DPOR.pu                       : CDL Density Porosity
GR.GAPI                       : Gamma Ray
NPOR.pu                       : Neutron Porosity
~Parameter Information Block
~A  Depth       DCAL        RHOB        RHOC        DPOR         GR         NPOR    
# ...
  2090.4000      8.0527      2.4993      0.0382      9.1359    110.9465     21.0302
  2090.5000      8.0553      2.4921      0.0546      9.5668    118.4694     20.3529
  2090.6000      8.0553      2.4788      0.0100     10.3787    123.9128     19.6929
  2090.7000      8.0553      2.4757      0.0128     10.5624    124.4672     19.3082
  2090.8000      8.0570      2.4914      0.0357      9.6123    122.9357     19.0983
  2090.9000      8.0570      2.5070      0.0661      8.6639    123.0832     18.4204
  2091.0000      8.0643      2.5061      0.0305      8.7184    125.0887     17.1972
  2091.1000      8.0643      2.4908      0.0334      9.6496    127.2675     15.9714
  2091.2000      8.0643      2.4606      0.0436     11.4758    126.9216     14.8080
  2091.3000      8.0732      2.4251     -0.0462     13.6322    124.9126     13.4434
  2091.4000      8.0732      2.3899      0.0472     15.7617    122.5365     11.8249
  2091.5000      8.0788      2.3259      0.0093     19.6398    118.2206     10.0729
  2091.6000      8.0788      2.2123     -0.0355     26.5260    113.6130      8.5152
  2091.7000      8.0788      2.0753     -0.0867     34.8289    113.0699      7.5106
  2091.8000      8.0924      1.9531     -0.0822     42.2372    115.1658      6.9847
  2091.9000      8.0924      1.8584     -0.1324     47.9760    113.0915      6.5863
  2092.0000      8.1048      1.7808     -0.1043     52.6781    104.2933      6.2914
  2092.1000      8.1048      1.7048     -0.1011     57.2862     93.6673      6.2919
  2092.2000      8.1048      1.6320     -0.0865     61.6954     88.8059      6.4575
  2092.3000      8.1509      1.5749      0.0148     65.1558     91.0383      6.5095
  2092.4000      8.1509      1.5347      0.0642     67.5969     94.6844      6.4921
  2092.5000      8.1831      1.5039      0.0785     69.4591     93.4512      6.7075
  2092.6000      8.1831      1.4806      0.0791     70.8724     86.2415      7.2140
  2092.7000      8.1831      1.4710      0.0755     71.4565     79.6041      7.8356
  2092.8000      8.3126      1.4810      0.1036     70.8477     80.1730      8.6037
  2092.9000      8.3126      1.5063      0.1358     69.3150     89.1599      9.5433
  2093.0000      8.3281      1.5399      0.0822     67.2792    103.5364     10.3849
  2093.1000      8.3281      1.5933      0.0596     64.0440    115.8458     10.9624
  2093.2000      8.3281      1.6923      0.1145     58.0421    116.8955     11.4897
  2093.3000      8.2052      1.8429      0.2185     48.9177    110.2072     12.3385
  2093.4000      8.2052      2.0100      0.3688     38.7856    109.6328     13.7368
  2093.5000      8.1750      2.1473      0.3999     30.4645    119.0574     15.3522
  2093.6000      8.1750      2.2399      0.3934     24.8557    133.9327     16.3577
  2093.7000      8.1750      2.2966      0.3646     21.4165    149.2152     16.5762
  2093.8000      8.0839      2.3246      0.3130     19.7184    156.6534     16.6785
  2093.9000      8.0839      2.3322      0.2129     19.2600    154.5460     17.0722
  2094.0000      8.0240      2.3347      0.1512     19.1068    149.4289     17.7748
  2094.1000      8.0240      2.3441      0.1870     18.5384    145.3530     18.8401
  2094.2000      8.0240      2.3627      0.1833     17.4105    144.4783     19.9538
  2094.3000      8.0382      2.3936      0.1803     15.5412    148.0096     20.4248
  2094.4000      8.0382      2.4340      0.2268     13.0889    150.9518     20.4143
  2094.5000      8.0583      2.4589      0.2320     11.5837    148.9228     20.5057
  2094.6000      8.0583      2.4563      0.1421     11.7384    147.2798     20.6565
  2094.7000      8.0583      2.4490      0.1978     12.1829    148.4148     20.7057
  2094.8000      8.0035      2.4451      0.1865     12.4164    147.3310     20.5706
  2094.9000      8.0035      2.4433      0.1047     12.5254    143.1694     20.2814
  2095.0000      7.9626      2.4571      0.1131     11.6904    140.6407     20.1555
  2095.1000      7.9626      2.4824      0.1373     10.1582    140.4689     20.2822
  2095.2000      7.9626      2.4957      0.1194      9.3514    140.4908     20.5415
  2095.3000      7.9514      2.4883      0.0838      9.7980    142.2970     20.6176
  2095.4000      7.9514      2.4801      0.0461     10.2987    145.4942     20.3411
  2095.5000      7.9547      2.4936      0.0866      9.4761    147.1751     20.0140
  2095.6000      7.9547      2.5184      0.0990      7.9766    147.7133     19.9026
  2095.7000      7.9547      2.5275      0.1298      7.4223    146.6116     20.0518
  2095.8000      7.9385      2.5165      0.1089      8.0927    143.3089     20.5302
  2095.9000      7.9385      2.4989      0.0622      9.1557    139.7315     21.1024
  2096.0000      7.9374      2.4786      0.1036     10.3857    134.6102     21.4147
  2096.1000      7.9374      2.4489      0.0370     12.1885    127.1442     21.6243
  2096.2000      7.9374      2.4105      0.0465     14.5125    122.0892     21.6759
  2096.3000      7.9391      2.3757     -0.0575     16.6265    120.2038     21.1625
  2096.4000      7.9391      2.3681     -0.0038     17.0858    116.7803     20.4960
  2096.5000      7.9367      2.3992     -0.0105     15.2014    109.3938     20.3724
  2096.6000      7.9367      2.4498      0.0868     12.1356    103.2189     20.5606
  2096.7000      7.9367      2.4930      0.1108      9.5152    103.4474     20.8065
  2096.8000      7.9342      2.5270      0.0675      7.4527    102.8447     21.0885
  2096.9000      7.9342      2.5629      0.1355      5.2811     95.2085     20.9479
  2097.0000      7.9303      2.6006      0.1361      2.9952     85.0413     20.4859
  2097.1000      7.9303      2.6368      0.1880      0.7974     76.6618     20.4067
  2097.2000      7.9303      2.6630      0.2219     -0.7901     72.2736     20.7083
  2097.3000      7.9179      2.6683      0.2129     -1.1109     70.0304     20.6643
  2097.4000      7.9179      2.6580      0.1561     -0.4875     65.6138     20.0584
  2097.5000      7.9180      2.6453      0.0867      0.2872     59.6817     19.6912
  2097.6000      7.9180      2.6313      0.0897      1.1310     57.6067     19.8590
  2097.7000      7.9180      2.6129      0.0353      2.2463     62.4603     19.7141
  2097.8000      7.9141      2.5938      0.0714      3.4074     69.3711     18.9340
  2097.9000      7.9141      2.5805      0.0514      4.2135     71.1353     18.1314
  2098.0000      7.9152      2.5722      0.0742      4.7133     66.8728     17.7840
  2098.1000      7.9152      2.5632      0.0348      5.2593     62.3655     18.0120
  2098.2000      7.9152      2.5630      0.0215      5.2740     62.1419     18.5227
  2098.3000      7.9201      2.5785      0.0759      4.3317     66.6317     18.8500
  2098.4000      7.9201      2.5917      0.0985      3.5349     73.5251     18.8136
  2098.5000      7.9173      2.5910      0.0245      3.5752     79.8707     18.4884
  2098.6000      7.9173      2.5850      0.0729      3.9420     81.9504     18.0622
  2098.7000      7.9173      2.5730      0.0367      4.6677     77.2952     17.5416
  2098.8000      7.9194      2.5539      0.0426      5.8235     70.8007     16.8692
  2098.9000      7.9194      2.5452      0.0187      6.3525     69.8169     16.3513
  2099.0000      7.9248      2.5629      0.0437      5.2762     73.9004     16.1250
  2099.1000      7.9248      2.5948      0.0731      3.3435     78.9995     16.0459
  2099.2000      7.9248      2.6125      0.1211      2.2702     86.7640     16.1606
  2099.3000      7.9250      2.5989      0.0991      3.0960     98.6405     16.4149
  2099.4000      7.9250      2.5595      0.0090      5.4845    107.0867     16.4427
  2099.5000      7.9244      2.5122     -0.0050      8.3520    105.9355     16.1389
  2099.6000      7.9244      2.4696     -0.0014     10.9323    101.5030     15.9451
  2099.7000      7.9244      2.4462     -0.0157     12.3535    101.3037     16.1939
  2099.8000      7.9278      2.4570      0.0021     11.6957    106.6218     16.5517
  2099.9000      7.9278      2.4965      0.0213      9.3010    114.2118     16.8877
