~Version Information
 VERS.                                  2.0 : CWLS LAS VERSION
 WRAP.                                   NO : WRAPING MODE
 SWARE .                 MController 2.5.0E : SOFTWARE VERSION
~Well Information
 WELL.                      Robinson 15-11v : WELL
 COMP.                       Petrogulf Corp : COMPANY
 FLD.                      Purgatoire River : FIELD
 LOC.                NW/NW Sec 15 T33S R67W : LOCATION
 DATE.                               8/3/04 : DATE(S) LOGGED
 SRVC.       Blanco Geological Services LLC : SERVICE COMPANY
 STAT.                                   CO : STATE
 CNTY.                           Las Animas : COUNTY
 CTRY.                                  USA : COUNTRY
 API.                       05-071-08027-00 : API NUMBER
 STRT.FT                             588.00 : START DEPTH
 STOP.FT                            2101.00 : STOP DEPTH
 STEP.FT                               1.00 : DEPTH INCREMENT
 NULL.                                -9999 : NULL VALUE
~Curve information
 DEPTH.FT                                   :
 ROP.MIN/FT                                 :
 GAS.UNITS                                  :
~ASCII Log data
# ...
     1988.00        0.300         25.9 
     1989.00        0.300         26.9 
     1990.00        0.333         26.9 
     1991.00        0.300         26.1 
     1992.00        0.300         25.4 
     1993.00        0.333         24.6 
     1994.00        0.267         22.9 
     1995.00        0.317         20.7 
     1996.00        0.267         18.7 
     1997.00        0.267         17.1 
     1998.00        0.333         15.7 
     1999.00        0.267         14.3 
     2000.00        0.267         14.4 
     2001.00        0.267         13.5 
     2002.00        0.300         13.6 
     2003.00        0.300         12.4 
     2004.00        0.267         12.6 
     2005.00        0.300         12.5 
     2006.00        0.300         12.0 
     2007.00        0.283         12.6 
     2008.00        0.267         12.5 
     2009.00        0.267         12.8 
     2010.00        0.300         11.9 
     2011.00        0.267          7.9 
     2012.00        4.150         49.8 
     2013.00        0.400         36.1 
     2014.00        0.333         30.7 
     2015.00        0.267         28.2 
     2016.00        0.383         27.9 
     2017.00        0.333         27.4 
     2018.00        0.367         25.2 
     2019.00        0.300         22.9 
     2020.00        0.333         21.6 
     2021.00        0.333         20.4 
     2022.00        0.333         18.2 
     2023.00        0.300         16.3 
     2024.00        0.300         15.4 
     2025.00        0.300         14.9 
     2026.00        0.317         14.0 
     2027.00        0.267         13.6 
     2028.00        0.333         13.0 
     2029.00        0.233         12.8 
     2030.00        0.267         12.5 
     2031.00        0.233         12.5 
     2032.00        0.267         12.6 
     2033.00        0.300         13.0 
     2034.00        0.333         12.9 
     2035.00        0.367         12.7 
     2036.00        0.267         13.4 
     2037.00        0.267         14.5 
     2038.00        0.283         14.5 
     2039.00        0.267         12.3 
     2040.00        0.267         10.2 
     2041.00        0.233          6.0 
     2042.00        4.550         45.1 
     2043.00        0.200         36.0 
     2044.00        0.367         33.0 
     2045.00        0.367         28.6 
     2046.00        0.550         27.3 
     2047.00        0.533         27.2 
     2048.00        0.500         25.6 
     2049.00        0.433         23.0 
     2050.00        0.233         21.1 
     2051.00        0.367         19.0 
     2052.00        0.300         16.9 
     2053.00        0.300         15.3 
     2054.00        0.317         14.8 
     2055.00        0.233         14.7 
     2056.00        0.233         13.8 
     2057.00        0.300         14.0 
     2058.00        0.233         13.7 
     2059.00        0.300         13.3 
     2060.00        0.233         13.2 
     2061.00        0.233         12.4 
     2062.00        0.267         12.9 
     2063.00        0.467         13.2 
     2064.00        0.267         12.8 
     2065.00        0.267         15.0 
     2066.00        0.233         16.9 
     2067.00        0.317         19.0 
     2068.00        0.267         18.0 
     2069.00        0.233         15.1 
     2070.00        0.267         11.3 
     2071.00        0.167          8.2 
     2072.00        4.050         43.2 
     2073.00        0.400         36.6 
     2074.00        0.400         32.2 
     2075.00        0.333         26.2 
     2076.00        0.417         23.4 
     2077.00        0.367         23.1 
     2078.00        0.400         22.7 
     2079.00        0.333         20.6 
     2080.00        0.433         19.8 
     2081.00        0.500         19.3 
     2082.00        0.400         17.7 
     2083.00        0.300         15.7 
     2084.00        0.233         14.4 
     2085.00        0.350         13.5 
     2086.00        0.267         12.9 
     2087.00        0.267         12.1 
     2088.00        0.267         11.5 
     2089.00        0.267         11.9 
     2090.00        0.233         11.3 
     2091.00        0.300         11.5 
     2092.00        0.300         10.8 
     2093.00        0.233         10.1 
     2094.00        0.233         10.6 
     2095.00        0.300         12.0 
     2096.00        0.300         13.0 
     2097.00        0.350         11.8 
     2098.00        0.367          8.8 
     2099.00        0.133          5.1 
     2100.00        0.200          4.1 
     2101.00       18.350         39.9 
