~Version Information
VERS.                      2.0: CWLS Log ASCII Standard - VERSION 2.0
WRAP.                       NO: One line per depth step
~Well Information Block
STRT.FT                -7.0000: 
STOP.FT              2736.0000: 
STEP.FT                 0.2500: 
NULL.                -999.2500: 
COMP.          Pioneer Natural Resources: COMPANY
WELL.              Getem 21-23: WELL
FLD.           Purgatorie River: FIELD
LOC.           2623' FWL & 790' FNL----: LOCATION
PROV.                       CO: PROVINCE
CNTY.               Las Animas: COUNTRY
SRVC.          Patterson Wireline: SERVICE COMPANY
DATE.          Mon Jun 27 09:57:55 2005: LOG DATE
UWI.           05 071 08411 00: UNIQUE WELL ID
~Curve Information Block
DEPT.FT            0 000 00 00: Depth
CCL.                          : Casing Collar Locator
TT3.usec                      : CBL 3' Travel Time
AMP3.mV                       : CBL 3' Amplitude
GR.GAPI                       : Gamma Ray
~Parameter Information Block
~A  Depth       CCL         TT3         AMP3         GR     
# ...
  2706.5000      0.0000    563.5122      3.7433     76.5092
  2706.7500      0.0000    567.8005      3.6760     77.0773
  2707.0000      0.0000    571.6772      3.5959     78.1626
  2707.2500      0.0000    578.6379      3.5333     79.3476
  2707.5000      0.0000    588.1843      3.5068     79.6619
  2707.7500      0.0000    596.7642      3.5101     78.2352
  2708.0000      0.0000    601.4991      3.5182     75.5409
  2708.2500      0.0000    601.4589      3.5056     73.3441
  2708.5000      0.0000    596.6718      3.4563     73.0748
  2708.7500      0.0000    588.5310      3.3666     74.6764
  2709.0000      0.0000    580.9501      3.2550     77.1158
  2709.2500      0.0000    579.1852      3.1642     79.5015
  2709.5000      0.0000    585.8017      3.1411     81.4241
  2709.7500      0.0000    597.4425      3.2053     82.5680
  2710.0000      0.0000    606.8356      3.3324     82.4759
  2710.2500      0.0000    609.1395      3.4731     80.8810
  2710.5000      0.0000    606.3044      3.6001     78.1664
  2710.7500      0.0000    606.0922      3.7383     75.2370
  2711.0000      0.0000    617.6758      3.9352     72.7573
  2711.2500      0.0000    645.6982      4.1924     70.7116
  2711.5000      0.0000    685.5786      4.4311     69.0539
  2711.7500      0.0000    725.4887      4.5398     68.4712
  2712.0000      0.0000    754.7226      4.4661     69.7963
  2712.2500      0.0000    769.6289      4.2648     72.6725
  2712.5000      0.0000    772.0970      4.0577     75.5174
  2712.7500      0.0000    765.3326      3.9390     77.0036
  2713.0000      0.0000    752.4535      3.9220     77.0205
  2713.2500      0.0000    737.2988      3.9643     76.2218
  2713.5000      0.0000    724.0381      4.0177     75.4506
  2713.7500      0.0000    715.2885      4.0522     75.6576
  2714.0000      0.0000    710.8663      4.0672     77.4817
  2714.2500      0.0000    708.3107      4.0840     80.6306
  2714.5000      0.0000    704.1691      4.1034     84.0641
  2714.7500      0.0000    695.7233      4.0872     86.8499
  2715.0000      0.0000    683.6708      4.0072     88.5796
  2715.2500      0.0000    673.7759      3.8869     89.2031
  2715.5000      0.0000    673.4221      3.7695     89.0096
  2715.7500      0.0000    684.4416      3.6787     88.5543
  2716.0000      0.0000    700.2675      3.6337     88.0320
  2716.2500      0.0000    710.2382      3.6573     86.8941
  2716.5000      0.0000    705.1569      3.7342     84.3977
  2716.7500      0.0000    681.6541      3.7981     80.3493
  2717.0000      0.0000    647.4359      3.7975     75.3088
  2717.2500      0.0000    621.2573      3.7496     70.3702
  2717.5000      0.0000    620.0269      3.6980     66.6478
  2717.7500      0.0000    642.4894      3.6355     64.5829
  2718.0000      0.0000    668.6707      3.5165     63.6167
  2718.2500      0.0000    676.7964      3.3547     62.7502
  2718.5000      0.0000    659.9550      3.2537     61.5591
  2718.7500      0.0000    629.6743      3.2986     60.5548
  2719.0000      0.0000    608.5203      3.4391     60.6350
  2719.2500      2.0000    617.8967      3.5285     62.4570
  2719.5000      2.0000    664.4011      3.4781     66.1589
  2719.7500      0.0000    732.2996      3.3464     71.2015
  2720.0000      0.0000    793.0303      3.2672     76.4219
  2720.2500      0.0000    827.2207      3.3072     80.5834
  2720.5000      0.0000    836.7238      3.4119     83.0001
  2720.7500      0.0000    834.7145      3.4873     83.6498
  2721.0000      0.0000    828.8553      3.5089     82.8801
  2721.2500      0.0000    817.6487      3.5345     81.1028
  2721.5000      0.0000    800.2997      3.6320     78.4821
  2721.7500      0.0000    783.7814      3.8201     74.5572
  2722.0000      0.0000    777.4472      4.0675     68.1856
  2722.2500      0.0000    782.8179      4.3192     58.2381
  2722.5000      0.0000    790.8829      4.5187     44.8255
  2722.7500      0.0000    789.7219      4.6212     30.0154
  2723.0000      0.0000    775.9536      4.6001     16.9611
  2723.2500      0.0000    759.1877      4.4538      7.8983
  2723.5000      0.0000    752.3593      4.2129      2.9791
  2723.7500      0.0000    757.0911      3.9504      0.8992
  2724.0000      0.0000    762.2761      3.7658      0.2149
  2724.2500      0.0000    757.6046      3.7261      0.0402
  2724.5000      0.0000    743.6522      3.8143      0.0055
  2724.7500      0.0000    727.0864      3.9604      0.0000
  2725.0000      0.0000    710.9507      4.1123   -999.2500
  2725.2500      0.0000    693.2626      4.2384   -999.2500
  2725.5000      0.0000    672.8069      4.2842   -999.2500
  2725.7500      0.0000    652.4289      4.1932   -999.2500
  2726.0000      0.0000    635.9998      3.9801   -999.2500
  2726.2500      0.0000    624.0032      3.7478   -999.2500
  2726.5000      0.0000    612.6910      3.6124   -999.2500
  2726.7500      0.0000    596.2943      3.6059   -999.2500
  2727.0000      0.0000    568.5206      3.6371   -999.2500
  2727.2500      0.0000    521.9609      3.5425   -999.2500
  2727.5000      0.0000    449.0560      3.2020   -999.2500
  2727.7500      0.0000    349.1642      2.6426   -999.2500
  2728.0000      0.0000    236.2576      2.0268   -999.2500
  2728.2500      0.0000    134.6688      1.5287   -999.2500
  2728.5000      0.0000     63.1083      1.2218   -999.2500
  2728.7500      0.0000     23.9034      1.0752   -999.2500
  2729.0000      0.0000      7.2328      1.0205   -999.2500
  2729.2500      0.0000      1.7325      1.0045   -999.2500
  2729.5000      0.0000      0.3247      1.0007   -999.2500
  2729.7500      0.0000      0.0445      1.0001   -999.2500
  2730.0000      0.0000   -999.2500   -999.2500   -999.2500
  2730.2500      0.0000   -999.2500   -999.2500   -999.2500
  2730.5000      0.0000   -999.2500   -999.2500   -999.2500
  2730.7500      0.0000   -999.2500   -999.2500   -999.2500
  2731.0000      0.0000   -999.2500   -999.2500   -999.2500
  2731.2500      0.0000   -999.2500   -999.2500   -999.2500
  2731.5000      0.0000   -999.2500   -999.2500   -999.2500
  2731.7500      0.0000   -999.2500   -999.2500   -999.2500
  2732.0000      0.0000   -999.2500   -999.2500   -999.2500
  2732.2500      0.0000   -999.2500   -999.2500   -999.2500
  2732.5000      0.0000   -999.2500   -999.2500   -999.2500
  2732.7500      0.0000   -999.2500   -999.2500   -999.2500
  2733.0000      0.0000   -999.2500   -999.2500   -999.2500
  2733.2500      0.0000   -999.2500   -999.2500   -999.2500
  2733.5000      0.0000   -999.2500   -999.2500   -999.2500
  2733.7500      0.0000   -999.2500   -999.2500   -999.2500
  2734.0000      0.0000   -999.2500   -999.2500   -999.2500
  2734.2500      0.0000   -999.2500   -999.2500   -999.2500
  2734.5000      0.0000   -999.2500   -999.2500   -999.2500
  2734.7500      0.0000   -999.2500   -999.2500   -999.2500
  2735.0000      0.0000   -999.2500   -999.2500   -999.2500
  2735.2500      0.0000   -999.2500   -999.2500   -999.2500
  2735.5000      0.0000   -999.2500   -999.2500   -999.2500
  2735.7500   -999.2500   -999.2500   -999.2500   -999.2500
  2736.0000   -999.2500   -999.2500   -999.2500   -999.2500
