~Version Information
VERS.                      2.0: CWLS Log ASCII Standard - VERSION 2.0
WRAP.                       NO: One line per depth step
~Well Information Block
STRT.FT               -12.2500: 
STOP.FT              2183.0000: 
STEP.FT                 0.2500: 
NULL.                -999.2500: 
COMP.          Petrogulf Corporation: COMPANY
WELL.            Montoya 6-14R: WELL
FLD.           Purgatorie River: FIELD
LOC.           867' FSL & 751' FWL: LOCATION
CNTY.               Las Animas: COUNTY
SRVC.                         : SERVICE COMPANY
DATE.          Mon Nov 22 13:07:31 2004: LOG DATE
UWI.           05-071-08242-00: UNIQUE WELL ID
STAT.                 Colorado: STATE
~Curve Information Block
DEPT.FT            0 000 00 00: Depth
TT3.usec                      : CBL 3' Travel Time
AMP3.mV                       : CBL 3' Amplitude
GR.GAPI                       : Gamma Ray
CCL.                          : Casing Collar Locator
~Parameter Information Block
~A  Depth       TT3         AMP3         GR         CCL     
# ...
  1830.2500    298.0082     59.3083    133.5218      0.0000
  1830.5000    300.7513     53.9876    150.3373      0.0000
  1830.7500    300.8697     50.2596    161.7710      0.0000
  1831.0000    298.9522     48.6693    165.8502      0.0000
  1831.2500    296.5617     48.5588    162.6344      2.0096
  1831.5000    294.9018     48.8564    153.7339      2.4628
  1831.7500    294.3569     48.8646    140.9559      0.0000
  1832.0000    294.9469     48.4109    125.6271      0.0000
  1832.2500    296.6617     47.7440    109.2654      0.0000
  1832.5000    299.1144     47.5509     94.2113      0.0000
  1832.7500    301.0734     48.8082     82.8267      0.0000
  1833.0000    300.9313     52.1222     76.1714      0.0000
  1833.2500    298.0820     57.0908     73.9276      0.0000
  1833.5000    293.6339     62.5128     75.4938      0.0000
  1833.7500    289.4457     67.2377     80.7193      0.0000
  1834.0000    286.6567     70.7091     89.5263      0.0000
  1834.2500    285.2719     72.9140    101.1452      0.0000
  1834.5000    284.7458     74.1324    113.8857      0.0000
  1834.7500    284.5895     74.7254    125.7363      0.0000
  1835.0000    284.5509     74.9857    135.4322      0.0000
  1835.2500    284.5413     75.0832    143.1464      0.0000
  1835.5000    284.5407     75.0985    150.1487      0.0000
  1835.7500    284.5454     75.0798    157.7130      0.0000
  1836.0000    284.5536     75.0635    166.1852      0.0000
  1836.2500    284.5606     75.0784    174.7023      0.0000
  1836.5000    284.5614     75.1357    181.5167      0.0000
  1836.7500    284.5545     75.2267    184.8640      0.0000
  1837.0000    284.5434     75.3299    184.3819      0.0000
  1837.2500    284.5338     75.4219    182.1336      0.0000
  1837.5000    284.5301     75.4816    181.5341      0.0000
  1837.7500    284.5329     75.4877    184.4635      0.0000
  1838.0000    284.5402     75.4243    189.6246      0.0000
  1838.2500    284.5479     75.2946    194.0525      0.0000
  1838.5000    284.5520     75.1247    195.8103      0.0000
  1838.7500    284.5508     74.9508    194.8748      0.0000
  1839.0000    284.5457     74.8014    192.0749      0.0000
  1839.2500    284.5396     74.6915    188.1322      0.0000
  1839.5000    284.5354     74.6264    183.8006      0.0000
  1839.7500    284.5335     74.6026    180.1429      0.0000
  1840.0000    284.5331     74.6074    178.0312      0.0000
  1840.2500    284.5332     74.6200    177.4096      0.0000
  1840.5000    284.5344     74.6151    177.4336      0.0000
  1840.7500    284.5373     74.5719    177.3658      0.0000
  1841.0000    284.5426     74.4860    177.0042      0.0000
  1841.2500    284.5494     74.3724    176.3124      0.0000
  1841.5000    284.5556     74.2522    175.1459      0.0000
  1841.7500    284.5587     74.1379    173.4659      0.0000
  1842.0000    284.5571     74.0348    171.4604      0.0000
  1842.2500    284.5515     73.9485    169.3751      0.0000
  1842.5000    284.5440     73.8814    167.4953      0.0000
  1842.7500    284.5370     73.8261    166.3462      0.0000
  1843.0000    284.5305     73.7668    166.6071      0.0000
  1843.2500    284.5232     73.6832    168.4529      0.0000
  1843.5000    284.5146     73.5488    171.1581      0.0000
  1843.7500    284.5077     73.3366    173.8736      0.0000
  1844.0000    284.5076     73.0435    176.7066      0.0000
  1844.2500    284.5167     72.7100    180.4500      0.0000
  1844.5000    284.5324     72.4095    185.3848      0.0000
  1844.7500    284.5472     72.2117    190.8711      0.0000
  1845.0000    284.5539     72.1499    195.7928      0.0000
  1845.2500    284.5485     72.2114    198.9371      0.0000
  1845.5000    284.5324     72.3528    199.2935      0.0000
  1845.7500    284.5114     72.5249    196.6352      0.0000
  1846.0000    284.4929     72.6826    191.8594      0.0000
  1846.2500    284.4828     72.7805    186.4266      0.0000
  1846.5000    284.4839     72.7793    181.3780      0.0000
  1846.7500    284.4953     72.6731    177.1362      0.0000
  1847.0000    284.5136     72.5081    174.2226      0.0000
  1847.2500    284.5345     72.3642    173.5209      0.0000
  1847.5000    284.5546     72.3087    175.3490      0.0000
  1847.7500    284.5723     72.3640    178.6802      0.0000
  1848.0000    284.5859     72.5088    181.9275      0.0000
  1848.2500    284.5938     72.7031    184.4841      0.0000
  1848.5000    284.5959     72.9079    186.8554      0.0000
  1848.7500    284.5937     73.0947    189.0646      0.0000
  1849.0000    284.5902     73.2454    189.7480      0.0000
  1849.2500    284.5883     73.3513    187.7359      0.0000
  1849.5000    284.5900     73.4119    184.0863      0.0000
  1849.7500    284.5962     73.4356    181.3993      0.0000
  1850.0000    284.6059     73.4384    180.9848      0.0000
  1850.2500    284.6163     73.4387    181.4980      0.0000
  1850.5000    284.6244     73.4485    180.4921      0.0000
  1850.7500    284.6287     73.4718    176.6377      0.0000
  1851.0000    284.6299     73.5057    170.2418      0.0000
  1851.2500    284.6297     73.5398    162.3331      0.0000
  1851.5000    284.6287     73.5587    153.9274      0.0000
  1851.7500    284.6260     73.5541    145.9176      0.0000
  1852.0000    284.6217     73.5372    138.9979      0.0000
  1852.2500    284.6170     73.5360    133.5207      0.0000
  1852.5000    284.6138     73.5772    129.6586      0.0000
  1852.7500    284.6119     73.6676    127.8250      0.0000
  1853.0000    284.6095     73.7890    128.7177      0.0000
  1853.2500    284.6053     73.9122    132.6773      0.0000
  1853.5000    284.5997     74.0159    139.0779      0.0000
  1853.7500    284.5937     74.0922    146.6813      0.0000
  1854.0000    284.5874     74.1354    154.4460      0.0000
  1854.2500    284.5809     74.1341    161.5491      0.0000
  1854.5000    284.5751     74.0780    166.7734      0.0000
  1854.7500    284.5715     73.9731    168.5846      0.0000
  1855.0000    284.5710     73.8490    166.1711      0.0000
  1855.2500    284.5729     73.7487    160.3994      0.0000
  1855.5000    284.5753     73.7055    153.7884      0.0000
  1855.7500    284.5760     73.7231    149.3698      0.0000
  1856.0000    284.5732     73.7751    149.0209      0.0000
  1856.2500    284.5670     73.8195    152.3294      0.0000
  1856.5000    284.5594     73.8166    156.8912      0.0000
  1856.7500    284.5531     73.7484    159.8992      0.0000
  1857.0000    284.5495     73.6321    159.8759      0.0000
  1857.2500    284.5478     73.5099    157.3650      0.0000
  1857.5000    284.5461     73.4196    154.2790      0.0000
  1857.7500    284.5434     73.3742    152.5850      0.0000
  1858.0000    284.5403     73.3663    153.3530      0.0000
  1858.2500    284.5378     73.3839    156.6747      0.0000
  1858.5000    284.5363     73.4185    162.0533      0.0000
  1858.7500    284.5359     73.4642    168.6049      0.0000
  1859.0000    284.5370     73.5126    175.1405      0.0000
  1859.2500    284.5403     73.5513    180.6816      0.0000
  1859.5000    284.5461     73.5687    184.9476      0.0000
  1859.7500    284.5533     73.5649    187.9413      0.0000
  1860.0000    284.5594     73.5588    189.2042      0.0000
  1860.2500    284.5615     73.5818    188.1404      0.0000
  1860.5000    284.5576     73.6626    185.1562      0.0000
  1860.7500    284.5476     73.8081    181.7690      0.0000
  1861.0000    284.5332     73.9954    179.3539      0.0000
  1861.2500    284.5181     74.1807    178.4895      0.0000
  1861.5000    284.5064     74.3254    179.5685      0.0000
  1861.7500    284.5000     74.4154    182.8871      0.0000
  1862.0000    284.4980     74.4593    187.6004      0.0000
  1862.2500    284.4980     74.4709    191.5464      0.0000
  1862.5000    284.4973     74.4591    192.8184      0.0000
  1862.7500    284.4937     74.4335    191.1382      0.0000
  1863.0000    284.4870     74.4117    187.4236      0.0000
  1863.2500    284.4781     74.4152    182.4946      0.0000
  1863.5000    284.4687     74.4591    176.5274      0.0000
