~Version Information
VERS.                      2.0: CWLS Log ASCII Standard - VERSION 2.0
WRAP.                       NO: One line per depth step
~Well Information Block
STRT.FT               802.1000: 
STOP.FT              1915.0000: 
STEP.FT                 0.1000: 
NULL.                -999.2500: 
COMP.          Petrogulf Corporation: COMPANY
WELL.             State 16-32R: WELL
FLD.           Purgatorie River: FIELD
LOC.           1849' FNL & 1677' FEL: LOCATION
CNTY.               Las Animas: COUNTY
SRVC.                         : SERVICE COMPANY
DATE.          Thu May 13 18:17:16 2004: LOG DATE
UWI.           05 071 08033 00: UNIQUE WELL ID
STAT.                 Colorado: STATE
~Curve Information Block
DEPT.FT            0 000 00 00: Depth
DCAL.in                       : CDL Caliper
RHOB.g/cc                     : CDL Bulk Density
RHOC.g/cc                     : CDL Density Correction
DPOR.pu                       : CDL Density Porosity
GR.GAPI                       : Gamma Ray
NPOR.pu                       : Neutron Porosity
~Parameter Information Block
~A  Depth       DCAL        RHOB        RHOC        DPOR         GR         NPOR    
# ...
  1685.3000      7.7673      2.6153      0.1532      2.1052     51.8825     22.0378
  1685.4000      7.7673      2.5870      0.1161      3.8197     62.3263     21.8822
  1685.5000      7.7852      2.5507     -0.0075      6.0162     71.2557     21.9470
  1685.6000      7.7852      2.5261      0.0662      7.5062     71.2696     22.1842
  1685.7000      7.7852      2.5168     -0.0173      8.0755     62.1809     22.6144
  1685.8000      7.7794      2.5371      0.0138      6.8408     55.7961     22.6869
  1685.9000      7.7794      2.5702      0.1685      4.8346     59.5465     22.1314
  1686.0000      7.8511      2.5737      0.0780      4.6263     62.7972     21.5313
  1686.1000      7.8511      2.5525      0.0812      5.9063     56.3741     21.1949
  1686.2000      7.8511      2.5402      0.0416      6.6538     47.9068     20.7889
  1686.3000      7.8615      2.5444      0.0751      6.3970     42.6604     20.2978
  1686.4000      7.8615      2.5467      0.0722      6.2587     39.8496     20.0088
  1686.5000      7.8510      2.5371      0.0308      6.8398     41.7948     19.8175
  1686.6000      7.8510      2.5263      0.0294      7.4988     47.1452     19.7550
  1686.7000      7.8510      2.5321      0.0097      7.1483     49.6757     20.0833
  1686.8000      7.8574      2.5451      0.0874      6.3574     46.5762     20.5301
  1686.9000      7.8574      2.5412      0.0313      6.5942     43.1119     20.5941
  1687.0000      7.8571      2.5335      0.0460      7.0628     45.5183     20.4378
  1687.1000      7.8571      2.5384      0.0346      6.7654     54.2078     20.4632
  1687.2000      7.8571      2.5394      0.0170      6.7054     62.4716     20.6051
  1687.3000      7.8424      2.5174      0.0189      8.0339     60.4277     20.8174
  1687.4000      7.8424      2.4858     -0.0053      9.9497     51.8942     21.0493
  1687.5000      7.8622      2.4687     -0.0117     10.9889     52.4311     20.7608
  1687.6000      7.8622      2.4623      0.0475     11.3744     61.4667     19.8669
  1687.7000      7.8622      2.4548     -0.0667     11.8328     65.2735     19.2590
  1687.8000      7.8703      2.4433      0.0166     12.5253     61.1581     19.5173
  1687.9000      7.8703      2.4347     -0.0409     13.0487     56.2730     20.1733
  1688.0000      7.8805      2.4539     -0.0337     11.8873     54.5988     20.7120
  1688.1000      7.8805      2.4981      0.0565      9.2032     51.5999     20.8311
  1688.2000      7.8805      2.5200      0.1212      7.8788     42.4303     20.4445
  1688.3000      7.8878      2.5024     -0.0097      8.9456     30.6252     20.1804
  1688.4000      7.8878      2.4832      0.0123     10.1084     21.9114     20.3250
  1688.5000      7.8898      2.4950     -0.0427      9.3949     17.5410     20.5746
  1688.6000      7.8898      2.5301      0.0633      7.2683     17.5754     20.8919
  1688.7000      7.8898      2.5547      0.0619      5.7778     25.3566     21.2232
  1688.8000      7.8915      2.5483      0.0743      6.1636     41.0157     21.1859
  1688.9000      7.8915      2.5194      0.0424      7.9134     51.6848     20.6816
  1689.0000      7.8874      2.4912      0.0282      9.6233     47.8707     20.1601
  1689.1000      7.8874      2.4722      0.0582     10.7766     38.8469     20.0715
  1689.2000      7.8874      2.4502      0.0351     12.1090     34.6260     20.5834
  1689.3000      7.8748      2.4203     -0.0751     13.9197     35.4672     21.4869
  1689.4000      7.8748      2.4020     -0.0530     15.0312     40.1575     22.1049
  1689.5000      7.8639      2.4250     -0.0801     13.6349     46.0058     22.1568
  1689.6000      7.8639      2.4868      0.0051      9.8914     50.0639     22.0165
  1689.7000      7.8639      2.5369      0.1163      6.8534     55.5549     22.0132
  1689.8000      7.8653      2.5509      0.1063      6.0084     64.4942     21.9660
  1689.9000      7.8653      2.5620      0.0907      5.3354     68.2687     21.6090
  1690.0000      7.8650      2.5907      0.1625      3.5912     62.2006     21.2632
  1690.1000      7.8650      2.6117      0.2028      2.3234     52.5785     21.3822
  1690.2000      7.8650      2.6000      0.1456      3.0321     45.6489     21.7173
  1690.3000      7.8647      2.5743      0.1237      4.5894     41.9125     21.8239
  1690.4000      7.8647      2.5692      0.0880      4.8949     40.5324     21.7491
  1690.5000      7.8529      2.5801      0.1839      4.2373     41.4111     21.5313
  1690.6000      7.8529      2.5734      0.1066      4.6446     42.6286     21.3995
  1690.7000      7.8529      2.5466      0.0943      6.2672     41.8250     21.7752
  1690.8000      7.8770      2.5238      0.0153      7.6471     38.5971     22.2754
  1690.9000      7.8770      2.5051      0.0793      8.7806     35.1734     22.2656
  1691.0000      7.8721      2.4746     -0.0200     10.6326     32.0931     21.9103
  1691.1000      7.8721      2.4435     -0.0512     12.5144     26.7422     21.6880
  1691.2000      7.8721      2.4376     -0.0630     12.8704     23.5139     21.8524
  1691.3000      7.8864      2.4647     -0.0089     11.2321     29.2828     22.4419
  1691.4000      7.8864      2.4957      0.1042      9.3537     38.4779     23.4229
  1691.5000      7.8793      2.5018      0.0160      8.9789     43.4790     24.4499
  1691.6000      7.8793      2.4981      0.0474      9.2068     45.2150     24.9257
  1691.7000      7.8793      2.5078      0.0220      8.6196     45.6567     24.9529
  1691.8000      7.8672      2.5399     -0.0078      6.6709     46.4245     25.0978
  1691.9000      7.8672      2.5829      0.0007      4.0654     44.3426     25.3843
  1692.0000      7.8656      2.6081      0.0560      2.5398     37.2274     25.6744
  1692.1000      7.8656      2.6111     -0.0378      2.3596     34.8342     26.2497
  1692.2000      7.8656      2.6075      0.0322      2.5784     42.2027     27.0756
  1692.3000      7.8715      2.5938     -0.0001      3.4035     50.3102     27.7112
  1692.4000      7.8715      2.5616      0.0198      5.3586     53.8343     27.9236
  1692.5000      7.8741      2.5030      0.0844      8.9084     58.1331     27.7169
  1692.6000      7.8741      2.4229      0.0026     13.7622     71.5210     27.0940
  1692.7000      7.8741      2.3666     -0.0568     17.1777     89.0842     26.1393
  1692.8000      7.8786      2.3606     -0.0339     17.5367     97.2397     25.3842
  1692.9000      7.8786      2.3684      0.0315     17.0684     96.3195     25.1487
  1693.0000      7.8693      2.3508     -0.0385     18.1316     96.8154     24.9333
  1693.1000      7.8693      2.3110      0.0074     20.5446    102.9637     24.4313
  1693.2000      7.8693      2.2945     -0.0201     21.5436    108.7672     24.0683
  1693.3000      7.8733      2.3470      0.2302     18.3659    111.6619     24.0643
  1693.4000      7.8733      2.4453      0.3589     12.4061    117.0206     24.1686
  1693.5000      7.8804      2.5343      0.3723      7.0128    126.3208     24.1529
  1693.6000      7.8804      2.5808      0.4344      4.1937    129.2844     23.8821
  1693.7000      7.8804      2.5727      0.4527      4.6846    123.3961     23.5223
  1693.8000      7.9106      2.5323      0.2437      7.1315    120.7658     23.6134
  1693.9000      7.9106      2.4997      0.2824      9.1087    120.9830     24.3535
  1694.0000      8.0231      2.4836      0.2897     10.0875    119.5009     25.1700
  1694.1000      8.0231      2.4698      0.2939     10.9234    119.6506     25.4602
  1694.2000      8.0231      2.4417      0.2509     12.6240    120.2204     25.2961
  1694.3000      8.2559      2.3867      0.3115     15.9561    118.5332     25.0673
  1694.4000      8.2559      2.3167      0.1928     20.2025    122.1704     25.0135
  1694.5000      8.3161      2.2738      0.0998     22.7970    131.0621     25.1313
  1694.6000      8.3161      2.2804      0.1580     22.4019    134.5493     25.2500
  1694.7000      8.3161      2.2995      0.1866     21.2423    129.2158     25.3423
  1694.8000      8.5646      2.2927      0.2289     21.6556    118.5797     25.3817
