~Version Information
VERS.                      2.0: CWLS Log ASCII Standard - VERSION 2.0
WRAP.                       NO: One line per depth step
~Well Information Block
STRT.FT               720.0000: 
STOP.FT              2730.2000: 
STEP.FT                 0.1000: 
NULL.                -999.2500: 
COMP.          Evergreen Operating Corporation: COMPANY
WELL.            Rangely 22-28: WELL
FLD.           Purgatoire River: FIELD
LOC.           1741' FNL & 2335' FWL: LOCATION
PROV.                 Colorado: PROVINCE
CNTY.               Las Animas: COUNTRY
SRVC.                Patterson: SERVICE COMPANY
DATE.          Thu Sep 16 15:10:36 2004: LOG DATE
UWI.           05 071 08044 00: UNIQUE WELL ID
~Curve Information Block
DEPT.FT            0 000 00 00: Depth
DCAL.in                       : CDL Caliper
DPOR.pu                       : CDL Density Porosity
NPOR.pu                       : Neutron Porosity
RHOB.g/cc                     : CDL Bulk Density
RHOC.g/cc                     : CDL Density Correction
GR.GAPI                       : Gamma Ray
~Parameter Information Block
~A  Depth       DCAL        DPOR        NPOR        RHOB        RHOC         GR     
# ...
  2496.0000      0.0000      0.0000      0.0000      0.0000      0.0000    119.0107
  2496.1000      0.0000      0.0000      0.0000      0.0000      0.0000    116.9177
  2496.2000      0.0000      0.0000      0.0000      0.0000      0.0000    104.3306
  2496.3000      0.0000      0.0000      0.0000      0.0000      0.0000     93.4173
  2496.4000      0.0000      0.0000      0.0000      0.0000      0.0000     93.6845
  2496.5000      0.0000      0.0000      0.0000      0.0000      0.0000    102.0788
  2496.6000      0.0000      0.0000      0.0000      0.0000      0.0000    114.1535
  2496.7000      0.0000      0.0000      0.0000      0.0000      0.0000    127.7340
  2496.8000      0.0000      0.0000      0.0000      0.0000      0.0000    139.0621
  2496.9000      0.0000      0.0000      0.0000      0.0000      0.0000    141.6031
  2497.0000      0.0000      0.0000      0.0000      0.0000      0.0000    133.1746
  2497.1000      0.0000      0.0000      0.0000      0.0000      0.0000    121.5255
  2497.2000      0.0000      0.0000      0.0000      0.0000      0.0000    113.2542
  2497.3000      0.0000      0.0000      0.0000      0.0000      0.0000    104.5591
  2497.4000      0.0000      0.0000      0.0000      0.0000      0.0000     99.6245
  2497.5000      0.0000      0.0000      0.0000      0.0000      0.0000    107.7889
  2497.6000      0.0000      0.0000      0.0000      0.0000      0.0000    121.8188
  2497.7000      0.0000      0.0000      0.0000      0.0000      0.0000    131.8272
  2497.8000      0.0000      0.0000      0.0000      0.0000      0.0000    133.4441
  2497.9000      0.0000      0.0000      0.0000      0.0000      0.0000    124.1694
  2498.0000      0.0000      0.0000      0.0000      0.0000      0.0000    109.1902
  2498.1000      0.0000      0.0000      0.0000      0.0000      0.0000     97.0905
  2498.2000      0.0000      0.0000      0.0000      0.0000      0.0000     89.4541
  2498.3000      0.0000      0.0000      0.0000      0.0000      0.0000     80.7023
  2498.4000      0.0000      0.0000      0.0000      0.0000      0.0000     72.1656
  2498.5000      0.0000      0.0000      0.0000      0.0000      0.0000     73.2129
  2498.6000      0.0000      0.0000      0.0000      0.0000      0.0000     86.5569
  2498.7000      0.0000      0.0000      0.0000      0.0000      0.0000    101.8036
  2498.8000      0.0000      0.0000      0.0000      0.0000      0.0000    108.3951
  2498.9000      0.0000      0.0000      0.0000      0.0000      0.0000    107.3722
  2499.0000      0.0000      0.0000      0.0000      0.0000      0.0000    103.7329
  2499.1000      0.0000      0.0000      0.0000      0.0000      0.0000    100.3011
  2499.2000      0.0000      0.0000      0.0000      0.0000      0.0000     97.4613
  2499.3000      0.0000      0.0000      0.0000      0.0000      0.0000     93.6573
  2499.4000      0.0000      0.0000      0.0000      0.0000      0.0000     90.7234
  2499.5000      0.0000      0.0000      0.0000      0.0000      0.0000     91.7672
  2499.6000      0.0000      0.0000      0.0000      0.0000      0.0000     94.0293
  2499.7000      0.0000      0.0000      0.0000      0.0000      0.0000     98.3079
  2499.8000      0.0000      0.0000      0.0000      0.0000      0.0000    111.0140
  2499.9000      0.0000      0.0000      0.0000      0.0000      0.0000    123.9741
  2500.0000      0.0000      0.0000      0.0000      0.0000      0.0000    127.4427
  2500.1000      0.0000      0.0000      0.0000      0.0000      0.0000    126.6209
  2500.2000      0.0000      0.0000      0.0000      0.0000      0.0000    126.7417
  2500.3000      0.0000      0.0000      0.0000      0.0000      0.0000    125.3722
  2500.4000      0.0000      0.0000      0.0000      0.0000      0.0000    120.6338
  2500.5000      0.0000      0.0000      0.0000      0.0000      0.0000    115.4315
  2500.6000      0.0000      0.0000      0.0000      0.0000      0.0000    115.8298
  2500.7000      0.0000      0.0000      0.0000      0.0000      0.0000    124.0525
  2500.8000      0.0000      0.0000      0.0000      0.0000      0.0000    129.9407
  2500.9000      0.0000      0.0000      0.0000      0.0000      0.0000    122.6646
  2501.0000      0.0000      0.0000      0.0000      0.0000      0.0000    110.6701
  2501.1000      0.0000      0.0000      0.0000      0.0000      0.0000    104.4412
  2501.2000      0.0000      0.0000      0.0000      0.0000      0.0000     99.3105
  2501.3000      0.0000      0.0000      0.0000      0.0000      0.0000     90.2648
  2501.4000      0.0000      0.0000      0.0000      0.0000      0.0000     82.1290
  2501.5000      0.0000      0.0000      0.0000      0.0000      0.0000     83.8905
  2501.6000      0.0000      0.0000      0.0000      0.0000      0.0000     89.8926
  2501.7000      0.0000      0.0000      0.0000      0.0000      0.0000     88.6420
  2501.8000      0.0000      0.0000      0.0000      0.0000      0.0000     85.4207
  2501.9000      0.0000      0.0000      0.0000      0.0000      0.0000     84.7783
  2502.0000      0.0000      0.0000      0.0000      0.0000      0.0000     83.4565
  2502.1000      0.0000      0.0000      0.0000      0.0000      0.0000     82.0366
  2502.2000      0.0000      0.0000      0.0000      0.0000      0.0000     84.0709
  2502.3000      0.0000      0.0000      0.0000      0.0000      0.0000     93.5940
  2502.4000      0.0000      0.0000      0.0000      0.0000      0.0000    106.4051
  2502.5000      0.0000      0.0000      0.0000      0.0000      0.0000    107.1009
  2502.6000      0.0000      0.0000      0.0000      0.0000      0.0000     89.1739
  2502.7000      0.0000      0.0000      0.0000      0.0000      0.0000     66.9069
  2502.8000      0.0000      0.0000      0.0000      0.0000      0.0000     55.5435
  2502.9000      0.0000      0.0000      0.0000      0.0000      0.0000     60.9548
  2503.0000      0.0000      0.0000      0.0000      0.0000      0.0000     80.2136
  2503.1000      0.0000      0.0000      0.0000      0.0000      0.0000     95.6630
  2503.2000      0.0000      0.0000      0.0000      0.0000      0.0000     98.3899
  2503.3000      0.0000      0.0000      0.0000      0.0000      0.0000     93.4338
  2503.4000      0.0000      0.0000      0.0000      0.0000      0.0000     79.0814
  2503.5000      0.0000      0.0000      0.0000      0.0000      0.0000     60.9645
  2503.6000      0.0000      0.0000      0.0000      0.0000      0.0000     54.2301
  2503.7000      0.0000      0.0000      0.0000      0.0000      0.0000     60.2733
  2503.8000      0.0000      0.0000      0.0000      0.0000      0.0000     69.0599
  2503.9000      0.0000      0.0000      0.0000      0.0000      0.0000     74.8204
  2504.0000      0.0000      0.0000      0.0000      0.0000      0.0000     78.6052
  2504.1000      0.0000      0.0000      0.0000      0.0000      0.0000     83.6711
  2504.2000      0.0000      0.0000      0.0000      0.0000      0.0000     89.6717
  2504.3000      0.0000      0.0000      0.0000      0.0000      0.0000     94.5895
  2504.4000      0.0000      0.0000      0.0000      0.0000      0.0000     96.1613
  2504.5000      0.0000      0.0000      0.0000      0.0000      0.0000     93.7137
  2504.6000      0.0000      0.0000      0.0000      0.0000      0.0000     89.0814
  2504.7000      0.0000      0.0000      0.0000      0.0000      0.0000     84.4090
  2504.8000      0.0000      0.0000      0.0000      0.0000      0.0000     81.7402
  2504.9000      0.0000      0.0000      0.0000      0.0000      0.0000     78.3016
  2505.0000      0.0000      0.0000      0.0000      0.0000      0.0000     75.6349
  2505.1000      0.0000      0.0000      0.0000      0.0000      0.0000     80.6119
  2505.2000      0.0000      0.0000      0.0000      0.0000      0.0000     89.1824
  2505.3000      0.0000      0.0000      0.0000      0.0000      0.0000     90.2214
  2505.4000      0.0000      0.0000      0.0000      0.0000      0.0000     83.2810
  2505.5000      0.0000      0.0000      0.0000      0.0000      0.0000     75.6211
