~Version Information
VERS.                      2.0: CWLS Log ASCII Standard - VERSION 2.0
WRAP.                       NO: One line per depth step
~Well Information Block
STRT.FT               423.0000: 
STOP.FT              2306.0000: 
STEP.FT                 0.1000: 
NULL.                -999.2500: 
COMP.          Pioneer Natural Resources: COMPANY
WELL.             Culver 14-12: WELL
FLD.           Purgatoire River: FIELD
LOC.           913' FSL & 1140' FWL: LOCATION
PROV.                 Colorado: PROVINCE
CNTY.               Las Animas: COUNTRY
SRVC.                Patterson: SERVICE COMPANY
DATE.          Tue Jun 07 09:21:05 2005: LOG DATE
UWI.           05 071 08386 00: UNIQUE WELL ID
~Curve Information Block
DEPT.FT            0 000 00 00: Depth
DCAL.in                       : CDL Caliper
RHOB.g/cc                     : CDL Bulk Density
RHOC.g/cc                     : CDL Density Correction
DPOR.pu                       : CDL Density Porosity
GR.GAPI                       : Gamma Ray
NPOR.pu                       : Neutron Porosity
~Parameter Information Block
~A  Depth       DCAL        RHOB        RHOC        DPOR         GR         NPOR    
# ...
  1795.8000      8.0635      2.4951      0.0399      9.3903     39.3639     22.7212
  1795.9000      8.0635      2.4928      0.0124      9.5273     42.2234     22.7307
  1796.0000      8.0648      2.5064      0.0340      8.7025     43.1906     22.7612
  1796.1000      8.0648      2.5197      0.0513      7.8976     44.2616     23.1948
  1796.2000      8.0648      2.5240      0.0647      7.6386     45.6649     23.7007
  1796.3000      8.0665      2.5329      0.0527      7.0949     45.7923     24.2641
  1796.4000      8.0665      2.5491      0.1028      6.1138     45.9727     24.7327
  1796.5000      8.0712      2.5594      0.1294      5.4895     45.9113     24.0539
  1796.6000      8.0712      2.5657      0.0654      5.1085     43.3252     22.7975
  1796.7000      8.0712      2.5725      0.1114      4.6953     40.4550     22.6034
  1796.8000      8.0739      2.5730      0.0693      4.6682     41.1227     23.2877
  1796.9000      8.0739      2.5720      0.0833      4.7248     44.2935     23.8866
  1797.0000      8.0943      2.5721      0.0762      4.7216     45.7711     24.0771
  1797.1000      8.0943      2.5598      0.0548      5.4668     44.2747     23.9943
  1797.2000      8.0943      2.5346      0.0679      6.9930     41.9485     23.9188
  1797.3000      8.0826      2.5160      0.0452      8.1189     42.2174     23.7317
  1797.4000      8.0826      2.5213      0.0593      7.7978     46.2093     23.2639
  1797.5000      8.0791      2.5567      0.0339      5.6535     51.4468     22.7673
  1797.6000      8.0791      2.6109      0.0732      2.3726     55.6514     22.5324
  1797.7000      8.0791      2.6484      0.1469      0.0950     57.7440     22.5637
  1797.8000      8.0789      2.6505      0.1029     -0.0286     56.9253     22.3601
  1797.9000      8.0789      2.6379      0.1093      0.7349     55.3088     21.8430
  1798.0000      8.0598      2.6301      0.0852      1.2066     54.3396     21.8440
  1798.1000      8.0598      2.6155      0.1153      2.0916     52.8094     22.6844
  1798.2000      8.0598      2.5787      0.0998      4.3184     50.2647     23.7816
  1798.3000      8.0662      2.5363      0.0270      6.8909     47.7149     24.7860
  1798.4000      8.0662      2.5165      0.0442      8.0884     47.6016     25.5097
  1798.5000      8.0701      2.5226      0.0602      7.7217     49.5754     25.5833
  1798.6000      8.0701      2.5372      0.0584      6.8361     50.6639     25.2679
  1798.7000      8.0701      2.5506      0.0189      6.0266     49.8966     25.0878
  1798.8000      8.0506      2.5632      0.0847      5.2584     48.8287     24.6464
  1798.9000      8.0506      2.5691      0.0720      4.9012     47.6707     23.5629
  1799.0000      8.0530      2.5654      0.0696      5.1288     45.2612     22.6024
  1799.1000      8.0530      2.5626      0.0439      5.2970     44.2158     22.4037
  1799.2000      8.0530      2.5667      0.0734      5.0494     47.3857     22.3699
  1799.3000      8.0476      2.5706      0.0819      4.8125     51.5973     21.5067
  1799.4000      8.0476      2.5657      0.0756      5.1066     53.3661     19.8778
  1799.5000      8.0470      2.5561      0.0588      5.6879     52.4167     18.4342
  1799.6000      8.0470      2.5571      0.0671      5.6292     48.4953     17.6571
  1799.7000      8.0470      2.5848      0.0182      3.9532     44.8280     17.5111
  1799.8000      8.0516      2.6305      0.1195      1.1802     45.1579     17.9072
  1799.9000      8.0516      2.6530      0.1032     -0.1795     45.9273     18.6729
  1800.0000      8.0519      2.6285      0.1032      1.3041     42.5616     19.0910
  1800.1000      8.0519      2.5726      0.0449      4.6928     38.2791     18.6652
  1800.2000      8.0519      2.5170     -0.0059      8.0580     38.6249     18.2188
  1800.3000      8.0504      2.4903     -0.0211      9.6787     44.5929     18.7790
  1800.4000      8.0504      2.5034     -0.0231      8.8860     51.0849     20.6427
  1800.5000      8.0563      2.5428      0.0409      6.4942     52.5441     22.9468
  1800.6000      8.0563      2.5827      0.0764      4.0800     50.8825     24.2680
  1800.7000      8.0563      2.6065      0.1016      2.6361     50.3646     23.9741
  1800.8000      8.0635      2.6084      0.1238      2.5222     50.1289     22.7739
  1800.9000      8.0635      2.5896      0.0769      3.6609     47.2843     21.7395
  1801.0000      8.1043      2.5690      0.0249      4.9074     42.8912     21.3378
  1801.1000      8.1043      2.5643      0.0546      5.1934     40.1736     21.3663
  1801.2000      8.1043      2.5732      0.0473      4.6543     40.3235     21.5346
  1801.3000      8.1142      2.5795      0.0810      4.2756     41.9540     21.4398
  1801.4000      8.1142      2.5699      0.0204      4.8529     44.5215     20.9100
  1801.5000      8.1073      2.5558      0.0409      5.7113     47.6344     20.5071
  1801.6000      8.1073      2.5484      0.0489      6.1604     50.2341     20.3852
  1801.7000      8.1073      2.5414      0.0076      6.5847     51.9246     19.9891
  1801.8000      8.1073      2.5357      0.0304      6.9286     51.3456     19.2980
  1801.9000      8.1073      2.5465     -0.0164      6.2757     49.9040     19.2378
  1802.0000      8.1038      2.5725      0.0605      4.6940     50.5001     20.5743
  1802.1000      8.1038      2.5866      0.0593      3.8417     51.2788     22.9875
  1802.2000      8.1038      2.5757      0.0824      4.5001     49.5542     25.4086
  1802.3000      8.1154      2.5646      0.0151      5.1786     45.8845     26.7425
  1802.4000      8.1154      2.5853      0.0088      3.9217     41.0049     26.5372
  1802.5000      8.1032      2.6263      0.1208      1.4354     37.8356     25.6296
  1802.6000      8.1032      2.6434      0.1387      0.4006     40.2197     25.2516
  1802.7000      8.1032      2.6267      0.0604      1.4123     46.3372     25.3862
  1802.8000      8.0948      2.5983      0.0887      3.1360     52.6268     24.8757
  1802.9000      8.0948      2.5686      0.0943      4.9345     58.5335     23.8611
  1803.0000      8.0946      2.5462      0.0277      6.2932     60.9657     23.6680
  1803.1000      8.0946      2.5385      0.0504      6.7564     56.0067     24.0818
  1803.2000      8.0946      2.5383      0.0444      6.7710     48.1075     24.1437
  1803.3000      8.1031      2.5445      0.0501      6.3930     44.4490     24.0903
  1803.4000      8.1031      2.5626      0.1001      5.2980     45.8083     24.1715
  1803.5000      8.1045      2.5816      0.1048      4.1477     48.1109     23.8349
  1803.6000      8.1045      2.5920      0.0786      3.5143     48.9858     22.8907
  1803.7000      8.1045      2.5999      0.0936      3.0376     49.1722     21.3271
  1803.8000      8.1031      2.6115      0.0889      2.3344     47.3014     19.8562
  1803.9000      8.1031      2.6302      0.0381      1.1997     42.3969     19.7367
  1804.0000      8.1010      2.6475      0.0774      0.1506     39.7847     21.1395
  1804.1000      8.1010      2.6486      0.1018      0.0842     41.9460     23.2922
  1804.2000      8.1010      2.6397      0.0740      0.6268     43.4498     24.7934
  1804.3000      8.1184      2.6315      0.0627      1.1217     39.7571     24.4912
  1804.4000      8.1184      2.6196      0.0659      1.8438     34.6840     22.8123
  1804.5000      8.1236      2.6010      0.0543      2.9668     34.8381     21.3274
  1804.6000      8.1236      2.5837     -0.0045      4.0173     39.4527     21.2261
  1804.7000      8.1236      2.5737      0.0223      4.6267     43.3697     22.2602
  1804.8000      8.0904      2.5792     -0.0049      4.2894     42.9185     23.1139
  1804.9000      8.0904      2.6076      0.0394      2.5674     40.0012     23.1454
  1805.0000      8.0785      2.6390      0.0686      0.6664     41.0071     22.8895
  1805.1000      8.0785      2.6419      0.0951      0.4898     48.2211     22.4033
  1805.2000      8.0785      2.6117      0.0319      2.3190     54.3670     21.6408
  1805.3000      8.0452      2.5697     -0.0284      4.8666     52.2655     20.8510
