~Version Information
VERS.                      2.0: CWLS Log ASCII Standard - VERSION 2.0
WRAP.                       NO: One line per depth step
~Well Information Block
STRT.FT                -6.7500: 
STOP.FT               983.2500: 
STEP.FT                 0.2500: 
NULL.                -999.2500: 
COMP.          Pioneer Natural Resources: COMPANY
WELL.          Run-Away-Train 43-26: WELL
FLD.           Purgatorie River: FIELD
LOC.           1693' FSL & 1195' FWL------------: LOCATION
PROV.                       CO: PROVINCE
CNTY.               Las Animas: COUNTRY
SRVC.          Patterson Wireline: SERVICE COMPANY
DATE.          Thu Apr 14 12:30:00 2005: LOG DATE
UWI.           05 071 08188 00: UNIQUE WELL ID
~Curve Information Block
DEPT.FT            0 000 00 00: Depth
CCL.                          : Casing Collar Locator
TT3.usec                      : CBL 3' Travel Time
AMP3.mV                       : CBL 3' Amplitude
GR.GAPI                       : Gamma Ray
~Parameter Information Block
~A  Depth       CCL         TT3         AMP3         GR     
# ...
   629.7500      0.0000    822.7889      6.7742     73.0748
   630.0000      0.0000    827.8310      6.7863     80.1096
   630.2500      0.0000    833.1133      6.7619     86.6792
   630.5000      0.0000    838.7120      6.7447     91.0484
   630.7500      0.0000    843.3660      6.7810     92.6439
   631.0000      0.0000    845.1835      6.8403     92.0479
   631.2500      0.0000    843.3705      6.8443     89.5127
   631.5000      0.0000    839.0317      6.7698     84.6377
   631.7500      0.0000    834.2179      6.6773     77.8510
   632.0000      0.0000    830.3930      6.6300     71.1173
   632.2500      0.0000    827.8690      6.6261     66.4339
   632.5000      0.0000    826.3101      6.6288     64.1680
   632.7500      0.0000    825.3747      6.6261     63.4764
   633.0000      0.0000    824.9634      6.6327     63.8336
   633.2500      0.0000    825.2466      6.6578     65.1466
   633.5000      0.0000    826.6932      6.6948     66.5558
   633.7500      0.0000    829.9967      6.7229     66.3885
   634.0000      0.0000    835.6507      6.7096     63.9092
   634.2500      0.0000    843.2768      6.6411     60.5202
   634.5000      0.0000    851.3415      6.5565     58.6647
   634.7500      0.0000    857.7971      6.5136     59.6816
   635.0000      0.0000    861.1285      6.5212     62.9550
   635.2500      0.0000    860.7727      6.5390     67.0330
   635.5000      0.0000    856.8620      6.5454     71.1782
   635.7500      0.0000    850.1131      6.5570     75.5564
   636.0000      0.0000    841.9846      6.5818     80.2541
   636.2500      0.0000    834.3561      6.6028     84.7234
   636.5000      0.0000    828.6136      6.6258     88.0799
   636.7500      0.0000    825.0421      6.6898     89.4056
   637.0000      0.0000    823.1005      6.8043     87.9190
   637.2500      0.0000    822.1107      6.9173     83.4422
   637.5000      0.0000    821.6471      6.9866     76.8500
   637.7500      0.0000    821.4824      7.0489     69.8834
   638.0000      0.0000    821.4227      7.1727     64.3086
   638.2500      0.0000    821.3118      7.3500     60.8904
   638.5000      0.0000    821.1265      7.4788     58.9661
   638.7500      0.0000    820.9630      7.4571     57.1268
   639.0000      0.0000    820.9123      7.2793     54.5280
   639.2500      0.0000    820.9819      7.0431     51.7606
   639.5000      0.0000    821.1125      6.8755     50.4968
   639.7500      0.0000    821.2289      6.8435     52.0605
   640.0000      0.0000    821.2861      6.9171     56.1482
   640.2500      0.0000    821.2975      7.0149     61.0309
   640.5000      0.0000    821.3242      7.0858     65.0241
   640.7500      0.0000    821.4221      7.1362     67.5680
   641.0000      0.0000    821.6083      7.1784     68.9682
   641.2500      0.0000    821.8687      7.1859     69.6817
   641.5000      0.0000    822.1547      7.1298     70.1941
   641.7500      0.0000    822.4047      7.0443     71.1647
   642.0000      0.0000    822.7139      7.0082     73.1553
   642.2500      0.0000    823.6166      7.0475     76.1822
   642.5000      0.0000    826.1034      7.0891     79.6095
   642.7500      0.0000    830.9772      7.0422     82.2660
   643.0000      0.0000    837.7393      6.9112     82.8423
   643.2500      0.0000    844.0729      6.7952     80.7977
   643.5000      0.0000    846.9677      6.7752     76.8803
   643.7500      0.0000    844.8405      6.8384     72.3598
   644.0000      0.0000    838.4359      6.9191     68.0250
   644.2500      0.0000    829.3776      6.9649     64.2839
   644.5000      0.0000    818.1104      6.9267     61.7687
   644.7500      0.0000    804.1614      6.7384     61.2887
   645.0000      0.0000    789.0047      6.3770     63.2476
   645.2500      0.0000    777.9694      5.9241     67.2314
   645.5000      0.0000    778.0543      5.5214     72.0403
   645.7500      0.0000    793.1080      5.2715     76.2159
   646.0000      0.0000    820.9122      5.1938     78.8836
   646.2500      0.0000    854.2373      5.2385     80.1735
   646.5000      2.0000    884.8652      5.3274     80.7563
   646.7500     -2.0000    907.5477      5.4116     81.0776
   647.0000     -2.0000    920.0846      5.4986     81.2385
   647.2500      0.0000    919.9832      5.6262     81.5145
   647.5000      0.0000    903.9548      5.8329     82.5175
   647.7500      0.0000    873.0043      6.1366     84.4656
   648.0000      0.0000    836.1713      6.4872     86.4015
   648.2500      0.0000    806.0699      6.7553     86.6066
   648.5000      0.0000    790.3171      6.8286     84.1389
   648.7500      0.0000    787.8111      6.7121     79.8762
   649.0000      0.0000    791.8513      6.5039     75.8711
   649.2500      0.0000    795.4101      6.3040     73.6526
   649.5000      0.0000    794.5626      6.1672     73.0789
   649.7500      0.0000    789.6246      6.0921     72.6609
   650.0000      0.0000    784.5817      6.0271     71.0603
   650.2500      0.0000    784.2197      5.9074     68.4261
   650.5000      0.0000    790.2300      5.7071     66.2482
   650.7500      0.0000    799.8466      5.4656     65.8276
   651.0000      0.0000    808.4728      5.2651     67.1848
   651.2500      0.0000    813.1576      5.1735     69.5091
   651.5000      0.0000    813.5858      5.1941     71.9669
   651.7500      0.0000    810.8751      5.2742     73.6612
   652.0000      0.0000    806.3145      5.3607     73.5363
   652.2500      0.0000    800.9129      5.4313     71.2028
   652.5000      0.0000    795.3948      5.4731     67.7790
   652.7500      0.0000    790.3790      5.4722     65.3266
   653.0000      0.0000    786.6005      5.4483     65.2477
   653.2500      0.0000    784.9467      5.4629     67.4055
   653.5000      0.0000    786.2608      5.5481     70.7082
   653.7500      0.0000    790.9616      5.6465     74.0568
   654.0000      0.0000    798.4952      5.6641     76.5834
   654.2500      0.0000    807.1334      5.5842     77.3684
   654.5000      0.0000    814.7357      5.4916     75.4323
   654.7500      0.0000    819.9888      5.4813     70.1942
   655.0000      0.0000    822.8018      5.5769     62.0725
   655.2500      0.0000    823.5977      5.7425     52.7222
   655.5000      0.0000    822.5471      5.9248     44.5172
   655.7500      0.0000    819.6771      6.0610     39.2791
   656.0000      0.0000    815.6622      6.0986     37.2631
   656.2500      0.0000    812.0934      6.0481     37.5074
   656.5000      0.0000    810.2938      5.9842     39.0893
   656.7500      0.0000    809.7186      5.9685     41.6914
   657.0000      0.0000    808.3503      5.9947     45.0315
   657.2500      0.0000    805.2170      6.0305     48.3728
   657.5000      0.0000    801.9427      6.0758     50.9129
   657.7500      0.0000    801.2496      6.1432     52.4477
   658.0000      0.0000    804.0875      6.2071     53.5477
   658.2500      0.0000    808.4977      6.2229     55.2033
   658.5000      0.0000    811.2043      6.1833     58.3139
   658.7500      0.0000    810.2408      6.1155     63.2089
   659.0000      0.0000    806.2751      6.0250     69.3437
   659.2500      0.0000    801.7044      5.8755     75.4045
   659.5000      0.0000    798.7089      5.6418     80.0164
   659.7500      0.0000    798.3918      5.3644     82.5054
   660.0000      0.0000    801.2584      5.1307     82.9039
   660.2500      0.0000    807.5740      5.0019     81.4794
   660.5000      0.0000    816.7436      4.9789     78.7390
   660.7500      0.0000    826.2601      5.0277     75.7117
   661.0000      0.0000    831.8323      5.1032     73.7391
   661.2500      0.0000    829.8460      5.1593     73.8789
   661.5000      0.0000    820.5163      5.1833     76.4511
   661.7500      0.0000    808.3023      5.2184     80.8191
   662.0000      0.0000    798.8298      5.3112     85.4379
   662.2500      0.0000    795.2841      5.4378     88.4159
   662.5000      0.0000    797.1550      5.5236     88.5075
   662.7500      0.0000    801.5846      5.5402     85.8989
   663.0000      0.0000    805.6861      5.5424     82.2207
