~Version Information
 VERS.                                  2.0 : CWLS LAS VERSION
 WRAP.                                   NO : WRAPING MODE
 SWARE .                 MController 2.5.0J : SOFTWARE VERSION
~Well Information
 WELL.                        Montoya 7-12R : WELL
 COMP.                       Petrogulf Corp : COMPANY
 FLD.                      Purgatorie River : FIELD
 LOC.                 SW/NW Sec 7 T33S R67W : LOCATION
 DATE.                    11/18/04 11/19/04 : DATE(S) LOGGED
 SRVC.       Blanco Geological Services LLC : SERVICE COMPANY
 STAT.                                   CO : STATE
 CNTY.                           Las Animas : COUNTY
 CTRY.                                  USA : COUNTRY
 API.                       05-071-08240-00 : API NUMBER
 STRT.FT                              30.00 : START DEPTH
 STOP.FT                            2040.00 : STOP DEPTH
 STEP.FT                               1.00 : DEPTH INCREMENT
 NULL.                                -9999 : NULL VALUE
~Curve information
 DEPTH.FT                                   :
 ROP.MIN/FT                                 :
 GAS.UNITS                                  :
~ASCII Log data
# ...
      1230.0         0.30          8.4 
      1231.0         0.27         10.3 
      1232.0         0.20         11.6 
      1233.0         0.23         12.4 
      1234.0         0.13         14.5 
      1235.0         0.13         14.5 
      1236.0         0.13         14.7 
      1237.0         0.17         15.8 
      1238.0         0.13         11.6 
      1239.0         0.10         11.6 
      1240.0         0.17         14.8 
      1241.0         0.10         15.1 
      1242.0         0.13         15.1 
      1243.0         0.13         14.0 
      1244.0         0.27         10.8 
      1245.0         0.33          5.5 
      1246.0         0.30          4.5 
      1247.0         0.52          7.2 
      1248.0         0.50         10.8 
      1249.0         0.33         10.8 
      1250.0         0.30         10.6 
      1251.0         0.43        204.9 
      1252.0         0.53          3.7 
      1253.0         0.50          4.3 
      1254.0         0.35          4.0 
      1255.0         0.30          3.5 
      1256.0         0.27          3.7 
      1257.0         0.20          3.9 
      1258.0         0.23          3.9 
      1259.0         0.20          3.9 
      1260.0         0.23          3.9 
      1261.0         0.23          4.3 
      1262.0         0.20          4.4 
      1263.0         0.27          4.1 
      1264.0         0.23          3.7 
      1265.0         0.23          4.3 
      1266.0         0.27          4.8 
      1267.0         0.23          4.6 
      1268.0         0.27          4.3 
      1269.0         0.27          3.8 
      1270.0         0.35          6.9 
      1271.0         0.27          7.7 
      1272.0         0.27          9.4 
      1273.0         0.43         10.4 
      1274.0         0.27         10.1 
      1275.0         0.33          9.9 
      1276.0         0.30         10.0 
      1277.0         0.30         10.1 
      1278.0         0.33         84.6 
      1279.0         0.27         15.4 
      1280.0         0.27         21.2 
      1281.0         0.28         20.7 
      1282.0         0.23         19.6 
      1283.0         0.23         19.3 
      1284.0         0.20         14.0 
      1285.0         0.27         11.7 
      1286.0         0.27          8.8 
      1287.0         0.27          8.3 
      1288.0         0.27          8.4 
      1289.0         0.17          8.2 
      1290.0         0.30          8.3 
      1291.0         0.33          9.6 
      1292.0         0.25         10.9 
      1293.0         0.27         10.4 
      1294.0         0.13         10.4 
      1295.0         0.20         11.1 
      1296.0         0.17         11.5 
      1297.0         0.20         10.7 
      1298.0         0.30         10.1 
      1299.0         0.30         10.2 
      1300.0         0.30         10.3 
      1301.0         0.33         10.0 
      1302.0         0.40         10.0 
      1303.0         0.33         10.5 
      1304.0         0.45         10.1 
      1305.0         0.27         10.3 
      1306.0         0.20          9.9 
      1307.0         0.20        380.4 
      1308.0         0.23        380.4 
      1309.0         0.23        359.4 
      1310.0         0.27        146.5 
      1311.0         0.27         43.8 
      1312.0         0.23         32.8 
      1313.0         0.27         17.9 
      1314.0         0.23         19.4 
      1315.0         0.20         22.1 
      1316.0         0.10         23.4 
      1317.0         0.27         24.0 
      1318.0         0.25         22.3 
      1319.0         0.33         16.1 
      1320.0         0.40         11.9 
      1321.0         0.47          8.3 
      1322.0         0.43          7.3 
      1323.0         0.33          8.6 
      1324.0         0.40          8.2 
      1325.0         0.40          9.0 
      1326.0         0.30          9.4 
      1327.0         0.28          9.0 
      1328.0         0.27          8.6 
      1329.0         0.23          9.2 
      1330.0         0.27         10.4 
      1331.0         0.20         10.8 
      1332.0         0.20         10.6 
      1333.0         0.17         10.0 
      1334.0         0.17         10.0 
      1335.0         0.17         10.0 
      1336.0         0.20         10.2 
      1337.0         0.20       1989.5 
      1338.0         0.20        655.1 
      1339.0         0.20        655.1 
      1340.0         0.23        648.6 
      1341.0         0.27        645.3 
      1342.0         0.23        630.6 
      1343.0         0.28        624.0 
      1344.0         0.23        624.0 
      1345.0         0.23        624.0 
      1346.0         0.47        621.4 
      1347.0         0.27        620.4 
      1348.0         0.33        621.4 
      1349.0         0.27        626.3 
      1350.0         0.33        626.0 
      1351.0         0.20        627.0 
      1352.0         0.20        627.6 
      1353.0         0.27        625.7 
      1354.0         0.30        629.3 
      1355.0         0.27        632.5 
      1356.0         0.23        632.5 
      1357.0         0.13        639.7 
      1358.0         0.18        639.1 
      1359.0         0.20        639.1 
      1360.0         0.17        640.4 
      1361.0         0.13        636.8 
      1362.0         0.13        633.5 
      1363.0         0.17        633.5 
      1364.0         0.13        631.2 
      1365.0         0.17        631.2 
      1366.0         0.23        623.0 
      1367.0         0.30        624.4 
      1368.0         0.27        613.6 
      1369.0         0.27         23.0 
      1370.0         0.33         26.3 
      1371.0         0.27         26.2 
      1372.0         0.27         24.8 
      1373.0         0.28         22.7 
      1374.0         0.27         20.3 
      1375.0         0.27         14.7 
      1376.0         0.17         12.5 
      1377.0         0.27         11.8 
      1378.0         0.27          9.3 
      1379.0         0.27          8.7 
      1380.0         0.28          8.9 
      1381.0         0.23         10.3 
      1382.0         0.37         11.7 
      1383.0         0.33         12.9 
      1384.0         0.27         12.4 
      1385.0         0.30         12.6 
      1386.0         0.23         12.6 
      1387.0         0.30         14.0 
      1388.0         0.27         13.9 
      1389.0         0.20         13.8 
      1390.0         0.27         13.8 
      1391.0         0.30         13.9 
      1392.0         0.28         14.3 
      1393.0         0.37         14.7 
      1394.0         0.23         15.4 
      1395.0         0.27         15.5 
      1396.0         0.37         16.7 
      1397.0         0.27         16.4 
      1398.0         0.27         46.3 
      1399.0         0.27         72.7 
      1400.0         0.40        284.3 
      1401.0         0.27        344.9 
      1402.0         0.35        329.3 
      1403.0         0.20         88.3 
      1404.0         0.27         42.8 
      1405.0         0.23         39.8 
      1406.0         0.17         29.6 
      1407.0         0.27         32.8 
      1408.0         0.20         34.3 
      1409.0         0.07         34.3 
      1410.0         0.10         34.5 
      1411.0         0.17         34.5 
      1412.0         0.23         35.1 
      1413.0         0.23         30.5 
      1414.0         0.33         24.9 
      1415.0         0.30         15.8 
      1416.0         0.25          8.3 
      1417.0         0.27          8.3 
      1418.0         0.33          9.6 
      1419.0         0.40         12.2 
      1420.0         0.30         14.5 
      1421.0         0.27         15.0 
      1422.0         0.27         15.1 
      1423.0         0.27         15.6 
      1424.0         0.30         16.7 
      1425.0         0.30         16.2 
      1426.0         0.37         16.6 
      1427.0         0.32         17.1 
      1428.0         0.27       2640.2 
      1429.0         0.20       2382.5 
