~Version Information
VERS.                      2.0: CWLS Log ASCII Standard - VERSION 2.0
WRAP.                       NO: One line per depth step
~Well Information Block
STRT.FT               245.0000: 
STOP.FT              2464.2000: 
STEP.FT                 0.1000: 
NULL.                -999.2500: 
COMP.          Pioneer Natural Resources: COMPANY
WELL.          Oink Oink 14-36: WELL
FLD.           Purgatoire River: FIELD
LOC.           216' FSL & 263' FWL--: LOCATION
PROV.                 Colorado: PROVINCE
CNTY.               Las Animas: COUNTRY
SRVC.                Patterson: SERVICE COMPANY
DATE.          Wed Jun 08 16:53:09 2005: LOG DATE
UWI.           05 071 08394 00: UNIQUE WELL ID
~Curve Information Block
DEPT.FT            0 000 00 00: Depth
DCAL.in                       : CDL Caliper
RHOB.g/cc                     : CDL Bulk Density
RHOC.g/cc                     : CDL Density Correction
DPOR.pu                       : CDL Density Porosity
NPOR.pu                       : Neutron Porosity
GR.GAPI                       : Gamma Ray
~Parameter Information Block
~A  Depth       DCAL        RHOB        RHOC        DPOR        NPOR         GR     
# ...
  2289.8000      7.8727      2.4186      0.0831     14.0248     27.7214    139.9754
  2289.9000      7.8727      2.4250      0.0809     13.6370     27.7533    137.5215
  2290.0000      7.8741      2.4319      0.0731     13.2204     27.3222    136.5509
  2290.1000      7.8741      2.4421      0.0836     12.5998     27.0043    135.6536
  2290.2000      7.8741      2.4500      0.0788     12.1190     27.2276    132.6946
  2290.3000      7.8787      2.4558      0.0779     11.7699     27.6089    128.7024
  2290.4000      7.8787      2.4643      0.0708     11.2555     27.6782    128.1712
  2290.5000      7.8796      2.4721      0.0918     10.7843     27.5676    130.0178
  2290.6000      7.8796      2.4713      0.0986     10.8297     27.4881    130.2766
  2290.7000      7.8796      2.4623      0.0871     11.3782     27.5350    131.7180
  2290.8000      7.8748      2.4534      0.0776     11.9170     27.5030    137.5453
  2290.9000      7.8748      2.4459      0.0889     12.3717     27.1440    145.9566
  2291.0000      7.8716      2.4417      0.0481     12.6240     26.9523    150.9948
  2291.1000      7.8716      2.4544      0.0684     11.8536     27.4221    148.7706
  2291.2000      7.8716      2.4752      0.1248     10.5956     28.2575    143.4511
  2291.3000      7.8740      2.4732      0.1192     10.7163     28.6281    143.3299
  2291.4000      7.8740      2.4471      0.0766     12.2979     28.0255    148.9112
  2291.5000      7.8733      2.4236      0.0975     13.7186     26.9001    153.6864
  2291.6000      7.8733      2.4101      0.0880     14.5416     25.9175    157.5115
  2291.7000      7.8733      2.3947      0.0653     15.4699     25.2181    159.7930
  2291.8000      7.8615      2.3778      0.0229     16.4941     24.5465    156.8303
  2291.9000      7.8615      2.3762      0.0147     16.5958     23.8421    152.3633
  2292.0000      7.8452      2.4005      0.0764     15.1193     23.5787    149.7312
  2292.1000      7.8452      2.4423      0.0813     12.5899     23.6452    145.1123
  2292.2000      7.8452      2.4886      0.1053      9.7821     23.2664    137.6411
  2292.3000      7.8378      2.5321      0.1418      7.1447     22.4661    132.8929
  2292.4000      7.8378      2.5627      0.1582      5.2884     21.9763    134.6901
  2292.5000      7.8398      2.5743      0.1241      4.5867     22.1171    141.3696
  2292.6000      7.8398      2.5751      0.1119      4.5406     22.4398    148.4645
  2292.7000      7.8398      2.5766      0.0797      4.4505     22.3037    149.8216
  2292.8000      7.8477      2.5799      0.1079      4.2467     21.5319    148.6140
  2292.9000      7.8477      2.5818      0.0932      4.1317     20.7524    150.5015
  2293.0000      7.8566      2.5878      0.0907      3.7679     20.6758    149.4900
  2293.1000      7.8566      2.6006      0.1086      2.9932     20.7652    144.5703
  2293.2000      7.8566      2.6115      0.0627      2.3335     20.4457    145.3553
  2293.3000      7.8631      2.6136      0.1079      2.2055     20.3440    152.1539
  2293.4000      7.8631      2.6077      0.0449      2.5623     20.7414    154.0179
  2293.5000      7.8651      2.6021      0.0487      2.9015     20.9029    148.3110
  2293.6000      7.8651      2.5998      0.0529      3.0444     20.5819    140.4259
  2293.7000      7.8651      2.5952      0.0983      3.3236     20.5612    136.1447
  2293.8000      7.8610      2.5873      0.0673      3.8013     21.1477    137.5831
  2293.9000      7.8610      2.5807      0.0353      4.2028     21.7049    138.7735
  2294.0000      7.8522      2.5767      0.0191      4.4439     21.9111    136.4584
  2294.1000      7.8522      2.5748      0.0403      4.5576     21.9131    136.2644
  2294.2000      7.8522      2.5714      0.0615      4.7625     21.8338    137.9143
  2294.3000      7.8433      2.5639      0.0546      5.2206     21.7996    135.2544
  2294.4000      7.8433      2.5599      0.0450      5.4585     21.7191    131.0662
  2294.5000      7.8395      2.5662      0.0429      5.0809     21.2461    132.3215
  2294.6000      7.8395      2.5780      0.0601      4.3659     20.5636    137.2616
  2294.7000      7.8395      2.5906      0.0772      3.6019     20.2438    137.7520
  2294.8000      7.8415      2.6055      0.0799      2.6959     20.2046    130.7404
  2294.9000      7.8415      2.6194      0.0866      1.8536     19.8318    122.9048
  2295.0000      7.8481      2.6287      0.0344      1.2914     19.0650    120.2924
  2295.1000      7.8481      2.6384      0.0501      0.7030     18.5290    122.4850
  2295.2000      7.8481      2.6433      0.0874      0.4080     18.6161    124.7542
  2295.3000      7.8561      2.6330      0.0558      1.0315     19.1066    120.7154
  2295.4000      7.8561      2.6133      0.0593      2.2253     19.6645    113.6853
  2295.5000      7.8601      2.5957      0.0509      3.2883     20.0046    113.4927
  2295.6000      7.8601      2.5798      0.0504      4.2559     19.7567    121.1190
  2295.7000      7.8601      2.5581      0.0372      5.5727     19.3862    129.2024
  2295.8000      7.8554      2.5417     -0.0165      6.5606     19.6020    133.5162
  2295.9000      7.8554      2.5480      0.0349      6.1834     19.8304    136.1210
  2296.0000      7.8451      2.5650      0.0587      5.1524     19.3684    136.2520
  2296.1000      7.8451      2.5717      0.0672      4.7469     18.5573    134.6353
  2296.2000      7.8451      2.5679      0.0709      4.9735     18.0341    136.7774
  2296.3000      7.8370      2.5674      0.0534      5.0057     18.1648    140.2340
  2296.4000      7.8370      2.5779      0.0694      4.3716     18.7407    137.3066
  2296.5000      7.8223      2.5923      0.0879      3.4949     19.1517    128.7880
  2296.6000      7.8223      2.5989      0.0880      3.0968     19.1984    121.5287
  2296.7000      7.8223      2.5915      0.0559      3.5439     18.9892    119.9162
  2296.8000      7.7941      2.5689      0.0667      4.9141     18.3739    122.9609
  2296.9000      7.7941      2.5407     -0.0019      6.6218     17.6486    124.7618
  2297.0000      7.7689      2.5228      0.0355      7.7103     17.7548    120.5566
  2297.1000      7.7689      2.5178      0.0182      8.0137     18.6847    112.7779
  2297.2000      7.7689      2.5208      0.0120      7.8324     19.4389    109.6615
  2297.3000      7.7542      2.5216      0.0407      7.7836     19.8273    114.3347
  2297.4000      7.7542      2.5049      0.0406      8.7960     20.3891    120.5485
  2297.5000      7.7428      2.4709     -0.0018     10.8539     21.1470    124.0816
  2297.6000      7.7428      2.4422     -0.0061     12.5953     21.9284    129.2410
  2297.7000      7.7428      2.4401      0.0023     12.7235     22.6002    137.9654
  2297.8000      7.7357      2.4661      0.0373     11.1462     22.8758    143.9868
  2297.9000      7.7357      2.5046      0.0739      8.8150     22.8903    142.9850
  2298.0000      7.7383      2.5372      0.1180      6.8340     22.8888    143.9563
  2298.1000      7.7383      2.5565      0.1337      5.6655     22.8577    153.3019
  2298.2000      7.7383      2.5699      0.1022      4.8547     22.5439    163.4552
  2298.3000      7.7580      2.5885      0.1038      3.7272     21.9389    168.7644
  2298.4000      7.7580      2.6082      0.1240      2.5336     21.6246    167.1174
  2298.5000      7.7921      2.6198      0.1476      1.8308     21.4684    154.9722
  2298.6000      7.7921      2.6226      0.1199      1.6614     20.8585    137.2318
  2298.7000      7.7921      2.6134      0.1007      2.2172     20.1055    128.1063
  2298.8000      7.8164      2.5930      0.0803      3.4519     19.8157    132.8624
  2298.9000      7.8164      2.5809      0.0391      4.1873     19.9168    141.0244
  2299.0000      7.8249      2.5911      0.0609      3.5690     20.1741    142.4678
  2299.1000      7.8249      2.6097      0.0629      2.4451     20.5938    138.9146
  2299.2000      7.8249      2.6179      0.0711      1.9432     21.1196    135.4769
  2299.3000      7.8254      2.6126      0.0472      2.2652     21.4198    130.8121
