~Version Information
VERS.                      2.0: CWLS Log ASCII Standard - VERSION 2.0
WRAP.                       NO: One line per depth step
~Well Information Block
STRT.FT               577.8000: 
STOP.FT              2445.8000: 
STEP.FT                 0.1000: 
NULL.                -999.2500: 
COMP.          Petrogulf Corporation: COMPANY
WELL.             State 16-32V: WELL
FLD.           Purgatorie River: FIELD
LOC.           1599' FNL & 1783' FEL: LOCATION
CNTY.               Las Animas: COUNTY
SRVC.                         : SERVICE COMPANY
DATE.          Thu Jun 05 16:36:04 2003: LOG DATE
UWI.           05 071 07726 00: UNIQUE WELL ID
STAT.                 Colorado: STATE
~Curve Information Block
DEPT.FT            0 000 00 00: Depth
DCAL.in                       : Caliper from Density Tool
RHOB.g/cc                     : Bulk Density
RHOC.g/cc                     : Density Correction
DPOR.pu                       : Density Porosity
GR.GAPI                       : Gamma Ray
NPOR.pu                       : Neutron Porosity
~Parameter Information Block
~A  Depth       DCAL        RHOB        RHOC        DPOR         GR         NPOR    
# ...
  1077.0000      8.4201      2.2600      0.0935     23.6367    150.3149     23.8427
  1077.1000      8.4201      2.2600      0.0935     23.6367    150.5275     24.1144
  1077.2000      8.4201      2.2600      0.0935     23.6367    150.7151     24.2275
  1077.3000      8.3130      2.2949      0.1031     21.5233    150.8701     24.1589
  1077.4000      8.3130      2.2949      0.1031     21.5233    150.9932     23.8956
  1077.5000      8.2981      2.3019      0.1162     21.0973    151.0899     23.4362
  1077.6000      8.2981      2.3019      0.1162     21.0973    151.1723     22.7905
  1077.7000      8.2981      2.3019      0.1162     21.0973    151.2557     21.9798
  1077.8000      8.2400      2.2635      0.1348     23.4230    151.3518     21.0347
  1077.9000      8.2400      2.2635      0.1348     23.4230    151.4629     19.9943
  1078.0000      8.1969      2.2042      0.1420     27.0167    151.5739     18.9026
  1078.1000      8.1969      2.2042      0.1420     27.0167    151.6536     17.8056
  1078.2000      8.1969      2.2042      0.1420     27.0167    151.6492     16.7482
  1078.3000      8.2339      2.0849      0.1437     34.2460    151.4979     15.7707
  1078.4000      8.2339      2.0849      0.1437     34.2460    151.1336     14.9067
  1078.5000      8.3290      2.0006      0.1399     39.3550    150.4985     14.1820
  1078.6000      8.3290      2.0006      0.1399     39.3550    149.5547     13.6145
  1078.7000      8.3290      2.0006      0.1399     39.3550    148.2925     13.2153
  1078.8000      8.4001      1.8875      0.1276     46.2145    146.7336     12.9904
  1078.9000      8.4001      1.8875      0.1276     46.2145    144.9274     12.9418
  1079.0000      8.3417      1.8282      0.1146     49.8075    142.9453     13.0688
  1079.1000      8.3417      1.8282      0.1146     49.8075    140.8698     13.3693
  1079.2000      8.3417      1.8282      0.1146     49.8075    138.7836     13.8395
  1079.3000      8.2848      1.7709      0.0869     53.2801    136.7648     14.4740
  1079.4000      8.2848      1.7709      0.0869     53.2801    134.8806     15.2643
  1079.5000      8.2802      1.7568      0.0629     54.1355    133.1903     16.1980
  1079.6000      8.2802      1.7568      0.0629     54.1355    131.7472     17.2572
  1079.7000      8.2802      1.7568      0.0629     54.1355    130.6023     18.4182
  1079.8000      8.3086      1.7766      0.0224     52.9317    129.8035     19.6524
  1079.9000      8.3086      1.7766      0.0224     52.9317    129.3936     20.9267
  1080.0000      8.3874      1.8198     -0.0034     50.3124    129.4047     22.2065
  1080.1000      8.3874      1.8198     -0.0034     50.3124    129.8488     23.4576
  1080.2000      8.3874      1.8198     -0.0034     50.3124    130.7108     24.6484
  1080.3000      8.3793      1.9301     -0.0314     43.6284    131.9477     25.7514
  1080.4000      8.3793      1.9301     -0.0314     43.6284    133.4865     26.7450
  1080.5000      8.2767      2.0285     -0.0393     37.6682    135.2326     27.6135
  1080.6000      8.2767      2.0285     -0.0393     37.6682    137.0792     28.3472
  1080.7000      8.2767      2.0285     -0.0393     37.6682    138.9198     28.9421
  1080.8000      8.1481      2.1900     -0.0366     27.8800    140.6602     29.3993
  1080.9000      8.1481      2.1900     -0.0366     27.8800    142.2304     29.7245
  1081.0000      8.0727      2.2887     -0.0301     21.8959    143.5882     29.9279
  1081.1000      8.0727      2.2887     -0.0301     21.8959    144.7220     30.0225
  1081.2000      8.0727      2.2887     -0.0301     21.8959    145.6488     30.0243
  1081.3000      8.0848      2.4003     -0.0215     15.1362    146.4030     29.9508
  1081.4000      8.0848      2.4003     -0.0215     15.1362    147.0316     29.8203
  1081.5000      8.1484      2.4481     -0.0185     12.2354    147.5784     29.6508
  1081.6000      8.1484      2.4481     -0.0185     12.2354    148.0803     29.4595
  1081.7000      8.1484      2.4481     -0.0185     12.2354    148.5569     29.2621
  1081.8000      8.2247      2.4921     -0.0162      9.5703    149.0095     29.0724
  1081.9000      8.2247      2.4921     -0.0162      9.5703    149.4235     28.9021
  1082.0000      8.2334      2.5119     -0.0141      8.3706    149.7759     28.7606
  1082.1000      8.2334      2.5119     -0.0141      8.3706    150.0434     28.6557
  1082.2000      8.2334      2.5119     -0.0141      8.3706    150.2079     28.5923
  1082.3000      8.2152      2.5378     -0.0085      6.8012    150.2655     28.5736
  1082.4000      8.2152      2.5378     -0.0085      6.8012    150.2242     28.5999
  1082.5000      8.2197      2.5549     -0.0032      5.7632    150.1014     28.6694
  1082.6000      8.2197      2.5549     -0.0032      5.7632    149.9162     28.7769
  1082.7000      8.2197      2.5549     -0.0032      5.7632    149.6824     28.9152
  1082.8000      8.2067      2.5799      0.0052      4.2496    149.4019     29.0737
  1082.9000      8.2067      2.5799      0.0052      4.2496    149.0636     29.2400
  1083.0000      8.2175      2.5944      0.0103      3.3721    148.6473     29.3997
  1083.1000      8.2175      2.5944      0.0103      3.3721    148.1315     29.5376
  1083.2000      8.2175      2.5944      0.0103      3.3721    147.5020     29.6379
  1083.3000      8.2065      2.6094      0.0165      2.4589    146.7615     29.6861
  1083.4000      8.2065      2.6094      0.0165      2.4589    145.9340     29.6692
  1083.5000      8.1519      2.6133      0.0205      2.2216    145.0649     29.5776
  1083.6000      8.1519      2.6133      0.0205      2.2216    144.2117     29.4052
  1083.7000      8.1519      2.6133      0.0205      2.2216    143.4374     29.1505
  1083.8000      8.0955      2.6082      0.0290      2.5339    142.7960     28.8165
  1083.9000      8.0955      2.6082      0.0290      2.5339    142.3263     28.4108
  1084.0000      8.0401      2.5972      0.0378      3.2006    142.0444     27.9448
  1084.1000      8.0401      2.5972      0.0378      3.2006    141.9432     27.4325
  1084.2000      8.0401      2.5972      0.0378      3.2006    141.9975     26.8895
  1084.3000      8.0054      2.5709      0.0563      4.7949    142.1704     26.3312
  1084.4000      8.0054      2.5709      0.0563      4.7949    142.4229     25.7728
  1084.5000      7.9961      2.5487      0.0709      6.1371    142.7236     25.2276
  1084.6000      7.9961      2.5487      0.0709      6.1371    143.0544     24.7072
  1084.7000      7.9961      2.5487      0.0709      6.1371    143.4140     24.2218
  1084.8000      8.0142      2.5126      0.0918      8.3291    143.8173     23.7804
  1084.9000      8.0142      2.5126      0.0918      8.3291    144.2903     23.3913
  1085.0000      8.0022      2.4884      0.1020      9.7916    144.8582     23.0620
  1085.1000      8.0022      2.4884      0.1020      9.7916    145.5406     22.7997
  1085.2000      8.0022      2.4884      0.1020      9.7916    146.3413     22.6104
  1085.3000      7.9801      2.4546      0.1079     11.8398    147.2429     22.4991
  1085.4000      7.9801      2.4546      0.1079     11.8398    148.2104     22.4683
  1085.5000      8.0101      2.4351      0.1048     13.0239    149.1911     22.5181
  1085.6000      8.0101      2.4351      0.1048     13.0239    150.1279     22.6452
  1085.7000      8.0101      2.4351      0.1048     13.0239    150.9665     22.8430
  1085.8000      8.0695      2.4135      0.0922     14.3303    151.6663     23.1014
  1085.9000      8.0695      2.4135      0.0922     14.3303    152.2078     23.4079
  1086.0000      8.1348      2.4066      0.0817     14.7513    152.5947     23.7481
  1086.1000      8.1348      2.4066      0.0817     14.7513    152.8530     24.1070
  1086.2000      8.1348      2.4066      0.0817     14.7513    153.0243     24.4709
  1086.3000      8.1458      2.4102      0.0690     14.5363    153.1584     24.8284
  1086.4000      8.1458      2.4102      0.0690     14.5363    153.3018     25.1716
  1086.5000      8.1232      2.4218      0.0647     13.8278    153.4899     25.4969
