~Version Information
VERS.                      2.0: CWLS Log ASCII Standard - VERSION 2.0
WRAP.                       NO: One line per depth step
~Well Information Block
STRT.FT               720.0000: 
STOP.FT              2265.7000: 
STEP.FT                 0.1000: 
NULL.                -999.2500: 
COMP.          Pioneer Natural Resources: COMPANY
WELL.          Casablanca 11-28 Tr: WELL
FLD.           Purgatoire River: FIELD
LOC.           422' FNL & 215' FWL----: LOCATION
PROV.                 Colorado: PROVINCE
CNTY.               Las Animas: COUNTRY
SRVC.                Patterson: SERVICE COMPANY
DATE.          Mon Mar 07 07:16:34 2005: LOG DATE
UWI.           05 071 08314 00: UNIQUE WELL ID
~Curve Information Block
DEPT.FT            0 000 00 00: Depth
DCAL.in                       : CDL Caliper
RHOB.g/cc                     : CDL Bulk Density
RHOC.g/cc                     : CDL Density Correction
DPOR.pu                       : CDL Density Porosity
NPOR.pu                       : Neutron Porosity
GR.GAPI                       : Gamma Ray
~Parameter Information Block
~A  Depth       DCAL        RHOB        RHOC        DPOR        NPOR         GR     
   720.0000      8.0261      2.3418     -0.2049     18.6813     46.0992     74.3237
   720.1000      8.0261      2.3587     -0.1816     17.6534     46.1664     78.0796
   720.2000      8.0261      2.3660     -0.1924     17.2097     46.6623     83.3988
   720.3000      8.0259      2.3637     -0.2031     17.3528     47.1164     92.0724
   720.4000      8.0259      2.3565     -0.2331     17.7891     47.1717     98.7121
   720.5000      8.0285      2.3416     -0.1949     18.6883     47.0640     98.0222
   720.6000      8.0285      2.3262     -0.2688     19.6245     47.1666     93.7644
   720.7000      8.0285      2.3273     -0.2746     19.5573     47.4184     92.0460
   720.8000      8.0298      2.3435     -0.2193     18.5786     47.4378     92.1388
   720.9000      8.0298      2.3573     -0.1910     17.7395     46.8858     91.0099
   721.0000      8.0273      2.3562     -0.2107     17.8058     46.0851     89.6932
   721.1000      8.0273      2.3459     -0.2628     18.4292     45.8162     89.1976
   721.2000      8.0273      2.3485     -0.2876     18.2737     46.2050     91.1067
   721.3000      8.0235      2.3712     -0.1895     16.8956     46.7582     94.1734
   721.4000      8.0235      2.3991     -0.2250     15.2090     47.1117     93.4796
   721.5000      8.0222      2.4217     -0.1880     13.8394     47.0612     90.2344
   721.6000      8.0222      2.4351     -0.1882     13.0219     46.6341     88.2383
   721.7000      8.0222      2.4388     -0.2280     12.7992     46.1972     87.5065
   721.8000      8.0231      2.4318     -0.1838     13.2233     46.0556     88.0218
   721.9000      8.0231      2.4116     -0.2131     14.4468     46.2171     90.2860
   722.0000      8.0229      2.3970     -0.2529     15.3315     46.7171     92.3966
   722.1000      8.0229      2.4127     -0.2107     14.3841     47.3689     92.9704
   722.2000      8.0229      2.4464     -0.1877     12.3420     47.7203     93.3897
   722.3000      8.0228      2.4683     -0.1519     11.0126     47.7339     92.8817
   722.4000      8.0228      2.4735     -0.2196     10.6965     47.6990     90.2332
   722.5000      8.0247      2.4773     -0.1838     10.4646     47.7511     88.2458
   722.6000      8.0247      2.4840     -0.1320     10.0585     47.9317     88.7688
   722.7000      8.0247      2.4876     -0.1812      9.8420     48.1216     89.5511
   722.8000      8.0272      2.4830     -0.2013     10.1196     48.0071     89.5175
   722.9000      8.0272      2.4588     -0.1521     11.5906     47.6075     90.2162
   723.0000      8.0284      2.4055     -0.1393     14.8165     47.3628     91.7091
   723.1000      8.0284      2.3459     -0.3168     18.4295     47.4050     91.2820
   723.2000      8.0284      2.3183     -0.2847     20.1048     47.3886     89.6971
   723.3000      8.0293      2.3154     -0.2229     20.2802     47.2003     89.5204
   723.4000      8.0293      2.2972     -0.1889     21.3796     47.0334     89.5103
   723.5000      8.0324      2.2699     -0.3214     23.0350     46.8015     89.1170
   723.6000      8.0324      2.2757     -0.2614     22.6876     46.5481     89.9999
   723.7000      8.0324      2.3124     -0.1970     20.4623     46.6625     91.2048
   723.8000      8.0357      2.3484     -0.1954     18.2783     47.0813     90.0516
   723.9000      8.0357      2.3765     -0.1992     16.5735     47.2329     87.7936
   724.0000      8.0360      2.3962     -0.1135     15.3830     46.9568     89.1976
   724.1000      8.0360      2.3952     -0.1831     15.4420     46.6207     93.7102
   724.2000      8.0360      2.3739     -0.2226     16.7345     46.2439     94.2971
   724.3000      8.0346      2.3518     -0.2317     18.0745     45.7650     90.2553
   724.4000      8.0346      2.3562     -0.3338     17.8075     45.4667     87.7530
   724.5000      8.0324      2.3857     -0.1926     16.0154     45.2469     87.5483
   724.6000      8.0324      2.4015     -0.1591     15.0584     44.9484     86.9137
   724.7000      8.0324      2.4021     -0.2556     15.0255     44.7142     85.5702
   724.8000      8.0309      2.4161     -0.1394     14.1756     44.7722     83.5129
   724.9000      8.0309      2.4404     -0.1583     12.7048     45.1730     81.8667
   725.0000      8.0334      2.4634     -0.1531     11.3071     45.6827     81.8911
   725.1000      8.0334      2.4792     -0.1126     10.3516     46.0054     82.5661
   725.2000      8.0334      2.4803     -0.1665     10.2837     45.9761     83.0897
   725.3000      8.0370      2.4662     -0.1391     11.1391     45.6735     83.2991
   725.4000      8.0370      2.4457     -0.1750     12.3819     45.2784     83.8956
   725.5000      8.0380      2.4354     -0.2054     13.0044     45.0037     83.4511
   725.6000      8.0380      2.4388     -0.2026     12.8011     44.9919     80.3989
   725.7000      8.0380      2.4370     -0.1088     12.9101     45.0595     77.5435
   725.8000      8.0389      2.4225     -0.2058     13.7886     45.0564     75.5648
   725.9000      8.0389      2.4148     -0.2140     14.2570     45.0389     74.0518
   726.0000      8.0387      2.4232     -0.2059     13.7428     45.1524     75.8444
   726.1000      8.0387      2.4368     -0.2274     12.9194     45.3810     80.2176
   726.2000      8.0387      2.4456     -0.1594     12.3857     45.3028     82.3429
   726.3000      8.0371      2.4420     -0.1306     12.6048     44.8718     81.4226
   726.4000      8.0371      2.4243     -0.2027     13.6762     44.6381     80.5601
   726.5000      8.0355      2.4084     -0.2113     14.6437     44.6279     81.5188
   726.6000      8.0355      2.4102     -0.2217     14.5333     44.6086     81.2576
   726.7000      8.0355      2.4206     -0.1463     13.9036     44.8194     76.1289
   726.8000      8.0332      2.4184     -0.1892     14.0363     45.1625     69.4326
   726.9000      8.0332      2.4079     -0.2335     14.6727     45.1549     67.3845
   727.0000      8.0310      2.4018     -0.2316     15.0435     44.7009     70.1194
   727.1000      8.0310      2.3936     -0.1979     15.5418     43.8975     72.5866
   727.2000      8.0310      2.3753     -0.2275     16.6503     43.2337     71.8048
   727.3000      8.0293      2.3559     -0.2566     17.8239     43.3997     68.9577
   727.4000      8.0293      2.3573     -0.3344     17.7419     44.0663     66.5119
   727.5000      8.0273      2.3887     -0.2543     15.8388     44.4055     67.4295
   727.6000      8.0273      2.4313     -0.2142     13.2545     44.3846     72.4432
   727.7000      8.0273      2.4573     -0.1718     11.6772     44.1962     74.1972
   727.8000      8.0262      2.4556     -0.1958     11.7833     43.9266     69.1327
   727.9000      8.0262      2.4401     -0.2292     12.7231     43.7462     65.0676
   728.0000      8.0253      2.4346     -0.2649     13.0550     43.7329     65.4708
   728.1000      8.0253      2.4434     -0.1892     12.5186     43.8806     65.8494
   728.2000      8.0253      2.4513     -0.2024     12.0446     44.1363     64.4175
   728.3000      8.0224      2.4590     -0.2857     11.5738     44.3708     63.7230
   728.4000      8.0224      2.4687     -0.1714     10.9882     44.5392     65.2141
   728.5000      8.0214      2.4681     -0.2149     11.0270     44.7251     69.1163
   728.6000      8.0214      2.4603     -0.1777     11.4944     44.9878     74.8931
   728.7000      8.0214      2.4515     -0.1947     12.0282     45.3783     79.5913
   728.8000      8.0238      2.4456     -0.2365     12.3908     45.7313     82.0025
   728.9000      8.0238      2.4501     -0.2122     12.1179     45.6403     84.0815
   729.0000      8.0244      2.4611     -0.1902     11.4458     45.0597     85.8662
   729.1000      8.0244      2.4675     -0.1897     11.0617     44.5414     85.3527
   729.2000      8.0244      2.4603     -0.1624     11.4966     44.6599     84.1199
   729.3000      8.0237      2.4455     -0.2508     12.3926     45.1888     85.5896
   729.4000      8.0237      2.4446     -0.2062     12.4470     45.7439     88.5543
   729.5000      8.0249      2.4614     -0.1603     11.4322     46.2924     89.5792
