~Version Information
 VERS.                                  2.0 : CWLS LAS VERSION
 WRAP.                                   NO : WRAPING MODE
 SWARE .                 MController 2.5.0J : SOFTWARE VERSION
~Well Information
 WELL.                         State 16-12V : WELL
 COMP.                Petrogulf Corporation : COMPANY
 FLD.                      Purgatoire River : FIELD
 LOC.                       05-071-08016-00 : LOCATION
 DATE.                             08/03/05 : DATE(S) LOGGED
 SRVC.       BLANCO Geological Services LLC : SERVICE COMPANY
 STAT.                                   CO : STATE
 CNTY.                           Las Animas : COUNTY
 CTRY.                                  USA : COUNTRY
 API.                       05-071-08016-00 : API NUMBER
 STRT.FT                             611.00 : START DEPTH
 STOP.FT                            2155.00 : STOP DEPTH
 STEP.FT                               1.00 : DEPTH INCREMENT
 NULL.                                -9999 : NULL VALUE
~Curve information
 DEPTH.FT                                   :
 ROP.MIN/FT                                 :
 GAS.UNITS                                  :
~ASCII Log data
# ...
      2011.0         0.27        145.4 
      2012.0         0.28        139.2 
      2013.0         0.37        135.5 
      2014.0         0.27        140.1 
      2015.0         0.13        140.1 
      2016.0         0.23        137.9 
      2017.0         0.27        132.8 
      2018.0         0.27        127.9 
      2019.0         0.20        124.5 
      2020.0         0.27        123.6 
      2021.0         0.40        121.9 
      2022.0         0.32        117.9 
      2023.0         0.30        115.0 
      2024.0         0.40        112.3 
      2025.0         0.40        109.8 
      2026.0         0.30        109.9 
      2027.0         0.40        108.9 
      2028.0         0.27        105.2 
      2029.0         0.17         98.4 
      2030.0         0.23         88.7 
      2031.0         0.30         74.4 
      2032.0         0.32         64.7 
      2033.0         0.27         76.3 
      2034.0         0.30         99.0 
      2035.0         0.27        132.5 
      2036.0         2.23        360.4 
      2037.0         0.42        197.9 
      2038.0         0.50        166.9 
      2039.0         0.37        158.5 
      2040.0         0.30        159.0 
      2041.0         0.30        156.4 
      2042.0         0.33        148.7 
      2043.0         0.40        137.1 
      2044.0         0.37        126.3 
      2045.0         0.37        118.6 
      2046.0         0.38        113.0 
      2047.0         0.33        108.7 
      2048.0         0.43        106.1 
      2049.0         0.37        102.1 
      2050.0         0.37         97.9 
      2051.0         0.33         92.7 
      2052.0         0.33         87.7 
      2053.0         0.37         87.0 
      2054.0         0.30         87.4 
      2055.0         0.28         86.9 
      2056.0         0.23         86.6 
      2057.0         0.20         86.9 
      2058.0         0.27         86.2 
      2059.0         0.30         77.5 
      2060.0         0.20         65.7 
      2061.0         0.23         64.6 
      2062.0         0.27         75.2 
      2063.0         0.27         95.1 
      2064.0         0.27        122.8 
      2065.0         0.27        160.4 
      2066.0         2.02        321.2 
      2067.0         0.50        190.1 
      2068.0         0.37        139.3 
      2069.0         0.37        126.0 
      2070.0         0.43        128.1 
      2071.0         0.92        134.2 
      2072.0         0.57        133.2 
      2073.0         0.50        119.7 
      2074.0         0.60        114.2 
      2075.0         0.78        122.7 
      2076.0         0.33        123.0 
      2077.0         0.33        120.6 
      2078.0         0.50        112.5 
      2079.0         0.53        102.0 
      2080.0         0.47        101.3 
      2081.0         0.48         96.0 
      2082.0         0.53         89.8 
      2083.0         0.57         93.9 
      2084.0         0.50         94.3 
      2085.0         0.40        103.7 
      2086.0         0.37        112.2 
      2087.0         0.43        112.4 
      2088.0         0.42        106.8 
      2089.0         0.40        101.0 
      2090.0         0.33        101.1 
      2091.0         0.40         93.7 
      2092.0         0.33         76.9 
      2093.0         0.37         72.3 
      2094.0         0.40         99.9 
      2095.0         0.35        141.3 
      2096.0         2.30        356.3 
      2097.0         0.52        213.0 
      2098.0         0.37        166.6 
      2099.0         0.33        145.5 
      2100.0         0.37        145.0 
      2101.0         0.37        145.6 
      2102.0         0.43        143.1 
      2103.0         0.53        133.4 
      2104.0         0.55        120.8 
      2105.0         0.47        113.8 
      2106.0         0.47        110.6 
      2107.0         0.37        109.2 
      2108.0         0.37        125.1 
      2109.0         0.37        126.2 
      2110.0         0.40        122.8 
      2111.0         0.23        116.3 
      2112.0         0.22        112.7 
      2113.0         0.27        110.1 
      2114.0         0.30        108.3 
      2115.0         0.27        109.7 
      2116.0         0.30        113.1 
      2117.0         0.27        113.9 
      2118.0         0.27        109.1 
      2119.0         0.27         88.7 
      2120.0         0.20         74.1 
      2121.0         0.17         70.0 
      2122.0         0.23         75.7 
      2123.0         0.13         82.2 
      2124.0         0.17         94.7 
      2125.0         0.25        127.5 
      2126.0         6.97       2841.7 
      2127.0         0.30        800.6 
      2128.0         0.33        799.0 
      2129.0         0.47        790.4 
      2130.0         0.53        773.0 
      2131.0         0.43        737.1 
      2132.0         0.38        716.2 
      2133.0         0.37        695.9 
      2134.0         0.30        686.7 
      2135.0         0.30        680.3 
      2136.0         0.30        668.9 
      2137.0         0.37        667.6 
      2138.0         0.33        666.7 
      2139.0         0.37        662.5 
      2140.0         0.33        659.0 
      2141.0         0.33        656.2 
      2142.0         0.35        652.1 
      2143.0         0.33        648.9 
      2144.0         0.37        651.1 
      2145.0         0.30        651.1 
      2146.0         0.40        652.7 
      2147.0         0.43        651.7 
      2148.0         0.47        649.8 
      2149.0         0.47        652.4 
      2150.0         0.45        655.9 
      2151.0         0.40        646.0 
      2152.0         0.37        620.6 
      2153.0         0.37        618.4 
      2154.0         0.43        631.7 
      2155.0         0.30        642.9 
