~Version Information
VERS.                      2.0: CWLS Log ASCII Standard - VERSION 2.0
WRAP.                       NO: One line per depth step
~Well Information Block
STRT.FT                 6.5000: 
STOP.FT              1054.0000: 
STEP.FT                 0.2500: 
NULL.                -999.2500: 
COMP.          Pioneer Natural Resources: COMPANY
WELL.            Galileo 21-11: WELL
FLD.           Purgatoire River: FIELD
LOC.           407' FNL & 2394' FWL: LOCATION
PROV.                 Colorado: PROVINCE
CNTY.               Las Animas: COUNTRY
SRVC.                Patterson: SERVICE COMPANY
DATE.          Sat Apr 16 10:31:00 2005: LOG DATE
UWI.           05 071 08353 00: UNIQUE WELL ID
~Curve Information Block
DEPT.FT            0 000 00 00: Depth
GR.GAPI                       : Gamma Ray
CCL.                          : Casing Collar Locator
TT3.usec                      : CBL 3' Travel Time
AMP3.mV                       : CBL 3' Amplitude
~Parameter Information Block
~A  Depth        GR         CCL         TT3         AMP3    
# ...
   609.5000     74.8880      0.0000    790.6202     10.8771
   609.7500     75.2362      0.0000    762.2445     10.6361
   610.0000     76.4235      0.0000    748.5947     10.4548
   610.2500     80.1574      0.0000    752.1038     10.3064
   610.5000     86.9009      0.0000    774.7473     10.1709
   610.7500     95.6661      0.0000    812.8251     10.0428
   611.0000    104.4537      0.0000    859.4364      9.9245
   611.2500    110.9031      0.0000    911.2475      9.8168
   611.5000    113.0521      0.0000    967.4692      9.7140
   611.7500    110.1848      0.0000   1020.4150      9.6072
   612.0000    103.4747      0.0000   1053.1144      9.4947
   612.2500     95.7170      0.0000   1055.4457      9.3876
   612.5000     89.8355      0.0000   1042.5040      9.2990
   612.7500     87.2864      0.0000   1047.1748      9.2276
   613.0000     87.8504      0.0000   1089.2004      9.1550
   613.2500     90.7273      0.0000   1155.6787      9.0620
   613.5000     95.3514      0.0000   1214.7052      8.9449
   613.7500    100.9934      0.0000   1245.0098      8.8171
   614.0000    106.0472      0.0000   1251.1028      8.6994
   614.2500    108.5892      0.0000   1253.3260      8.6098
   614.5000    108.0430      0.0000   1266.5576      8.5546
   614.7500    105.9538      0.0000   1288.6956      8.5253
   615.0000    104.7386      0.0000   1306.5295      8.5051
   615.2500    105.7623      0.0000   1308.5498      8.4829
   615.5000    108.7061      0.0000   1292.7335      8.4625
   615.7500    112.4702      0.0000   1266.6584      8.4537
   616.0000    116.1285      0.0000   1241.3147      8.4567
   616.2500    119.0051      0.0000   1222.8042      8.4598
   616.5000    120.5362      0.0000   1209.2001      8.4549
   616.7500    120.6270      0.0000   1193.3774      8.4481
   617.0000    119.8285      0.0000   1166.2704      8.4534
   617.2500    118.5756      0.0000   1121.3690      8.4828
   617.5000    116.3456      0.0000   1062.3811      8.5439
   617.7500    112.1660      0.0000   1004.4376      8.6408
   618.0000    106.1057      0.0000    964.1459      8.7708
   618.2500     99.9321      0.0000    949.8523      8.9254
   618.5000     96.1373      0.0000    960.5912      9.0957
   618.7500     96.3694      0.0000    989.7266      9.2726
   619.0000    100.5062      0.0000   1029.9003      9.4426
   619.2500    106.6775      0.0000   1078.5692      9.5885
   619.5000    112.0700      0.0000   1137.2919      9.6968
   619.7500    114.3191      0.0000   1202.6226      9.7634
   620.0000    112.8379      0.0000   1261.6294      9.7963
   620.2500    109.1195      0.0000   1299.8463      9.8134
   620.5000    105.7764      0.0000   1311.5261      9.8334
   620.7500    105.0586      0.0000   1302.4038      9.8640
   621.0000    107.5599      0.0000   1286.4762      9.8978
   621.2500    111.6789      0.0000   1279.0383      9.9139
   621.5000    114.5359      0.0000   1287.3514      9.8835
   621.7500    114.1501      0.0000   1306.3521      9.7820
   622.0000    110.8938      0.0000   1325.0421      9.6034
   622.2500    106.6283      0.0000   1335.9104      9.3645
   622.5000    102.6919      0.0000   1337.2701      9.0981
   622.7500     99.0882      0.0000   1328.9368      8.8469
   623.0000     95.2829      0.0000   1309.4668      8.6578
   623.2500     91.2217      0.0000   1280.2202      8.5693
   623.5000     87.5868      0.0000   1251.5096      8.5937
   623.7500     85.2869      0.0000   1239.4653      8.7054
   624.0000     84.6762      0.0000   1251.8596      8.8472
   624.2500     85.3356      0.0000   1278.6768      8.9599
   624.5000     86.7136      0.0000   1299.5953      9.0185
   624.7500     88.6238      0.0000   1299.6085      9.0462
   625.0000     90.9115      0.0000   1278.7466      9.0896
   625.2500     93.1954      0.0000   1252.1136      9.1810
   625.5000     95.3835      0.0000   1240.2197      9.3269
   625.7500     97.9850      0.0000   1253.2939      9.5236
   626.0000    101.3541      0.0000   1283.5602      9.7628
   626.2500    104.8384      0.0000   1314.4374     10.0126
   626.5000    107.1232      0.0000   1335.1753     10.2148
   626.7500    107.4651      0.0000   1345.1871     10.3169
   627.0000    106.3858      0.0000   1348.7831     10.3086
   627.2500    104.9936      0.0000   1349.7604     10.2201
   627.5000    103.7868      0.0000   1349.9633     10.0928
   627.7500    102.5049      0.0000   1350.0000      9.9578
   628.0000    101.1787      0.0000   1350.0000      9.8380
   628.2500    100.8556      0.0000   1350.0000      9.7519
   628.5000    102.8557      0.0000   1350.0000      9.7077
   628.7500    107.2580      0.0000   1350.0000      9.6953
   629.0000    112.3086      0.0000   1350.0000      9.6916
   629.2500    115.5553      0.0000   1350.0000      9.6729
   629.5000    115.7754      0.0000   1350.0000      9.6224
   629.7500    113.7186      0.0000   1349.9866      9.5336
   630.0000    110.7637      0.0000   1349.8987      9.4154
   630.2500    107.2317      0.0000   1349.4661      9.2920
   630.5000    102.7180      0.0000   1347.7764      9.1916
   630.7500     97.7167      0.0000   1342.7141      9.1278
   631.0000     93.8587      0.0000   1331.0842      9.0927
   631.2500     92.4215      0.0000   1310.8438      9.0687
   631.5000     93.2324      0.0000   1284.7640      9.0439
   631.7500     95.0162      0.0000   1261.3359      9.0130
   632.0000     96.4090      0.0000   1249.9713      8.9732
   632.2500     96.7174      0.0000   1254.6394      8.9292
   632.5000     96.0726      0.0000   1272.2948      8.8986
   632.7500     95.0249      0.0000   1295.9342      8.8997
   633.0000     93.9602      0.0000   1318.2556      8.9327
   633.2500     92.7882      0.0000   1334.2460      8.9820
   633.5000     91.1986      0.0000   1342.2198      9.0396
   633.7500     89.3685      0.0000   1342.6173      9.1210
   634.0000     88.4222      0.0000   1336.3217      9.2520
   634.2500     89.7961      0.0000   1325.2195      9.4401
   634.5000     93.8013      0.0000   1314.0593      9.6637
   634.7500     98.9579      0.0000   1309.2758      9.8921
   635.0000    103.0709      0.0000   1313.9717     10.1151
   635.2500    105.0782      0.0000   1324.7742     10.3439
   635.5000    105.6838      0.0000   1334.5743     10.5802
   635.7500    106.0629      0.0000   1337.2968     10.7900
   636.0000    106.3167      0.0000   1329.7542     10.9197
   636.2500    105.7019      0.0000   1312.1851     10.9414
   636.5000    104.1920      0.0000   1290.1676     10.8782
   636.7500    103.0099      0.0000   1274.4592     10.7825
   637.0000    103.1692      0.0000   1274.4761     10.6910
   637.2500    103.8823      0.0000   1290.2642     10.5997
   637.5000    103.1147      0.0000   1312.6449     10.4785
   637.7500     99.7900      0.0000   1331.5480     10.3073
   638.0000     94.9833      0.0000   1342.8088     10.0961
   638.2500     90.7569      0.0000   1347.7920      9.8716
   638.5000     88.1432      0.0000   1349.4667      9.6517
   638.7500     86.5372      0.0000   1349.8988      9.4332
   639.0000     84.7622      0.0000   1349.9866      9.1930
   639.2500     82.1675      0.0000   1350.0000      8.8866
   639.5000     78.8313      0.0000   1350.0000      8.4419
   639.7500     75.4782      0.0000   1350.0000      7.7895
   640.0000     73.2267      0.0000   1350.0000      6.9348
   640.2500     72.7559      0.0000   1350.0000      6.0009
   640.5000     73.6080      0.0000   1350.0000      5.1726
   640.7500     74.6605      0.0000   1350.0000      4.5907
   641.0000     75.1678      0.0000   1350.0000      4.2932
   641.2500     75.0317      0.0000   1350.0000      4.2249
   641.5000     74.4147      0.0000   1350.0000      4.2814
   641.7500     73.6724      0.0000   1350.0000      4.3681
   642.0000     73.5143      0.0000   1350.0000      4.4510
   642.2500     74.6314      0.0000   1350.0000      4.5808
   642.5000     77.0655      0.0000   1350.0000      4.8635
   642.7500     80.1445      0.0000   1350.0000      5.3708
