~Version Information
VERS.                      2.0: CWLS Log ASCII Standard - VERSION 2.0
WRAP.                       NO: One line per depth step
~Well Information Block
STRT.FT               930.0000: 
STOP.FT              2783.2000: 
STEP.FT                 0.1000: 
NULL.                -999.2500: 
COMP.          Pioneer Natural Resources: COMPANY
WELL.           Desoto 13-7TR: WELL
FLD.           Purgatoire River: FIELD
LOC.           1404' FSL & 1115' FWL: LOCATION
PROV.                 Colorado: PROVINCE
CNTY.               Las Animas: COUNTRY
SRVC.                Patterson: SERVICE COMPANY
DATE.          Fri Jan 14 14:42:18 2005: LOG DATE
UWI.           05 071 08216 00: UNIQUE WELL ID
~Curve Information Block
DEPT.FT            0 000 00 00: Depth
DCAL.in                       : CDL Caliper
RHOB.g/cc                     : CDL Bulk Density
RHOC.g/cc                     : CDL Density Correction
DPOR.pu                       : CDL Density Porosity
NPOR.pu                       : Neutron Porosity
GR.GAPI                       : Gamma Ray
~Parameter Information Block
~A  Depth       DCAL        RHOB        RHOC        DPOR        NPOR         GR     
# ...
  1899.6000      7.9927      2.5554      0.0445      5.7313     16.3239     61.1103
  1899.7000      7.9927      2.5706      0.0837      4.8100     16.5192     63.9804
  1899.8000      7.9961      2.5743      0.0642      4.5901     16.6434     62.7865
  1899.9000      7.9961      2.5657      0.0579      5.1066     16.6017     57.3775
  1900.0000      8.0007      2.5549      0.0350      5.7639     16.1737     50.9980
  1900.1000      8.0007      2.5496     -0.0004      6.0823     15.6816     46.2378
  1900.2000      8.0007      2.5470      0.0576      6.2400     15.7623     44.9298
  1900.3000      8.0012      2.5399      0.0263      6.6707     16.2690     48.4723
  1900.4000      8.0012      2.5348      0.0226      6.9822     16.5638     54.9211
  1900.5000      8.0001      2.5400      0.0306      6.6676     16.7885     61.0521
  1900.6000      8.0001      2.5501      0.0613      6.0551     17.3185     63.7037
  1900.7000      8.0001      2.5565      0.0465      5.6650     17.8387     60.6974
  1900.8000      7.9990      2.5545      0.0427      5.7895     17.8039     54.2931
  1900.9000      7.9990      2.5465      0.0226      6.2742     17.4712     50.1771
  1901.0000      7.9979      2.5439      0.0210      6.4273     17.5016     50.4581
  1901.1000      7.9979      2.5477      0.0606      6.2008     17.8831     51.0477
  1901.2000      7.9979      2.5431      0.0603      6.4779     18.2797     49.0416
  1901.3000      7.9964      2.5294      0.0174      7.3120     18.5982     46.5089
  1901.4000      7.9964      2.5254      0.0116      7.5543     18.6211     45.8889
  1901.5000      7.9953      2.5380      0.0380      6.7900     18.2990     47.3185
  1901.6000      7.9953      2.5520      0.0617      5.9423     17.8154     49.9369
  1901.7000      7.9953      2.5609      0.0397      5.3991     17.2266     52.9764
  1901.8000      7.9946      2.5709      0.0886      4.7955     16.7767     55.8933
  1901.9000      7.9946      2.5765      0.0431      4.4526     17.0424     58.5766
  1902.0000      7.9940      2.5738      0.0415      4.6160     17.9669     60.8895
  1902.1000      7.9940      2.5700      0.0785      4.8489     18.5446     62.4446
  1902.2000      7.9940      2.5746      0.0486      4.5705     18.2276     63.8150
  1902.3000      7.9931      2.5850      0.0769      3.9385     17.4970     66.1705
  1902.4000      7.9931      2.5831      0.0437      4.0566     17.3811     69.2170
  1902.5000      7.9906      2.5606      0.0133      5.4169     18.0846     70.8017
  1902.6000      7.9906      2.5300     -0.0120      7.2743     18.5788     71.3463
  1902.7000      7.9906      2.5076     -0.0063      8.6283     18.3771     70.9461
  1902.8000      7.9882      2.5001      0.0045      9.0878     17.9293     69.2803
  1902.9000      7.9882      2.5054      0.0116      8.7653     17.3585     68.9361
  1903.0000      7.9904      2.5148      0.0144      8.1969     16.5617     68.3433
  1903.1000      7.9904      2.5109      0.0158      8.4322     15.7642     65.2078
  1903.2000      7.9904      2.4874      0.0200      9.8543     15.1446     62.3500
  1903.3000      7.9929      2.4700     -0.0135     10.9104     14.7275     59.7393
  1903.4000      7.9929      2.4844      0.0060     10.0384     14.4264     55.0840
  1903.5000      7.9904      2.5166      0.0329      8.0857     14.2599     50.6642
  1903.6000      7.9904      2.5362      0.0600      6.8946     14.4145     48.2055
  1903.7000      7.9904      2.5343      0.0548      7.0134     14.8298     46.0087
  1903.8000      7.9877      2.5223      0.0516      7.7415     15.0689     43.8692
  1903.9000      7.9877      2.5120      0.0692      8.3650     14.6838     43.2999
  1904.0000      7.9902      2.5131      0.0502      8.2940     14.0946     44.2859
  1904.1000      7.9902      2.5327      0.0689      7.1094     13.8755     45.8507
  1904.2000      7.9902      2.5580      0.0862      5.5754     14.0055     48.6684
  1904.3000      7.9914      2.5678      0.1104      4.9806     14.4298     51.8944
  1904.4000      7.9914      2.5562      0.0878      5.6864     14.8623     52.8628
  1904.5000      7.9887      2.5356      0.0501      6.9318     14.7975     51.3118
  1904.6000      7.9887      2.5237      0.0152      7.6554     14.4264     48.5102
  1904.7000      7.9887      2.5248      0.0358      7.5860     14.1828     46.7764
  1904.8000      7.9851      2.5287      0.0268      7.3528     13.8573     46.5057
  1904.9000      7.9851      2.5253      0.0608      7.5555     13.6881     46.3247
  1905.0000      7.9823      2.5159     -0.0024      8.1285     14.1905     46.3224
  1905.1000      7.9823      2.5103      0.0209      8.4639     14.6159     46.8094
  1905.2000      7.9823      2.5108      0.0520      8.4336     14.3035     47.0412
  1905.3000      7.9818      2.5087      0.0579      8.5635     13.8597     47.0518
  1905.4000      7.9818      2.5051      0.0194      8.7829     13.6629     48.2944
  1905.5000      7.9842      2.5111      0.0058      8.4206     13.5926     49.8200
  1905.6000      7.9842      2.5231      0.0488      7.6926     13.5451     50.4392
  1905.7000      7.9842      2.5310      0.0369      7.2130     13.5816     51.4543
  1905.8000      7.9885      2.5392      0.0438      6.7146     13.9268     52.2628
  1905.9000      7.9885      2.5551      0.0191      5.7517     14.4442     51.4270
  1906.0000      7.9928      2.5765      0.0282      4.4565     14.4699     49.7222
  1906.1000      7.9928      2.5897      0.0739      3.6531     14.1394     49.1751
  1906.2000      7.9928      2.5853      0.0406      3.9217     14.1838     52.2444
  1906.3000      7.9958      2.5738      0.0142      4.6205     14.3505     60.1284
  1906.4000      7.9958      2.5739     -0.0062      4.6102     14.2835     68.8482
  1906.5000      7.9965      2.5908      0.0447      3.5909     14.1322     72.2220
  1906.6000      7.9965      2.6053      0.0219      2.7102     13.8628     70.2528
  1906.7000      7.9965      2.6014      0.0244      2.9442     13.1841     66.2549
  1906.8000      7.9959      2.5836      0.0439      4.0262     12.1443     60.3677
  1906.9000      7.9959      2.5706     -0.0231      4.8124     11.4654     54.8302
  1907.0000      7.9961      2.5863     -0.0216      3.8611     11.8043     54.4703
  1907.1000      7.9961      2.6232      0.0635      1.6223     13.0346     56.8480
  1907.2000      7.9961      2.6437      0.0864      0.3800     14.3811     55.8626
  1907.3000      7.9964      2.6328      0.0695      1.0435     15.1652     52.5108
  1907.4000      7.9964      2.6065      0.0457      2.6386     15.4359     51.4409
  1907.5000      7.9958      2.5872      0.0276      3.8054     15.7274     52.3199
  1907.6000      7.9958      2.5900      0.0452      3.6392     16.1063     52.0546
  1907.7000      7.9958      2.6207      0.0384      1.7734     16.3614     51.0550
  1907.8000      7.9958      2.6736      0.0576     -1.4326     16.4800     51.5362
  1907.9000      7.9958      2.7266      0.1128     -4.6446     16.6341     53.8014
  1908.0000      7.9955      2.7568      0.1024     -6.4708     17.1648     56.8100
  1908.1000      7.9955      2.7558      0.0521     -6.4101     18.3250     59.4015
  1908.2000      7.9955      2.7245      0.0882     -4.5149     19.8537     62.7333
  1908.3000      7.9933      2.6716      0.0210     -1.3076     21.0535     68.0986
  1908.4000      7.9933      2.6193      0.0113      1.8589     21.6579     71.6439
  1908.5000      7.9897      2.5849     -0.0135      3.9459     22.0231     71.0320
  1908.6000      7.9897      2.5645     -0.0043      5.1813     22.5344     72.9539
  1908.7000      7.9897      2.5469     -0.0213      6.2482     23.3376     82.4266
  1908.8000      7.9870      2.5358     -0.0612      6.9195     24.2818     92.8622
  1908.9000      7.9870      2.5415      0.0020      6.5766     25.1675     97.6867
  1909.0000      7.9865      2.5522      0.0931      5.9246     25.8844     97.4823
  1909.1000      7.9865      2.5450      0.0406      6.3642     26.0512     97.4470
