~Version Information
VERS.                      2.0: CWLS Log ASCII Standard - VERSION 2.0
WRAP.                       NO: One line per depth step
~Well Information Block
STRT.FT               360.0000: 
STOP.FT              1622.7000: 
STEP.FT                 0.1000: 
NULL.                -999.2500: 
COMP.          Pioneer Natural Resources: COMPANY
WELL.                Eric 42-9: WELL
FLD.           Purgatoire River: FIELD
LOC.           2050' FNL & 850' FEL: LOCATION
PROV.                 Colorado: PROVINCE
CNTY.               Las Animas: COUNTRY
SRVC.                Patterson: SERVICE COMPANY
DATE.          Mon Nov 01 08:19:51 2004: LOG DATE
UWI.           05 071 07999 00: UNIQUE WELL ID
~Curve Information Block
DEPT.FT            0 000 00 00: Depth
DCAL.in                       : CDL Caliper
RHOB.g/cc                     : CDL Bulk Density
RHOC.g/cc                     : CDL Density Correction
DPOR.pu                       : CDL Density Porosity
NPOR.pu                       : Neutron Porosity
GR.GAPI                       : Gamma Ray
~Parameter Information Block
~A  Depth       DCAL        RHOB        RHOC        DPOR        NPOR         GR     
# ...
   446.4000      8.4383      2.3876      0.1212     15.9042     22.7688    123.6907
   446.5000      8.4389      2.3982      0.1252     15.2620     22.4049    120.6124
   446.6000      8.4389      2.4007      0.1362     15.1120     22.0035    116.8496
   446.7000      8.4389      2.3946      0.1197     15.4765     21.5286    120.1957
   446.8000      8.4398      2.3787      0.0739     16.4450     21.1163    129.1636
   446.9000      8.4398      2.3642      0.0423     17.3201     20.8059    133.1145
   447.0000      8.4436      2.3610      0.0795     17.5152     20.5913    129.5899
   447.1000      8.4436      2.3592      0.0847     17.6227     20.6375    126.8793
   447.2000      8.4436      2.3507      0.0787     18.1415     20.8611    129.6347
   447.3000      8.4484      2.3381      0.0730     18.9035     21.0322    130.8024
   447.4000      8.4484      2.3208      0.0649     19.9543     21.1008    125.8981
   447.5000      8.4522      2.3008      0.0826     21.1654     21.0102    123.3577
   447.6000      8.4522      2.2932      0.0699     21.6258     20.6713    123.7997
   447.7000      8.4522      2.3080      0.0803     20.7297     20.2056    120.9035
   447.8000      8.4480      2.3316      0.1373     19.2970     19.8931    118.5037
   447.9000      8.4480      2.3478      0.0890     18.3162     19.6411    121.5152
   448.0000      8.4324      2.3569      0.0866     17.7619     19.3026    127.1501
   448.1000      8.4324      2.3613      0.0939     17.4964     19.1252    131.8101
   448.2000      8.4324      2.3648      0.0883     17.2841     19.1101    133.9846
   448.3000      8.4237      2.3728      0.1212     16.7981     19.1155    134.1610
   448.4000      8.4237      2.3695      0.1565     16.9996     19.2766    133.2843
   448.5000      8.4230      2.3355      0.0995     19.0629     19.7034    132.2409
   448.6000      8.4230      2.2893      0.0157     21.8603     20.2477    131.3391
   448.7000      8.4230      2.2642      0.0072     23.3840     20.8161    131.0779
   448.8000      8.4215      2.2622      0.0547     23.5059     21.3045    132.5174
   448.9000      8.4215      2.2640      0.0465     23.3912     21.5949    135.1471
   449.0000      8.4181      2.2638      0.0504     23.4059     21.6772    134.9352
   449.1000      8.4181      2.2718      0.0551     22.9187     21.5201    130.8281
   449.2000      8.4181      2.2936      0.0876     21.5997     21.1652    128.0837
   449.3000      8.4136      2.3161      0.1190     20.2386     20.7359    124.7345
   449.4000      8.4136      2.3260      0.1106     19.6366     20.5177    117.5599
   449.5000      8.4093      2.3283      0.0815     19.4943     20.6044    114.4138
   449.6000      8.4093      2.3319      0.0971     19.2763     20.5868    121.1359
   449.7000      8.4093      2.3346      0.1000     19.1144     20.2892    130.6926
   449.8000      8.4059      2.3321      0.0919     19.2670     20.0016    134.4816
   449.9000      8.4059      2.3262      0.0766     19.6259     19.8886    134.5611
   450.0000      8.4046      2.3205      0.0462     19.9703     19.8411    135.4592
   450.1000      8.4046      2.3234      0.0286     19.7939     19.8036    135.3039
   450.2000      8.4046      2.3403      0.0721     18.7695     19.7696    131.1936
   450.3000      8.4050      2.3569      0.0833     17.7639     19.6384    125.9451
   450.4000      8.4050      2.3615      0.0391     17.4857     19.3558    124.3056
   450.5000      8.4045      2.3674      0.0474     17.1245     19.1033    124.3057
   450.6000      8.4045      2.3875      0.0909     15.9088     18.9909    122.1391
   450.7000      8.4045      2.4197      0.0847     13.9592     18.8666    119.1798
   450.8000      8.4018      2.4579      0.1022     11.6404     18.6879    117.7315
   450.9000      8.4018      2.4868      0.1312      9.8891     18.6612    115.0231
   451.0000      8.3990      2.4925      0.1002      9.5446     18.9105    110.2542
   451.1000      8.3990      2.4889      0.0543      9.7629     19.3894    108.0239
   451.2000      8.3990      2.4951      0.1151      9.3894     20.1403    111.7303
   451.3000      8.3986      2.4912      0.1143      9.6219     20.9202    120.0014
   451.4000      8.3986      2.4612      0.0799     11.4444     21.2708    127.7287
   451.5000      8.4015      2.4563     -0.0096     11.7403     21.4297    133.0872
   451.6000      8.4015      2.5158      0.1253      8.1311     21.8339    136.8495
   451.7000      8.4015      2.5847      0.1150      3.9558     22.5355    137.5701
   451.8000      8.4099      2.6149      0.0669      2.1291     23.4071    135.0610
   451.9000      8.4099      2.6052      0.0763      2.7142     24.1995    131.1994
   452.0000      8.4161      2.5574      0.0658      5.6107     24.6964    127.3884
   452.1000      8.4161      2.5200     -0.0830      7.8801     24.9213    125.2578
   452.2000      8.4161      2.5470      0.0137      6.2438     25.0935    124.5140
   452.3000      8.4101      2.5923      0.0590      3.4952     25.4487    124.4967
   452.4000      8.4101      2.5851      0.0466      3.9348     25.8582    125.9094
   452.5000      8.4036      2.5300      0.0052      7.2712     25.8623    127.1906
   452.6000      8.4036      2.4934     -0.0698      9.4902     25.3052    122.6100
   452.7000      8.4036      2.5242      0.0343      7.6223     24.5506    113.8576
   452.8000      8.4022      2.6044      0.0489      2.7643     24.2051    109.5529
   452.9000      8.4022      2.7042      0.0421     -3.2839     24.4918    110.6971
   453.0000      8.4008      2.8173      0.0813    -10.1386     24.9555    110.4715
   453.1000      8.4008      2.9293      0.1463    -16.9267     25.5513    104.7496
   453.2000      8.4008      3.0131      0.1911    -22.0072     26.5909     96.4768
   453.3000      8.4002      3.0520      0.2020    -24.3648     27.5122     90.0534
   453.4000      8.4002      3.0382      0.1998    -23.5285     27.9342     87.7187
   453.5000      8.4125      2.9828      0.0830    -20.1686     28.4916     87.8873
   453.6000      8.4125      2.9258     -0.0050    -16.7172     29.4481     88.0848
   453.7000      8.4125      2.8780     -0.0254    -13.8169     30.3100     89.9458
   453.8000      8.4532      2.8069     -0.0944     -9.5091     30.6369     91.9114
   453.9000      8.4532      2.6972     -0.2039     -2.8635     30.4805     90.9512
   454.0000      8.5206      2.5710     -0.2955      4.7886     29.9762     90.3739
   454.1000      8.5206      2.4583     -0.2810     11.6164     28.9698     92.1641
   454.2000      8.5206      2.3665     -0.1906     17.1810     27.5064     97.3215
   454.3000      8.5881      2.2870     -0.1635     21.9974     25.8333    107.0187
   454.4000      8.5881      2.2219     -0.0721     25.9436     23.9183    115.6788
   454.5000      8.6350      2.1804     -0.0615     28.4626     21.7401    119.9717
   454.6000      8.6350      2.1604      0.0039     29.6757     19.7855    122.2823
   454.7000      8.6350      2.1499     -0.0129     30.3062     18.6663    121.7792
   454.8000      8.6536      2.1463      0.0038     30.5264     18.2057    119.3507
   454.9000      8.6536      2.1564     -0.0086     29.9169     17.7514    119.1230
   455.0000      8.6515      2.1793      0.0642     28.5294     17.2673    123.6065
   455.1000      8.6515      2.2017      0.1132     27.1683     17.0490    130.2872
   455.2000      8.6515      2.2231      0.1355     25.8733     17.0751    132.0472
   455.3000      8.6439      2.2630      0.2406     23.4554     17.2692    126.1225
   455.4000      8.6439      2.3279      0.3717     19.5226     17.6407    117.5075
   455.5000      8.6280      2.3895      0.4177     15.7878     18.2811    113.0699
   455.6000      8.6280      2.4173      0.3402     14.1009     19.0829    115.4571
   455.7000      8.6280      2.4154      0.2535     14.2166     19.7592    123.4883
   455.8000      8.5874      2.4122      0.1516     14.4130     20.2813    131.2045
   455.9000      8.5874      2.4229      0.1931     13.7629     20.6595    133.2428
