~Version Information
VERS.                      2.0: CWLS Log ASCII Standard - VERSION 2.0
WRAP.                       NO: One line per depth step
~Well Information Block
STRT.FT               650.0000: 
STOP.FT              1999.0000: 
STEP.FT                 0.2500: 
NULL.                -999.2500: 
COMP.          Pioneer Natural Resources: COMPANY
WELL.           Firehawk 34-26: WELL
FLD.           Purgatoire River: FIELD
LOC.           1196' FSL & 1595' FEL--: LOCATION
STAT.                 Colorado: State
CNTY.               Las Animas: COUNTY
CTRY. USA : Country
SECT. 26 : Section
TOWN. 32S : Township
RANG. 66W : Range
SRVC.                Patterson: SERVICE COMPANY
DATE.          Sun Oct 16 16:57:28 2005: LOG DATE
API.           05 071 08389 00: UNIQUE WELL ID
~Curve Information Block
DEPT.FT            0 000 00 00: Depth
SN.Ohm-m                      : IEL Short Normal
SP.mV                         : IEL Spontaneous Potential
DIR.Ohm-m                     : IEL Induction Resistivity
GR.GAPI                       : Gamma Ray
~Parameter Information Block
~A  Depth        SN          SP         DIR          GR     
# ...
  1353.5000      9.9165      7.9549      8.9123     99.7386
  1353.7500      9.9177      7.8857      8.8471     99.0887
  1354.0000      9.8851      7.8659      8.7720     98.5579
  1354.2500      9.8163      7.8644      8.6973     98.6916
  1354.5000      9.7018      7.8556      8.6308     99.8691
  1354.7500      9.5433      7.8114      8.5768    101.1717
  1355.0000      9.3605      7.7045      8.5356    103.2665
  1355.2500      9.1733      7.5332      8.5038    104.4394
  1355.5000      8.9843      7.3321      8.4742    105.7993
  1355.7500      8.7903      7.1388      8.4387    106.5691
  1356.0000      8.6151      6.9558      8.3919    107.5910
  1356.2500      8.5105      6.7588      8.3355    108.1300
  1356.5000      8.5088      6.5386      8.2781    108.6709
  1356.7500      8.5892      6.3181      8.2330    108.7648
  1357.0000      8.7012      6.1269      8.2138    107.8940
  1357.2500      8.8113      5.9801      8.2311    106.1461
  1357.5000      8.9166      5.8894      8.2918    101.5545
  1357.7500      9.0228      5.8723      8.3995     97.7413
  1358.0000      9.1396      5.9307      8.5554     92.5558
  1358.2500      9.2945      6.0334      8.7588     90.1263
  1358.5000      9.5182      6.1409      9.0077     87.7115
  1358.7500      9.8222      6.2388      9.2992     86.1057
  1359.0000     10.2146      6.3363      9.6315     82.5432
  1359.2500     10.7234      6.4416     10.0060     79.2946
  1359.5000     11.3795      6.5511     10.4270     73.5610
  1359.7500     12.1929      6.6526     10.8995     69.4285
  1360.0000     13.1616      6.7277     11.4266     63.2150
  1360.2500     14.3015      6.7593     12.0062     59.5315
  1360.5000     15.6593      6.7515     12.6293     55.6757
  1360.7500     17.2676      6.7387     13.2799     54.4654
  1361.0000     19.0568      6.7602     13.9370     54.2695
  1361.2500     20.8090      6.8209     14.5778     54.8718
  1361.5000     22.2317      6.8806     15.1771     56.9696
  1361.7500     23.1153      6.8817     15.7023     59.5480
  1362.0000     23.4241      6.7897     16.1092     65.3783
  1362.2500     23.2614      6.6101     16.3505     70.0110
  1362.5000     22.7812      6.3763     16.3979     76.4184
  1362.7500     22.1024      6.1255     16.2635     79.6343
  1363.0000     21.2530      5.8823     16.0004     82.8923
  1363.2500     20.2044      5.6596     15.6797     84.5523
  1363.5000     18.9856      5.4737     15.3641     87.3245
  1363.7500     17.7520      5.3564     15.0923     89.7383
  1364.0000     16.7139      5.3455     14.8801     94.0381
  1364.2500     15.9973      5.4558     14.7297     96.6905
  1364.5000     15.5888      5.6609     14.6376     98.6876
  1364.7500     15.3953      5.9119     14.5971     97.9785
  1365.0000     15.3178      6.1817     14.5957     93.8763
  1365.2500     15.2953      6.4951     14.6134     89.8803
  1365.5000     15.3359      6.9055     14.6261     83.8299
  1365.7500     15.5228      7.4347     14.6148     80.5629
  1366.0000     15.9673      8.0326     14.5721     77.1323
  1366.2500     16.7140      8.5963     14.5017     75.5287
  1366.5000     17.6541      9.0291     14.4119     73.6158
  1366.7500     18.5365      9.2879     14.3080     72.7056
  1367.0000     19.1069      9.3910     14.1899     72.6318
  1367.2500     19.2431      9.3953     14.0526     74.0111
  1367.5000     18.9570      9.3679     13.8880     78.6389
  1367.7500     18.3084      9.3656     13.6876     83.0581
  1368.0000     17.3696      9.4187     13.4461     90.2565
  1368.2500     16.2645      9.5179     13.1633     94.6348
  1368.5000     15.1558      9.6202     12.8443     99.7882
  1368.7500     14.1501      9.6788     12.4964    102.0161
  1369.0000     13.2598      9.6769     12.1268    103.2187
  1369.2500     12.4617      9.6357     11.7425    102.7100
  1369.5000     11.7514      9.5947     11.3530    100.9243
  1369.7500     11.1470      9.5832     10.9724     99.6927
  1370.0000     10.6676      9.6009     10.6185     98.4269
  1370.2500     10.3127      9.6211     10.3069     98.1125
  1370.5000     10.0571      9.6193     10.0447     98.4088
  1370.7500      9.8647      9.6055      9.8276     98.8568
  1371.0000      9.7124      9.6283      9.6417     99.1456
  1371.2500      9.5989      9.7433      9.4703     98.8029
  1371.5000      9.5269      9.9645      9.3000     97.7985
  1371.7500      9.4855     10.2348      9.1251     97.4076
  1372.0000      9.4482     10.4470      8.9464     98.3908
  1372.2500      9.3788     10.5102      8.7676    100.3917
  1372.5000      9.2515     10.4059      8.5921    104.8398
  1372.7500      9.0665     10.1815      8.4219    107.9961
  1373.0000      8.8380      9.9083      8.2593    111.7807
  1373.2500      8.5791      9.6644      8.1069    113.2988
  1373.5000      8.3021      9.5488      7.9679    114.0896
  1373.7500      8.0279      9.6744      7.8437    113.9504
  1374.0000      7.7917     10.1102      7.7342    113.5993
  1374.2500      7.6277     10.8040      7.6384    113.6693
  1374.5000      7.5420     11.5669      7.5568    114.2652
  1374.7500      7.5103     12.1617      7.4918    114.7246
  1375.0000      7.5035     12.4421      7.4472    115.2009
  1375.2500      7.5096     12.4193      7.4257    115.3922
  1375.5000      7.5377     12.2137      7.4265    115.4713
  1375.7500      7.6055     11.9593      7.4445    115.2062
  1376.0000      7.7238     11.7414      7.4716    113.9587
  1376.2500      7.8856     11.5858      7.4980    112.4310
  1376.5000      8.0608     11.4812      7.5152    109.0007
  1376.7500      8.2120     11.4103      7.5174    106.0439
  1377.0000      8.3110     11.3699      7.5034    101.5495
  1377.2500      8.3391     11.3692      7.4762     99.6119
  1377.5000      8.2937     11.4103      7.4423     99.9848
  1377.7500      8.1952     11.4753      7.4099    102.4209
  1378.0000      8.0684     11.5326      7.3854    107.4036
  1378.2500      7.9256     11.5559      7.3719    110.0997
  1378.5000      7.7760     11.5394      7.3686    111.6333
  1378.7500      7.6305     11.5033      7.3715    110.9771
  1379.0000      7.4993     11.4849      7.3757    108.4900
  1379.2500      7.4043     11.5092      7.3766    106.5233
  1379.5000      7.3774     11.5578      7.3714    104.0622
  1379.7500      7.4337     11.5737      7.3607    103.1888
  1380.0000      7.5565     11.5098      7.3488    103.3919
  1380.2500      7.7021     11.3750      7.3433    104.3046
  1380.5000      7.8215     11.2338      7.3533    105.8405
  1380.7500      7.8939     11.1603      7.3874    106.4502
  1381.0000      7.9370     11.1887      7.4528    106.4586
  1381.2500      7.9930     11.2860      7.5559    105.9575
  1381.5000      8.1107     11.3596      7.7027    104.5720
  1381.7500      8.3301     11.3058      7.8989    103.1606
  1382.0000      8.6585     11.0815      8.1476    100.3222
  1382.2500      9.0513     10.7450      8.4469     98.2441
  1382.5000      9.4418     10.4213      8.7884     95.6368
  1382.7500      9.7906     10.2223      9.1569     94.5093
  1383.0000     10.0959     10.1895      9.5317     93.6008
  1383.2500     10.3794     10.2898      9.8888     93.3114
  1383.5000     10.6689     10.4480     10.2046     93.2890
  1383.7500     10.9750     10.5868     10.4607     93.6852
  1384.0000     11.2764     10.6551     10.6495     94.9593
  1384.2500     11.5383     10.6395     10.7739     95.9813
  1384.5000     11.7371     10.5595     10.8434     97.0061
  1384.7500     11.8606     10.4506     10.8655     97.2027
  1385.0000     11.8985     10.3413     10.8416     97.5690
  1385.2500     11.8477     10.2420     10.7684     98.5546
  1385.5000     11.7172     10.1643     10.6434    101.4431
  1385.7500     11.5148     10.1521     10.4686    103.8108
  1386.0000     11.2364     10.2725     10.2510    106.8851
  1386.2500     10.8803     10.5521     10.0009    108.2452
  1386.5000     10.4654     10.9174      9.7306    109.1879
  1386.7500     10.0332     11.2136      9.4554    109.1931
