~Version Information
 VERS.                                  2.0 : CWLS LAS VERSION
 WRAP.                                   NO : WRAPING MODE
 SWARE .                 MController 2.5.0J : SOFTWARE VERSION
~Well Information
 WELL.                        Montoya 1-24V : WELL
 COMP.                       Petrogulf Corp : COMPANY
 FLD.                      Purgatoire River : FIELD
 LOC.                 SE/SW Sec 1 T33S R68W : LOCATION
 DATE.                          10/19-20/04 : DATE(S) LOGGED
 SRVC.       Blanco Geological Services LLC : SERVICE COMPANY
 STAT.                                   CO : STATE
 CNTY.                           Las Animas : COUNTY
 CTRY.                                  USA : COUNTRY
 API.                       05-071-08194-00 : API NUMBER
 STRT.FT                             116.00 : START DEPTH
 STOP.FT                            2700.00 : STOP DEPTH
 STEP.FT                               1.00 : DEPTH INCREMENT
 NULL.                                -9999 : NULL VALUE
~Curve information
 DEPTH.FT                                   :
 ROP.MIN/FT                                 :
 GAS.UNITS                                  :
~ASCII Log data
# ...
      2516.0         0.30          9.5 
      2517.0         0.27          8.9 
      2518.0         0.27        100.8 
      2519.0         0.27         10.2 
      2520.0         0.28         12.4 
      2521.0         0.27         13.6 
      2522.0         0.30         15.8 
      2523.0         0.30         20.7 
      2524.0         0.27         27.5 
      2525.0         0.27         28.4 
      2526.0         0.33         27.9 
      2527.0         0.28         24.5 
      2528.0         0.27         20.4 
      2529.0         0.27         15.1 
      2530.0         0.27         12.4 
      2531.0         0.27         10.8 
      2532.0         0.27         10.3 
      2533.0         0.30         10.2 
      2534.0         0.30         10.4 
      2535.0         0.33         10.3 
      2536.0         0.30          9.1 
      2537.0         0.30          8.6 
      2538.0         0.33          8.4 
      2539.0         0.32          8.5 
      2540.0         0.30          8.5 
      2541.0         0.27          8.0 
      2542.0         0.30          7.9 
      2543.0         0.33          7.4 
      2544.0         0.30          7.3 
      2545.0         0.33          7.2 
      2546.0         0.33          7.1 
      2547.0         0.33          8.8 
      2548.0         0.33          7.0 
      2549.0         0.32          7.9 
      2550.0         0.33         17.2 
      2551.0         0.27         30.3 
      2552.0         0.27         42.5 
      2553.0         0.27         50.5 
      2554.0         0.33         51.0 
      2555.0         0.33         44.7 
      2556.0         0.30         38.4 
      2557.0         0.27         26.9 
      2558.0         0.27         19.2 
      2559.0         0.30         15.3 
      2560.0         0.28         11.5 
      2561.0         0.27         10.7 
      2562.0         0.30         10.5 
      2563.0         0.30         10.3 
      2564.0         0.33          9.9 
      2565.0         0.30          9.7 
      2566.0         0.33          9.6 
      2567.0         0.30          5.9 
      2568.0         0.30          9.7 
      2569.0         0.33          9.7 
      2570.0         0.35          8.8 
      2571.0         0.30          8.0 
      2572.0         0.30          7.9 
      2573.0         0.30          7.5 
      2574.0         0.30          7.5 
      2575.0         0.30          7.4 
      2576.0         0.30          7.7 
      2577.0         0.30         21.7 
      2578.0         0.33         26.9 
      2579.0         0.30         32.3 
      2580.0         0.30         34.5 
      2581.0         0.32         34.7 
      2582.0         0.27         39.1 
      2583.0         0.33         42.1 
      2584.0         0.27         42.6 
      2585.0         0.37         46.0 
      2586.0         0.32         49.0 
      2587.0         0.33         48.2 
      2588.0         0.33         43.2 
      2589.0         0.30         35.9 
      2590.0         0.33         20.5 
      2591.0         0.33         20.0 
      2592.0         0.37         15.4 
      2593.0         0.33         13.6 
      2594.0         0.30         14.1 
      2595.0         0.30         13.4 
      2596.0         0.35         13.3 
      2597.0         0.30         11.2 
      2598.0         0.30          9.7 
      2599.0         0.30          9.4 
      2600.0         0.30          8.5 
      2601.0         0.30          8.2 
      2602.0         0.27          8.1 
      2603.0         0.30          8.8 
      2604.0         0.27          8.7 
      2605.0         0.30          8.7 
      2606.0         0.30          8.1 
      2607.0         0.30         10.9 
      2608.0         0.32          6.0 
      2609.0         0.30          8.6 
      2610.0         0.30         19.5 
      2611.0         0.27         28.9 
      2612.0         0.30         29.7 
      2613.0         0.27         19.4 
      2614.0         0.37         18.6 
      2615.0         0.30         13.3 
      2616.0         0.32         11.0 
      2617.0         0.20         13.2 
      2618.0         0.37         18.3 
      2619.0         0.30         27.1 
      2620.0         0.27         30.8 
      2621.0         0.30         30.8 
      2622.0         0.30         27.6 
      2623.0         0.30         23.8 
      2624.0         0.33         21.8 
      2625.0         0.37         19.3 
      2626.0         0.30         19.5 
      2627.0         0.35         17.3 
      2628.0         0.27         17.4 
      2629.0         0.30         15.0 
      2630.0         0.30         11.8 
      2631.0         0.27         11.0 
      2632.0         0.27         11.4 
      2633.0         0.30         10.5 
      2634.0         0.27         10.2 
      2635.0         0.30          9.5 
      2636.0         0.30          9.6 
      2637.0         0.27          9.3 
      2638.0         0.27          8.9 
      2639.0         0.32        228.3 
      2640.0         0.27          5.2 
      2641.0         0.30          5.1 
      2642.0         0.27          5.3 
      2643.0         0.30          5.0 
      2644.0         0.30          4.8 
      2645.0         0.27          4.3 
      2646.0         0.27          4.8 
      2647.0         0.33          7.0 
      2648.0         0.33         17.4 
      2649.0         0.40         31.5 
      2650.0         0.40         40.6 
      2651.0         0.38         40.1 
      2652.0         0.30         37.1 
      2653.0         0.30         36.5 
      2654.0         0.30         31.9 
      2655.0         0.30         24.1 
      2656.0         0.27         16.6 
      2657.0         0.30         11.3 
      2658.0         0.27         10.0 
      2659.0         0.27          9.4 
      2660.0         0.28          8.6 
      2661.0         0.27          8.1 
      2662.0         0.27         65.9 
      2663.0         0.27         24.7 
      2664.0         0.27         20.2 
      2665.0         0.27         17.8 
      2666.0         0.23         13.3 
      2667.0         0.30         12.3 
      2668.0         0.33         11.8 
      2669.0         0.27         10.4 
      2670.0         0.42          9.1 
      2671.0         0.43          8.5 
      2672.0         0.50          7.1 
      2673.0         0.40          6.6 
      2674.0         0.37          6.4 
      2675.0         0.30          5.8 
      2676.0         0.33          5.8 
      2677.0         0.30          5.4 
      2678.0         0.30          5.2 
      2679.0         0.32          5.1 
      2680.0         0.30          5.0 
      2681.0         0.27          4.5 
      2682.0         0.27          4.3 
      2683.0         0.27          4.1 
      2684.0         0.30          4.3 
      2685.0         0.30          4.3 
      2686.0         0.30          4.4 
      2687.0         0.33          4.7 
      2688.0         0.33          4.7 
      2689.0         0.27          4.6 
      2690.0         0.28          4.8 
      2691.0         0.37          5.1 
      2692.0         0.33          5.9 
      2693.0         0.33          7.1 
      2694.0         0.30          6.3 
      2695.0         0.27          5.7 
      2696.0         0.30          4.8 
      2697.0         0.27          4.8 
      2698.0         0.27          4.6 
      2699.0         0.27          4.4 
      2700.0         0.27          4.6 
