~Version Information
VERS.                      2.0: CWLS Log ASCII Standard - VERSION 2.0
WRAP.                       NO: One line per depth step
~Well Information Block
STRT.FT               494.2500: 
STOP.FT              1992.0000: 
STEP.FT                 0.2500: 
NULL.                -999.2500: 
COMP.          Petrogulf Corporation: COMPANY
WELL.               Furu 6-23R: WELL
FLD.           Purgatoire River: FIELD
LOC.           2211' FSL & 1780' FWL--: LOCATION
CNTY.               Las Animas: COUNTY
SRVC.                Patterson: SERVICE COMPANY
DATE.          Wed Jun 21 14:57:59 2006: LOG DATE
UWI.           05 071 08266 00: UNIQUE WELL ID
STAT.                 Colorado: STATE
~Curve Information Block
DEPT.FT            0 000 00 00: Depth
GR.GAPI                       : Gamma Ray
RILD.Ohm-m                    : DIL Deep Resistivity
RILM.Ohm-m                    : DIL Medium Resistivity
RLL3.Ohm-m                    : DIL Shallow Resistivity
SP.mV                         : DIL Spontaneous Potential
~Parameter Information Block
~A  Depth        GR         RILD        RILM        RLL3         SP     
# ...
  1782.2500     98.7430     33.7456     33.7737     47.5308    127.3581
  1782.5000     96.6296     34.0570     34.9313     54.8359    126.5928
  1782.7500     94.7917     34.3743     36.1785     63.7249    125.8001
  1783.0000     91.1657     34.7443     37.4352     72.9627    125.1318
  1783.2500     88.6898     35.1919     38.6125     80.8213    124.7657
  1783.5000     86.3502     35.7170     39.6121     85.7013    124.7670
  1783.7500     86.1344     36.2962     40.3393     86.7694    124.9974
  1784.0000     87.1686     36.8888     40.7356     84.1859    125.1910
  1784.2500     88.0614     37.4468     40.8098     78.8081    125.1471
  1784.5000     89.3829     37.9247     40.6434     71.7166    124.8493
  1784.7500     90.7031     38.2876     40.3590     63.9941    124.4261
  1785.0000     94.0564     38.5149     40.0723     56.8126    124.0557
  1785.2500     96.9826     38.6019     39.8534     51.4883    123.9282
  1785.5000    100.9457     38.5533     39.7154     49.1284    124.2316
  1785.7500    102.2908     38.3721     39.6266     49.9143    125.0680
  1786.0000    101.2696     38.0542     39.5351     52.6576    126.3221
  1786.2500     98.5953     37.5949     39.3895     55.3198    127.6427
  1786.5000     92.8487     37.0020     39.1530     56.3236    128.6286
  1786.7500     89.0128     36.3058     38.8069     55.5529    129.0800
  1787.0000     85.0082     35.5534     38.3418     54.1557    129.0824
  1787.2500     84.0399     34.7921     37.7435     53.4071    128.8788
  1787.5000     85.3176     34.0551     36.9902     53.6149    128.6927
  1787.7500     87.8501     33.3584     36.0728     53.8634    128.6477
  1788.0000     93.3685     32.7053     35.0209     52.7676    128.7805
  1788.2500     97.2817     32.0898     33.9035     49.7111    129.0746
  1788.5000    101.7049     31.4984     32.7996     45.5167    129.4781
  1788.7500    103.0859     30.9147     31.7634     41.8267    129.9194
  1789.0000    103.0365     30.3275     30.8103     39.7095    130.3353
  1789.2500    102.2072     29.7331     29.9278     38.8749    130.6958
  1789.5000    100.9048     29.1326     29.0942     38.2015    131.0083
  1789.7500    100.4909     28.5303     28.2932     36.8579    131.2990
  1790.0000    101.0253     27.9387     27.5207     34.8744    131.5854
  1790.2500    102.2448     27.3846     26.7853     32.8677    131.8539
  1790.5000    105.2679     26.9067     26.1082     31.4570    132.0619
  1790.7500    107.8122     26.5437     25.5170     30.8911    132.1665
  1791.0000    111.5585     26.3188     25.0373     31.0191    132.1599
  1791.2500    113.4862     26.2323     24.6860     31.4924    132.0774
  1791.5000    115.2044     26.2659     24.4716     31.9751    131.9730
  1791.7500    115.7801     26.3982     24.4013     32.2190    131.8850
  1792.0000    116.3257     26.6197     24.4897     32.1156    131.8194
  1792.2500    116.5039     26.9362     24.7629     31.8344    131.7540
  1792.5000    115.7054     27.3594     25.2559     31.9023    131.6566
  1792.7500    113.7280     27.8929     26.0031     33.0838    131.5088
  1793.0000    107.8186     28.5279     27.0236     36.1298    131.3203
  1793.2500    102.1513     29.2510     28.3058     41.5017    131.1221
  1793.5000     92.4112     30.0549     29.7992     49.0927    130.9431
  1793.7500     85.9219     30.9379     31.4209     58.0202    130.7904
  1794.0000     77.1099     31.8919     33.0790     66.6907    130.6491
  1794.2500     72.2022     32.8883     34.7028     73.3536    130.5006
  1794.5000     66.8353     33.8788     36.2556     77.0253    130.3400
  1794.7500     64.7152     34.8130     37.7156     78.0926    130.1760
  1795.0000     63.3809     35.6558     39.0431     77.8987    130.0192
  1795.2500     63.3808     36.3901     40.1672     77.5586    129.8748
  1795.5000     64.3079     37.0014     41.0109     77.1235    129.7424
  1795.7500     65.3509     37.4651     41.5378     75.8425    129.6167
  1796.0000     66.9403     37.7529     41.7754     73.1231    129.4944
  1796.2500     67.5153     37.8532     41.7952     69.2275    129.3829
  1796.5000     67.1120     37.7850     41.6705     65.1545    129.2991
  1796.7500     66.1829     37.5909     41.4547     61.9257    129.2511
  1797.0000     64.8947     37.3134     41.1856     59.9442    129.2246
  1797.2500     64.8009     36.9762     40.8975     58.9585    129.1939
  1797.5000     66.3918     36.5843     40.6178     58.5517    129.1483
  1797.7500     68.5011     36.1387     40.3531     58.5442    129.1080
  1798.0000     72.4730     35.6471     40.0843     58.9041    129.1199
  1798.2500     75.0362     35.1194     39.7768     59.4791    129.2430
  1798.5000     77.7961     34.5581     39.3988     60.0531    129.5198
  1798.7500     78.7288     33.9585     38.9363     60.6141    129.9367
  1799.0000     79.4145     33.3207     38.3964     61.2919    130.4101
  1799.2500     80.1563     32.6562     37.7942     61.8880    130.8367
  1799.5000     82.6953     31.9795     37.1314     61.6304    131.1701
  1799.7500     85.3009     31.2964     36.3798     59.6934    131.4458
  1800.0000     89.6590     30.6061     35.4902     56.0914    131.7358
  1800.2500     92.4251     29.9181     34.4266     51.9203    132.0870
  1800.5000     96.5484     29.2635     33.2043     48.5165    132.5045
  1800.7500     99.7387     28.6903     31.8999     46.3015    132.9729
  1801.0000    105.7051     28.2439     30.6291     44.4628    133.4783
  1801.2500    110.2575     27.9496     29.5150     41.7991    134.0093
  1801.5000    116.5580     27.8038     28.6661     37.9623    134.5475
  1801.7500    119.2872     27.7760     28.1653     33.9894    135.0632
  1802.0000    119.6748     27.8164     28.0613     31.7243    135.5208
  1802.2500    117.1286     27.8667     28.3576     32.7386    135.8917
  1802.5000    109.5190     27.8685     29.0021     37.5931    136.1724
  1802.7500    102.7695     27.7709     29.8837     45.7563    136.3930
  1803.0000     92.3881     27.5403     30.8401     56.0176    136.6079
  1803.2500     86.5299     27.1715     31.6813     66.9879    136.8723
  1803.5000     80.3903     26.6934     32.2251     77.2632    137.2217
  1803.7500     78.1118     26.1604     32.3343     85.3035    137.6629
  1804.0000     77.2688     25.6327     31.9438     89.5366    138.1805
  1804.2500     78.4898     25.1548     31.0754     88.8197    138.7537
  1804.5000     83.3221     24.7434     29.8350     82.8565    139.3737
  1804.7500     88.5703     24.3900     28.3882     72.4185    140.0477
  1805.0000     98.4966     24.0732     26.9126     59.4734    140.7934
  1805.2500    105.1371     23.7729     25.5504     46.8619    141.6368
  1805.5000    112.4255     23.4744     24.3881     37.1175    142.6062
  1805.7500    114.7353     23.1614     23.4650     31.0954    143.7069
  1806.0000    115.4381     22.8039     22.7941     27.7783    144.8915
  1806.2500    115.3129     22.3555     22.3757     25.6616    146.0595
  1806.5000    115.0241     21.7661     22.1954     24.5450    147.0956
  1806.7500    114.0984     21.0085     22.2084     26.2586    147.9186
  1807.0000    110.2322     20.0986     22.3181     33.7962    148.5109
  1807.2500    106.0614     19.0949     22.3656     49.0714    148.9229
  1807.5000     99.3122     18.0773     22.1533     70.1314    149.2515
  1807.7500     96.2247     17.1197     21.5220     90.0410    149.5995
  1808.0000     96.7333     16.2714     20.4430     99.8597    150.0351
  1808.2500    101.6343     15.5531     19.0431     94.5842    150.5761
  1808.5000    115.6195     14.9620     17.5297     76.8394    151.1981
  1808.7500    127.8071     14.4805     16.0885     54.6462    151.8455
  1809.0000    146.0123     14.0853     14.8310     35.6671    152.4463
  1809.2500    155.5358     13.7535     13.7990     23.2929    152.9413
  1809.5000    163.6020     13.4675     12.9899     16.8635    153.3101
  1809.7500    165.2112     13.2166     12.3808     14.1030    153.5653
  1810.0000    164.4873     12.9970     11.9436     13.0645    153.7214
