~Version Information
VERS.                      2.0: CWLS Log ASCII Standard - VERSION 2.0
WRAP.                       NO: One line per depth step
~Well Information Block
STRT.FT               250.0000: 
STOP.FT              1687.7000: 
STEP.FT                 0.1000: 
NULL.                -999.2500: 
COMP.          Pioneer Natural Resources: COMPANY
WELL.          Moneypenny 31-36: WELL
FLD.           Purgatoire River: FIELD
LOC.           280' FNL & 1976' FEL: LOCATION
PROV.                 Colorado: PROVINCE
CNTY.               Las Animas: COUNTRY
SRVC.                Patterson: SERVICE COMPANY
DATE.          Fri Oct 01 13:54:40 2004: LOG DATE
UWI.           05 071 08183 00: UNIQUE WELL ID
~Curve Information Block
DEPT.FT            0 000 00 00: Depth
DCAL.in                       : CDL Caliper
RHOB.g/cc                     : CDL Bulk Density
RHOC.g/cc                     : CDL Density Correction
DPOR.pu                       : CDL Density Porosity
NPOR.pu                       : Neutron Porosity
GR.GAPI                       : Gamma Ray
~Parameter Information Block
~A  Depth       DCAL        RHOB        RHOC        DPOR        NPOR         GR     
# ...
  1661.2000      7.7756      2.5225     -0.0100      7.7287     49.6307   -999.2500
  1661.3000      7.7732      2.5172      0.0102      8.0510     52.3842   -999.2500
  1661.4000      7.7732      2.5181      0.0318      7.9929     52.9224   -999.2500
  1661.5000      7.7707      2.5158      0.0290      8.1339     52.9794   -999.2500
  1661.6000      7.7707      2.5050      0.0105      8.7849     52.9826   -999.2500
  1661.7000      7.7707      2.4926     -0.0057      9.5402   -999.2500   -999.2500
  1661.8000      7.7708      2.4848      0.0095     10.0092   -999.2500   -999.2500
  1661.9000      7.7708      2.4842      0.0058     10.0498   -999.2500   -999.2500
  1662.0000      7.7726      2.4947      0.0097      9.4125   -999.2500   -999.2500
  1662.1000      7.7726      2.5089      0.0637      8.5511   -999.2500   -999.2500
  1662.2000      7.7726      2.5070      0.0571      8.6637   -999.2500   -999.2500
  1662.3000      7.7745      2.4934      0.0123      9.4903   -999.2500   -999.2500
  1662.4000      7.7745      2.4917      0.0030      9.5936   -999.2500   -999.2500
  1662.5000      7.7731      2.4996      0.1011      9.1140   -999.2500   -999.2500
  1662.6000      7.7731      2.5013      0.0620      9.0113   -999.2500   -999.2500
  1662.7000      7.7731      2.5038      0.0621      8.8607   -999.2500   -999.2500
  1662.8000      7.7699      2.5117      0.0946      8.3796   -999.2500   -999.2500
  1662.9000      7.7699      2.5202      0.0314      7.8647   -999.2500   -999.2500
  1663.0000      7.7674      2.5304      0.0702      7.2477   -999.2500   -999.2500
  1663.1000      7.7674      2.5337      0.0758      7.0507   -999.2500   -999.2500
  1663.2000      7.7674      2.5247      0.0410      7.5919   -999.2500   -999.2500
  1663.3000      7.7659      2.5160      0.0210      8.1185   -999.2500   -999.2500
  1663.4000      7.7659      2.5107      0.0533      8.4426   -999.2500   -999.2500
  1663.5000      7.7652      2.5019      0.0299      8.9729   -999.2500   -999.2500
  1663.6000      7.7652      2.4946      0.0260      9.4183   -999.2500   -999.2500
  1663.7000      7.7652      2.4928      0.0500      9.5283   -999.2500   -999.2500
  1663.8000      7.7645      2.4919      0.0512      9.5808   -999.2500   -999.2500
  1663.9000      7.7645      2.4905      0.0262      9.6649   -999.2500   -999.2500
  1664.0000      7.7639      2.4935      0.0314      9.4858   -999.2500   -999.2500
  1664.1000      7.7639      2.5076      0.0284      8.6316   -999.2500   -999.2500
  1664.2000      7.7639      2.5300      0.0797      7.2730   -999.2500   -999.2500
  1664.3000      7.7607      2.5471      0.0612      6.2342   -999.2500   -999.2500
  1664.4000      7.7607      2.5501      0.0715      6.0532   -999.2500   -999.2500
  1664.5000      7.7588      2.5404      0.0544      6.6411   -999.2500   -999.2500
  1664.6000      7.7588      2.5324      0.0457      7.1278   -999.2500   -999.2500
  1664.7000      7.7588      2.5443      0.0411      6.4039   -999.2500   -999.2500
  1664.8000      7.7604      2.5695      0.0992      4.8759   -999.2500   -999.2500
  1664.9000      7.7604      2.5835      0.1092      4.0331   -999.2500   -999.2500
  1665.0000      7.7613      2.5844      0.0729      3.9735   -999.2500   -999.2500
  1665.1000      7.7613      2.5821      0.1078      4.1152   -999.2500   -999.2500
  1665.2000      7.7613      2.5698      0.0564      4.8635   -999.2500   -999.2500
  1665.3000      7.7591      2.5495      0.0417      6.0912   -999.2500   -999.2500
  1665.4000      7.7591      2.5424      0.0057      6.5228   -999.2500   -999.2500
  1665.5000      7.7573      2.5546      0.0489      5.7795   -999.2500   -999.2500
  1665.6000      7.7573      2.5633      0.0800      5.2524   -999.2500   -999.2500
  1665.7000      7.7573      2.5522      0.0254      5.9295   -999.2500   -999.2500
  1665.8000      7.7593      2.5322      0.0279      7.1372   -999.2500   -999.2500
  1665.9000      7.7593      2.5204     -0.0090      7.8516   -999.2500   -999.2500
  1666.0000      7.7613      2.5202      0.0548      7.8663   -999.2500   -999.2500
  1666.1000      7.7613      2.5214      0.0482      7.7922   -999.2500   -999.2500
  1666.2000      7.7613      2.5240      0.0328      7.6390   -999.2500   -999.2500
  1666.3000      7.7605      2.5371      0.0536      6.8415   -999.2500   -999.2500
  1666.4000      7.7605      2.5564      0.0565      5.6753   -999.2500   -999.2500
  1666.5000      7.7594      2.5698      0.0784      4.8617   -999.2500   -999.2500
  1666.6000      7.7594      2.5697      0.0868      4.8643   -999.2500   -999.2500
  1666.7000      7.7594      2.5553      0.0831      5.7418   -999.2500   -999.2500
  1666.8000      7.7604      2.5422      0.0164      6.5324   -999.2500   -999.2500
  1666.9000      7.7604      2.5458      0.0667      6.3128   -999.2500   -999.2500
  1667.0000      7.7590      2.5556      0.0422      5.7187   -999.2500   -999.2500
  1667.1000      7.7590      2.5556      0.0512      5.7215   -999.2500   -999.2500
  1667.2000      7.7590      2.5432      0.0319      6.4703   -999.2500   -999.2500
  1667.3000      7.7571      2.5236      0.0356      7.6623   -999.2500   -999.2500
  1667.4000      7.7571      2.5035     -0.0081      8.8763   -999.2500   -999.2500
  1667.5000      7.7590      2.4932     -0.0149      9.5042   -999.2500   -999.2500
  1667.6000      7.7590      2.4957     -0.0003      9.3533   -999.2500   -999.2500
  1667.7000      7.7590      2.5025      0.0085      8.9366   -999.2500   -999.2500
  1667.8000      7.7592      2.5087      0.0130      8.5638   -999.2500   -999.2500
  1667.9000      7.7592      2.5159      0.0236      8.1295   -999.2500   -999.2500
  1668.0000      7.7525      2.5226      0.0220      7.7216   -999.2500   -999.2500
  1668.1000      7.7525      2.5276      0.0227      7.4189   -999.2500   -999.2500
  1668.2000      7.7525      2.5347      0.0331      6.9905   -999.2500   -999.2500
  1668.3000      7.7368      2.5485      0.0289      6.1486   -999.2500   -999.2500
  1668.4000      7.7368      2.5832      0.0326      4.0514   -999.2500   -999.2500
  1668.5000      7.6951      2.6631      0.0513     -0.7937   -999.2500   -999.2500
  1668.6000      7.6951      2.6715      0.0479     -1.3042   -999.2500   -999.2500
  1668.7000      7.6951      2.2160      0.5563     26.3018   -999.2500   -999.2500
  1668.8000      7.3742      1.2515      0.0400     84.7601   -999.2500   -999.2500
  1668.9000      7.3742      0.4231      0.0400    134.9628   -999.2500   -999.2500
  1669.0000      5.9807      0.0802   -999.2500    155.7440   -999.2500   -999.2500
  1669.1000      5.9807      0.0083   -999.2500    160.1053   -999.2500   -999.2500
  1669.2000      5.9807      0.0004   -999.2500    160.5789   -999.2500   -999.2500
  1669.3000      3.6936      0.0000   -999.2500    160.6061   -999.2500   -999.2500
  1669.4000      3.6936      0.0000   -999.2500    160.6061   -999.2500   -999.2500
  1669.5000      2.3081   -999.2500   -999.2500   -999.2500   -999.2500   -999.2500
  1669.6000      2.3081   -999.2500   -999.2500   -999.2500   -999.2500   -999.2500
  1669.7000      2.3081   -999.2500   -999.2500   -999.2500   -999.2500   -999.2500
  1669.8000      1.9991   -999.2500   -999.2500   -999.2500   -999.2500   -999.2500
  1669.9000      1.9991   -999.2500   -999.2500   -999.2500   -999.2500   -999.2500
  1670.0000      1.9738   -999.2500   -999.2500   -999.2500   -999.2500   -999.2500
  1670.1000      1.9738   -999.2500   -999.2500   -999.2500   -999.2500   -999.2500
  1670.2000      1.9738   -999.2500   -999.2500   -999.2500   -999.2500   -999.2500
  1670.3000   -999.2500   -999.2500   -999.2500   -999.2500   -999.2500   -999.2500
  1670.4000   -999.2500   -999.2500   -999.2500   -999.2500   -999.2500   -999.2500
  1670.5000   -999.2500   -999.2500   -999.2500   -999.2500   -999.2500   -999.2500
  1670.6000   -999.2500   -999.2500   -999.2500   -999.2500   -999.2500   -999.2500
  1670.7000   -999.2500   -999.2500   -999.2500   -999.2500   -999.2500   -999.2500
