~Version Information
VERS.                      2.0: CWLS Log ASCII Standard - VERSION 2.0
WRAP.                       NO: One line per depth step
~Well Information Block
STRT.FT                -8.2500: 
STOP.FT               836.2500: 
STEP.FT                 0.2500: 
NULL.                -999.2500: 
COMP.          Pioneer Natural Res.: COMPANY
WELL.            Hustler 12-17: WELL
FLD.           Purgatorie River: FIELD
LOC.           2150' FNL & 450' FWL----------: LOCATION
PROV.                       CO: PROVINCE
CNTY.               Las Animas: COUNTRY
SRVC.                Patterson: SERVICE COMPANY
DATE.          Wed Dec 29 13:37:10 2004: LOG DATE
UWI.           05 071 08236 00: UNIQUE WELL ID
~Curve Information Block
DEPT.FT            0 000 00 00: Depth
AMP3.mV                       : CBL 3' Amplitude
CCL.                          : Casing Collar Locator
GR.GAPI                       : Gamma Ray
TT3.usec                      : CBL 3' Travel Time
~Parameter Information Block
~A  Depth       AMP3        CCL          GR         TT3     
# ...
   728.7500     38.3762      0.0000     78.9450    312.2278
   729.0000     39.0232      0.0000     78.8481    312.1098
   729.2500     39.5765      0.0000     77.2450    312.0018
   729.5000     39.9515      0.0000     74.5684    311.9182
   729.7500     40.0642      0.0000     71.8727    311.8797
   730.0000     39.8755      0.0000     69.9271    311.8941
   730.2500     39.4189      0.0000     68.8445    311.9506
   730.5000     38.8274      0.0000     68.2869    312.0227
   730.7500     38.3203      0.0000     67.7180    312.0760
   731.0000     38.0953      0.0000     66.5331    312.0834
   731.2500     38.1988      0.0000     64.3127    312.0394
   731.5000     38.5320      0.0000     61.3296    311.9587
   731.7500     38.9810      0.0000     58.8032    311.8617
   732.0000     39.4900      0.0000     58.2923    311.7657
   732.2500     40.0185      0.0000     60.4701    311.6860
   732.5000     40.5079      0.0000     64.4444    311.6340
   732.7500     40.9240      0.0000     68.3094    311.6110
   733.0000     41.2899      0.0000     70.3670    311.6077
   733.2500     41.6572      0.0000     70.0903    311.6108
   733.5000     42.0632      0.0000     68.3691    311.6060
   733.7500     42.5041      0.0000     66.9190    311.5818
   734.0000     42.9220      0.0000     67.0902    311.5377
   734.2500     43.2306      0.0000     69.0302    311.4882
   734.5000     43.3964      0.0000     71.9558    311.4507
   734.7500     43.4983      0.0000     74.9451    311.4278
   735.0000     43.6772      0.0000     77.3240    311.4064
   735.2500     44.0007      0.0000     78.7923    311.3745
   735.5000     44.3764      0.0000     79.5787    311.3361
   735.7500     44.5996      0.0000     80.3886    311.3101
   736.0000     44.5030      0.0000     82.0294    311.3172
   736.2500     44.0760      0.0000     84.7959    311.3671
   736.5000     43.4387      0.0000     87.8800    311.4542
   736.7500     42.7072      0.0000     89.4906    311.5644
   737.0000     41.9175      0.0000     88.0858    311.6822
   737.2500     41.0930      0.0000     83.6794    311.7894
   737.5000     40.3460      0.0000     77.8111    311.8604
   737.7500     39.8589      0.0000     72.4015    311.8719
   738.0000     39.7436      0.0000     68.7855    311.8224
   738.2500     39.9249      0.0000     67.4072    311.7411
   738.5000     40.1808      0.0000     67.8149    311.6718
   738.7500     40.3060      0.0000     68.9723    311.6474
   739.0000     40.2309      0.0000     70.0850    311.6755
   739.2500     40.0103      0.0000     71.3557    311.7433
   739.5000     39.7396      0.0000     73.6040    311.8357
   739.7500     39.4750      0.0000     76.9739    311.9482
   740.0000     39.1937      0.0000     80.3331    312.0851
   740.2500     38.8326      0.0000     82.3177    312.2425
   740.5000     38.3915      0.0000     82.7829    312.3930
   740.7500     37.9967      0.0000     82.7769    312.4901
   741.0000     37.8269      0.0000     83.1618    312.4954
   741.2500     37.9567      0.0000     83.8060    312.4052
   741.5000     38.2896      0.0000     84.2409    312.2516
   741.7500     38.6551      0.0000     84.6023    312.0775
   742.0000     38.9564      0.0000     85.6408    311.9108
   742.2500     39.2236      0.0000     87.9851    311.7641
   742.5000     39.5537      0.0000     91.4897    311.6479
   742.7500     40.0177      0.0000     95.0286    311.5736
   743.0000     40.6169      0.0000     96.8288    311.5430
   743.2500     41.3123      0.0000     95.5516    311.5439
   743.5000     42.0921      0.0000     91.5764    311.5571
   743.7500     42.9934      0.0000     87.0449    311.5640
   744.0000     44.0307      0.0000     84.3026    311.5482
   744.2500     45.0980      0.0000     84.3313    311.5026
   744.5000     45.9829      0.0000     86.6335    311.4359
   744.7500     46.5196      0.0000     90.1645    311.3674
   745.0000     46.7083      0.0000     93.9822    311.3159
   745.2500     46.6516      0.0000     97.1029    311.2964
   745.5000     46.3959      0.0000     98.2968    311.3230
   745.7500     45.8634      0.0000     96.6508    311.4026
   746.0000     44.9294      0.0000     92.5084    311.5264
   746.2500     43.5517      0.0000     87.4219    311.6695
   746.5000     41.8341      0.0000     82.9549    311.8015
   746.7500     39.9684      0.0000     79.7552    311.9035
   747.0000     38.0978      0.0000     77.6492    311.9884
   747.2500     36.2422      0.0000     76.1313    312.1026
   747.5000     34.3819      0.0000     74.7993    312.2938
   747.7500     32.5965      0.0000     73.6925    312.5668
   748.0000     31.0731      0.0000     73.3441    312.8734
   748.2500     29.9823      0.0000     74.4934    313.1415
   748.5000     29.3779      0.0000     77.6928    313.3132
   748.7500     29.1910      0.0000     82.9533    313.3675
   749.0000     29.2648      0.0000     89.6968    313.3299
   749.2500     29.4094      0.0000     97.2383    313.2614
   749.5000     29.4952      0.0000    105.1256    313.2205
   749.7500     29.5201      0.0000    112.6205    313.2277
   750.0000     29.5676      0.0000    118.2577    313.2674
   750.2500     29.7042      0.0000    120.6173    313.3182
   750.5000     29.9305      0.0000    119.5282    313.3698
   750.7500     30.2068      0.0000    116.3520    313.4145
   751.0000     30.4929      0.0000    113.4355    313.4367
   751.2500     30.7719      0.0000    113.3295    313.4112
   751.5000     31.0696      0.0000    117.7586    313.3090
   751.7500     31.4547      0.0000    126.4564    313.1163
   752.0000     31.9986      0.0000    136.8525    312.8574
   752.2500     32.7134      0.0000    145.3195    312.5980
   752.5000     33.5187      0.0000    149.0606    312.4120
   752.7500     34.2692      0.0000    147.0359    312.3359
   753.0000     34.8281      0.0000    139.6574    312.3486
   753.2500     35.1285      0.0000    128.2101    312.3931
   753.5000     35.1768      0.0000    114.4477    312.4194
   753.7500     35.0155      0.0000    100.1437    312.4105
   754.0000     34.7054      0.0000     86.7536    312.3766
   754.2500     34.3409      0.0000     75.5179    312.3311
   754.5000     34.0448      0.0000     67.5518    312.2761
   754.7500     33.9038      0.0000     63.3506    312.2111
   755.0000     33.8949      0.0000     62.2905    312.1542
   755.2500     33.9062      0.0000     63.0371    312.1443
   755.5000     33.8547      0.0000     64.4420    312.2105
   755.7500     33.7757      0.0000     65.8395    312.3357
   756.0000     33.7844      0.0000     66.7459    312.4558
   756.2500     33.9604      0.0000     66.7404    312.5027
   756.5000     34.2822      0.0000     65.6520    312.4510
   756.7500     34.6600      0.0000     63.7791    312.3266
   757.0000     35.0178      0.0000     62.0365    312.1765
   757.2500     35.3420      0.0000     61.7339    312.0362
   757.5000     35.6558      0.0000     63.7436    311.9261
   757.7500     35.9469      0.0000     67.6706    311.8662
   758.0000     36.1367      0.0000     71.8957    311.8813
   758.2500     36.1368      0.0000     74.5552    311.9836
   758.5000     35.9344      0.0000     74.7613    312.1551
   758.7500     35.6067      0.0000     73.2559    312.3495
   759.0000     35.2519      0.0000     72.0347    312.5192
   759.2500     34.9105      0.0000     73.0298    312.6405
   759.5000     34.5574      0.0000     76.7258    312.7187
   759.7500     34.1648      0.0000     81.9818    312.7683
   760.0000     33.7576      0.0000     87.3459    312.7939
   760.2500     33.3945      0.0000     92.3735    312.7898
   760.5000     33.1083      0.0000     97.4557    312.7538
   760.7500     32.8782      0.0000    102.6482    312.6971
   761.0000     32.6569      0.0000    107.1181    312.6451
   761.2500     32.4112      0.0000    109.7345    312.6295
   761.5000     32.1382      0.0000    109.8909    312.6738
   761.7500     31.8504      0.0000    107.7970    312.7766
   762.0000     31.5597      0.0000    104.3314    312.9076
