~Version Information
 VERS.                                  2.0 : CWLS LAS VERSION
 WRAP.                                   NO : WRAPING MODE
 SWARE .                 MController 2.5.0E : SOFTWARE VERSION
~Well Information
 WELL.                         STATE 16-24V : WELL
 COMP.                      Petrogulf Corp. : COMPANY
 FLD.                      Purgatorie River : FIELD
 LOC.                NW/SE Sec 16 T33S R67W : LOCATION
 DATE.                      5/02/04-5/03/04 : DATE(S) LOGGED
 SRVC.       Blanco Geological Services LLC : SERVICE COMPANY
 STAT.                                   CO : STATE
 CNTY.                           Las Animas : COUNTY
 CTRY.                                  USA : COUNTRY
 API.                       05-071-08014-00 : API NUMBER
 STRT.FT                              40.00 : START DEPTH
 STOP.FT                            2380.00 : STOP DEPTH
 STEP.FT                               1.00 : DEPTH INCREMENT
 NULL.                                -9999 : NULL VALUE
~Curve information
 DEPTH.FT                                   :
 ROP.MIN/FT                                 :
 GAS.UNITS                                  :
~ASCII Log data
# ...
     2040.00        0.300         26.5 
     2041.00        0.350         28.0 
     2042.00        0.333         28.6 
     2043.00        0.267         29.4 
     2044.00        0.333         30.8 
     2045.00        0.300         31.2 
     2046.00        0.367         31.8 
     2047.00        0.300         31.3 
     2048.00        0.300         30.6 
     2049.00        0.267         29.8 
     2050.00        0.267         28.4 
     2051.00        0.267         27.6 
     2052.00        0.283         27.9 
     2053.00        0.200         26.8 
     2054.00        0.233         25.6 
     2055.00        0.233         26.1 
     2056.00        0.233         24.8 
     2057.00        0.233         24.0 
     2058.00        0.200         23.3 
     2059.00        0.267         23.1 
     2060.00        0.233         22.4 
     2061.00        0.200         22.9 
     2062.00        0.233         21.7 
     2063.00        0.200         21.7 
     2064.00        0.233         21.9 
     2065.00        0.200         20.9 
     2066.00        3.700         27.2 
     2067.00        0.167         27.6 
     2068.00        0.500         27.2 
     2069.00        0.400         28.1 
     2070.00        0.367         28.0 
     2071.00        0.333         28.4 
     2072.00        0.333         28.6 
     2073.00        0.300         28.7 
     2074.00        0.300        101.8 
     2075.00        0.300         74.8 
     2076.00        0.133         50.6 
     2077.00        0.250         37.5 
     2078.00        0.200         30.7 
     2079.00        0.233         27.9 
     2080.00        0.200         27.3 
     2081.00        0.233         27.7 
     2082.00        0.233         27.5 
     2083.00        0.233         27.0 
     2084.00        0.233         26.2 
     2085.00        0.233         26.2 
     2086.00        0.167         24.6 
     2087.00        0.167         25.0 
     2088.00        0.200         25.0 
     2089.00        0.133         25.6 
     2090.00        0.167         24.3 
     2091.00        0.233         24.3 
     2092.00        0.167         25.1 
     2093.00        0.217         24.8 
     2094.00        0.167         25.0 
     2095.00        0.200         25.0 
     2096.00        3.817         27.3 
     2097.00        0.167         28.0 
     2098.00        0.367         28.0 
     2099.00        0.333         27.9 
     2100.00        0.300         27.6 
     2101.00        0.300         27.7 
     2102.00        0.267         27.0 
     2103.00        0.267         27.1 
     2104.00        0.333         27.8 
     2105.00        0.283         27.5 
     2106.00        0.233         26.9 
     2107.00        0.267         26.8 
     2108.00        0.267         26.5 
     2109.00        0.167         26.9 
     2110.00        0.167         27.4 
     2111.00        0.200         27.4 
     2112.00        0.233         26.7 
     2113.00        0.167         27.5 
     2114.00        0.133         27.4 
     2115.00        0.133         27.4 
     2116.00        0.100         27.4 
     2117.00        0.200         27.4 
     2118.00        0.233         26.7 
     2119.00        0.233         26.8 
     2120.00        0.167         25.7 
     2121.00        0.233         26.6 
     2122.00        0.217         26.6 
     2123.00        0.267         25.5 
     2124.00        0.233         25.8 
     2125.00        0.267         24.5 
     2126.00        3.617         25.2 
     2127.00        0.567         25.4 
     2128.00        0.567         24.7 
     2129.00        0.367         24.6 
     2130.00        0.333         24.9 
     2131.00        0.350         24.0 
     2132.00        0.333         24.8 
     2133.00        0.300         24.7 
     2134.00        0.333         24.2 
     2135.00        0.367         24.9 
     2136.00        0.300         24.9 
     2137.00        0.300         23.7 
     2138.00        0.300         24.8 
     2139.00        0.333         24.9 
     2140.00        0.333         24.8 
     2141.00        0.333         24.7 
     2142.00        0.350         24.4 
     2143.00        0.300         23.5 
     2144.00        0.267         23.5 
     2145.00        0.300         22.9 
     2146.00        0.367         23.5 
     2147.00        0.300         23.2 
     2148.00        0.300         22.2 
     2149.00        0.333         22.8 
     2150.00        0.300         22.7 
     2151.00        0.333         21.2 
     2152.00        0.350         21.7 
     2153.00        0.433         20.7 
     2154.00        0.400         21.0 
     2155.00        0.367         21.0 
     2156.00        3.950         23.9 
     2157.00        0.167         23.7 
     2158.00        0.167         23.2 
     2159.00        0.267         24.2 
     2160.00        0.367         24.4 
     2161.00        0.333         24.5 
     2162.00        0.317         24.0 
     2163.00        0.233         24.6 
     2164.00        0.300         25.1 
     2165.00        0.300         25.9 
     2166.00        0.267         25.4 
     2167.00        0.233         26.5 
     2168.00        0.300         26.8 
     2169.00        0.300         26.5 
     2170.00        0.300         27.1 
     2171.00        0.267         28.0 
     2172.00        0.267         27.5 
     2173.00        0.267         28.5 
     2174.00        0.283         28.5 
     2175.00        0.267         28.7 
     2176.00        0.233         28.9 
     2177.00        0.267         28.8 
     2178.00        0.233         28.8 
     2179.00        0.233         28.1 
     2180.00        0.233         29.0 
     2181.00        0.233         28.6 
     2182.00        0.233         27.6 
     2183.00        0.233         27.7 
     2184.00        0.333         27.3 
     2185.00        0.200         26.7 
     2186.00        3.350         25.4 
     2187.00        0.400         23.5 
     2188.00        0.483         24.3 
     2189.00        0.433         24.5 
     2190.00        0.300         23.5 
     2191.00        0.300         23.5 
     2192.00        0.267         23.7 
     2193.00        0.267         25.1 
     2194.00        0.267         25.1 
     2195.00        0.267         25.0 
     2196.00        0.233         25.0 
     2197.00        0.233         25.9 
     2198.00        0.233         25.9 
     2199.00        0.250         26.4 
     2200.00        0.233         26.1 
     2201.00        0.233         26.0 
     2202.00        0.233         25.9 
     2203.00        0.233         26.0 
     2204.00        0.233         26.8 
     2205.00        0.267         25.7 
     2206.00        0.267         25.8 
     2207.00        0.267         26.0 
     2208.00        0.267         25.5 
     2209.00        0.267         25.5 
     2210.00        0.267         25.1 
     2211.00        0.267         25.4 
     2212.00        0.233         24.1 
     2213.00        0.283         23.8 
     2214.00        0.233         23.5 
     2215.00        0.200         24.0 
     2216.00        3.017         24.2 
     2217.00        0.100         24.1 
     2218.00        0.300         24.0 
     2219.00        0.400         23.4 
     2220.00        0.300         24.7 
     2221.00        0.333         25.2 
     2222.00        0.300         25.9 
     2223.00        0.300         26.4 
     2224.00        0.267         27.3 
     2225.00        0.233         27.1 
     2226.00        0.233         29.0 
     2227.00        0.250         30.7 
     2228.00        0.200         31.4 
     2229.00        0.200         31.9 
     2230.00        0.100         31.9 
     2231.00        0.200         32.6 
     2232.00        0.200         33.5 
     2233.00        0.233         33.8 
     2234.00        0.233         34.1 
     2235.00        0.267         34.5 
     2236.00        0.167         34.2 
     2237.00        0.167         35.1 
     2238.00        0.200         34.2 
     2239.00        0.233         35.1 
