~Version Information
VERS.                      2.0: CWLS Log ASCII Standard - VERSION 2.0
WRAP.                       NO: One line per depth step
~Well Information Block
STRT.FT               500.0000: 
STOP.FT              2760.5000: 
STEP.FT                 0.1000: 
NULL.                -999.2500: 
COMP.          Petrogulf Corporation: COMPANY
WELL.              Silva 1-43V: WELL
FLD.           Purgatorie River: FIELD
LOC.           2010' FSL & 614' FEL: LOCATION
PROV.                 Colorado: PROVINCE
CNTY.               Las Animas: COUNTRY
SRVC.                Patterson: SERVICE COMPANY
DATE.          Mon Aug 29 08:02:37 2005: LOG DATE
UWI.                          : UNIQUE WELL ID
~Curve Information Block
DEPT.FT            0 000 00 00: Depth
DCAL.in                       : CDL Caliper
RHOB.g/cc                     : CDL Bulk Density
RHOC.g/cc                     : CDL Density Correction
DPOR.pu                       : CDL Density Porosity
GR.GAPI                       : Gamma Ray
NPOR.pu                       : Neutron Porosity
~Parameter Information Block
~A  Depth       DCAL        RHOB        RHOC        DPOR         GR         NPOR    
# ...
  2151.2000      8.1317      2.4589      0.0717     11.5829    149.6222     27.4473
  2151.3000      8.1414      2.4999      0.0430      9.0941    155.1759     28.0954
  2151.4000      8.1414      2.5484      0.1164      6.1548    157.8828     28.7252
  2151.5000      8.2133      2.5950      0.1577      3.3337    155.4232     28.8546
  2151.6000      8.2133      2.6222      0.1962      1.6856    152.4274     28.6561
  2151.7000      8.2133      2.6143      0.2177      2.1635    153.9980     28.6960
  2151.8000      8.2390      2.5790      0.1801      4.3030    159.3738     28.9515
  2151.9000      8.2390      2.5388      0.1521      6.7364    164.6254     29.1121
  2152.0000      8.3015      2.5063      0.0522      8.7099    169.3306     29.1186
  2152.1000      8.3015      2.4853      0.0431      9.9810    174.1051     29.1590
  2152.2000      8.3015      2.4744      0.0479     10.6442    177.7511     29.5124
  2152.3000      8.2551      2.4757      0.0355     10.5619    178.0337     29.9769
  2152.4000      8.2551      2.4967      0.0882      9.2908    174.8444     29.9990
  2152.5000      8.3302      2.5302      0.0697      7.2590    171.6194     29.6470
  2152.6000      8.3302      2.5601      0.0984      5.4459    169.3607     29.5340
  2152.7000      8.3302      2.5764      0.1286      4.4576    165.8674     29.7613
  2152.8000      8.2847      2.5842      0.1103      3.9880    164.1285     29.7630
  2152.9000      8.2847      2.5985      0.1133      3.1229    166.6057     29.3002
  2153.0000      8.1757      2.6187      0.1656      1.8952    168.5830     28.7296
  2153.1000      8.1757      2.6311      0.1435      1.1460    167.5313     28.3320
  2153.2000      8.1757      2.6300      0.1775      1.2099    165.4497     28.2155
  2153.3000      8.0431      2.6166      0.1306      2.0259    166.1353     28.5323
  2153.4000      8.0431      2.6022      0.0612      2.8964    171.4711     29.1412
  2153.5000      8.0292      2.6009      0.1120      2.9780    175.6630     29.5762
  2153.6000      8.0292      2.6065      0.1211      2.6344    176.0602     29.5969
  2153.7000      8.0292      2.6033      0.1238      2.8285    177.7423     29.1599
  2153.8000      8.0539      2.5885      0.0773      3.7299    180.6269     28.4678
  2153.9000      8.0539      2.5696      0.1000      4.8703    178.3087     27.8930
  2154.0000      8.0367      2.5532      0.0278      5.8680    172.4053     27.7721
  2154.1000      8.0367      2.5466      0.0558      6.2672    169.1911     28.2333
  2154.2000      8.0367      2.5533      0.0548      5.8620    166.7480     28.8014
  2154.3000      8.0277      2.5682      0.0621      4.9548    163.1638     28.9247
  2154.4000      8.0277      2.5794      0.1109      4.2811    162.2630     28.7853
  2154.5000      8.0462      2.5759      0.0967      4.4907    167.0132     28.7213
  2154.6000      8.0462      2.5638      0.0682      5.2246    170.8443     28.7742
  2154.7000      8.0462      2.5589      0.0885      5.5195    166.3629     28.8707
  2154.8000      8.0389      2.5643      0.0907      5.1956    162.1810     28.8928
  2154.9000      8.0389      2.5687      0.0985      4.9259    168.5358     28.8680
  2155.0000      8.0290      2.5686      0.0827      4.9327    177.8057     28.9284
  2155.1000      8.0290      2.5748      0.0408      4.5551    180.6830     28.9580
  2155.2000      8.0290      2.5883      0.1255      3.7366    177.8076     28.7066
  2155.3000      8.0145      2.5959      0.1357      3.2797    173.8394     28.3993
  2155.4000      8.0145      2.5984      0.0991      3.1283    172.8752     28.5149
  2155.5000      8.0290      2.6040      0.1265      2.7901    176.3030     29.0203
  2155.6000      8.0290      2.6063      0.1573      2.6466    181.9601     29.4284
  2155.7000      8.0290      2.5968      0.1277      3.2226    184.9230     29.5072
  2155.8000      8.0380      2.5797      0.0934      4.2621    182.2428     29.5358
  2155.9000      8.0380      2.5682      0.0742      4.9553    177.8408     29.8452
  2156.0000      8.0410      2.5692      0.1012      4.8988    177.6981     30.2268
  2156.1000      8.0410      2.5718      0.0803      4.7407    182.2660     30.1869
  2156.2000      8.0410      2.5689      0.0646      4.9170    185.8633     29.8465
  2156.3000      8.0359      2.5681      0.0647      4.9641    184.9887     29.6875
  2156.4000      8.0359      2.5739      0.0869      4.6119    183.5438     29.5583
  2156.5000      8.0242      2.5807      0.0942      4.2023    182.1636     29.1896
  2156.6000      8.0242      2.5790      0.0991      4.3018    176.7210     28.8721
  2156.7000      8.0242      2.5665      0.0566      5.0632    169.6004     28.8883
  2156.8000      8.0334      2.5559      0.0426      5.7014    164.6192     29.0285
  2156.9000      8.0334      2.5659      0.0172      5.0949    160.4185     28.8666
  2157.0000      8.0723      2.5932      0.1087      3.4414    155.1451     28.2335
  2157.1000      8.0723      2.6156      0.0785      2.0846    148.9432     27.2457
  2157.2000      8.0723      2.6289      0.0745      1.2806    143.1459     26.2117
  2157.3000      8.0595      2.6393      0.1210      0.6494    138.6435     25.4654
  2157.4000      8.0595      2.6435      0.1244      0.3912    134.5916     24.9194
  2157.5000      8.0388      2.6357      0.1397      0.8655    131.3737     24.3017
  2157.6000      8.0388      2.6200      0.0970      1.8206    132.4772     23.6021
  2157.7000      8.0388      2.6093      0.0728      2.4651    138.4689     23.1261
  2157.8000      7.8925      2.6069      0.1187      2.6131    143.2260     22.7599
  2157.9000      7.8925      2.6075      0.0777      2.5771    142.9913     21.8956
  2158.0000      7.8776      2.6153      0.0903      2.1008    139.8793     20.6542
  2158.1000      7.8776      2.6310      0.0993      1.1526    136.6828     19.8977
  2158.2000      7.8776      2.6395      0.0982      0.6366    132.6123     20.0385
  2158.3000      8.0308      2.6276      0.1087      1.3587    124.7975     20.6875
  2158.4000      8.0308      2.6023      0.0391      2.8902    115.2583     21.2594
  2158.5000      8.0244      2.5822      0.0464      4.1089    108.7302     21.5220
  2158.6000      8.0244      2.5753      0.0594      4.5250    107.1861     21.4439
  2158.7000      8.0244      2.5795      0.0620      4.2705    108.5677     21.1302
  2158.8000      8.0558      2.5919      0.0458      3.5185    106.4295     20.8105
  2158.9000      8.0558      2.6088      0.0517      2.4976     98.9313     20.5971
  2159.0000      8.0474      2.6211      0.0972      1.7536     93.6921     20.5439
  2159.1000      8.0474      2.6192      0.1186      1.8669     94.2565     20.4677
  2159.2000      8.0474      2.6055      0.0884      2.6958     96.8302     20.0925
  2159.3000      7.9305      2.5948      0.0856      3.3452     99.7383     19.5760
  2159.4000      7.9305      2.5952      0.1218      3.3224    104.3250     19.1977
  2159.5000      7.9051      2.6049      0.0901      2.7322    112.2620     19.1600
  2159.6000      7.9051      2.6188      0.1368      1.8895    124.1784     19.6589
  2159.7000      7.9051      2.6246      0.1202      1.5365    136.2122     20.5565
  2159.8000      7.8793      2.6178      0.1098      1.9488    143.1226     21.7115
  2159.9000      7.8793      2.6041      0.1218      2.7842    148.0782     23.1177
  2160.0000      8.0017      2.5839      0.1400      4.0069    156.9997     24.6047
  2160.1000      8.0017      2.5585      0.0840      5.5429    168.0433     25.6587
  2160.2000      8.0017      2.5390      0.0576      6.7256    176.0822     25.8821
  2160.3000      8.0463      2.5324      0.0819      7.1259    179.8883     25.8135
  2160.4000      8.0463      2.5335      0.0544      7.0607    179.3450     26.0233
  2160.5000      7.9976      2.5332      0.0819      7.0816    175.9984     26.5259
  2160.6000      7.9976      2.5260      0.0405      7.5141    174.2057     27.2669
  2160.7000      7.9976      2.5168      0.0348      8.0737    174.3824     27.9762
