~Version Information
 VERS.                                  2.0 : CWLS LAS VERSION
 WRAP.                                   NO : WRAPING MODE
 SWARE .                 MController 2.5.0J : SOFTWARE VERSION
~Well Information
 WELL.                         State 16-41R : WELL
 COMP.                Petrogulf Corporation : COMPANY
 FLD.                      Purgatoire River : FIELD
 LOC.               NE/NE Sec 16 T33S R67W  : LOCATION
 DATE.                          10/17-18/05 : DATE(S) LOGGED
 SRVC.       BLANCO Geological Services LLC : SERVICE COMPANY
 STAT.                                   CO : STATE
 CNTY.                           Las Animas : COUNTY
 CTRY.                                  USA : COUNTRY
 API.                       05-071-08410-00 : API NUMBER
 STRT.FT                              11.00 : START DEPTH
 STOP.FT                            1635.00 : STOP DEPTH
 STEP.FT                               1.00 : DEPTH INCREMENT
 NULL.                                -9999 : NULL VALUE
~Curve information
 DEPTH.FT                                   :
 ROP.MIN/FT                                 :
 GAS.UNITS                                  :
~ASCII Log data
        11.0     -9999.00          2.9 
        12.0         6.17          3.8 
        13.0         3.78          4.0 
        14.0         1.72          3.8 
        15.0         0.97          3.9 
        16.0         0.67          3.8 
        17.0         0.73          3.5 
        18.0         0.82          3.5 
        19.0         0.57          3.3 
        20.0         0.40          3.1 
        21.0         0.23          3.1 
        22.0         0.27          4.1 
        23.0         0.27          4.3 
        24.0         5.07        150.4 
        25.0         0.27          5.5 
        26.0         0.20          5.5 
        27.0         0.37          6.1 
        28.0         0.30          6.2 
        29.0         0.27          6.7 
        30.0         0.30          7.0 
        31.0         0.20          7.1 
        32.0         0.17          7.4 
        33.0         0.30          7.7 
        34.0         0.17          7.8 
        35.0         0.48          8.0 
        36.0         0.27          8.2 
        37.0         0.23          8.1 
        38.0         0.23          8.2 
        39.0         0.23          8.4 
        40.0         0.20          7.8 
        41.0         0.13          8.1 
        42.0         0.10          8.5 
        43.0         0.13          8.0 
        44.0         0.17          8.0 
        45.0         0.23          8.4 
        46.0         0.27          8.5 
        47.0         0.23          8.6 
        48.0         0.27          8.5 
        49.0         0.23          8.8 
        50.0         0.22          8.5 
        51.0         0.30          8.4 
        52.0         0.33          8.1 
        53.0         0.17          8.3 
        54.0         0.33          8.7 
        55.0         0.23          8.9 
        56.0         0.67          9.0 
        57.0         0.27          8.6 
        58.0         0.30          9.0 
        59.0         0.27          8.8 
        60.0         0.23          8.5 
        61.0         0.28          8.3 
        62.0         0.27          8.7 
        63.0         0.23          8.3 
        64.0         0.30          8.7 
        65.0         0.30          8.6 
        66.0         0.27          8.4 
        67.0         0.23          8.6 
        68.0         0.27          8.6 
        69.0         0.37          8.3 
        70.0         0.27          9.1 
        71.0         0.27          9.4 
        72.0         0.20          9.3 
        73.0         0.27          9.2 
        74.0         0.28          9.0 
        75.0         0.23          9.3 
        76.0         0.27          9.1 
        77.0         0.27          9.7 
        78.0         0.27          9.3 
        79.0         0.20          9.5 
        80.0         0.20          9.6 
        81.0         0.17          9.4 
        82.0         0.33          9.4 
        83.0         0.17          9.2 
        84.0         0.20          9.2 
        85.0         0.23          9.5 
        86.0         1.48          9.0 
        87.0         0.27          9.0 
        88.0         0.20          9.0 
        89.0         0.23          8.8 
        90.0         0.23          9.3 
        91.0         0.23          8.6 
        92.0         0.20          9.1 
        93.0         0.10          9.0 
        94.0         0.23          9.0 
        95.0         0.27          8.7 
        96.0         0.23          8.6 
        97.0         0.23          8.5 
        98.0         0.22          8.5 
        99.0         0.13          8.5 
       100.0         0.13          8.5 
       101.0         0.23          8.5 
       102.0         0.17          8.2 
       103.0         0.13          8.1 
       104.0         0.17          8.3 
       105.0         0.13          8.7 
       106.0         0.17          8.2 
       107.0         0.27          8.4 
       108.0         0.20          8.7 
       109.0         0.10          8.7 
       110.0         0.20          8.7 
       111.0         0.27          8.6 
       112.0         0.27          8.3 
       113.0         0.17          8.8 
       114.0         0.20          8.5 
       115.0         0.25          8.8 
       116.0         1.50          8.9 
       117.0         0.20          9.0 
       118.0         0.27          9.3 
       119.0         0.17          8.6 
       120.0         0.43          8.9 
       121.0         0.43          9.2 
       122.0         0.32          9.1 
       123.0         0.13          9.1 
       124.0         0.10          9.1 
       125.0         0.07          9.0 
       126.0         0.13          9.2 
       127.0         0.30          9.2 
       128.0         0.30          9.1 
       129.0         0.27          9.3 
       130.0         0.23          8.6 
       131.0         0.23          8.9 
       132.0         0.23          8.6 
       133.0         0.23          9.2 
       134.0         0.27          9.0 
       135.0         0.23          9.1 
       136.0         0.20          8.8 
       137.0         0.20          8.7 
       138.0         0.25          8.9 
       139.0         0.17          9.2 
       140.0         0.13          9.0 
       141.0         0.27          8.7 
       142.0         0.27          8.9 
       143.0         0.20          8.9 
       144.0         0.23          8.8 
       145.0         0.30          8.7 
       146.0         1.63          8.4 
       147.0         0.28          8.2 
       148.0         0.20          8.2 
       149.0         0.23          8.1 
       150.0         0.27          7.8 
       151.0         0.23          7.7 
       152.0         0.27          8.2 
       153.0         0.20          7.9 
       154.0         0.20          8.1 
       155.0         0.23          7.9 
       156.0         0.30          8.1 
       157.0         0.30          8.4 
       158.0         0.33          7.7 
       159.0         0.27          8.2 
       160.0         0.35          8.0 
       161.0         0.33          8.1 
       162.0         0.30          7.9 
       163.0         0.23          7.9 
       164.0         0.23          8.1 
       165.0         0.20          7.7 
       166.0         0.20          7.7 
       167.0         0.23          8.0 
       168.0         0.20          8.1 
       169.0         0.23          7.7 
       170.0         0.23          7.6 
       171.0         0.17          8.1 
       172.0         0.27          8.1 
       173.0         0.28          8.0 
       174.0         0.23          8.0 
       175.0         0.27          7.5 
       176.0         1.33          7.8 
       177.0         0.27          7.6 
       178.0         0.27          7.7 
       179.0         0.27          7.6 
       180.0         0.20          7.8 
       181.0         0.23          7.9 
       182.0         0.28          7.5 
       183.0         0.30          8.0 
       184.0         0.30          7.4 
       185.0         0.27          7.7 
       186.0         0.27          7.7 
       187.0         0.23          7.4 
       188.0         0.27          7.7 
       189.0         0.23          7.8 
       190.0         0.30          7.7 
       191.0         0.33          7.7 
       192.0         0.20          7.2 
       193.0         0.17          7.9 
       194.0         0.17          7.8 
       195.0         0.22          7.2 
       196.0         0.17          7.2 
       197.0         0.13          7.6 
       198.0         0.13          7.9 
       199.0         0.13          7.9 
       200.0         0.13          7.5 
       201.0         0.20          7.3 
       202.0         0.13          7.2 
       203.0         0.13          7.2 
       204.0         0.17          7.6 
       205.0         0.20          7.6 
       206.0         0.97          7.5 
       207.0         0.23          6.9 
       208.0         0.17          7.3 
       209.0         0.17          6.7 
       210.0         0.13          7.4 
