~Version Information
VERS.                      2.0: CWLS Log ASCII Standard - VERSION 2.0
WRAP.                       NO: One line per depth step
~Well Information Block
STRT.FT               375.0000: 
STOP.FT              2637.2500: 
STEP.FT                 0.2500: 
NULL.                -999.2500: 
COMP.          Pioneer Natural Resources: COMPANY
WELL.            Cortina 23-25: WELL
FLD.           Purgatoire River: FIELD
LOC.           2344' FWL & 2526' FSL----: LOCATION
PROV.                 Colorado: PROVINCE
CNTY.               Las Animas: COUNTRY
SRVC.                Patterson: SERVICE COMPANY
DATE.          Wed Mar 23 19:09:49 2005: LOG DATE
UWI.           05 071 08340 00: UNIQUE WELL ID
~Curve Information Block
DEPT.FT            0 000 00 00: Depth
DIR.Ohm-m                     : IEL Induction Resistivity
SN.Ohm-m                      : IEL Short Normal
SP.mV                         : IEL Spontaneous Potential
GR.GAPI                       : Gamma Ray
~Parameter Information Block
~A  Depth       DIR          SN          SP          GR     
# ...
   509.0000     24.9588   2000.0000   2000.0000    132.8950
   509.2500     24.0307   2000.0000   2000.0000    130.9482
   509.5000     23.2003   2000.0000   2000.0000    127.7896
   509.7500     22.4963   2000.0000   2000.0000    126.0199
   510.0000     21.9291   2000.0000   2000.0000    124.3636
   510.2500     21.4959   2000.0000   2000.0000    123.9932
   510.5000     21.1863   2000.0000   2000.0000    124.5129
   510.7500     20.9836   2000.0000   2000.0000    125.5274
   511.0000     20.8615   2000.0000   2000.0000    127.7773
   511.2500     20.7862   2000.0000   2000.0000    129.4498
   511.5000     20.7281   2000.0000   2000.0000    131.6225
   511.7500     20.6740   2000.0000   2000.0000    132.6832
   512.0000     20.6285   2000.0000   2000.0000    133.9265
   512.2500     20.6029   2000.0000   2000.0000    134.7977
   512.5000     20.6034   2000.0000   2000.0000    136.2847
   512.7500     20.6316   2000.0000   2000.0000    137.1600
   513.0000     20.6923   2000.0000   2000.0000    137.9385
   513.2500     20.7974   2000.0000   2000.0000    138.2259
   513.5000     20.9583   2000.0000   2000.0000    138.7933
   513.7500     21.1720   2000.0000   2000.0000    139.2455
   514.0000     21.4155   2000.0000   2000.0000    139.3132
   514.2500     21.6571   2000.0000   2000.0000    138.5317
   514.5000     21.8798   2000.0000   2000.0000    136.0836
   514.7500     22.1012   2000.0000   2000.0000    133.9110
   515.0000     22.3705   2000.0000   2000.0000    130.2734
   515.2500     22.7461   2000.0000   2000.0000    127.5481
   515.5000     23.2680   2000.0000   2000.0000    122.5891
   515.7500     23.9428   2000.0000   2000.0000    118.5692
   516.0000     24.7481   2000.0000   2000.0000    111.8638
   516.2500     25.6466   2000.0000   2000.0000    107.4997
   516.5000     26.6040   2000.0000   2000.0000    102.0701
   516.7500     27.5978   2000.0000   2000.0000     99.3601
   517.0000     28.6178   2000.0000   2000.0000     96.0423
   517.2500     29.6634   2000.0000   2000.0000     93.8020
   517.5000     30.7398   2000.0000   2000.0000     90.1516
   517.7500     31.8541   2000.0000   2000.0000     87.8643
   518.0000     33.0080   2000.0000   2000.0000     85.3103
   518.2500     34.1889   2000.0000   2000.0000     84.1148
   518.5000     35.3660   2000.0000   2000.0000     81.9899
   518.7500     36.4940   2000.0000   2000.0000     79.6417
   519.0000     37.5237   2000.0000   2000.0000     74.5349
   519.2500     38.4120   2000.0000   2000.0000     70.7172
   519.5000     39.1256   2000.0000   2000.0000     65.9727
   519.7500     39.6405   2000.0000   2000.0000     64.1645
   520.0000     39.9462   2000.0000   2000.0000     63.7859
   520.2500     40.0602   2000.0000   2000.0000     64.7581
   520.5000     40.0345   2000.0000   2000.0000     67.0949
   520.7500     39.9352   2000.0000   2000.0000     68.8410
   521.0000     39.7993   2000.0000   2000.0000     71.8137
   521.2500     39.6108   2000.0000   2000.0000     74.3768
   521.5000     39.3294   2000.0000   2000.0000     79.3441
   521.7500     38.9489   2000.0000   2000.0000     82.9658
   522.0000     38.5253   2000.0000   2000.0000     87.3115
   522.2500     38.1455   2000.0000   2000.0000     88.6597
   522.5000     37.8748   2000.0000   2000.0000     88.0436
   522.7500     37.7341   2000.0000   2000.0000     86.4290
   523.0000     37.7198   2000.0000   2000.0000     83.8501
   523.2500     37.8367   2000.0000   2000.0000     82.8930
   523.5000     38.1137   2000.0000   2000.0000     83.1996
   523.7500     38.5875   2000.0000   2000.0000     84.3329
   524.0000     39.2683   2000.0000   2000.0000     86.5434
   524.2500     40.1102   2000.0000   2000.0000     87.9223
   524.5000     41.0121   2000.0000   2000.0000     89.5406
   524.7500     41.8546   2000.0000   2000.0000     90.2798
   525.0000     42.5488   2000.0000   2000.0000     90.6997
   525.2500     43.0664   2000.0000   2000.0000     90.3843
   525.5000     43.4444   2000.0000   2000.0000     89.2300
   525.7500     43.7706   2000.0000   2000.0000     88.4689
   526.0000     44.1519   2000.0000   2000.0000     88.0488
   526.2500     44.6672   2000.0000   2000.0000     88.1782
   526.5000     45.3322   2000.0000   2000.0000     88.0414
   526.7500     46.1085   2000.0000   2000.0000     87.1981
   527.0000     46.9512   2000.0000   2000.0000     84.8218
   527.2500     47.8482   2000.0000   2000.0000     83.0198
   527.5000     48.8017   2000.0000   2000.0000     80.8195
   527.7500     49.7642   2000.0000   2000.0000     79.7596
   528.0000     50.5955   2000.0000   2000.0000     78.4186
   528.2500     51.1041   2000.0000   2000.0000     77.4312
   528.5000     51.1642   2000.0000   2000.0000     75.2903
   528.7500     50.8125   2000.0000   2000.0000     73.1053
   529.0000     50.2280   2000.0000   2000.0000     68.6443
   529.2500     49.6123   2000.0000   2000.0000     65.3447
   529.5000     49.0765   2000.0000   2000.0000     61.0868
   529.7500     48.6121   2000.0000   2000.0000     59.2111
   530.0000     48.1409   2000.0000   2000.0000     58.1657
   530.2500     47.5894   2000.0000   2000.0000     58.6698
   530.5000     46.9225   2000.0000   2000.0000     61.1378
   530.7500     46.1109   2000.0000   2000.0000     63.7765
   531.0000     45.0828   2000.0000   2000.0000     68.8140
   531.2500     43.7343   2000.0000   2000.0000     72.6039
   531.5000     42.0195   2000.0000   2000.0000     78.5482
   531.7500     40.0361   2000.0000   2000.0000     82.6957
   532.0000     38.0015   2000.0000   2000.0000     89.6899
   532.2500     36.1346   2000.0000   2000.0000     95.1153
   532.5000     34.5560   2000.0000   2000.0000    103.9466
   532.7500     33.2697   2000.0000   2000.0000    109.4815
   533.0000     32.2059   2000.0000   2000.0000    115.7706
   533.2500     31.2803   2000.0000   2000.0000    118.2215
   533.5000     30.4375   2000.0000   2000.0000    119.5724
   533.7500     29.6688   2000.0000   2000.0000    119.3943
   534.0000     29.0035   2000.0000   2000.0000    118.3980
   534.2500     28.4815   2000.0000   2000.0000    117.7219
   534.5000     28.1232   2000.0000   2000.0000    117.3240
   534.7500     27.9102   2000.0000   2000.0000    117.6582
   535.0000     27.7866   2000.0000   2000.0000    118.9920
   535.2500     27.6794   2000.0000   2000.0000    120.1725
   535.5000     27.5279   2000.0000   2000.0000    121.6235
   535.7500     27.3070   2000.0000   2000.0000    121.9335
   536.0000     27.0353   2000.0000   2000.0000    121.2071
   536.2500     26.7671   2000.0000   2000.0000    120.2408
   536.5000     26.5723   2000.0000   2000.0000    118.8798
   536.7500     26.5111   2000.0000   2000.0000    118.3079
   537.0000     26.6104   2000.0000   2000.0000    117.7698
   537.2500     26.8532   2000.0000   2000.0000    117.1688
   537.5000     27.1843   2000.0000   2000.0000    114.9929
   537.7500     27.5307   2000.0000   2000.0000    112.5692
   538.0000     27.8243   2000.0000   2000.0000    108.5780
   538.2500     28.0164   2000.0000   2000.0000    106.7348
   538.5000     28.0836   2000.0000   2000.0000    105.9920
   538.7500     28.0263   2000.0000   2000.0000    106.2568
   539.0000     27.8639   2000.0000   2000.0000    106.1537
   539.2500     27.6249   2000.0000   2000.0000    105.3589
   539.5000     27.3357   2000.0000   2000.0000    103.6563
   539.7500     27.0139   2000.0000   2000.0000    102.7906
   540.0000     26.6695   2000.0000   2000.0000    102.6984
   540.2500     26.3113   2000.0000   2000.0000    103.6192
   540.5000     25.9516   2000.0000   2000.0000    106.1655
   540.7500     25.6047   2000.0000   2000.0000    108.1940
   541.0000     25.2833   2000.0000   2000.0000    111.0755
   541.2500     24.9961   2000.0000   2000.0000    112.8374
   541.5000     24.7476   2000.0000   2000.0000    115.5374
   541.7500     24.5392   2000.0000   2000.0000    117.3500
   542.0000     24.3707   2000.0000   2000.0000    119.2486
   542.2500     24.2412   2000.0000   2000.0000    119.2816
