~Version Information
VERS.                      2.0: CWLS Log ASCII Standard - VERSION 2.0
WRAP.                       NO: One line per depth step
~Well Information Block
STRT.FT                -8.0000: 
STOP.FT               973.2500: 
STEP.FT                 0.2500: 
NULL.                -999.2500: 
COMP.          Pioneer Natural Resources: COMPANY
WELL.              Oscar 41-31: WELL
FLD.           Purgatorie River: FIELD
LOC.           412' FNL & 1216' FEL--: LOCATION
PROV.                       CO: PROVINCE
CNTY.               Las Animas: COUNTRY
SRVC.          Patterson Wireline: SERVICE COMPANY
DATE.          Wed Mar 02 12:29:08 2005: LOG DATE
UWI.           05 071 08290 00: UNIQUE WELL ID
~Curve Information Block
DEPT.FT            0 000 00 00: Depth
CCL.                          : Casing Collar Locator
TT5.usec                      : CBL 5' Travel Time
AMP3.mV                       : CBL 3' Amplitude
GR.GAPI                       : Gamma Ray
~Parameter Information Block
~A  Depth       CCL         TT5         AMP3         GR     
# ...
   293.5000      0.0000   1200.0000      4.7945    127.6097
   293.7500      0.0000   1200.0000      4.8232    128.6945
   294.0000      0.0000   1200.0000      4.8752    131.4009
   294.2500      0.0000   1200.0000      4.9436    133.3029
   294.5000      0.0000   1200.0000      5.0145    132.9249
   294.7500      0.0000   1200.0000      5.0690    130.8640
   295.0000      0.0000   1200.0000      5.0891    128.8801
   295.2500      0.0000   1200.0000      5.0625    127.8187
   295.5000      0.0000   1200.0000      4.9874    126.6724
   295.7500      0.0000   1200.0000      4.8771    124.1097
   296.0000      0.0000   1200.0000      4.7584    120.6294
   296.2500      0.0000   1200.0000      4.6591    118.4077
   296.5000      0.0000   1200.0000      4.5956    118.9446
   296.7500      0.0000   1200.0000      4.5689    121.5170
   297.0000      0.0000   1200.0000      4.5661    124.2338
   297.2500      0.0000   1200.0000      4.5596    125.9565
   297.5000      0.0000   1200.0000      4.5109    126.4600
   297.7500      0.0000   1200.0000      4.3946    125.1912
   298.0000      0.0000   1200.0000      4.2282    121.0706
   298.2500      0.0000   1200.0000      4.0649    113.6613
   298.5000      0.0000   1200.0000      3.9486    103.8627
   298.7500      0.0000   1200.0000      3.8840     93.4900
   299.0000      0.0000   1200.0000      3.8484     84.6248
   299.2500      0.0000   1200.0000      3.8198     79.1773
   299.5000      0.0000   1200.0000      3.7905     78.3812
   299.7500     -2.0000   1200.0000      3.7634     82.2179
   300.0000      0.0000   1200.0000      3.7446     89.1835
   300.2500      0.0000   1200.0000      3.7502     96.7790
   300.5000      0.0000   1200.0000      3.8138    102.7530
   300.7500      0.0000   1200.0000      3.9662    106.4590
   301.0000      0.0000   1200.0000      4.1914    109.0289
   301.2500      0.0000   1200.0000      4.4166    111.8834
   301.5000      0.0000   1200.0000      4.5676    115.2588
   301.7500      0.0000   1200.0000      4.6265    118.5642
   302.0000      0.0000   1200.0000      4.6247    121.6580
   302.2500      0.0000   1200.0000      4.5960    124.8536
   302.5000      0.0000   1200.0000      4.5555    127.9164
   302.7500      0.0000   1200.0000      4.5125    130.1379
   303.0000      0.0000   1200.0000      4.4794    131.4752
   303.2500      0.0000   1200.0000      4.4649    132.7428
   303.5000      0.0000   1200.0000      4.4684    134.4520
   303.7500      0.0000   1200.0000      4.4852    136.1088
   304.0000      0.0000   1200.0000      4.5140    136.9655
   304.2500      0.0000   1200.0000      4.5533    136.7921
   304.5000      0.0000   1200.0000      4.5952    135.3668
   304.7500      0.0000   1200.0000      4.6273    131.8561
   305.0000      0.0000   1200.0000      4.6405    125.6533
   305.2500      0.0000   1200.0000      4.6314    117.7188
   305.5000      0.0000   1200.0000      4.6027    110.1862
   305.7500      0.0000   1200.0000      4.5648    104.3685
   306.0000      0.0000   1200.0000      4.5322     99.7040
   306.2500      0.0000   1200.0000      4.5143     94.8622
   306.5000      0.0000   1200.0000      4.5126     89.2745
   306.7500      0.0000   1200.0000      4.5219     83.3403
   307.0000      0.0000   1200.0000      4.5308     77.9037
   307.2500      0.0000   1200.0000      4.5287     74.1420
   307.5000      0.0000   1200.0000      4.5224     73.5491
   307.7500      0.0000   1200.0000      4.5379     77.4027
   308.0000      0.0000   1200.0000      4.5918     85.9490
   308.2500      0.0000   1200.0000      4.6626     97.8261
   308.5000      0.0000   1200.0000      4.7000    110.2115
   308.7500      0.0000   1200.0000      4.6687    119.9945
   309.0000      0.0000   1200.0000      4.5817    125.4838
   309.2500      0.0000   1200.0000      4.4907    127.3170
   309.5000      0.0000   1200.0000      4.4466    127.6014
   309.7500      0.0000   1200.0000      4.4660    127.9875
   310.0000      0.0000   1200.0000      4.5283    128.4929
   310.2500      0.0000   1200.0000      4.5976    128.0956
   310.5000      0.0000   1200.0000      4.6485    126.2127
   310.7500      0.0000   1200.0000      4.6782    123.5967
   311.0000      0.0000   1200.0000      4.6999    122.1040
   311.2500      0.0000   1200.0000      4.7265    123.6134
   311.5000      0.0000   1200.0000      4.7524    128.6431
   311.7500      0.0000   1200.0000      4.7529    135.7075
   312.0000      0.0000   1200.0000      4.7049    142.2045
   312.2500      0.0000   1200.0000      4.6133    146.1567
   312.5000      0.0000   1200.0000      4.5136    147.2438
   312.7500      0.0000   1200.0000      4.4451    146.3670
   313.0000      0.0000   1200.0000      4.4210    144.5310
   313.2500      0.0000   1200.0000      4.4225    142.4040
   313.5000      0.0000   1200.0000      4.4230    140.6651
   313.7500      0.0000   1200.0000      4.4156    140.0201
   314.0000      0.0000   1200.0000      4.4145    140.5063
   314.2500      0.0000   1200.0000      4.4314    141.2429
   314.5000      0.0000   1200.0000      4.4568    141.3010
   314.7500      0.0000   1200.0000      4.4710    140.5925
   315.0000      0.0000   1200.0000      4.4692    139.5661
   315.2500      0.0000   1200.0000      4.4674    138.3085
   315.5000      0.0000   1200.0000      4.4816    136.4352
   315.7500      0.0000   1200.0000      4.5116    133.9857
   316.0000      0.0000   1200.0000      4.5486    132.0314
   316.2500      0.0000   1200.0000      4.5912    131.9697
   316.5000      0.0000   1200.0000      4.6399    134.2307
   316.7500      0.0000   1200.0000      4.6811    137.8103
   317.0000      0.0000   1200.0000      4.6924    140.9804
   317.2500      0.0000   1200.0000      4.6698    142.3533
   317.5000      0.0000   1200.0000      4.6381    141.4422
   317.7500      0.0000   1200.0000      4.6259    138.7026
   318.0000      0.0000   1200.0000      4.6335    135.4785
   318.2500      0.0000   1200.0000      4.6336    133.5929
   318.5000      0.0000   1200.0000      4.6043    134.1311
   318.7500      0.0000   1200.0000      4.5541    136.3195
   319.0000      0.0000   1200.0000      4.5092    138.0462
   319.2500      0.0000   1200.0000      4.4847    137.7462
   319.5000      0.0000   1200.0000      4.4771    135.6284
   319.7500      0.0000   1200.0000      4.4779    133.2483
   320.0000      0.0000   1200.0000      4.4792    132.3656
   320.2500      0.0000   1200.0000      4.4694    134.2126
   320.5000      0.0000   1200.0000      4.4425    139.2179
   320.7500      0.0000   1200.0000      4.4109    146.7247
   321.0000      0.0000   1200.0000      4.3952    154.8964
   321.2500      0.0000   1200.0000      4.3939    161.3183
   321.5000      0.0000   1200.0000      4.3804    164.1365
   321.7500      0.0000   1200.0000      4.3350    162.9813
   322.0000      0.0000   1200.0000      4.2722    159.0826
   322.2500      0.0000   1200.0000      4.2239    154.4419
   322.5000      0.0000   1200.0000      4.2039    150.6716
   322.7500      0.0000   1200.0000      4.1979    148.4850
   323.0000      0.0000   1200.0000      4.1860    147.9524
   323.2500      0.0000   1200.0000      4.1643    148.8245
   323.5000      0.0000   1200.0000      4.1453    150.6253
   323.7500      0.0000   1200.0000      4.1423    152.5767
   324.0000      0.0000   1200.0000      4.1576    153.5474
   324.2500      0.0000   1200.0000      4.1799    152.4140
   324.5000      0.0000   1200.0000      4.1916    148.7169
   324.7500      0.0000   1200.0000      4.1816    142.8435
   325.0000      0.0000   1200.0000      4.1585    135.6485
   325.2500      0.0000   1200.0000      4.1484    128.2668
   325.5000      0.0000   1200.0000      4.1715    122.2278
   325.7500      0.0000   1200.0000      4.2173    118.9374
   326.0000      0.0000   1200.0000      4.2512    118.6855
   326.2500      0.0000   1200.0000      4.2486    120.5584
   326.5000      0.0000   1200.0000      4.2213    123.3899
   326.7500      0.0000   1200.0000      4.2103    126.4424
