~Version Information
VERS.                      2.0: CWLS Log ASCII Standard - VERSION 2.0
WRAP.                       NO: One line per depth step
~Well Information Block
STRT.FT               258.0000: 
STOP.FT               998.2000: 
STEP.FT                 0.1000: 
NULL.                -999.2500: 
COMP.          Pioneer Natural Resources: COMPANY
WELL.          Piggyback 33-25: WELL
FLD.           Purgatoire River: FIELD
LOC.           1600' FSL & 1800' FEL: LOCATION
PROV.                 Colorado: PROVINCE
CNTY.               Las Animas: COUNTRY
SRVC.                Patterson: SERVICE COMPANY
DATE.          Fri Apr 29 16:11:48 2005: LOG DATE
UWI.           05 071 08233 00: UNIQUE WELL ID
~Curve Information Block
DEPT.FT            0 000 00 00: Depth
DCAL.in                       : CDL Caliper
RHOB.g/cc                     : CDL Bulk Density
RHOC.g/cc                     : CDL Density Correction
DPOR.pu                       : CDL Density Porosity
GR.GAPI                       : Gamma Ray
NPOR.pu                       : Neutron Porosity
~Parameter Information Block
~A  Depth       DCAL        RHOB        RHOC        DPOR         GR         NPOR    
# ...
   795.6000      7.8242      2.5983      0.1633      3.1327     43.2491     18.5450
   795.7000      7.8242      2.6059      0.1276      2.6698     46.1153     19.2399
   795.8000      7.8158      2.6215      0.0981      1.7272     50.4148     19.6938
   795.9000      7.8158      2.6386      0.1372      0.6891     52.9794     20.2259
   796.0000      7.8608      2.6417      0.1523      0.5046     53.2378     20.8536
   796.1000      7.8608      2.6212      0.1568      1.7454     52.6562     21.3017
   796.2000      7.8608      2.5817      0.1022      4.1379     51.8992     21.5726
   796.3000      7.8514      2.5374      0.0890      6.8213     52.1161     21.4982
   796.4000      7.8514      2.5002      0.0614      9.0758     52.2901     21.0947
   796.5000      7.8578      2.4739      0.0388     10.6726     49.9296     20.8752
   796.6000      7.8578      2.4609      0.0466     11.4608     47.8342     20.7580
   796.7000      7.8578      2.4693     -0.0251     10.9542     48.6988     20.2039
   796.8000      7.8746      2.4986      0.0374      9.1734     50.7834     19.0770
   796.9000      7.8746      2.5272      0.0654      7.4431     51.2070     18.1461
   797.0000      7.8783      2.5403      0.1054      6.6460     49.1766     18.5179
   797.1000      7.8783      2.5429      0.0724      6.4895     46.6895     20.1811
   797.2000      7.8783      2.5360      0.1411      6.9112     43.7559     21.5475
   797.3000      7.8648      2.5181      0.1257      7.9939     39.7786     21.9123
   797.4000      7.8648      2.5010      0.1255      9.0312     38.2732     22.2982
   797.5000      7.8547      2.4981      0.0720      9.2071     41.9386     23.3316
   797.6000      7.8547      2.5011      0.1607      9.0272     47.6986     24.5807
   797.7000      7.8547      2.4898      0.0890      9.7066     51.9653     25.2179
   797.8000      7.8625      2.4714      0.0553     10.8224     54.8392     25.0278
   797.9000      7.8625      2.4659      0.0864     11.1547     57.7264     24.5632
   798.0000      7.8755      2.4786      0.0633     10.3885     61.6197     24.3990
   798.1000      7.8755      2.5006      0.1704      9.0521     65.8031     24.4170
   798.2000      7.8755      2.5157      0.1691      8.1403     68.7757     24.7360
   798.3000      7.8815      2.5239      0.0656      7.6454     69.5321     25.4471
   798.4000      7.8815      2.5357      0.1002      6.9286     69.5230     25.9388
   798.5000      7.9000      2.5385      0.0900      6.7588     72.4592     26.0015
   798.6000      7.9000      2.5174      0.1064      8.0356     78.8177     25.9556
   798.7000      7.9000      2.4953      0.0231      9.3776     83.4767     25.9237
   798.8000      7.8986      2.5010      0.0565      9.0294     81.5662     25.8888
   798.9000      7.8986      2.5084      0.0875      8.5827     75.5774     25.9496
   799.0000      7.9012      2.4688      0.0447     10.9794     72.8180     26.3611
   799.1000      7.9012      2.3786      0.0587     16.4469     74.8966     26.8605
   799.2000      7.9012      2.2636      0.0156     23.4180     77.8174     26.7452
   799.3000      7.9077      2.1394      0.0005     30.9433     78.0647     26.3491
   799.4000      7.9077      2.0092     -0.0758     38.8361     75.7421     26.7965
   799.5000      7.9140      1.8760     -0.0893     46.9064     71.5479     28.0045
   799.6000      7.9140      1.7437     -0.1323     54.9300     64.6314     28.9197
   799.7000      7.9140      1.6189     -0.1216     62.4934     56.9302     29.3749
   799.8000      7.9272      1.5169     -0.1899     68.6742     51.3233     29.6984
   799.9000      7.9272      1.4520     -0.0497     72.6035     47.5881     29.8997
   800.0000      7.9451      1.4214     -0.0088     74.4589     43.2780     30.3079
   800.1000      7.9451      1.4050      0.0413     75.4543     37.4350     30.8041
   800.2000      7.9451      1.3850      0.0263     76.6696     31.5009     30.7836
   800.3000      7.9214      1.3624      0.0160     78.0363     26.7629     30.7343
   800.4000      7.9214      1.3448      0.0161     79.1014     23.9385     31.2358
   800.5000      7.9207      1.3287      0.0487     80.0775     23.9102     32.1819
   800.6000      7.9207      1.3077      0.0326     81.3538     25.9768     33.3326
   800.7000      7.9207      1.2894      0.0037     82.4586     27.5934     34.1880
   800.8000      7.9593      1.2855      0.0001     82.6952     27.4327     34.5368
   800.9000      7.9593      1.2930      0.0322     82.2403     27.2594     34.3690
   801.0000      8.0187      1.3149     -0.0259     80.9178     28.7547     33.7687
   801.1000      8.0187      1.3724      0.0026     77.4293     31.0780     33.2907
   801.2000      8.0187      1.4678      0.0550     71.6460     34.2221     33.2375
   801.3000      8.0351      1.5838      0.0619     64.6184     38.5456     33.1868
   801.4000      8.0351      1.7146      0.1173     56.6927     43.0838     32.6955
   801.5000      8.0334      1.8527      0.1748     48.3190     48.4981     31.9655
   801.6000      8.0334      1.9888      0.1779     40.0712     56.6483     31.3239
   801.7000      8.0334      2.1268      0.2170     31.7087     66.8481     30.8443
   801.8000      8.0245      2.2578      0.2318     23.7706     76.7987     30.8499
   801.9000      8.0245      2.3488      0.2287     18.2524     86.2196     31.3455
   802.0000      7.9920      2.3858      0.1730     16.0099     95.0667     31.5870
   802.1000      7.9920      2.3959      0.0879     15.4013    100.1628     30.9061
   802.2000      7.9920      2.4115      0.1039     14.4571     99.0595     29.2636
   802.3000      7.9604      2.4367      0.1038     12.9292     96.1731     27.9112
   802.4000      7.9604      2.4512      0.1325     12.0514     97.7872     27.4969
   802.5000      7.9029      2.4418      0.0667     12.6172    102.5051     27.0978
   802.6000      7.9029      2.4219      0.0821     13.8214    106.2841     26.9394
   802.7000      7.9029      2.4101      0.0648     14.5391    107.4147     27.5586
   802.8000      7.8954      2.4150      0.0519     14.2450    105.0325     27.8043
   802.9000      7.8954      2.4359      0.0466     12.9780    101.5430     27.0794
   803.0000      7.8915      2.4583      0.0783     11.6191    100.7800     26.3361
   803.1000      7.8915      2.4638      0.1063     11.2853    101.9265     26.3391
   803.2000      7.8915      2.4535      0.0304     11.9121    102.7982     26.6941
   803.3000      7.8891      2.4492      0.0524     12.1687    100.3790     26.9893
   803.4000      7.8891      2.4617      0.0796     11.4116     93.9550     27.2238
   803.5000      7.8867      2.4761      0.1326     10.5402     88.3349     27.2366
   803.6000      7.8867      2.4780      0.0885     10.4250     85.9946     27.1762
   803.7000      7.8867      2.4743      0.1033     10.6463     84.1728     27.2422
   803.8000      7.8877      2.4816      0.0821     10.2042     80.7755     27.3404
   803.9000      7.8877      2.5036      0.0986      8.8740     80.0958     27.3997
   804.0000      7.8407      2.5275      0.0882      7.4233     84.3622     27.3761
   804.1000      7.8407      2.5439      0.1466      6.4300     88.7421     27.1883
   804.2000      7.8407      2.5552      0.1387      5.7457     90.6714     26.8455
   804.3000      7.8383      2.5688      0.1428      4.9203     92.1616     26.7823
   804.4000      7.8383      2.5854      0.1458      3.9169     95.3113     27.2748
   804.5000      7.8605      2.5981      0.1076      3.1427     99.8912     27.9272
   804.6000      7.8605      2.6026      0.1137      2.8744    101.6946     28.4020
   804.7000      7.8605      2.5933      0.1241      3.4380     97.3917     28.5691
   804.8000      7.9035      2.5667      0.1025      5.0491     89.4379     28.2317
   804.9000      7.9035      2.5347      0.0461      6.9868     83.2991     27.6817
   805.0000      7.9099      2.5130      0.0646      8.3041     83.1091     27.3458
   805.1000      7.9099      2.4870      0.0756      9.8809     85.9666     27.1406
