~Version Information
VERS.                      2.0: CWLS Log ASCII Standard - VERSION 2.0
WRAP.                       NO: One line per depth step
~Well Information Block
STRT.FT               472.0000: 
STOP.FT              2428.5000: 
STEP.FT                 0.1000: 
NULL.                -999.2500: 
COMP.          Pioneer Natural Resources: COMPANY
WELL.          Flying Horse 12-11: WELL
FLD.           Purgatoire River: FIELD
LOC.           2428' FNL & 308' FWL: LOCATION
PROV.                 Colorado: PROVINCE
CNTY.               Las Animas: COUNTRY
SRVC.                Patterson: SERVICE COMPANY
DATE.          Mon May 30 06:06:20 2005: LOG DATE
UWI.           05 071 08378 00: UNIQUE WELL ID
~Curve Information Block
DEPT.FT            0 000 00 00: Depth
DCAL.in                       : CDL Caliper
RHOB.g/cc                     : CDL Bulk Density
RHOC.g/cc                     : CDL Density Correction
DPOR.pu                       : CDL Density Porosity
GR.GAPI                       : Gamma Ray
NPOR.pu                       : Neutron Porosity
~Parameter Information Block
~A  Depth       DCAL        RHOB        RHOC        DPOR         GR         NPOR    
# ...
   596.8000      8.6855      2.4028      0.0002     14.9831     50.7064     16.4128
   596.9000      8.6855      2.3891      0.0133     15.8108     53.2144     15.6154
   597.0000      8.6773      2.3783     -0.0257     16.4685     55.3058     15.2400
   597.1000      8.6773      2.3788      0.0246     16.4376     56.5173     15.3188
   597.2000      8.6773      2.3944      0.0288     15.4899     54.8951     15.4895
   597.3000      8.6626      2.4124      0.0973     14.3998     47.7059     15.4515
   597.4000      8.6626      2.4130      0.1026     14.3657     39.0513     15.1663
   597.5000      8.6601      2.3933      0.0790     15.5579     34.4360     14.7747
   597.6000      8.6601      2.3630      0.0432     17.3942     35.0734     14.6394
   597.7000      8.6601      2.3296      0.0362     19.4195     39.0014     14.9636
   597.8000      8.6516      2.2998     -0.0039     21.2259     42.2575     15.2939
   597.9000      8.6516      2.2870     -0.0393     22.0026     42.8271     15.2456
   598.0000      8.6456      2.2997      0.0235     21.2326     41.6347     15.1841
   598.1000      8.6456      2.3243      0.0348     19.7396     39.9888     15.4587
   598.2000      8.6456      2.3410      0.0188     18.7269     39.4908     15.8005
   598.3000      8.6436      2.3426      0.0298     18.6308     41.4656     15.6699
   598.4000      8.6436      2.3383     -0.0233     18.8914     44.8184     15.0483
   598.5000      8.6430      2.3483     -0.0007     18.2878     45.9608     14.6083
   598.6000      8.6430      2.3719      0.0416     16.8533     43.8185     14.7410
   598.7000      8.6430      2.3813      0.0425     16.2822     41.4049     15.0105
   598.8000      8.6410      2.3702     -0.0201     16.9577     40.7768     15.0951
   598.9000      8.6410      2.3670      0.0043     17.1508     40.5653     15.1708
   599.0000      8.6455      2.3807      0.0600     16.3192     38.8459     15.2787
   599.1000      8.6455      2.3934      0.0663     15.5499     36.4690     15.3121
   599.2000      8.6455      2.3994      0.0595     15.1900     36.5784     15.1878
   599.3000      8.6371      2.4043      0.0555     14.8918     39.5033     14.8847
   599.4000      8.6371      2.4068      0.0328     14.7367     40.8062     14.5429
   599.5000      8.6329      2.3976      0.0313     15.2995     37.8191     14.3522
   599.6000      8.6329      2.3771      0.0103     16.5389     33.2032     14.4253
   599.7000      8.6329      2.3646      0.0061     17.2968     31.6826     14.6654
   599.8000      8.6277      2.3685      0.0398     17.0614     35.8928     14.8151
   599.9000      8.6277      2.3742      0.0390     16.7151     44.3562     14.7699
   600.0000      8.6249      2.3733      0.0163     16.7681     51.4707     14.6109
   600.1000      8.6249      2.3705      0.0479     16.9415     53.0400     14.5136
   600.2000      8.6249      2.3609      0.0778     17.5231     52.0146     14.6268
   600.3000      8.6226      2.3432     -0.0101     18.5923     50.5985     14.8030
   600.4000      8.6226      2.3333      0.0186     19.1922     46.2202     14.7590
   600.5000      8.6170      2.3321      0.0451     19.2644     39.8955     14.5500
   600.6000      8.6170      2.3245      0.0313     19.7274     35.2974     14.3329
   600.7000      8.6170      2.3082      0.0185     20.7149     33.1230     14.2326
   600.8000      8.6148      2.2954      0.0068     21.4919     33.6283     14.3513
   600.9000      8.6148      2.2957     -0.0129     21.4757     36.2142     14.5404
   601.0000      8.6139      2.3007      0.0379     21.1695     38.9718     14.6511
   601.1000      8.6139      2.2967      0.0132     21.4131     40.1297     14.7686
   601.2000      8.6139      2.2870      0.0174     22.0009     38.5516     14.9179
   601.3000      8.6142      2.2833     -0.0060     22.2228     35.8839     14.9750
   601.4000      8.6142      2.2944      0.0230     21.5544     34.8569     14.9780
   601.5000      8.6032      2.3223      0.0295     19.8582     35.5811     14.8836
   601.6000      8.6032      2.3547      0.0801     17.8942     37.0174     14.5080
   601.7000      8.6032      2.3664      0.1289     17.1853     37.4216     13.9201
   601.8000      8.5997      2.3498      0.0519     18.1937     36.1759     13.4606
   601.9000      8.5997      2.3271      0.0392     19.5693     35.7550     13.4971
   602.0000      8.6094      2.3142      0.0374     20.3505     37.5523     14.1691
   602.1000      8.6094      2.3067     -0.0011     20.8075     38.5282     15.2106
   602.2000      8.6094      2.3027     -0.0220     21.0486     36.4058     15.9796
   602.3000      8.5931      2.3032      0.0056     21.0192     33.1749     15.8899
   602.4000      8.5931      2.3027     -0.0152     21.0501     33.9599     15.1689
   602.5000      8.5890      2.2991      0.0218     21.2661     39.6622     14.5803
   602.6000      8.5890      2.2959     -0.0049     21.4594     42.8730     14.4567
   602.7000      8.5890      2.2898      0.0176     21.8282     41.4266     14.7337
   602.8000      8.5853      2.2770     -0.0281     22.6065     41.1814     14.9892
   602.9000      8.5853      2.2672     -0.0049     23.2002     44.0317     14.6501
   603.0000      8.5750      2.2672     -0.0364     23.1974     46.0552     14.0404
   603.1000      8.5750      2.2689      0.0625     23.0990     44.8275     13.8919
   603.2000      8.5750      2.2686      0.0283     23.1125     42.9793     14.1546
   603.3000      8.5625      2.2818      0.0279     22.3157     41.9870     14.3532
   603.4000      8.5625      2.3132      0.0698     20.4116     40.5890     14.5221
   603.5000      8.5593      2.3442      0.1033     18.5315     38.7801     14.9181
   603.6000      8.5593      2.3620      0.1010     17.4515     37.5788     15.2193
   603.7000      8.5593      2.3721      0.1385     16.8417     37.4214     15.1046
   603.8000      8.5541      2.3840      0.1452     16.1208     38.9921     14.8176
   603.9000      8.5541      2.3946      0.2039     15.4764     41.4166     14.4440
   604.0000      8.5545      2.3942      0.1569     15.5020     42.6931     13.9797
   604.1000      8.5545      2.3850      0.1585     16.0615     42.8229     13.6416
   604.2000      8.5545      2.3738      0.0965     16.7375     41.8807     13.5416
   604.3000      8.5552      2.3616      0.0666     17.4810     39.7971     13.7199
   604.4000      8.5552      2.3447      0.0401     18.5054     37.3379     14.0484
   604.5000      8.5504      2.3297      0.0160     19.4133     36.2283     14.1783
   604.6000      8.5504      2.3232      0.0812     19.8064     36.6254     14.1375
   604.7000      8.5504      2.3158      0.0475     20.2537     35.6591     14.1606
   604.8000      8.5311      2.3090      0.0524     20.6694     33.8290     14.2202
   604.9000      8.5311      2.3096      0.0559     20.6330     34.8032     14.2810
   605.0000      8.5318      2.3120      0.0360     20.4853     37.4711     14.3511
   605.1000      8.5318      2.3135      0.0205     20.3914     38.3107     14.3686
   605.2000      8.5318      2.3190      0.0277     20.0614     38.5100     14.2948
   605.3000      8.5151      2.3285      0.0612     19.4861     39.3196     14.2007
   605.4000      8.5151      2.3361      0.0314     19.0229     38.3292     14.1463
   605.5000      8.5075      2.3427      0.0303     18.6261     35.9624     14.2461
   605.6000      8.5075      2.3557      0.0229     17.8363     35.6592     14.6721
   605.7000      8.5075      2.3725      0.0267     16.8187     37.9417     15.1900
   605.8000      8.4981      2.3795      0.0552     16.3930     39.1756     15.3597
   605.9000      8.4981      2.3753     -0.0132     16.6505     38.0335     15.3430
   606.0000      8.4911      2.3714      0.0239     16.8836     38.4202     15.4815
   606.1000      8.4911      2.3728      0.0180     16.8005     41.0712     15.5601
   606.2000      8.4911      2.3771      0.0313     16.5412     42.1241     15.4123
   606.3000      8.4915      2.3807      0.0533     16.3220     41.4727     15.2425
