~Version Information
 VERS.                                  2.0 : CWLS LAS VERSION
 WRAP.                                   NO : WRAPING MODE
 SWARE .                 MController 2.5.0J : SOFTWARE VERSION
~Well Information
 WELL.                         Sebring42-29 : WELL
 COMP.    Pioneer Natural Resources USA Inc : COMPANY
 FLD.                      Purgatoire River : FIELD
 LOC.                SE/NE Sec 29 T32S R67W : LOCATION
 DATE.                             08/12/05 : DATE(S) LOGGED
 SRVC.       BLANCO Geological Services LLC : SERVICE COMPANY
 STAT.                                   CO : STATE
 CNTY.                           Las Animas : COUNTY
 CTRY.                                  USA : COUNTRY
 API.                       05-071-08293-00 : API NUMBER
 STRT.FT                             750.00 : START DEPTH
 STOP.FT                            2880.00 : STOP DEPTH
 STEP.FT                               1.00 : DEPTH INCREMENT
 NULL.                                -9999 : NULL VALUE
~Curve information
 DEPTH.FT                                   :
 ROP.MIN/FT                                 :
 GAS.UNITS                                  :
~ASCII Log data
# ...
      2750.0         0.43         25.3 
      2751.0         0.63         24.7 
      2752.0         0.60         27.1 
      2753.0         0.52         32.2 
      2754.0         0.63         37.8 
      2755.0         0.50         39.9 
      2756.0         0.17         40.3 
      2757.0         0.23         41.5 
      2758.0         0.33         41.3 
      2759.0         0.43         38.0 
      2760.0         0.50         49.5 
      2761.0         8.45        129.7 
      2762.0         1.50        128.2 
      2763.0         1.62        116.3 
      2764.0         0.13         94.1 
      2765.0         0.47         98.9 
      2766.0         0.57        124.6 
      2767.0         0.53        148.9 
      2768.0         0.45        157.2 
      2769.0         0.40        157.1 
      2770.0         0.43        150.4 
      2771.0         0.53        137.2 
      2772.0         0.43        120.3 
      2773.0         0.40        114.2 
      2774.0         0.40        121.9 
      2775.0         0.63        129.0 
      2776.0         0.82        123.6 
      2777.0         0.63         62.9 
      2778.0         0.50         33.1 
      2779.0         0.53         26.9 
      2780.0         0.50         31.3 
      2781.0         0.62         38.3 
      2782.0         0.50         37.6 
      2783.0         0.50         23.3 
      2784.0         0.47         18.1 
      2785.0         0.57         19.3 
      2786.0         0.60         23.6 
      2787.0         0.62         33.8 
      2788.0         0.77         44.1 
      2789.0         0.87         53.4 
      2790.0         0.70         60.5 
      2791.0         6.60         81.8 
      2792.0         0.63         65.8 
      2793.0         0.78         72.2 
      2794.0         0.70         71.7 
      2795.0         0.70         92.3 
      2796.0         0.50        124.8 
      2797.0         0.50        155.3 
      2798.0         0.53        187.3 
      2799.0         0.48        210.0 
      2800.0         0.43        238.0 
      2801.0         0.43        240.9 
      2802.0         0.43        219.9 
      2803.0         0.43        138.3 
      2804.0         0.47         85.5 
      2805.0         0.72         56.9 
      2806.0         0.13         34.7 
      2807.0         0.77         32.2 
      2808.0         0.30         22.0 
      2809.0         0.63         20.8 
      2810.0         0.60         19.7 
      2811.0         0.53         17.7 
      2812.0         0.58         21.1 
      2813.0         0.60         30.5 
      2814.0         0.53         37.7 
      2815.0         0.47         38.1 
      2816.0         0.47         37.9 
      2817.0         0.50         41.3 
      2818.0         0.43         41.5 
      2819.0         0.45         40.2 
      2820.0         0.50         35.6 
      2821.0         8.83        166.2 
      2822.0         0.13         66.2 
      2823.0         0.23         73.4 
      2824.0         0.98         82.6 
      2825.0         0.50         81.5 
      2826.0         0.53         77.7 
      2827.0         0.43         73.6 
      2828.0         0.50         80.3 
      2829.0         0.58         95.8 
      2830.0         0.57        109.8 
      2831.0         0.57        117.0 
      2832.0         0.67        117.4 
      2833.0         0.57        112.3 
      2834.0         0.60        100.9 
      2835.0         0.68         95.1 
      2836.0         0.63         36.5 
      2837.0         0.63         21.1 
      2838.0         0.63         17.5 
      2839.0         0.70         17.0 
      2840.0         0.62         22.5 
      2841.0         0.63         43.6 
      2842.0         0.53         58.9 
      2843.0         0.47         62.4 
      2844.0         0.47         59.2 
      2845.0         0.47         54.8 
      2846.0         0.65         50.3 
      2847.0         0.47         54.6 
      2848.0         0.50         54.7 
      2849.0         0.50         53.4 
      2850.0         0.43         49.3 
      2851.0         0.40         49.6 
      2852.0         5.80         53.0 
      2853.0         4.02         65.4 
      2854.0         1.07         61.8 
      2855.0         0.95        100.5 
      2856.0         0.90        141.9 
      2857.0         0.87        187.6 
      2858.0         0.88        224.8 
      2859.0         0.87        244.0 
      2860.0         0.97        221.5 
      2861.0         0.87         57.4 
      2862.0         0.72         21.6 
      2863.0         0.77         18.1 
      2864.0         0.77         32.0 
      2865.0         0.67         52.9 
      2866.0         0.60         75.5 
      2867.0         0.58        120.5 
      2868.0         0.50        121.4 
      2869.0         0.60         62.6 
      2870.0         0.57         27.6 
      2871.0         0.60         29.2 
      2872.0         0.57         42.3 
      2873.0         1.38         59.9 
      2874.0         0.73         41.3 
      2875.0         0.90         20.2 
      2876.0         1.05         15.9 
      2877.0         1.17         15.8 
      2878.0         0.80         15.5 
      2879.0         0.57         15.6 
      2880.0         0.62         15.5 
