~Version Information
VERS.                      2.0: CWLS Log ASCII Standard - VERSION 2.0
WRAP.                       NO: One line per depth step
~Well Information Block
STRT.FT               846.5000: 
STOP.FT              2610.0000: 
STEP.FT                 0.2500: 
NULL.                -999.2500: 
COMP.          Petrogulf Corporation: COMPANY
WELL.            Lavedure 7-44: WELL
FLD.           Purgatoire River: FIELD
LOC.           969' FSL & 501' FEL: LOCATION
PROV.                 Colorado: PROVINCE
CNTY.               Las Animas: COUNTRY
SRVC.                Patterson: SERVICE COMPANY
DATE.          Sun Dec 07 15:26:03 2003: LOG DATE
UWI.                          : UNIQUE WELL ID
~Curve Information Block
DEPT.FT            0 000 00 00: Depth
SP.mV                         : DIL Spontaneous Potential
RILD.Ohm-m                    : DIL Deep Resistivity
RILM.Ohm-m                    : DIL Medium Resistivity
RLL3.Ohm-m                    : DIL Shallow Resistivity
GR.GAPI                       : Gamma Ray
~Parameter Information Block
~A  Depth        SP         RILD        RILM        RLL3         GR     
# ...
  1910.5000   -529.3061     13.4513     14.1254     14.5915    125.9774
  1910.7500   -528.9700     12.8330     13.3617     14.0079    129.9394
  1911.0000   -528.7637     12.3038     12.7821     13.7160    130.2383
  1911.2500   -528.6318     11.8648     12.3595     13.5157    127.6658
  1911.5000   -528.5041     11.5096     12.0822     13.3758    122.3705
  1911.7500   -528.3251     11.2257     11.9432     13.3443    119.4165
  1912.0000   -528.0757     10.9970     11.9334     13.5090    117.5443
  1912.2500   -527.7775     10.8054     12.0372     13.9772    118.2358
  1912.5000   -527.4769     10.6340     12.2270     14.8476    121.3922
  1912.7500   -527.2156     10.4687     12.4570     16.1563    124.0919
  1913.0000   -527.0098     10.3017     12.6615     17.7952    127.7079
  1913.2500   -526.8502     10.1314     12.7683     19.4467    129.2849
  1913.5000   -526.7174      9.9620     12.7249     20.6421    130.2215
  1913.7500   -526.5985      9.7996     12.5204     20.9860    130.4175
  1914.0000   -526.5007      9.6501     12.1835     20.3871    131.5066
  1914.2500   -526.4549      9.5168     11.7639     19.0791    133.2945
  1914.5000   -526.4979      9.3995     11.3127     17.4423    137.5425
  1914.7500   -526.6417      9.2946     10.8713     15.8245    141.1768
  1915.0000   -526.8536      9.1967     10.4666     14.4617    147.5070
  1915.2500   -527.0600      9.1008     10.1105     13.4542    152.1272
  1915.5000   -527.1746      9.0056      9.8046     12.7690    159.2605
  1915.7500   -527.1360      8.9162      9.5491     12.2995    163.9938
  1916.0000   -526.9398      8.8452      9.3503     11.9621    170.6780
  1916.2500   -526.6398      8.8097      9.2218     11.7590    174.0753
  1916.5000   -526.3190      8.8277      9.1789     11.7660    175.2741
  1916.7500   -526.0427      8.9128      9.2330     12.0641    172.5270
  1917.0000   -525.8248      9.0728      9.3894     12.6666    163.8607
  1917.2500   -525.6254      9.3118      9.6492     13.4913    156.6756
  1917.5000   -525.3787      9.6333     10.0152     14.4100    146.5533
  1917.7500   -525.0302     10.0437     10.4960     15.3479    141.0066
  1918.0000   -524.5659     10.5537     11.1091     16.3515    134.3861
  1918.2500   -524.0192     11.1762     11.8795     17.5681    130.7042
  1918.5000   -523.4587     11.9240     12.8343     19.1899    125.4382
  1918.7500   -522.9706     12.8058     13.9961     21.4530    121.4063
  1919.0000   -522.6390     13.8234     15.3746     24.6271    113.3974
  1919.2500   -522.5181     14.9713     16.9614     28.8557    106.6574
  1919.5000   -522.5986     16.2396     18.7298     33.9327     95.6795
  1919.7500   -522.7908     17.6166     20.6405     39.2780     88.6894
  1920.0000   -522.9522     19.0865     22.6480     44.1774     79.2267
  1920.2500   -522.9488     20.6245     24.7068     48.0642     73.3050
  1920.5000   -522.7089     22.1957     26.7687     50.6427     64.5589
  1920.7500   -522.2294     23.7641     28.7786     51.8498     58.9975
  1921.0000   -521.5395     25.3045     30.6708     51.7719     51.7738
  1921.2500   -520.6736     26.8056     32.3787     50.6679     47.9517
  1921.5000   -519.6968     28.2557     33.8543     49.0955     43.5963
  1921.7500   -518.7396     29.6179     35.0859     47.8630     41.4038
  1922.0000   -517.9639     30.8136     36.0863     47.6003     38.9782
  1922.2500   -517.4722     31.7336     36.8547     48.2337     37.9979
  1922.5000   -517.2615     32.2844     37.3535     48.9172     37.8370
  1922.7500   -517.2692     32.4509     37.5379     48.5833     38.8419
  1923.0000   -517.4424     32.3234     37.4144     46.7082     42.1090
  1923.2500   -517.7468     32.0555     37.0568     43.7047     45.0602
  1923.5000   -518.1323     31.7857     36.5634     40.6660     48.9134
  1923.7500   -518.5147     31.5860     36.0144     38.6969     49.7868
  1924.0000   -518.7979     31.4603     35.4702     38.3463     47.2185
  1924.2500   -518.9147     31.3753     34.9777     39.4744     43.3209
  1924.5000   -518.8548     31.2985     34.5543     41.4806     36.6049
  1924.7500   -518.6614     31.2237     34.1712     43.6150     33.0764
  1925.0000   -518.4014     31.1792     33.7752     45.1947     30.5481
  1925.2500   -518.1302     31.2141     33.3430     45.7245     30.6267
  1925.5000   -517.8717     31.3772     32.9161     44.9902     32.5765
  1925.7500   -517.6183     31.7027     32.5799     43.1472     34.6241
  1926.0000   -517.3452     32.2012     32.4096     40.7201     38.0945
  1926.2500   -517.0297     32.8441     32.4368     38.4229     40.1999
  1926.5000   -516.6675     33.5402     32.6523     36.8651     42.1860
  1926.7500   -516.2708     34.1318     33.0253     36.3498     42.3587
  1927.0000   -515.8547     34.4490     33.5138     36.8886     40.7033
  1927.2500   -515.4302     34.4043     34.0609     38.3438     38.4728
  1927.5000   -515.0121     34.0417     34.5942     40.5234     34.0303
  1927.7500   -514.6307     33.4900     35.0399     43.1621     30.8386
  1928.0000   -514.3239     32.8796     35.3474     45.8494     26.7071
  1928.2500   -514.1085     32.3018     35.5048     48.0000     24.9148
  1928.5000   -513.9572     31.8184     35.5334     48.9660     24.2411
  1928.7500   -513.8088     31.4785     35.4665     48.3436     25.2632
  1929.0000   -513.6045     31.3126     35.3319     46.3239     28.8435
  1929.2500   -513.3278     31.3133     35.1463     43.7549     32.2033
  1929.5000   -513.0142     31.4287     34.9157     41.7473     37.5238
  1929.7500   -512.7228     31.5828     34.6353     41.0483     40.5089
  1930.0000   -512.4941     31.7123     34.2891     41.6219     43.3954
  1930.2500   -512.3257     31.7938     33.8588     42.7328     44.3478
  1930.5000   -512.1862     31.8476     33.3383     43.4551     45.2080
  1930.7500   -512.0513     31.9198     32.7473     43.2226     46.0528
  1931.0000   -511.9401     32.0601     32.1342     42.0388     48.5457
  1931.2500   -511.9261     32.3041     31.5721     40.2971     51.1749
  1931.5000   -512.1136     32.6620     31.1461     38.5041     56.1173
  1931.7500   -512.5834     33.1138     30.9315     37.1539     59.3680
  1932.0000   -513.3328     33.6107     30.9700     36.6461     62.3881
  1932.2500   -514.2523     34.0848     31.2521     37.0802     62.1501
  1932.5000   -515.1688     34.4632     31.7150     38.1162     57.7106
  1932.7500   -515.9281     34.6890     32.2653     39.2005     52.5534
  1933.0000   -516.4581     34.7405     32.8259     40.0072     43.6084
  1933.2500   -516.7742     34.6477     33.3783     40.6358     38.1185
  1933.5000   -516.9368     34.5081     33.9617     41.4221     31.9154
  1933.7500   -516.9996     34.4974     34.6200     42.6452     29.2481
  1934.0000   -516.9802     34.8796     35.3431     44.3673     26.8385
  1934.2500   -516.8580     36.0227     36.0461     46.3849     25.8181
  1934.5000   -516.5850     38.4193     36.6039     48.2418     24.7894
  1934.7500   -516.1038     42.6893     36.9156     49.3975     24.5424
  1935.0000   -515.3740     49.4475     36.9565     49.5842     25.1209
  1935.2500   -514.4005     58.7344     36.7926     49.0802     26.1625
  1935.5000   -513.2393     68.7747     36.5452     48.5123     28.6073
  1935.7500   -511.9839     75.5671     36.3188     48.2489     30.8152
  1936.0000   -510.7506     76.2333     36.1289     47.9789     34.9650
  1936.2500   -509.6591     72.2189     35.8825     46.9478     38.1843
  1936.5000   -508.7850     66.5686     35.4499     44.6467     43.5680
  1936.7500   -508.1191     60.8227     34.7905     41.3244     47.5121
  1937.0000   -507.5895     55.2452     34.0178     37.9226     53.3870
  1937.2500   -507.1263     49.9426     33.3348     35.5515     56.3288
  1937.5000   -506.6943     45.2320     32.9197     34.9030     57.3231
  1937.7500   -506.2866     41.4126     32.8983     35.9064     55.2425
  1938.0000   -505.9177     38.5502     33.4375     37.7421     49.2837
  1938.2500   -505.6232     36.5115     34.8914     39.2295     45.0606
