~Version Information
VERS.                      2.0: CWLS Log ASCII Standard - VERSION 2.0
WRAP.                       NO: One line per depth step
~Well Information Block
STRT.FT               240.0000: 
STOP.FT              1709.2000: 
STEP.FT                 0.1000: 
NULL.                -999.2500: 
COMP.          Pioneer Natural Resources: COMPANY
WELL.              Patten 22-2: WELL
FLD.           Purgatoire River: FIELD
LOC.           2157' FNL & 1528' FWL: LOCATION
PROV.                 Colorado: PROVINCE
CNTY.               Las Animas: COUNTRY
SRVC.                Patterson: SERVICE COMPANY
DATE.          Fri Dec 10 09:15:13 2004: LOG DATE
UWI.           05 071 08168 00: UNIQUE WELL ID
~Curve Information Block
DEPT.FT            0 000 00 00: Depth
DCAL.in                       : CDL Caliper
RHOB.g/cc                     : CDL Bulk Density
RHOC.g/cc                     : CDL Density Correction
DPOR.pu                       : CDL Density Porosity
NPOR.pu                       : Neutron Porosity
GR.GAPI                       : Gamma Ray
~Parameter Information Block
~A  Depth       DCAL        RHOB        RHOC        DPOR        NPOR         GR     
# ...
  1296.0000      7.9780      2.1853     -0.0103     28.1652     21.9964    117.7180
  1296.1000      7.9780      2.1850     -0.0562     28.1823     20.8964    120.4371
  1296.2000      7.9780      2.2307      0.0341     25.4110     19.9574    118.7047
  1296.3000      7.9569      2.3024      0.1402     21.0678     19.2559    114.8858
  1296.4000      7.9569      2.3633      0.2087     17.3760     18.8751    112.4545
  1296.5000      7.9447      2.4100      0.1418     14.5462     19.0128    113.8442
  1296.6000      7.9447      2.4654      0.1962     11.1868     19.4055    119.3924
  1296.7000      7.9447      2.5173      0.2582      8.0441     19.5577    126.1220
  1296.8000      7.9563      2.5317      0.2149      7.1715     19.6328    129.1579
  1296.9000      7.9563      2.5085      0.1764      8.5767     20.2218    128.7198
  1297.0000      7.9857      2.4760      0.1114     10.5449     21.1972    128.2601
  1297.1000      7.9857      2.4529      0.1078     11.9484     21.9300    125.1776
  1297.2000      7.9857      2.4290      0.1176     13.3931     22.2584    119.4513
  1297.3000      8.0100      2.3893      0.0802     15.8027     22.1528    117.2946
  1297.4000      8.0100      2.3348      0.0314     19.1038     21.6831    116.3201
  1297.5000      8.0198      2.2694      0.0324     23.0666     21.1909    112.1317
  1297.6000      8.0198      2.1905      0.0095     27.8506     20.7426    109.9485
  1297.7000      8.0198      2.1014     -0.0670     33.2514     20.1603    110.7963
  1297.8000      8.0211      2.0119     -0.0775     38.6715     19.5154    107.4531
  1297.9000      8.0211      1.9348     -0.1013     43.3464     18.7664    100.4633
  1298.0000      8.0189      1.8870     -0.0819     46.2397     17.7701     97.5840
  1298.1000      8.0189      1.8711     -0.0476     47.2049     16.7581     98.3515
  1298.2000      8.0189      1.8726     -0.0449     47.1181     15.7115     97.3169
  1298.3000      8.0147      1.8862     -0.0187     46.2880     14.4118     93.5797
  1298.4000      8.0147      1.9226      0.0460     44.0841     13.2529     89.1834
  1298.5000      8.0071      1.9931      0.1140     39.8117     12.8215     87.4877
  1298.6000      8.0071      2.0926      0.2159     33.7791     13.1287     91.8569
  1298.7000      8.0071      2.1924      0.2827     27.7361     13.8317     98.7336
  1298.8000      8.0007      2.2660      0.2226     23.2734     14.7127    102.9377
  1298.9000      8.0007      2.3115      0.1785     20.5138     15.6170    105.0340
  1299.0000      8.0033      2.3334      0.1708     19.1857     16.3906    105.5526
  1299.1000      8.0033      2.3385      0.1149     18.8814     16.9473    104.3546
  1299.2000      8.0033      2.3362      0.1234     19.0207     17.3716    104.8767
  1299.3000      8.0108      2.3217      0.1175     19.8966     17.9970    110.1503
  1299.4000      8.0108      2.2869      0.0524     22.0071     18.8672    114.8738
  1299.5000      8.0131      2.2383      0.0189     24.9525     19.7068    112.3974
  1299.6000      8.0131      2.1897      0.0187     27.8986     20.4209    105.9899
  1299.7000      8.0131      2.1505     -0.0045     30.2721     20.8659    103.4189
  1299.8000      8.0152      2.1216      0.0004     32.0238     20.8094    107.6059
  1299.9000      8.0152      2.1041      0.0103     33.0843     20.2799    115.9598
  1300.0000      8.0161      2.1114     -0.0053     32.6418     19.3489    124.4490
  1300.1000      8.0161      2.1528      0.0763     30.1335     18.1958    129.8557
  1300.2000      8.0161      2.2125      0.1486     26.5177     17.3385    130.2615
  1300.3000      8.0138      2.2686      0.2079     23.1147     17.1733    125.1928
  1300.4000      8.0138      2.3194      0.2422     20.0377     17.4187    119.4714
  1300.5000      8.0227      2.3774      0.2813     16.5223     17.6729    118.6473
  1300.6000      8.0227      2.4441      0.3116     12.4816     17.9634    122.7100
  1300.7000      8.0227      2.4931      0.3362      9.5108     18.2918    127.1010
  1300.8000      8.0871      2.4969      0.2685      9.2806     18.5267    127.9925
  1300.9000      8.0871      2.4680      0.1393     11.0280     18.6191    129.7199
  1301.0000      8.2076      2.4359      0.1565     12.9755     18.6545    135.8647
  1301.1000      8.2076      2.3961      0.1429     15.3906     18.7562    139.4350
  1301.2000      8.2076      2.3388      0.0654     18.8583     18.9534    137.1820
  1301.3000      8.2645      2.2817      0.1108     22.3213     19.0962    135.7224
  1301.4000      8.2645      2.2363      0.0701     25.0707     18.9739    136.8915
  1301.5000      8.2349      2.1974      0.0399     27.4311     18.5188    134.5090
  1301.6000      8.2349      2.1541      0.0416     30.0562     17.9294    127.9819
  1301.7000      8.2349      2.0961      0.0466     33.5690     17.6327    124.2084
  1301.8000      8.2405      2.0319      0.0110     37.4619     17.7679    126.0326
  1301.9000      8.2405      1.9946      0.0624     39.7235     17.9249    128.6261
  1302.0000      8.2748      2.0183      0.1088     38.2871     17.8634    127.4976
  1302.1000      8.2748      2.1112      0.2163     32.6540     17.8004    123.5547
  1302.2000      8.2748      2.2402      0.3832     24.8353     17.7781    122.0117
  1302.3000      8.2544      2.3502      0.4377     18.1685     17.8367    125.5213
  1302.4000      8.2544      2.4190      0.4169     13.9999     18.3688    129.8078
  1302.5000      8.1853      2.4680      0.4057     11.0329     19.1847    131.1815
  1302.6000      8.1853      2.5080      0.4108      8.6039     19.5804    131.7337
  1302.7000      8.1853      2.5226      0.3753      7.7194     19.4433    133.0048
  1302.8000      8.1324      2.5066      0.3027      8.6916     19.1560    130.9012
  1302.9000      8.1324      2.4763      0.2364     10.5302     18.9851    124.2300
  1303.0000      8.1076      2.4487      0.1993     12.1981     18.9915    120.2794
  1303.1000      8.1076      2.4331      0.1627     13.1454     19.1697    121.6155
  1303.2000      8.1076      2.4323      0.1932     13.1967     19.4491    123.9079
  1303.3000      8.0555      2.4384      0.1968     12.8223     19.6818    125.4160
  1303.4000      8.0555      2.4352      0.1791     13.0205     19.8376    126.0011
  1303.5000      8.0060      2.4169      0.1339     14.1269     19.9645    122.7211
  1303.6000      8.0060      2.4003      0.1036     15.1313     20.0092    115.3856
  1303.7000      8.0060      2.4081      0.0887     14.6599     19.8855    109.5609
  1303.8000      7.9966      2.4392      0.1417     12.7774     19.7362    109.4785
  1303.9000      7.9966      2.4658      0.1372     11.1612     19.8446    113.4528
  1304.0000      8.0119      2.4704      0.0798     10.8826     20.1025    113.7958
  1304.1000      8.0119      2.4666      0.0630     11.1134     20.2294    107.2372
  1304.2000      8.0119      2.4733      0.0521     10.7081     20.1365    102.1467
  1304.3000      8.0232      2.4870      0.0767      9.8759     19.9792    104.4837
  1304.4000      8.0232      2.4976      0.0214      9.2342     20.1053    110.9651
  1304.5000      8.0227      2.5072      0.0773      8.6539     20.5410    117.6467
  1304.6000      8.0227      2.5160      0.0657      8.1233     20.9796    122.1118
  1304.7000      8.0227      2.5213      0.0914      7.8027     21.2310    122.5453
  1304.8000      8.0209      2.5196      0.1106      7.9054     21.4587    120.0840
  1304.9000      8.0209      2.5126      0.0759      8.3255     21.7323    117.2243
  1305.0000      8.0251      2.5150      0.0352      8.1845     21.7816    117.4715
  1305.1000      8.0251      2.5311      0.0670      7.2073     21.6032    122.9268
  1305.2000      8.0251      2.5446      0.0808      6.3869     21.8751    126.8198
  1305.3000      8.0283      2.5456      0.0780      6.3249     22.8579    123.4646
  1305.4000      8.0283      2.5373      0.0976      6.8287     23.6657    119.3966
  1305.5000      8.0257      2.5200      0.0973      7.8767     23.5910    121.5396
