~Version Information
VERS.                      2.0: CWLS Log ASCII Standard - VERSION 2.0
WRAP.                       NO: One line per depth step
~Well Information Block
STRT.FT               930.0000: 
STOP.FT              2783.2500: 
STEP.FT                 0.2500: 
NULL.                -999.2500: 
COMP.          Pioneer Natural Resources: COMPANY
WELL.           Desoto 13-7TR: WELL
FLD.           Purgatoire River: FIELD
LOC.           1404' FSL & 1115' FWL: LOCATION
PROV.                 Colorado: PROVINCE
CNTY.               Las Animas: COUNTRY
SRVC.                Patterson: SERVICE COMPANY
DATE.          Fri Jan 14 11:02:13 2005: LOG DATE
UWI.           05 071 08216 00: UNIQUE WELL ID
~Curve Information Block
DEPT.FT            0 000 00 00: Depth
SN.Ohm-m                      : IEL Short Normal
SP.mV                         : IEL Spontaneous Potential
DIR.Ohm-m                     : IEL Induction Resistivity
GR.GAPI                       : Gamma Ray
~Parameter Information Block
~A  Depth        SN          SP         DIR          GR     
   930.0000   2000.0000   2000.0000 100000.0000     73.4720
   930.2500   2000.0000   2000.0000 100000.0000     74.8907
   930.5000   2000.0000   2000.0000 100000.0000     78.7400
   930.7500   2000.0000   2000.0000 100000.0000     81.7523
   931.0000   2000.0000   2000.0000 100000.0000     85.5071
   931.2500   2000.0000   2000.0000 100000.0000     86.9592
   931.5000   2000.0000   2000.0000 100000.0000     87.3463
   931.7500   2000.0000   2000.0000 100000.0000     86.6424
   932.0000   2000.0000   2000.0000 100000.0000     85.2213
   932.2500   2000.0000   2000.0000 100000.0000     84.9625
   932.5000   2000.0000   2000.0000 100000.0000     86.6132
   932.7500   2000.0000   2000.0000 100000.0000     88.6113
   933.0000   2000.0000   2000.0000 100000.0000     90.6321
   933.2500   2000.0000   2000.0000 100000.0000     90.0742
   933.5000   2000.0000   2000.0000 100000.0000     85.9095
   933.7500   2000.0000   2000.0000 100000.0000     81.6371
   934.0000   2000.0000   2000.0000 100000.0000     74.9703
   934.2500   2000.0000   2000.0000 100000.0000     71.2931
   934.5000   2000.0000   2000.0000 100000.0000     67.3059
   934.7500   2000.0000   2000.0000 100000.0000     65.3068
   935.0000   2000.0000   2000.0000 100000.0000     62.8155
   935.2500   2000.0000   2000.0000 100000.0000     61.5935
   935.5000   2000.0000   2000.0000 100000.0000     60.6143
   935.7500   2000.0000   2000.0000 100000.0000     60.2769
   936.0000   2000.0000   2000.0000 100000.0000     59.4349
   936.2500   2000.0000   2000.0000 100000.0000     58.4554
   936.5000   2000.0000   2000.0000 100000.0000     57.0066
   936.7500   2000.0000   2000.0000 100000.0000     56.7146
   937.0000   2000.0000   2000.0000 100000.0000     57.9706
   937.2500   2000.0000   2000.0000 100000.0000     39.9564
   937.5000   2000.0000   2000.0000 100000.0000     42.8385
   937.7500   2000.0000   2000.0000 100000.0000     45.1394
   938.0000   2000.0000   2000.0000 100000.0000     48.3305
   938.2500   2000.0000   2000.0000 100000.0000     49.6531
   938.5000   2000.0000   2000.0000 100000.0000     49.8697
   938.7500   2000.0000   2000.0000 100000.0000     49.1092
   939.0000   2000.0000   2000.0000 100000.0000     47.7292
   939.2500   2000.0000   2000.0000 100000.0000     47.2266
   939.5000   2000.0000   2000.0000 100000.0000     47.5619
   939.7500   2000.0000   2000.0000 100000.0000     48.5049
   940.0000   2000.0000   2000.0000 100000.0000     50.5541
   940.2500   2000.0000   2000.0000 100000.0000     51.8974
   940.5000   2000.0000   2000.0000 100000.0000     53.3494
   940.7500   2000.0000   2000.0000 100000.0000     54.0759
   941.0000   2000.0000   2000.0000 100000.0000     55.4645
   941.2500   2000.0000   2000.0000 100000.0000     56.6706
   941.5000   2000.0000   2000.0000 100000.0000     58.1003
   941.7500   2000.0000   2000.0000 100000.0000     58.2221
   942.0000   2000.0000   2000.0000 100000.0000     57.0296
   942.2500   2000.0000   2000.0000 100000.0000     55.7897
   942.5000   2000.0000   2000.0000      7.5283     54.1170
   942.7500   2000.0000   2000.0000      4.4173     53.2120
   943.0000   2000.0000   2000.0000      4.1360     51.6952
   943.2500   2000.0000   2000.0000      5.4567     50.3623
   943.5000   2000.0000   2000.0000     11.6076     48.1639
   943.7500   2000.0000   2000.0000 100000.0000     47.0332
   944.0000   2000.0000   2000.0000 100000.0000     46.5903
   944.2500   2000.0000   2000.0000 100000.0000     47.3211
   944.5000   2000.0000   2000.0000 100000.0000     49.9665
   944.7500   2000.0000   2000.0000 100000.0000     52.7836
   945.0000   2000.0000   2000.0000 100000.0000     58.6519
   945.2500   2000.0000   2000.0000 100000.0000     63.3901
   945.5000   2000.0000   2000.0000     49.8748     70.2170
   945.7500   2000.0000   2000.0000     23.2118     73.3552
   946.0000   2000.0000   2000.0000     18.6241     74.7323
   946.2500   2000.0000   2000.0000     18.3417     73.7859
   946.5000   2000.0000   2000.0000     20.1947     71.3689
   946.7500   2000.0000   2000.0000     23.6254     69.9828
   947.0000   2000.0000   2000.0000     28.0932     68.6531
   947.2500   2000.0000   2000.0000     32.4299     68.1168
   947.5000   2000.0000   2000.0000     35.1462     67.7426
   947.7500   2000.0000   2000.0000     36.0030     67.8826
   948.0000   2000.0000   2000.0000     36.5804     68.6892
   948.2500   2000.0000   2000.0000     39.1538     69.4754
   948.5000   2000.0000   2000.0000     46.3754     70.8456
   948.7500   2000.0000   2000.0000     62.5630     71.8588
   949.0000   2000.0000   2000.0000     94.4938     73.1248
   949.2500   2000.0000   2000.0000    136.3446     73.2741
   949.5000   2000.0000   2000.0000    136.5794     71.8894
   949.7500   2000.0000   2000.0000     96.8723     70.2162
   950.0000   2000.0000   2000.0000     66.0278     67.7160
   950.2500   2000.0000   2000.0000     49.2812     66.3190
   950.5000   2000.0000   2000.0000     40.7672     64.1491
   950.7500   2000.0000   2000.0000     36.7988     62.5866
   951.0000   2000.0000   2000.0000     35.5040     61.5703
   951.2500   2000.0000   2000.0000     35.7396     63.2689
   951.5000   2000.0000   2000.0000     36.5119     71.0380
   951.7500   2000.0000   2000.0000     36.8833     79.3663
   952.0000   2000.0000   2000.0000     36.2710     94.0688
   952.2500   2000.0000   2000.0000     34.6886    103.5364
   952.5000   2000.0000   2000.0000     32.5560    115.1194
   952.7500   2000.0000   2000.0000     30.3178    120.8712
   953.0000   2000.0000   2000.0000     28.2559    127.5316
   953.2500   2000.0000   2000.0000     26.4985    131.3565
   953.5000   2000.0000   2000.0000     25.0807    136.4518
   953.7500   2000.0000   2000.0000     23.9826    138.9924
   954.0000   2000.0000   2000.0000     23.1516    140.6745
   954.2500   2000.0000   2000.0000     22.5204    140.3573
   954.5000   2000.0000   2000.0000     22.0322    138.5462
   954.7500   2000.0000   2000.0000     21.6630    136.9247
   955.0000   2000.0000   2000.0000     21.4256    133.9586
   955.2500   2000.0000   2000.0000     21.3474    131.4158
   955.5000   2000.0000   2000.0000     21.4375    126.6876
   955.7500   2000.0000   2000.0000     21.6651    123.2311
   956.0000   2000.0000   2000.0000     21.9676    118.4011
   956.2500   2000.0000   2000.0000     22.2808    115.7735
   956.5000   2000.0000   2000.0000     22.5677    112.7062
   956.7500   2000.0000   2000.0000     22.8178    110.9887
   957.0000   2000.0000   2000.0000     23.0213    108.8368
   957.2500   2000.0000   2000.0000     23.1493    108.0372
   957.5000   2000.0000   2000.0000     23.1699    108.2937
   957.7500   2000.0000   2000.0000     23.0867    109.2270
   958.0000   2000.0000   2000.0000     22.9532    110.7812
   958.2500   2000.0000   2000.0000     22.8420    111.4191
   958.5000   2000.0000   2000.0000     22.8005    111.5202
   958.7500   2000.0000   2000.0000     22.8355    111.2789
   959.0000   2000.0000   2000.0000     22.9321    111.4773
   959.2500   2000.0000   2000.0000     23.0796    112.5617
   959.5000   2000.0000   2000.0000     23.2799    115.6056
   959.7500   2000.0000   2000.0000     23.5372    117.7956
   960.0000   2000.0000   2000.0000     23.8468    119.5471
   960.2500   2000.0000   2000.0000     24.1927    119.1506
   960.5000   2000.0000   2000.0000     24.5549    116.5984
   960.7500   2000.0000   2000.0000     24.9186    114.1463
   961.0000   2000.0000   2000.0000     25.2834    109.9532
   961.2500   2000.0000   2000.0000     25.6706    107.0159
   961.5000   2000.0000   2000.0000     26.1200    103.0650
   961.7500   2000.0000   2000.0000     26.6676    101.2640
   962.0000   2000.0000   2000.0000     27.3062    100.1969
   962.2500   2000.0000   2000.0000     27.9492    100.2869
   962.5000   2000.0000   2000.0000     28.4329    100.8142
   962.7500   2000.0000   2000.0000     28.5888    101.2328
   963.0000   2000.0000   2000.0000     28.3544    102.3759
   963.2500   2000.0000   2000.0000     27.8237    103.8821
