~Version Information
VERS.                      2.0: CWLS Log ASCII Standard - VERSION 2.0
WRAP.                       NO: One line per depth step
~Well Information Block
STRT.FT               430.0000: 
STOP.FT              2417.0000: 
STEP.FT                 0.1000: 
NULL.                -999.2500: 
COMP.          Evergreen Operating Corporation: COMPANY
WELL.          McCullough 34-32: WELL
FLD.           Purgatorie River: FIELD
LOC.           261' FSL & 2098' FEL: LOCATION
PROV.                 Colorado: PROVINCE
CNTY.               Las Animas: COUNTRY
SRVC.                Patterson: SERVICE COMPANY
DATE.          Mon May 17 11:25:23 2004: LOG DATE
UWI.           05 071 07953 00: UNIQUE WELL ID
~Curve Information Block
DEPT.FT            0 000 00 00: Depth
DCAL.in                       : CDL Caliper
RHOB.g/cc                     : CDL Bulk Density
RHOC.g/cc                     : CDL Density Correction
DPOR.pu                       : CDL Density Porosity
NPOR.pu                       : Neutron Porosity
GR.GAPI                       : Gamma Ray
~Parameter Information Block
~A  Depth       DCAL        RHOB        RHOC        DPOR        NPOR         GR     
   430.0000      8.5168      2.5870     -0.2317      3.8162     43.1769     97.1197
   430.1000      8.5168      2.5787     -0.1989      4.3209     43.2592     98.2496
   430.2000      8.5168      2.5709     -0.1807      4.7930     43.5020    101.8177
   430.3000      8.5297      2.5527     -0.2155      5.8962     43.9939    103.1992
   430.4000      8.5297      2.5371     -0.2097      6.8441     44.4240     98.5617
   430.5000      8.5183      2.5388     -0.1978      6.7408     44.4648     93.4899
   430.6000      8.5183      2.5561     -0.1983      5.6929     44.1478     93.4088
   430.7000      8.5183      2.5762     -0.2188      4.4750     43.7855     96.1371
   430.8000      8.5134      2.5882     -0.1660      3.7476     43.5353     96.8946
   430.9000      8.5134      2.5846     -0.1410      3.9621     43.2883     94.2550
   431.0000      8.5148      2.5672     -0.1614      5.0156     42.8774     89.5267
   431.1000      8.5148      2.5521     -0.1694      5.9334     42.4040     84.0162
   431.2000      8.5148      2.5493     -0.1980      6.1011     42.1844     79.8116
   431.3000      8.5139      2.5479     -0.1611      6.1881     42.3286     80.4872
   431.4000      8.5139      2.5331     -0.1600      7.0852     42.6025     85.5266
   431.5000      8.5011      2.5119     -0.2176      8.3669     42.7198     90.8177
   431.6000      8.5011      2.5071     -0.2459      8.6592     42.6737     95.1873
   431.7000      8.5011      2.5263     -0.1775      7.4955     42.6460     97.0476
   431.8000      8.5113      2.5460     -0.1342      6.3031     42.5932     94.1714
   431.9000      8.5113      2.5428     -0.1651      6.4955     42.4551     89.5426
   432.0000      8.5146      2.5307     -0.2561      7.2284     42.3418     87.3022
   432.1000      8.5146      2.5309     -0.2290      7.2184     42.1566     88.8380
   432.2000      8.5146      2.5373     -0.1646      6.8279     41.7909     91.2856
   432.3000      8.5152      2.5471     -0.2541      6.2351     41.3637     90.8862
   432.4000      8.5152      2.5628     -0.1639      5.2873     40.9211     88.5343
   432.5000      8.5173      2.5690     -0.1760      4.9061     40.4377     86.1438
   432.6000      8.5173      2.5630     -0.1814      5.2700     40.0188     85.4103
   432.7000      8.5173      2.5586     -0.1832      5.5371     39.7424     85.2291
   432.8000      8.5140      2.5621     -0.1603      5.3254     39.6606     82.0246
   432.9000      8.5140      2.5705     -0.1621      4.8211     39.7068     77.2933
   433.0000      8.5120      2.5787     -0.1523      4.3198     39.6144     74.0356
   433.1000      8.5120      2.5774     -0.1515      4.4015     39.5256     72.3436
   433.2000      8.5120      2.5655     -0.2191      5.1213     39.7085     71.9152
   433.3000      8.5128      2.5563     -0.2152      5.6812     39.9229     73.6608
   433.4000      8.5128      2.5543     -0.1515      5.8016     40.0012     77.2804
   433.5000      8.5144      2.5601     -0.1963      5.4491     39.9628     79.1651
   433.6000      8.5144      2.5786     -0.1680      4.3301     39.8047     77.8933
   433.7000      8.5144      2.6043     -0.1613      2.7726     39.8278     76.3688
   433.8000      8.5137      2.6211     -0.1464      1.7515     40.1954     76.6040
   433.9000      8.5137      2.6214     -0.2006      1.7321     40.6805     78.9507
   434.0000      8.5187      2.6142     -0.1731      2.1717     41.1235     83.7147
   434.1000      8.5187      2.6135     -0.2260      2.2122     41.4933     88.7062
   434.2000      8.5187      2.6264     -0.2015      1.4322     41.7108     88.4736
   434.3000      8.5137      2.6452     -0.2116      0.2914     41.9242     83.1774
   434.4000      8.5137      2.6517     -0.1327     -0.1040     42.3481     80.1255
   434.5000      8.5148      2.6362     -0.1777      0.8375     42.8475     82.2348
   434.6000      8.5148      2.6175     -0.2492      1.9671     43.3129     85.9388
   434.7000      8.5148      2.6076     -0.1836      2.5689     43.6231     87.6661
   434.8000      8.5160      2.5851     -0.1756      3.9351     43.6045     87.4008
   434.9000      8.5160      2.5472     -0.2559      6.2325     43.2936     88.1195
   435.0000      8.5184      2.5288     -0.2487      7.3448     42.8753     90.4987
   435.1000      8.5184      2.5500     -0.2183      6.0620     42.4785     92.1740
   435.2000      8.5184      2.5833     -0.1663      4.0397     42.2274     93.1724
   435.3000      8.5278      2.5880     -0.1726      3.7578     42.2407     93.6660
   435.4000      8.5278      2.5503     -0.1950      6.0413     42.2856     92.1620
   435.5000      8.5160      2.4954     -0.2808      9.3683     42.1418     88.0141
   435.6000      8.5160      2.4682     -0.3220     11.0177     41.9076     83.3987
   435.7000      8.5160      2.4823     -0.2315     10.1663     41.7002     81.9797
   435.8000      8.5168      2.5183     -0.2428      7.9813     41.5405     82.7973
   435.9000      8.5168      2.5594     -0.2091      5.4936     41.3163     80.4781
   436.0000      8.5176      2.5902     -0.1474      3.6222     41.1629     74.1573
   436.1000      8.5176      2.6100     -0.2145      2.4267     41.3334     70.0270
   436.2000      8.5176      2.6356     -0.2339      0.8708     41.7298     72.1448
   436.3000      8.5143      2.6616     -0.1547     -0.7052     42.0582     76.6424
   436.4000      8.5143      2.6648     -0.1278     -0.8958     42.0673     78.2435
   436.5000      8.5138      2.6398     -0.1336      0.6154     41.9315     77.9207
   436.6000      8.5138      2.6028     -0.1963      2.8616     42.0937     78.6703
   436.7000      8.5138      2.5719     -0.1599      4.7317     42.6639     80.0477
   436.8000      8.5138      2.5504     -0.2220      6.0375     43.4335     80.8595
   436.9000      8.5138      2.5388     -0.2080      6.7413     44.1800     81.3854
   437.0000      8.5139      2.5367     -0.1987      6.8647     44.7269     81.6377
   437.1000      8.5139      2.5330     -0.1596      7.0903     45.1176     79.8620
   437.2000      8.5139      2.5200     -0.1906      7.8810     45.4785     76.1094
   437.3000      8.5144      2.5071     -0.2249      8.6633     45.7476     74.5243
   437.4000      8.5144      2.5012     -0.1753      9.0202     45.9290     78.0610
   437.5000      8.5122      2.4886     -0.1605      9.7792     46.2126     84.9220
   437.6000      8.5122      2.4684     -0.2213     11.0070     46.5444     91.4086
   437.7000      8.5122      2.4653     -0.2272     11.1967     46.6928     95.0236
   437.8000      8.5130      2.4791     -0.1493     10.3565     46.7594     96.2358
   437.9000      8.5130      2.4776     -0.1415     10.4506     46.8335     97.4219
   438.0000      8.5093      2.4563     -0.2087     11.7386     46.8912     99.3327
   438.1000      8.5093      2.4382     -0.1463     12.8386     47.0200     99.9717
   438.2000      8.5093      2.4204     -0.1457     13.9124     47.0528     98.2331
   438.3000      8.5114      2.3864     -0.2109     15.9768     46.7592     96.2313
   438.4000      8.5114      2.3421     -0.1767     18.6621     46.2791     96.7060
   438.5000      8.5128      2.3183     -0.2676     20.1043     45.9367     99.7797
   438.6000      8.5128      2.3370     -0.2008     18.9702     45.8363    103.7802
   438.7000      8.5128      2.3782     -0.1881     16.4737     45.8105    107.6336
   438.8000      8.5146      2.4053     -0.1549     14.8315     45.7054    110.7594
   438.9000      8.5146      2.4075     -0.1548     14.6988     45.4649    111.7624
   439.0000      8.5146      2.4115     -0.2522     14.4537     45.0936    111.0770
   439.1000      8.5146      2.4423     -0.1708     12.5859     44.7216    110.1344
   439.2000      8.5146      2.4851     -0.1333      9.9968     44.4446    109.7458
   439.3000      8.5132      2.5134     -0.1246      8.2807     44.0841    109.8336
   439.4000      8.5132      2.5236     -0.1784      7.6613     43.5282    108.0042
   439.5000      8.5149      2.5238     -0.1832      7.6493     43.0229    103.3545
