~Version Information
VERS.                      2.0: CWLS Log ASCII Standard - VERSION 2.0
WRAP.                       NO: One line per depth step
~Well Information Block
STRT.FT               483.0000: 
STOP.FT              1701.5000: 
STEP.FT                 0.1000: 
NULL.                -999.2500: 
COMP.          Pioneer Natural Resources: COMPANY
WELL.            Mad Dog 42-31: WELL
FLD.           Purgatorie River: FIELD
LOC.           2064' FNL & 479' FEL: LOCATION
PROV.                 Colorado: PROVINCE
CNTY.               Las Animas: COUNTRY
SRVC.                         : SERVICE COMPANY
DATE.          Sun Oct 10 04:38:02 2004: LOG DATE
UWI.           05 071 08195 00: UNIQUE WELL ID
~Curve Information Block
DEPT.FT            0 000 00 00: Depth
LTEN.lb                       : Surface Line Tension
DCAL.in                       : CDL Caliper
RHOB.g/cc                     : CDL Bulk Density
RHOC.g/cc                     : CDL Density Correction
DPOR.pu                       : CDL Density Porosity
GR.GAPI                       : Gamma Ray
NPOR.pu                       : Neutron Porosity
~Parameter Information Block
~A  Depth       LTEN        DCAL        RHOB        RHOC        DPOR         GR         NPOR    
# ...
  1373.4000   1001.5886      7.8842      2.4478      0.0220     12.2556     90.7154     29.1047
  1373.5000   1088.0381      7.9151      2.4638      0.0161     11.2862     95.7770     28.6024
  1373.6000   1088.0381      7.9151      2.4850      0.0503     10.0000    101.8269     28.0593
  1373.7000   1088.0381      7.9151      2.5035      0.0332      8.8803     99.7541     27.6863
  1373.8000   1004.1801      8.0142      2.5200      0.0345      7.8810     92.2399     27.5236
  1373.9000   1004.1801      8.0142      2.5294      0.0351      7.3118     87.7723     27.4511
  1374.0000   1073.4321      7.9473      2.5331     -0.0001      7.0873     87.8083     27.7668
  1374.1000   1073.4321      7.9473      2.5407      0.0245      6.6237     90.4737     28.5029
  1374.2000   1073.4321      7.9473      2.5493      0.1137      6.1001     94.6122     28.8848
  1374.3000   1039.8754      7.8638      2.5550      0.0668      5.7559     97.8732     28.7468
  1374.4000   1039.8754      7.8638      2.5672      0.0845      5.0159     98.4255     28.6915
  1374.5000   1031.1641      7.8509      2.5783      0.0996      4.3472     98.6025     28.8694
  1374.6000   1031.1641      7.8509      2.5693      0.0694      4.8927    100.4475     28.9880
  1374.7000   1031.1641      7.8509      2.5498      0.0539      6.0757    100.8345     29.0555
  1374.8000   1037.1924      7.8511      2.5382      0.1084      6.7734     98.5774     29.0647
  1374.9000   1037.1924      7.8511      2.5276      0.0669      7.4173     97.1489     28.8854
  1375.0000   1011.4205      7.8594      2.5001      0.1029      9.0860     97.6412     28.8245
  1375.1000   1011.4205      7.8594      2.4602      0.0316     11.5024     99.5515     29.2098
  1375.2000   1011.4205      7.8594      2.4386      0.0324     12.8129    104.6663     29.3667
  1375.3000   1010.3791      7.8669      2.4396      0.0654     12.7517    111.9895     28.8830
  1375.4000   1010.3791      7.8669      2.4313      0.0811     13.2558    113.7093     28.5961
  1375.5000   1012.1454      7.8807      2.3993      0.0631     15.1909    106.7641     28.6605
  1375.6000   1012.1454      7.8807      2.3650      0.0382     17.2739     98.2564     28.3429
  1375.7000   1012.1454      7.8807      2.3486      0.0402     18.2685     94.1075     27.5655
  1375.8000   1001.4662      7.8832      2.3436      0.0504     18.5721     93.4402     26.8345
  1375.9000   1001.4662      7.8832      2.3425      0.0293     18.6334     91.6089     26.6317
  1376.0000    998.6685      7.8527      2.3557      0.0753     17.8362     86.7143     27.1703
  1376.1000    998.6685      7.8527      2.3817      0.1199     16.2607     83.9245     27.9534
  1376.2000    998.6685      7.8527      2.4059      0.1056     14.7950     87.1749     28.2150
  1376.3000   1022.5320      7.8337      2.4254      0.1144     13.6107     89.3692     27.8104
  1376.4000   1022.5320      7.8337      2.4455      0.1109     12.3930     84.4299     27.1877
  1376.5000    981.4244      7.8243      2.4620      0.1113     11.3929     76.6981     26.8995
  1376.6000    981.4244      7.8243      2.4543      0.1733     11.8599     74.2881     27.2253
  1376.7000    981.4244      7.8243      2.4178      0.0436     14.0757     78.2749     28.0536
  1376.8000   1035.9758      7.8286      2.3882     -0.0130     15.8646     78.8010     29.0174
  1376.9000   1035.9758      7.8286      2.3919      0.0296     15.6395     71.5319     29.5626
  1377.0000    989.1374      7.8339      2.4151      0.0479     14.2350     64.3233     29.5789
  1377.1000    989.1374      7.8339      2.4389      0.0911     12.7919     62.0334     29.6195
  1377.2000    989.1374      7.8339      2.4612      0.0890     11.4443     64.3548     29.6921
  1377.3000   1026.0552      7.8382      2.4780      0.1257     10.4212     73.0781     29.3414
  1377.4000   1026.0552      7.8382      2.4753      0.1234     10.5907     84.7529     28.5518
  1377.5000   1034.3776      7.8451      2.4566      0.0317     11.7235     88.2151     27.8303
  1377.6000   1034.3776      7.8451      2.4487     -0.0113     12.1987     84.5696     27.6523
  1377.7000   1034.3776      7.8451      2.4643      0.0048     11.2541     82.9360     27.6819
  1377.8000   1020.1565      7.8493      2.4896      0.0614      9.7225     81.4021     27.4912
  1377.9000   1020.1565      7.8493      2.5071      0.0222      8.6621     75.3597     27.1782
  1378.0000   1051.9899      7.8613      2.5107      0.0577      8.4435     69.4981     26.9487
  1378.1000   1051.9899      7.8613      2.5081      0.0335      8.5973     69.8793     27.0457
  1378.2000   1051.9899      7.8613      2.5117      0.0468      8.3840     75.1023     27.3034
  1378.3000    984.0269      7.8749      2.5184      0.0455      7.9781     81.2564     27.2338
  1378.4000    984.0269      7.8749      2.5202      0.0391      7.8652     87.2611     26.9322
  1378.5000   1048.0316      7.8752      2.5213      0.0041      7.7997     90.4300     26.9069
  1378.6000   1048.0316      7.8752      2.5238      0.0439      7.6505     87.4001     27.3436
  1378.7000   1048.0316      7.8752      2.5205      0.0139      7.8456     82.2209     27.7876
  1378.8000    967.9241      7.8788      2.5169      0.0218      8.0670     81.7639     27.8306
  1378.9000    967.9241      7.8788      2.5251      0.0294      7.5720     84.2162     27.6287
  1379.0000   1066.6405      7.8755      2.5457      0.0245      6.3185     84.1988     27.1790
  1379.1000   1066.6405      7.8755      2.5651      0.0213      5.1460     82.2401     26.3700
  1379.2000   1066.6405      7.8755      2.5643      0.0360      5.1932     81.2982     25.6024
  1379.3000   1001.3058      7.8678      2.5438      0.0104      6.4350     81.0336     25.5127
  1379.4000   1001.3058      7.8678      2.5303     -0.0258      7.2559     81.8758     26.1709
  1379.5000   1053.0590      7.8407      2.5406     -0.0077      6.6298     83.1810     26.7704
  1379.6000   1053.0590      7.8407      2.5515      0.0727      5.9702     80.2913     26.5456
  1379.7000   1053.0590      7.8407      2.5353      0.0406      6.9531     74.5391     25.9390
  1379.8000   1003.3104      7.8289      2.5144     -0.0005      8.2191     71.1894     26.0248
  1379.9000   1003.3104      7.8289      2.5232      0.0057      7.6859     70.7544     26.7454
  1380.0000   1020.2261      7.8300      2.5461      0.0665      6.2979     72.0685     26.8228
  1380.1000   1020.2261      7.8300      2.5481      0.0383      6.1733     72.9823     25.8046
  1380.2000   1020.2261      7.8300      2.5344     -0.0222      7.0074     71.1197     24.8749
  1380.3000   1023.0202      7.8306      2.5309      0.0050      7.2173     68.7859     24.5294
  1380.4000   1023.0202      7.8306      2.5386      0.0195      6.7512     66.9824     23.9328
  1380.5000   1011.4973      7.8389      2.5499     -0.0064      6.0640     66.1455     22.9513
  1380.6000   1011.4973      7.8389      2.5636      0.0926      5.2351     69.1403     22.1313
  1380.7000   1011.4973      7.8389      2.5730      0.0804      4.6673     76.3513     21.7797
  1380.8000   1043.5248      7.8356      2.5796      0.0328      4.2697     81.7643     22.2072
  1380.9000   1043.5248      7.8356      2.5859      0.0822      3.8873     79.3539     23.2891
  1381.0000   1012.5414      7.8416      2.5787      0.0643      4.3189     73.1404     23.9394
  1381.1000   1012.5414      7.8416      2.5556     -0.0009      5.7192     67.3759     23.4650
  1381.2000   1012.5414      7.8416      2.5413      0.0078      6.5897     62.3388     22.6507
  1381.3000   1048.1029      7.8503      2.5554      0.0297      5.7308     58.1136     22.2584
  1381.4000   1048.1029      7.8503      2.5821      0.0689      4.1175     55.9088     21.9204
  1381.5000   1030.9860      7.8519      2.5927      0.0624      3.4754     58.0270     21.2865
  1381.6000   1030.9860      7.8519      2.5871      0.0569      3.8125     63.7498     20.6725
  1381.7000   1030.9860      7.8519      2.5807      0.0711      4.2005     69.1597     20.5660
