~Version Information
 VERS.                                  2.0 : CWLS LAS VERSION
 WRAP.                                   NO : WRAPING MODE
 SWARE .                 MController 2.5.0J : SOFTWARE VERSION
~Well Information
 WELL.                    Oink-Oink 14-36Tr : WELL
 COMP.    Pioneer Natural Resources USA Inc : COMPANY
 FLD.                      Purgatoire River : FIELD
 LOC.                SW/SW Sec 36 T32S R67W : LOCATION
 DATE.                         6/09-10/2005 : DATE(S) LOGGED
 SRVC.       Blanco Geological Services LLC : SERVICE COMPANY
 STAT.                                   CO : STATE
 CNTY.                           Las Animas : COUNTY
 CTRY.                                  USA : COUNTRY
 API.                       05-071-08393-00 : API NUMBER
 STRT.FT                             231.00 : START DEPTH
 STOP.FT                            1924.00 : STOP DEPTH
 STEP.FT                               1.00 : DEPTH INCREMENT
 NULL.                                -9999 : NULL VALUE
~Curve information
 DEPTH.FT                                   :
 ROP.MIN/FT                                 :
 GAS.UNITS                                  :
~ASCII Log data
# ...
       631.0         0.27        655.8 
       632.0         0.20        567.8 
       633.0         0.23        512.1 
       634.0         0.20        440.0 
       635.0         0.30        467.3 
       636.0         0.23        454.2 
       637.0         0.25        440.0 
       638.0         0.23        222.8 
       639.0         0.27        213.4 
       640.0         0.20        206.5 
       641.0         0.23        202.3 
       642.0         0.20        199.3 
       643.0         0.23        196.8 
       644.0         0.20        196.6 
       645.0         0.23        197.3 
       646.0         0.20        197.5 
       647.0         0.23        197.0 
       648.0         0.20        195.9 
       649.0         0.23        194.1 
       650.0         0.20        192.2 
       651.0         0.20        190.9 
       652.0         0.22        189.3 
       653.0         0.20        188.1 
       654.0         0.23        187.9 
       655.0         0.27        187.7 
       656.0         2.95        321.5 
       657.0         0.13        348.7 
       658.0         0.17        406.7 
       659.0         0.27       1489.3 
       660.0         0.23       1939.8 
       661.0         0.23       1591.7 
       662.0         0.20       1309.1 
       663.0         0.17       1046.7 
       664.0         0.20        823.6 
       665.0         0.13        710.7 
       666.0         0.20        596.2 
       667.0         0.20        510.5 
       668.0         0.33        468.0 
       669.0         0.27        440.0 
       670.0         0.20        440.0 
       671.0         0.18        220.6 
       672.0         0.20        225.5 
       673.0         0.13        227.7 
       674.0         0.30        222.4 
       675.0         0.40        210.4 
       676.0         0.43        200.4 
       677.0         0.37        195.1 
       678.0         0.37        190.9 
       679.0         0.37        193.2 
       680.0         0.37        200.0 
       681.0         0.35        191.8 
       682.0         0.27        190.7 
       683.0         0.23        189.6 
       684.0         0.10        189.7 
       685.0         0.17        186.7 
       686.0         5.90       6843.4 
       687.0         0.27       7208.2 
       688.0         0.27       7699.6 
       689.0         0.23       8005.8 
       690.0         0.20       7542.9 
       691.0         0.17       6410.3 
       692.0         0.17       4673.5 
       693.0         0.20       2710.6 
       694.0         0.20       1633.3 
       695.0         0.23        974.4 
       696.0         0.23        687.5 
       697.0         0.13        592.6 
       698.0         0.10        555.0 
       699.0         0.37        451.0 
       700.0         0.20        440.0 
       701.0         0.20        440.0 
       702.0         0.28        192.1 
       703.0         0.20        200.7 
       704.0         0.20        215.4 
       705.0         0.20        222.8 
       706.0         0.23        220.6 
       707.0         0.17        216.4 
       708.0         0.20        210.1 
       709.0         0.27        202.6 
       710.0         0.23        201.7 
       711.0         0.17        206.1 
       712.0         0.20        209.3 
       713.0         0.27        204.1 
       714.0         0.17        200.8 
       715.0         0.20        196.0 
       716.0         4.33       1659.5 
       717.0         0.50       2965.4 
       718.0         0.37       3487.9 
       719.0         0.37       2491.7 
       720.0         0.37       1285.2 
       721.0         0.33        832.4 
       722.0         0.33        647.3 
       723.0         0.40        473.2 
       724.0         0.35        440.0 
       725.0         0.27        440.0 
       726.0         0.23        199.1 
       727.0         0.23        190.5 
       728.0         0.30        191.8 
       729.0         0.23        189.2 
       730.0         0.20        179.7 
       731.0         0.23        171.0 
       732.0         0.23        170.1 
       733.0         0.17        172.1 
       734.0         0.17        181.5 
       735.0         0.17        193.3 
       736.0         0.13        201.1 
       737.0         0.13        205.0 
       738.0         0.17        206.1 
       739.0         0.17        207.6 
       740.0         0.10        207.9 
       741.0         0.18        205.8 
       742.0         0.27        203.7 
       743.0         0.20        196.3 
       744.0         0.20        188.2 
       745.0         0.23        190.1 
       746.0         4.52       1787.0 
       747.0         0.60       3720.8 
       748.0         0.37       4909.0 
       749.0         0.42       4970.9 
       750.0         0.33       2832.0 
       751.0         0.27       1638.5 
       752.0         0.23       1122.3 
       753.0         0.23        850.7 
       754.0         0.20        679.6 
       755.0         0.23        549.4 
       756.0         0.20        489.2 
       757.0         0.20        450.6 
       758.0         0.20        497.1 
       759.0         0.20        472.9 
       760.0         0.20        451.6 
       761.0         0.13        452.3 
       762.0         0.13        445.7 
       763.0         0.10        440.0 
       764.0         0.17        440.0 
       765.0         0.25        211.4 
       766.0         0.20        190.4 
       767.0         0.30        164.9 
       768.0         0.17        157.9 
       769.0         0.10        156.8 
       770.0         0.13        157.7 
       771.0         0.17        173.7 
       772.0         0.17        193.6 
       773.0         0.23        195.4 
       774.0         0.37        192.1 
       775.0         0.30        202.2 
       776.0         4.70       2437.1 
       777.0         0.17       2880.0 
       778.0         0.40       2887.9 
       779.0         0.43       2078.2 
       780.0         0.33       1282.6 
       781.0         0.33        853.4 
       782.0         0.30        695.7 
       783.0         0.33        555.3 
       784.0         0.27        484.7 
       785.0         0.23        440.0 
       786.0         0.25        440.0 
       787.0         0.20        440.0 
       788.0         0.17        216.0 
       789.0         0.20        213.2 
       790.0         0.20        200.5 
       791.0         0.20        190.0 
       792.0         0.27        187.9 
       793.0         0.33        183.8 
       794.0         0.27        185.1 
       795.0         0.30        170.0 
       796.0         0.40        157.6 
       797.0         0.30        141.1 
       798.0         0.23        130.1 
       799.0         0.23        116.5 
       800.0         0.22        104.9 
       801.0         0.20        102.4 
       802.0         0.23         93.6 
       803.0         0.27         87.9 
       804.0         0.23         85.5 
       805.0         0.17         89.0 
       806.0         3.78         59.5 
       807.0         0.33         74.0 
       808.0         0.23         84.5 
       809.0         0.27        108.0 
       810.0         0.27        142.4 
       811.0         0.23        188.5 
       812.0         0.28        254.1 
       813.0         0.27        302.3 
       814.0         0.27        319.5 
       815.0         0.20        313.4 
       816.0         0.20        296.2 
       817.0         0.23        271.9 
       818.0         0.17        258.4 
       819.0         0.20        238.2 
       820.0         0.20        211.4 
       821.0         0.20        188.3 
       822.0         0.17        174.6 
       823.0         0.20        158.6 
       824.0         0.20        148.9 
       825.0         0.20        141.8 
       826.0         0.20        135.7 
       827.0         0.20        126.8 
       828.0         0.22        118.5 
       829.0         0.17        111.9 
       830.0         0.20        106.3 
