~Version Information
VERS.                      2.0: CWLS Log ASCII Standard - VERSION 2.0
WRAP.                       NO: One line per depth step
~Well Information Block
STRT.FT               -11.2500: 
STOP.FT              1597.0000: 
STEP.FT                 0.2500: 
NULL.                -999.2500: 
COMP.          Petrogulf Corporation: COMPANY
WELL.          Great Plains 22-21R: WELL
FLD.           Purgatorie River: FIELD
LOC.           73' FNL & 1992' FWL--: LOCATION
PROV.                       CO: PROVINCE
CNTY.               Las Animas: COUNTRY
SRVC.          Patterson Wireline: SERVICE COMPANY
DATE.          Fri Sep 09 09:02:35 2005: LOG DATE
UWI.           05 071 08343 00: UNIQUE WELL ID
~Curve Information Block
DEPT.FT            0 000 00 00: Depth
CCL.                          : Casing Collar Locator
TT3.usec                      : CBL 3' Travel Time
AMP3.mV                       : CBL 3' Amplitude
GR.GAPI                       : Gamma Ray
~Parameter Information Block
~A  Depth       CCL         TT3         AMP3         GR     
# ...
   625.2500      0.0000    427.6237      9.4294     46.4724
   625.5000      0.0000    457.3994      9.3303     48.3020
   625.7500      0.0000    505.1072      9.2835     53.8317
   626.0000     -2.0000    557.9603      9.2744     61.6760
   626.2500      0.0000    599.4445      9.3053     69.1838
   626.5000      0.0000    617.8740      9.3981     74.1462
   626.7500      0.0000    610.4349      9.5788     76.2215
   627.0000      0.0000    581.2491      9.8509     76.8395
   627.2500      0.0000    537.8099     10.1852     77.6346
   627.5000      0.0000    488.7834     10.5394     78.8505
   627.7500      0.0000    443.0378     10.8722     79.2441
   628.0000      0.0000    407.9819     11.1391     77.6511
   628.2500      0.0000    386.7991     11.3055     74.5833
   628.5000      0.0000    377.4684     11.3703     72.0183
   628.7500      0.0000    375.4014     11.3631     71.5131
   629.0000      0.0000    377.2052     11.3192     72.6693
   629.2500      0.0000    382.1689     11.2658     73.5226
   629.5000      0.0000    390.9854     11.2236     72.4707
   629.7500      0.0000    403.4631     11.2066     69.7833
   630.0000      0.0000    417.3087     11.2176     66.9913
   630.2500      0.0000    429.1620     11.2503     64.9424
   630.5000      0.0000    436.8367     11.2971     63.0022
   630.7500      0.0000    440.4199     11.3549     60.1981
   631.0000      0.0000    441.4564     11.4224     56.4784
   631.2500      0.0000    441.5090     11.4960     52.6233
   631.5000      0.0000    441.3791     11.5681     49.4841
   631.7500      0.0000    441.0923     11.6291     47.5952
   632.0000      0.0000    440.1805     11.6693     47.1284
   632.2500      0.0000    438.0343     11.6839     47.8667
   632.5000      0.0000    434.4620     11.6778     49.1599
   632.7500      0.0000    430.3815     11.6628     50.0655
   633.0000      0.0000    427.9615     11.6492     49.8973
   633.2500      0.0000    429.6774     11.6413     48.8573
   633.5000      0.0000    437.1173     11.6411     47.9336
   633.7500      0.0000    450.6788     11.6525     47.9652
   634.0000      0.0000    469.5594     11.6812     49.0768
   634.2500      0.0000    490.9413     11.7290     51.1895
   634.5000      0.0000    509.3734     11.7889     54.4137
   634.7500      0.0000    518.2484     11.8463     58.5482
   635.0000      0.0000    513.0616     11.8879     62.8397
   635.2500      0.0000    494.1750     11.9095     66.6648
   635.5000      0.0000    467.0581     11.9150     69.9973
   635.7500      0.0000    439.3685     11.9109     72.9617
   636.0000      0.0000    416.6054     11.9014     75.2972
   636.2500      0.0000    399.8830     11.8866     76.5691
   636.5000      0.0000    387.4614     11.8628     76.8167
   636.7500      0.0000    377.7097     11.8252     76.7843
   637.0000      0.0000    370.3802     11.7734     77.4147
   637.2500      0.0000    365.9010     11.7142     79.2432
   637.5000      0.0000    364.5603     11.6603     82.3347
   637.7500      0.0000    366.6237     11.6242     86.3867
   638.0000      0.0000    372.8129     11.6143     90.4531
   638.2500      0.0000    384.3565     11.6342     92.8816
   638.5000      0.0000    402.4815     11.6790     92.2005
   638.7500      0.0000    427.2169     11.7332     88.2773
   639.0000      0.0000    455.2164     11.7770     82.3875
   639.2500      0.0000    478.2448     11.8000     76.0554
   639.5000      0.0000    486.0492     11.8061     70.0140
   639.7500      0.0000    473.8605     11.8062     64.5675
   640.0000      0.0000    447.5224     11.8081     60.7347
   640.2500      0.0000    419.7316     11.8103     60.3019
   640.5000      0.0000    400.9560     11.8000     64.3233
   640.7500      0.0000    394.0476     11.7584     71.8164
   641.0000      0.0000    395.5352     11.6750     80.2641
   641.2500      0.0000    399.8766     11.5666     87.2568
   641.5000      0.0000    403.0003     11.4755     91.5750
   641.7500      0.0000    403.7168     11.4410     93.1063
   642.0000      0.0000    402.9187     11.4678     92.3425
   642.2500      0.0000    401.8299     11.5279     90.2042
   642.5000      0.0000    401.0131     11.5898     87.9796
   642.7500      0.0000    400.4774     11.6392     86.6550
   643.0000      0.0000    400.1029     11.6759     86.0206
   643.2500      0.0000    399.8427     11.7027     84.9307
   643.5000      0.0000    399.7030     11.7218     82.8227
   643.7500      0.0000    399.6725     11.7346     80.6390
   644.0000      0.0000    399.6928     11.7422     79.7604
   644.2500      0.0000    399.6679     11.7433     80.2235
   644.5000      0.0000    399.4189     11.7350     80.6242
   644.7500      0.0000    398.5463     11.7157     79.8803
   645.0000      0.0000    396.3460     11.6858     78.4678
   645.2500      0.0000    392.0999     11.6452     77.6401
   645.5000      0.0000    385.7777     11.5892     77.9687
   645.7500      0.0000    378.5322     11.5118     79.1017
   646.0000      0.0000    372.2986     11.4137     80.6898
   646.2500      0.0000    368.8062     11.3059     82.9367
   646.5000      0.0000    368.9590     11.2057     86.0698
   646.7500      0.0000    372.7872     11.1262     89.6118
   647.0000      0.0000    379.4222     11.0692     92.5209
   647.2500      0.0000    387.1104     11.0278     94.0460
   647.5000      0.0000    393.8410     10.9971     94.2562
   647.7500      0.0000    398.3835     10.9792     93.7233
   648.0000      0.0000    400.7473     10.9793     92.9559
   648.2500      0.0000    401.7101     10.9977     92.3900
   648.5000      0.0000    402.0823     11.0297     92.6753
   648.7500      0.0000    402.3361     11.0705     94.3475
   649.0000      0.0000    402.6257     11.1186     97.0443
   649.2500      0.0000    402.9444     11.1735     99.5187
   649.5000      0.0000    403.2528     11.2329    100.7825
   649.7500      0.0000    403.5372     11.2914    100.9761
   650.0000      0.0000    403.7863     11.3431    100.7368
   650.2500      0.0000    403.8984     11.3842     99.9079
   650.5000      0.0000    403.5432     11.4158     97.3056
   650.7500      0.0000    402.1108     11.4411     91.9397
   651.0000      0.0000    398.9678     11.4610     84.4404
   651.2500      0.0000    394.0265     11.4734     77.1416
   651.5000      0.0000    388.1224     11.4765     72.4776
   651.7500      0.0000    382.6316     11.4725     71.2163
   652.0000      0.0000    378.5856     11.4655     72.3281
   652.2500      0.0000    376.1747     11.4588     74.4597
   652.5000      0.0000    374.9954     11.4530     77.0684
   652.7500      0.0000    374.5521     11.4450     79.9447
   653.0000      0.0000    374.5130     11.4296     82.1737
   653.2500      0.0000    374.7052     11.4026     82.4479
   653.5000      0.0000    375.0345     11.3656     80.6572
   653.7500      0.0000    375.4243     11.3281     78.4590
   654.0000      0.0000    375.7937     11.3044     77.6842
   654.2500      0.0000    376.0778     11.3060     78.5407
   654.5000      0.0000    376.2557     11.3351     79.8948
   654.7500      0.0000    376.3450     11.3831     80.9700
   655.0000      0.0000    376.3618     11.4334     82.1632
   655.2500      0.0000    376.2916     11.4682     84.2843
   655.5000      0.0000    376.1102     11.4774     87.3621
   655.7500      0.0000    375.8311     11.4631     90.2395
   656.0000      0.0000    375.5158     11.4376     91.3889
   656.2500      0.0000    375.2062     11.4163     90.3199
   656.5000      0.0000    374.8285     11.4106     88.0954
   656.7500      0.0000    374.1406     11.4242     86.2974
   657.0000      0.0000    372.8135     11.4528     85.4805
   657.2500      0.0000    370.7000     11.4862     84.8467
   657.5000      0.0000    368.0312     11.5141     83.5247
   657.7500      0.0000    365.1095     11.5342     81.7722
   658.0000      0.0000    361.7463     11.5569     80.4985
   658.2500      0.0000    357.4167     11.5988     79.8527
   658.5000      0.0000    352.1853     11.6685     78.8144
