~Version Information
VERS.                      2.0: CWLS Log ASCII Standard - VERSION 2.0
WRAP.                       NO: One line per depth step
~Well Information Block
STRT.FT                -6.7500: 
STOP.FT              1766.5000: 
STEP.FT                 0.2500: 
NULL.                -999.2500: 
COMP.          Pioneer Natural Resources: COMPANY
WELL.            Hill 33-22 Tr: WELL
FLD.           Purgatorie River: FIELD
LOC.           1573' FSL & 1585' FEL: LOCATION
PROV.                 Colorado: PROVINCE
CNTY.               Las Animas: COUNTRY
SRVC.          Patterson Wireline: SERVICE COMPANY
DATE.          Tue Apr 19 09:26:19 2005: LOG DATE
UWI.           05-071-08316-00: UNIQUE WELL ID
~Curve Information Block
DEPT.FT            0 000 00 00: Depth
CCL.                          : Casing Collar Locator
TT3.usec                      : CBL 3' Travel Time
AMP3.mV                       : CBL 3' Amplitude
GR.GAPI                       : Gamma Ray
~Parameter Information Block
~A  Depth       CCL         TT3         AMP3         GR     
# ...
   462.2500      0.0000   1097.3116      6.8884     81.0765
   462.5000      0.0000   1074.0912      7.2326     85.4881
   462.7500      0.0000   1051.5070      7.4794     90.0135
   463.0000      0.0000   1037.6534      7.6140     92.1990
   463.2500      0.0000   1032.1329      7.6833     91.0588
   463.5000      0.0000   1029.6405      7.7326     87.6145
   463.7500      0.0000   1026.4471      7.7734     83.9092
   464.0000      0.0000   1021.8016      7.7971     81.3752
   464.2500      0.0000   1015.5855      7.7922     80.1122
   464.5000      0.0000   1008.1653      7.7506     79.5490
   464.7500      0.0000   1002.2685      7.6732     79.4130
   465.0000      0.0000   1001.0566      7.5717     79.9036
   465.2500      0.0000   1003.0347      7.4648     81.0939
   465.5000      0.0000   1001.6528      7.3715     82.3454
   465.7500      0.0000    991.8012      7.3068     82.4217
   466.0000      0.0000    975.4982      7.2772     80.4456
   466.2500      0.0000    960.3239      7.2762     76.9339
   466.5000      0.0000    953.0636      7.2897     73.6340
   466.7500      0.0000    954.8311      7.3073     72.1438
   467.0000      0.0000    960.6960      7.3301     72.7945
   467.2500      0.0000    963.5267      7.3641     74.7839
   467.5000      0.0000    959.4531      7.4118     77.0505
   467.7500      0.0000    950.2782      7.4696     78.9478
   468.0000      0.0000    940.5374      7.5359     80.3020
   468.2500      0.0000    932.9243      7.6160     81.1091
   468.5000      0.0000    926.8519      7.7165     81.4367
   468.7500      0.0000    920.3158      7.8335     81.5535
   469.0000      0.0000    912.2402      7.9460     81.7762
   469.2500      0.0000    903.3805      8.0218     82.0328
   469.5000      0.0000    895.5323      8.0351     81.8309
   469.7500      0.0000    890.1962      7.9839     80.8389
   470.0000      0.0000    888.0698      7.8950     79.3074
   470.2500      0.0000    889.6445      7.8117     77.8349
   470.5000      0.0000    895.4972      7.7715     77.0161
   470.7500      0.0000    905.0829      7.7887     77.3160
   471.0000      0.0000    915.6094      7.8490     78.8520
   471.2500      0.0000    924.1721      7.9218     81.2424
   471.5000      0.0000    932.7695      7.9797     84.0314
   471.7500      0.0000    948.9130      8.0120     87.2302
   472.0000      0.0000    976.6882      8.0221     90.8921
   472.2500      0.0000   1006.6600      8.0181     94.1476
   472.5000      0.0000   1019.9023      8.0101     95.5086
   472.7500      0.0000   1005.7454      8.0099     94.6051
   473.0000      0.0000    972.4797      8.0259     93.0342
   473.2500      0.0000    937.9348      8.0522     92.8999
   473.5000      0.0000    913.4641      8.0709     94.8114
   473.7500      0.0000    899.7891      8.0687     97.8206
   474.0000      0.0000    893.5977      8.0527    100.9016
   474.2500      0.0000    893.4760      8.0507    103.5554
   474.5000      0.0000    900.3046      8.0929    105.0565
   474.7500      0.0000    914.4138      8.1920    104.3299
   475.0000      0.0000    932.7584      8.3379    101.1883
   475.2500      0.0000    948.7774      8.5144     96.8922
   475.5000      0.0000    955.7626      8.7127     92.7847
   475.7500      0.0000    950.8060      8.9220     88.8077
   476.0000      0.0000    936.2417      9.1126     84.1154
   476.2500      0.0000    917.9952      9.2437     79.1317
   476.5000      0.0000    902.0888      9.2935     76.0738
   476.7500      0.0000    891.5967      9.2807     76.7936
   477.0000      0.0000    886.1777      9.2549     80.6116
   477.2500      0.0000    883.7975      9.2620     84.8593
   477.5000      0.0000    882.4418      9.3103     87.1764
   477.7500      0.0000    880.8163      9.3655     87.0013
   478.0000      0.0000    878.5620      9.3772     85.3784
   478.2500      0.0000    876.3891      9.3121     83.8078
   478.5000      0.0000    875.5452      9.1620     83.1086
   478.7500      0.0000    876.6589      8.9322     82.9855
   479.0000      0.0000    879.0983      8.6356     82.4677
   479.2500      0.0000    881.6553      8.2973     80.8704
   479.5000      0.0000    883.7999      7.9535     78.5593
   479.7500      0.0000    886.4760      7.6380     76.7446
   480.0000      0.0000    892.3033      7.3700     76.3820
   480.2500      0.0000    905.2751      7.1523     77.2878
   480.5000      0.0000    928.7906      6.9778     78.2995
   480.7500      0.0000    962.2626      6.8346     78.1870
   481.0000      0.0000    999.0005      6.7099     76.5286
   481.2500      0.0000   1027.4194      6.5934     73.8500
   481.5000      0.0000   1034.5989      6.4819     70.8139
   481.7500      0.0000   1012.1269      6.3786     67.3973
   482.0000      0.0000    963.4025      6.2905     63.2265
   482.2500      0.0000    904.6057      6.2256     58.5016
   482.5000      0.0000    854.2515      6.1940     54.0736
   482.7500      0.0000    821.4390      6.2083     50.7069
   483.0000      0.0000    804.6563      6.2795     48.5809
   483.2500      0.0000    798.2722      6.4085     47.3736
   483.5000      0.0000    797.4021      6.5792     46.5749
   483.7500      0.0000    798.6964      6.7630     45.7642
   484.0000      0.0000    800.1325      6.9305     44.7464
   484.2500      0.0000    801.5688      7.0629     43.4467
   484.5000      0.0000    804.8913      7.1574     41.7778
   484.7500      0.0000    812.8860      7.2300     39.7897
   485.0000      0.0000    827.3167      7.3084     37.8950
   485.2500      0.0000    847.3477      7.4150     36.6852
   485.5000      0.0000    868.9822      7.5532     36.4932
   485.7500      0.0000    886.5593      7.7105     37.2276
   486.0000      0.0000    896.2003      7.8711     38.4819
   486.2500      0.0000    898.3423      8.0204     39.6531
   486.5000      0.0000    896.5199      8.1435     40.1318
   486.7500      0.0000    893.5096      8.2281     39.6684
   487.0000      0.0000    888.7573      8.2722     38.6184
   487.2500      0.0000    879.5886      8.2872     37.7475
   487.5000      0.0000    864.8789      8.2930     37.6130
   487.7500      0.0000    847.2679      8.3088     37.9986
   488.0000      0.0000    831.4891      8.3431     38.0952
   488.2500      0.0000    820.8783      8.3886     37.4085
   488.5000      0.0000    815.9206      8.4284     36.4185
   488.7500      0.0000    815.6777      8.4504     36.2128
   489.0000      0.0000    819.7142      8.4598     37.5484
   489.2500      0.0000    828.3064      8.4764     40.3000
   489.5000      0.0000    840.9890      8.5169     43.5324
   489.7500      0.0000    855.3966      8.5794     45.9043
   490.0000      0.0000    868.1098      8.6451     46.4242
   490.2500      0.0000    876.8043      8.6896     45.3038
   490.5000      0.0000    881.3859      8.6932     43.8797
   490.7500      0.0000    883.2411      8.6488     43.4713
   491.0000      0.0000    883.8714      8.5667     44.4990
   491.2500      0.0000    884.1829      8.4698     46.6820
   491.5000      0.0000    884.4987      8.3760     49.5447
   491.7500      0.0000    884.8154      8.2869     52.4591
   492.0000      0.0000    885.0204      8.1938     54.5577
   492.2500      0.0000    885.0186      8.0940     55.0976
   492.5000      0.0000    884.6823      7.9997     54.0231
   492.7500      0.0000    883.5927      7.9327     51.9833
   493.0000      0.0000    880.6638      7.9100     49.7236
   493.2500      0.0000    874.1593      7.9324     47.5573
   493.5000      0.0000    862.7879      7.9855     45.4733
   493.7500      0.0000    847.5164      8.0540     43.5956
   494.0000      0.0000    832.0842      8.1360     42.3694
   494.2500      0.0000    820.9099      8.2410     42.2176
   494.5000      0.0000    816.3854      8.3761     42.9674
   494.7500      0.0000    818.4062      8.5353     43.6788
   495.0000      0.0000    825.5472      8.7062     43.2926
   495.2500      0.0000    835.6044      8.8834     41.5972
   495.5000      0.0000    845.7276      9.0687     39.4029
