~Version Information
VERS.                      2.0: CWLS Log ASCII Standard - VERSION 2.0
WRAP.                       NO: One line per depth step
~Well Information Block
STRT.FT               754.6000: 
STOP.FT              2329.0000: 
STEP.FT                 0.1000: 
NULL.                -999.2500: 
COMP.          Petrogulf Corporation: COMPANY
WELL.           Anderson 18-42: WELL
FLD.           Purgatoire River: FIELD
LOC.           1668' FNL & 1110' FEL: LOCATION
CNTY.               Las Animas: COUNTY
SRVC.                         : SERVICE COMPANY
DATE.          Tue Dec 16 12:18:55 2003: LOG DATE
UWI.                          : UNIQUE WELL ID
STAT.                 Colorado: STATE
~Curve Information Block
DEPT.FT            0 000 00 00: Depth
DCAL.in                       : CDL Caliper
RHOB.g/cc                     : CDL Bulk Density
RHOC.g/cc                     : CDL Density Correction
DPOR.pu                       : CDL Density Porosity
NPOR.pu                       : Neutron Porosity
GR.GAPI                       : Gamma Ray
~Parameter Information Block
~A  Depth       DCAL        RHOB        RHOC        DPOR        NPOR         GR     
# ...
  1810.6000      8.2267      2.5209      0.0731      7.8262     18.6638    157.5868
  1810.7000      8.2267      2.5248      0.0565      7.5860     19.3087    154.5648
  1810.8000      8.2292      2.5195      0.0593      7.9094     19.7820    144.6728
  1810.9000      8.2292      2.5047      0.0566      8.8041     19.9909    138.1973
  1811.0000      8.2271      2.4848      0.0338     10.0134     19.8132    137.0314
  1811.1000      8.2271      2.4695      0.0349     10.9364     19.1536    133.8055
  1811.2000      8.2271      2.4600      0.0634     11.5143     18.3229    126.6331
  1811.3000      8.2273      2.4522      0.0567     11.9876     17.7464    122.2328
  1811.4000      8.2273      2.4496      0.0151     12.1426     17.4381    121.8375
  1811.5000      8.2305      2.4590     -0.0186     11.5755     17.4764    126.8010
  1811.6000      8.2305      2.4763      0.0002     10.5302     18.1387    140.8819
  1811.7000      8.2305      2.4845      0.0319     10.0325     18.8874    154.9263
  1811.8000      8.2276      2.4764      0.0284     10.5190     18.9306    156.6688
  1811.9000      8.2276      2.4673      0.0116     11.0706     18.5112    147.3292
  1812.0000      8.2300      2.4693      0.0417     10.9525     18.1324    134.8889
  1812.1000      8.2300      2.4730      0.0510     10.7255     18.0748    123.5975
  1812.2000      8.2300      2.4699      0.0309     10.9137     18.5202    116.7877
  1812.3000      8.2346      2.4629      0.0353     11.3401     19.1445    117.3147
  1812.4000      8.2346      2.4571      0.0129     11.6921     19.4287    118.3122
  1812.5000      8.2291      2.4590     -0.0003     11.5730     19.4402    114.1827
  1812.6000      8.2291      2.4720      0.0565     10.7892     19.5907    112.4848
  1812.7000      8.2291      2.4988     -0.0060      9.1626     19.8223    118.2458
  1812.8000      8.2253      2.5426      0.0367      6.5068     20.0234    123.0531
  1812.9000      8.2253      2.5920      0.0383      3.5137     20.6618    122.1408
  1813.0000      8.2245      2.6371      0.0919      0.7801     21.7295    120.7574
  1813.1000      8.2245      2.6811      0.0814     -1.8844     22.5546    117.6329
  1813.2000      8.2245      2.7237      0.1058     -4.4660     23.1956    108.1129
  1813.3000      8.2272      2.7572      0.0930     -6.4956     24.0145     96.5003
  1813.4000      8.2272      2.7733      0.0901     -7.4728     24.9518     88.6356
  1813.5000      8.2269      2.7656      0.0709     -7.0063     25.9961     84.6467
  1813.6000      8.2269      2.7458     -0.0032     -5.8068     27.0165     83.5546
  1813.7000      8.2269      2.7332      0.0076     -5.0439     27.7852     85.8623
  1813.8000      8.2262      2.7204     -0.0155     -4.2690     28.3373     89.8891
  1813.9000      8.2262      2.6905     -0.0127     -2.4546     28.7623     95.5159
  1814.0000      8.2225      2.6455     -0.0462      0.2699     28.8793    106.0658
  1814.1000      8.2225      2.6039     -0.0590      2.7925     28.6056    121.7918
  1814.2000      8.2225      2.5749     -0.0471      4.5502     28.1223    135.4313
  1814.3000      8.2272      2.5480     -0.0425      6.1838     27.5065    140.9683
  1814.4000      8.2272      2.5137     -0.0221      8.2600     26.7760    140.9198
  1814.5000      8.2292      2.4794      0.0057     10.3367     25.7983    139.0358
  1814.6000      8.2292      2.4560     -0.0229     11.7584     24.3624    140.7265
  1814.7000      8.2292      2.4328      0.0415     13.1618     22.8080    149.1778
  1814.8000      8.2279      2.3943      0.0083     15.4992     21.5095    159.6169
  1814.9000      8.2279      2.3550      0.0102     17.8758     20.4358    165.2974
  1815.0000      8.2281      2.3321      0.0291     19.2671     19.6455    162.7165
  1815.1000      8.2281      2.3152      0.0213     20.2919     19.1135    156.6089
  1815.2000      8.2281      2.2954      0.0105     21.4925     18.4898    155.7745
  1815.3000      8.2306      2.2794      0.0064     22.4634     17.8283    158.4034
  1815.4000      8.2306      2.2663      0.0111     23.2546     17.5377    154.5377
  1815.5000      8.2276      2.2407      0.0026     24.8060     17.5543    142.9016
  1815.6000      8.2276      2.1940      0.0004     27.6340     17.5819    130.5438
  1815.7000      8.2276      2.1338      0.0071     31.2854     17.5390    124.2908
  1815.8000      8.2288      2.0636      0.0208     35.5373     17.5293    125.0454
  1815.9000      8.2288      1.9670      0.0173     41.3916     17.4507    123.8948
  1816.0000      8.2263      1.8310     -0.0371     49.6355     16.8480    113.3363
  1816.1000      8.2263      1.6824     -0.0486     58.6412     15.0803     98.3682
  1816.2000      8.2263      1.5625      0.0243     65.9080     12.0405     86.5531
  1816.3000      8.2529      1.4717     -0.0039     71.4105      8.5276     77.1838
  1816.4000      8.2529      1.3761      0.0087     77.2052      4.6955     70.3643
  1816.5000      8.4129      1.2573     -0.0450     84.4064     -0.3185     66.9292
  1816.6000      8.4129      1.1357     -0.0369     91.7768     -6.2252     64.7862
  1816.7000      8.4129      1.0345     -0.0206     97.9072    -11.6426     65.2495
  1816.8000      8.4814      0.9512     -0.0441    102.9591    -15.6735     67.3462
  1816.9000      8.4814      0.8864     -0.0406    106.8841    -17.6172     67.7054
  1817.0000      8.7610      0.8694     -0.0310    107.9133    -17.2900     67.6552
  1817.1000      8.7610      0.9248      0.0971    104.5579    -15.5101     68.2302
  1817.2000      8.7610      1.0406      0.2101     97.5396    -12.7366     67.8800
  1817.3000      9.2998      1.1935      0.2902     88.2704     -9.0141     65.5613
  1817.4000      9.2998      1.3644      0.3940     77.9160     -4.7794     61.6036
  1817.5000      9.7885      1.5328      0.4458     67.7115     -0.5928     60.8083
  1817.6000      9.7885      1.6955      0.3971     57.8474      2.9676     67.9626
  1817.7000      9.7885      1.8612      0.3895     47.8090      5.5023     80.5238
  1817.8000      8.3986      2.0178      0.3854     38.3168      7.3477     89.9478
  1817.9000      8.3986      2.1443      0.2804     30.6479      8.9046     90.3548
  1818.0000      8.1146      2.2357      0.2632     25.1088      9.8762     86.1197
  1818.1000      8.1146      2.2987      0.2149     21.2939     10.2977     86.8849
  1818.2000      8.1146      2.3454      0.1403     18.4621     10.7705     94.4496
  1818.3000      8.1082      2.3869      0.0823     15.9478     11.2669    102.1400
  1818.4000      8.1082      2.4279      0.0943     13.4619     11.4748    107.3490
  1818.5000      8.1133      2.4666      0.1312     11.1122     11.7220    109.7727
  1818.6000      8.1133      2.4967      0.1059      9.2920     12.2555    105.9056
  1818.7000      8.1133      2.5134      0.0875      8.2812     12.6942     97.7171
  1818.8000      8.1091      2.5188      0.0565      7.9536     12.8615     91.0487
  1818.9000      8.1091      2.5252      0.0456      7.5658     12.9192     88.4235
  1819.0000      8.1043      2.5364      0.0524      6.8853     13.0879     89.9045
  1819.1000      8.1043      2.5402      0.0681      6.6572     13.5086     89.9296
  1819.2000      8.1043      2.5296      0.0423      7.2993     13.9550     85.8434
  1819.3000      8.1045      2.5103     -0.0043      8.4670     14.2255     84.2115
  1819.4000      8.1045      2.4893      0.0241      9.7369     14.3169     87.1084
  1819.5000      8.1029      2.4717     -0.0183     10.8085     14.4787     88.3930
  1819.6000      8.1029      2.4640      0.0101     11.2729     14.9815     85.6286
  1819.7000      8.1029      2.4645      0.0027     11.2439     15.5277     82.3251
  1819.8000      8.1238      2.4667     -0.0047     11.1083     15.6531     80.1759
  1819.9000      8.1238      2.4724      0.0277     10.7659     15.6105     78.4756
  1820.0000      8.1035      2.4829      0.0273     10.1268     15.7597     76.6320
  1820.1000      8.1035      2.4922      0.0858      9.5623     15.7987     73.3230
