~Version Information
VERS.                      2.0: CWLS Log ASCII Standard - VERSION 2.0
WRAP.                       NO: One line per depth step
~Well Information Block
STRT.FT               545.0000: 
STOP.FT              1920.5000: 
STEP.FT                 0.1000: 
NULL.                -999.2500: 
COMP.          Pioneer Natural Resources: COMPANY
WELL.            Summers 21-19: WELL
FLD.           Purgatoire River: FIELD
LOC.           900' FNL & 1950' FWL: LOCATION
PROV.                 Colorado: PROVINCE
CNTY.               Las Animas: COUNTRY
SRVC.                Patterson: SERVICE COMPANY
DATE.          Mon Oct 17 07:05:22 2005: LOG DATE
UWI.           05 071 08315 00: UNIQUE WELL ID
~Curve Information Block
DEPT.FT            0 000 00 00: Depth
DCAL.in                       : CDL Caliper
RHOB.g/cc                     : CDL Bulk Density
RHOC.g/cc                     : CDL Density Correction
DPOR.pu                       : CDL Density Porosity
GR.GAPI                       : Gamma Ray
NPOR.pu                       : Neutron Porosity
~Parameter Information Block
~A  Depth       DCAL        RHOB        RHOC        DPOR         GR         NPOR    
# ...
  1092.2000      8.0370      2.5199      0.0669      7.8846     90.5864     19.2144
  1092.3000      8.0513      2.5048      0.0501      8.7976     89.3925     19.3123
  1092.4000      8.0513      2.4862     -0.0005      9.9295     90.5668     19.6429
  1092.5000      8.0425      2.4848      0.0266     10.0109     94.2856     19.8810
  1092.6000      8.0425      2.4918      0.0066      9.5864     96.1107     19.5076
  1092.7000      8.0425      2.4869      0.0200      9.8865     92.8518     18.9993
  1092.8000      8.0489      2.4660      0.0233     11.1508     86.1928     18.6738
  1092.9000      8.0489      2.4485     -0.0463     12.2119     82.7522     18.2082
  1093.0000      8.0588      2.4529      0.0026     11.9469     86.3279     17.5847
  1093.1000      8.0588      2.4706      0.0025     10.8750     89.3347     17.1370
  1093.2000      8.0588      2.4845      0.0018     10.0299     85.7222     17.0575
  1093.3000      8.0642      2.4872      0.0336      9.8688     81.9319     16.9929
  1093.4000      8.0642      2.4816      0.0108     10.2090     83.8247     16.4993
  1093.5000      8.0594      2.4771      0.0249     10.4767     87.6818     16.1393
  1093.6000      8.0594      2.4766     -0.0217     10.5067     89.7537     16.6904
  1093.7000      8.0594      2.4716     -0.0003     10.8144     91.6191     17.5551
  1093.8000      8.0361      2.4527     -0.0106     11.9554     93.5065     18.1743
  1093.9000      8.0361      2.4313     -0.0415     13.2575     94.0420     18.9059
  1094.0000      8.0331      2.4305     -0.0603     13.3054     92.5687     19.1407
  1094.1000      8.0331      2.4540      0.0020     11.8810     88.9809     18.5191
  1094.2000      8.0331      2.4808      0.0275     10.2559     85.7431     18.0985
  1094.3000      8.0304      2.4961     -0.0193      9.3275     87.7995     18.0503
  1094.4000      8.0304      2.5004      0.0189      9.0653     94.4690     18.2383
  1094.5000      8.0329      2.4915     -0.0172      9.6035     97.8851     18.8094
  1094.6000      8.0329      2.4789     -0.0109     10.3711     94.9410     19.1072
  1094.7000      8.0329      2.4754      0.0136     10.5841     91.5886     19.0243
  1094.8000      8.0258      2.4715      0.0245     10.8170     93.5475     19.1094
  1094.9000      8.0258      2.4594     -0.0004     11.5507     98.8076     19.3363
  1095.0000      8.0059      2.4582     -0.0178     11.6271     99.4273     19.8816
  1095.1000      8.0059      2.4810      0.0187     10.2432     92.9818     20.8078
  1095.2000      8.0059      2.5119      0.0514      8.3716     87.4979     21.1376
  1095.3000      8.0017      2.5330      0.0507      7.0932     90.6246     20.6078
  1095.4000      8.0017      2.5429      0.0403      6.4903     98.9942     20.3075
  1095.5000      8.0086      2.5463      0.0305      6.2823    103.8260     20.5854
  1095.6000      8.0086      2.5460      0.0845      6.3016    102.7743     20.7913
  1095.7000      8.0086      2.5434      0.0437      6.4592     99.2516     20.7486
  1095.8000      8.0063      2.5430      0.0117      6.4858     98.5588     20.6216
  1095.9000      8.0063      2.5441      0.0559      6.4196    104.5411     20.3318
  1096.0000      8.0127      2.5315      0.0672      7.1804    108.9334     19.8974
  1096.1000      8.0127      2.5000      0.0125      9.0887    101.6343     19.5742
  1096.2000      8.0127      2.4710      0.0045     10.8484     92.7112     19.4188
  1096.3000      8.0190      2.4657      0.0260     11.1714     92.0350     19.5655
  1096.4000      8.0190      2.4778      0.0873     10.4336     92.3213     19.9685
  1096.5000      8.0325      2.4852      0.0551      9.9865     88.8759     20.1551
  1096.6000      8.0325      2.4800      0.0394     10.3014     84.9053     19.9002
  1096.7000      8.0325      2.4700      0.0095     10.9115     82.8404     18.9029
  1096.8000      8.0358      2.4673      0.0164     11.0737     85.5013     17.4004
  1096.9000      8.0358      2.4803      0.0157     10.2838     94.3140     16.8787
  1097.0000      8.0411      2.5033      0.0397      8.8892    104.7138     18.3010
  1097.1000      8.0411      2.5192      0.0458      7.9296    109.9862     20.5308
  1097.2000      8.0411      2.5171      0.0436      8.0525    108.0947     21.7429
  1097.3000      8.0463      2.5037      0.0248      8.8679    103.9663     21.7390
  1097.4000      8.0463      2.4874      0.0561      9.8574    104.3716     21.2212
  1097.5000      8.0498      2.4727      0.0322     10.7442    107.3920     20.4496
  1097.6000      8.0498      2.4634      0.0381     11.3118    105.2958     19.3293
  1097.7000      8.0498      2.4593      0.0138     11.5597     98.8171     18.2126
  1097.8000      8.0489      2.4644     -0.0351     11.2471     93.3820     17.8844
  1097.9000      8.0489      2.4725      0.0600     10.7557     90.7140     18.2863
  1098.0000      8.0522      2.4631      0.0343     11.3246     89.5233     18.5422
  1098.1000      8.0522      2.4408     -0.0211     12.6802     87.6300     18.3507
  1098.2000      8.0522      2.4315     -0.0015     13.2438     85.3125     18.2327
  1098.3000      8.0511      2.4449      0.0048     12.4318     84.6060     17.9804
  1098.4000      8.0511      2.4627      0.0648     11.3545     83.6360     17.0853
  1098.5000      8.0455      2.4591      0.0471     11.5674     81.4369     16.2899
  1098.6000      8.0455      2.4335      0.0225     13.1194     82.8802     16.1740
  1098.7000      8.0455      2.4151     -0.0242     14.2350     88.7525     16.6082
  1098.8000      8.0402      2.4290     -0.0070     13.3941     93.1142     17.3573
  1098.9000      8.0402      2.4590      0.0552     11.5786     94.7410     18.0253
  1099.0000      8.0290      2.4709      0.0649     10.8541     95.3176     18.6004
  1099.1000      8.0290      2.4613     -0.0093     11.4389     93.7781     19.3150
  1099.2000      8.0290      2.4522     -0.0102     11.9865     90.9851     19.6745
  1099.3000      8.0229      2.4555      0.0168     11.7900     91.0847     19.2583
  1099.4000      8.0229      2.4629      0.0322     11.3373     92.8784     18.4106
  1099.5000      8.0189      2.4624      0.0438     11.3724     91.5034     17.9066
  1099.6000      8.0189      2.4573     -0.0056     11.6763     88.6574     18.2346
  1099.7000      8.0189      2.4590      0.0355     11.5729     90.7983     19.0250
  1099.8000      8.0036      2.4665      0.0212     11.1211     95.8004     19.4005
  1099.9000      8.0036      2.4738      0.0793     10.6802     94.8630     18.9620
  1100.0000      7.9975      2.4721      0.0321     10.7830     90.2950     18.3516
  1100.1000      7.9975      2.4525      0.0690     11.9694     90.1817     18.0285
  1100.2000      7.9975      2.4257     -0.0053     13.5957     94.2742     17.6040
  1100.3000      7.9862      2.4217     -0.0179     13.8345     97.3473     16.8462
  1100.4000      7.9862      2.4476      0.0041     12.2681     95.0205     15.9998
  1100.5000      7.9797      2.4758      0.0362     10.5560     88.5709     15.5092
  1100.6000      7.9797      2.4850      0.0558      9.9978     84.2117     15.8557
  1100.7000      7.9797      2.4805      0.0167     10.2721     84.1548     17.0447
  1100.8000      7.9825      2.4733      0.0085     10.7096     86.5586     18.5325
  1100.9000      7.9825      2.4686      0.0317     10.9909     89.3002     19.4898
  1101.0000      7.9917      2.4739      0.0124     10.6724     90.8436     19.4605
  1101.1000      7.9917      2.4890      0.0043      9.7591     93.9529     18.8871
  1101.2000      7.9917      2.4973      0.0418      9.2540    101.8282     18.4046
  1101.3000      7.9932      2.4946     -0.0137      9.4193    107.1592     18.1275
  1101.4000      7.9932      2.4969      0.0505      9.2767    102.7381     18.1886
  1101.5000      8.0147      2.5098      0.0658      8.4970     96.0782     18.4152
  1101.6000      8.0147      2.5341      0.0321      7.0217     96.1803     18.2662
  1101.7000      8.0147      2.5680      0.0566      4.9715    101.0616     18.0266
