~Version Information
 VERS.                                  2.0 : CWLS LAS VERSION
 WRAP.                                   NO : WRAPING MODE
 SWARE .                 MController 2.5.0J : SOFTWARE VERSION
~Well Information
 WELL.                      Peregrine 12-20 : WELL
 COMP.    Pioneer Natural Resources USA Inc : COMPANY
 FLD.                      Purgatoire River : FIELD
 LOC.               SW/NW Sec 20 T34S R65W  : LOCATION
 DATE.                             07/14/05 : DATE(S) LOGGED
 SRVC.       BLANCO Geological Services LLC : SERVICE COMPANY
 STAT.                                   CO : STATE
 CNTY.                           Las Animas : COUNTY
 CTRY.                                  USA : COUNTRY
 API.                       05-071-08428-00 : API NUMBER
 STRT.FT                             226.00 : START DEPTH
 STOP.FT                            1645.00 : STOP DEPTH
 STEP.FT                               1.00 : DEPTH INCREMENT
 NULL.                                -9999 : NULL VALUE
~Curve information
 DEPTH.FT                                   :
 ROP.MIN/FT                                 :
 GAS.UNITS                                  :
~ASCII Log data
# ...
      1226.0         4.15        332.9 
      1227.0         0.23        111.6 
      1228.0         0.37         84.9 
      1229.0         0.27         51.6 
      1230.0         0.23         36.1 
      1231.0         0.23         30.7 
      1232.0         0.17         32.5 
      1233.0         0.13         36.5 
      1234.0         0.17         40.7 
      1235.0         0.13         43.1 
      1236.0         0.18         44.8 
      1237.0         0.13         45.6 
      1238.0         0.13         45.5 
      1239.0         0.20         44.9 
      1240.0         0.17         43.4 
      1241.0         0.17         41.3 
      1242.0         0.13         38.7 
      1243.0         0.17         36.4 
      1244.0         0.20         31.6 
      1245.0         0.17         27.0 
      1246.0         0.20         24.1 
      1247.0         0.13         23.1 
      1248.0         0.13         22.4 
      1249.0         0.13         22.8 
      1250.0         0.13         22.6 
      1251.0         0.17         24.0 
      1252.0         0.13         23.4 
      1253.0         0.13         23.3 
      1254.0         0.17         21.4 
      1255.0         0.17         19.0 
      1256.0         3.70        234.9 
      1257.0         0.27         40.8 
      1258.0         0.23         31.8 
      1259.0         0.23         27.8 
      1260.0         0.33         29.3 
      1261.0         0.30         29.9 
      1262.0         0.27         30.1 
      1263.0         0.27         29.6 
      1264.0         0.23         28.7 
      1265.0         0.23         25.8 
      1266.0         0.20         22.8 
      1267.0         0.27         19.9 
      1268.0         0.25         16.0 
      1269.0         0.23         14.1 
      1270.0         0.23         13.4 
      1271.0         0.23         12.9 
      1272.0         0.23         11.7 
      1273.0         0.23         11.9 
      1274.0         0.37         11.4 
      1275.0         0.30         10.4 
      1276.0         0.23         10.6 
      1277.0         0.23         11.7 
      1278.0         0.20         14.5 
      1279.0         0.17         13.5 
      1280.0         0.17         13.1 
      1281.0         0.17         11.5 
      1282.0         0.20         10.3 
      1283.0         0.22          9.6 
      1284.0         0.20          9.0 
      1285.0         0.20         12.0 
      1286.0         2.30        195.9 
      1287.0         0.30        104.7 
      1288.0         0.32         85.4 
      1289.0         0.27         62.0 
      1290.0         0.30         43.5 
      1291.0         0.23         27.7 
      1292.0         0.27         22.8 
      1293.0         0.23         24.9 
      1294.0         0.20         28.1 
      1295.0         0.23         29.1 
      1296.0         0.20         30.2 
      1297.0         0.27         31.7 
      1298.0         0.13         32.2 
      1299.0         0.10         32.2 
      1300.0         0.13         32.5 
      1301.0         0.17         32.3 
      1302.0         0.17         32.6 
      1303.0         0.20         35.4 
      1304.0         0.22         39.9 
      1305.0         0.13         42.6 
      1306.0         0.13         44.0 
      1307.0         0.17         45.3 
      1308.0         0.20         44.6 
      1309.0         0.13         43.1 
      1310.0         0.20         40.8 
      1311.0         0.17         37.8 
      1312.0         0.17         32.0 
      1313.0         0.17         27.6 
      1314.0         0.17         22.6 
      1315.0         0.20         20.4 
      1316.0         4.70       1092.3 
      1317.0         0.33         54.1 
      1318.0         0.30         37.9 
      1319.0         0.37         26.6 
      1320.0         0.40         20.1 
      1321.0         0.23         16.9 
      1322.0         0.23         17.6 
      1323.0         0.20         20.6 
      1324.0         0.20         26.6 
      1325.0         0.22         32.9 
      1326.0         0.17         35.3 
      1327.0         0.13         36.9 
      1328.0         0.13         38.0 
      1329.0         0.20         38.0 
      1330.0         0.23         37.2 
      1331.0         0.20         35.3 
      1332.0         0.20         32.6 
      1333.0         0.17         29.8 
      1334.0         0.20         27.8 
      1335.0         0.20         26.0 
      1336.0         0.17         24.6 
      1337.0         0.27         24.0 
      1338.0         0.23         22.5 
      1339.0         0.23         21.0 
      1340.0         0.25         19.1 
      1341.0         0.20         17.3 
      1342.0         0.23         15.7 
      1343.0         0.23         13.2 
      1344.0         0.23         12.1 
      1345.0         0.23         17.0 
      1346.0         3.35        321.2 
      1347.0         0.50         53.9 
      1348.0         0.40         32.0 
      1349.0         0.42         22.3 
      1350.0         0.40         21.2 
      1351.0         0.30         22.4 
      1352.0         0.33         22.8 
      1353.0         0.23         23.1 
      1354.0         0.23         22.3 
      1355.0         0.27         21.9 
      1356.0         0.20         20.5 
      1357.0         0.23         18.9 
      1358.0         0.23         17.9 
      1359.0         0.23         17.2 
      1360.0         0.27         16.3 
      1361.0         0.28         15.6 
      1362.0         0.23         14.4 
      1363.0         0.23         16.4 
      1364.0         0.23         31.2 
      1365.0         0.27         54.4 
      1366.0         0.27         72.5 
      1367.0         0.20         78.7 
      1368.0         0.20         81.8 
      1369.0         0.23         82.9 
      1370.0         0.20         82.8 
      1371.0         0.23         81.3 
      1372.0         0.23         75.4 
      1373.0         0.23         63.0 
      1374.0         0.23         50.8 
      1375.0         0.28         45.6 
      1376.0         2.67        226.6 
      1377.0         0.22        166.9 
      1378.0         0.40        151.6 
      1379.0         0.30        120.1 
      1380.0         0.17        101.8 
      1381.0         0.17         92.3 
      1382.0         0.17         84.5 
      1383.0         0.27         78.9 
      1384.0         0.23         78.5 
      1385.0         0.23         80.9 
      1386.0         0.23         81.9 
      1387.0         0.20         82.0 
      1388.0         0.20         81.6 
      1389.0         0.25         80.0 
      1390.0         0.20         76.1 
      1391.0         0.20         71.5 
      1392.0         0.17         66.9 
      1393.0         0.20         64.0 
      1394.0         0.17         61.8 
      1395.0         0.17         61.0 
      1396.0         0.13         60.5 
      1397.0         0.13         60.8 
      1398.0         0.13         61.2 
      1399.0         0.20         61.7 
      1400.0         0.20         61.7 
      1401.0         0.17         59.9 
      1402.0         0.30         56.1 
      1403.0         0.23         44.6 
      1404.0         0.38         38.4 
      1405.0         0.33         45.8 
      1406.0         2.98        189.8 
      1407.0         0.43         88.7 
      1408.0         0.40         70.7 
      1409.0         0.27         63.3 
      1410.0         0.27         62.5 
      1411.0         0.20         62.7 
      1412.0         0.20         63.4 
      1413.0         0.20         63.4 
      1414.0         0.13         63.2 
      1415.0         0.23         62.8 
      1416.0         0.20         62.4 
      1417.0         0.20         62.3 
      1418.0         0.18         61.6 
      1419.0         0.23         60.8 
      1420.0         0.20         59.2 
      1421.0         0.20         57.5 
      1422.0         0.20         55.3 
      1423.0         0.20         53.3 
      1424.0         0.23         50.9 
      1425.0         0.23         48.7 
