~Version Information
VERS.                      2.0: CWLS Log ASCII Standard - VERSION 2.0
WRAP.                       NO: One line per depth step
~Well Information Block
STRT.FT                -7.5000: 
STOP.FT              1702.2500: 
STEP.FT                 0.2500: 
NULL.                -999.2500: 
COMP.          Pioneer Natural Resources: COMPANY
WELL.          Warrior 33-1 Tr: WELL
FLD.           Purgatoire River: FIELD
LOC.           2648' FSL & 2341' FEL--: LOCATION
PROV.                 Colorado: PROVINCE
CNTY.               Las Animas: COUNTRY
SRVC.                Patterson: SERVICE COMPANY
DATE.          Wed Jun 22 12:18:08 2005: LOG DATE
UWI.           05 071 08412 00: UNIQUE WELL ID
~Curve Information Block
DEPT.FT            0 000 00 00: Depth
CCL.                          : Casing Collar Locator
TT3.usec                      : CBL 3' Travel Time
AMP3.mV                       : CBL 3' Amplitude
GR.GAPI                       : Gamma Ray
~Parameter Information Block
~A  Depth       CCL         TT3         AMP3         GR     
# ...
   662.5000      0.0000    726.3580      8.9930    149.1526
   662.7500      0.0000    721.5421      8.9801    150.0179
   663.0000      0.0000    718.3453      8.9422    149.4609
   663.2500      0.0000    718.4990      8.8944    148.0928
   663.5000      0.0000    721.2206      8.8586    146.3743
   663.7500      0.0000    723.3903      8.8485    144.2117
   664.0000      0.0000    720.1887      8.8629    141.5357
   664.2500      0.0000    706.4423      8.8903    138.4329
   664.5000      0.0000    679.3643      8.9187    134.6572
   664.7500      0.0000    640.5306      8.9447    129.9683
   665.0000      0.0000    594.1357      8.9749    125.1681
   665.2500      0.0000    543.9465      9.0189    121.9854
   665.5000      0.0000    493.7246      9.0799    121.5010
   665.7500      0.0000    449.2615      9.1510    122.9202
   666.0000      0.0000    416.8490      9.2178    124.1501
   666.2500      0.0000    399.7770      9.2631    123.6602
   666.5000      0.0000    397.9336      9.2750    121.7317
   666.7500      0.0000    410.4710      9.2515    119.8639
   667.0000      0.0000    437.6393      9.1986    119.2465
   667.2500      0.0000    479.5373      9.1224    120.2090
   667.5000      0.0000    532.8915      9.0234    123.0438
   667.7500      0.0000    589.8079      8.9040    128.4804
   668.0000      0.0000    641.0674      8.7807    136.5860
   668.2500      0.0000    681.0592      8.6833    145.4934
   668.5000      0.0000    708.9782      8.6344    152.0596
   668.7500      0.0000    726.3505      8.6287    154.0752
   669.0000      0.0000    734.9629      8.6357    151.7299
   669.2500      0.0000    736.7952      8.6233    147.0782
   669.5000      0.0000    734.3834      8.5765    142.3242
   669.7500      0.0000    730.4238      8.4985    138.5756
   670.0000      0.0000    726.9300      8.4005    135.7997
   670.2500      0.0000    724.7415      8.2919    133.2654
   670.5000      0.0000    723.7040      8.1802    129.8450
   670.7500      0.0000    723.1924      8.0772    124.6437
   671.0000      0.0000    722.5001      8.0039    118.0871
   671.2500      0.0000    721.1469      7.9829    112.2156
   671.5000      0.0000    719.3734      8.0274    109.2641
   671.7500      0.0000    718.4335      8.1356    109.6184
   672.0000      0.0000    719.7398      8.2897    111.2252
   672.2500      0.0000    723.2186      8.4547    111.2441
   672.5000      0.0000    727.0354      8.5840    108.5616
   672.7500      0.0000    729.6174      8.6414    104.6584
   673.0000      0.0000    731.5051      8.6237    101.8853
   673.2500      0.0000    734.4726      8.5627    101.2223
   673.5000      0.0000    739.0726      8.5042    102.2379
   673.7500      0.0000    743.7736      8.4846    104.7408
   674.0000      0.0000    746.5559      8.5234    109.2939
   674.2500      0.0000    746.9353      8.6340    115.9426
   674.5000      0.0000    746.1515      8.8282    123.2808
   674.7500      0.0000    745.7791      9.0868    129.1118
   675.0000      0.0000    746.8556      9.3050    131.7882
   675.2500      0.0000    750.7025      9.2965    130.9329
   675.5000      0.0000    759.3636      8.9218    127.2484
   675.7500      0.0000    773.2521      8.2473    121.9160
   676.0000      0.0000    788.3899      7.5372    116.0568
   676.2500      0.0000    798.3144      7.0459    110.3639
   676.5000      2.0000    799.9377      6.8378    104.9975
   676.7500      2.0000    797.5311      6.8075     99.9684
   677.0000     -2.0000    800.6323      6.8258     95.8047
   677.2500      0.0000    815.9529      6.8469     93.6289
   677.5000      0.0000    839.0179      6.9377     94.3311
   677.7500      0.0000    855.1107      7.2407     97.8764
   678.0000      0.0000    851.4578      7.8585    103.5298
   678.2500      0.0000    828.4807      8.7020    110.1968
   678.5000      0.0000    798.0674      9.4834    116.2922
   678.7500      0.0000    772.7034      9.9331    120.0746
   679.0000      0.0000    757.7117     10.0148    120.7949
   679.2500      0.0000    751.4640      9.8965    119.2381
   679.5000      0.0000    749.5021      9.7604    116.8048
   679.7500      0.0000    748.0449      9.6878    114.3088
   680.0000      0.0000    745.4485      9.6764    111.9051
   680.2500      0.0000    742.0309      9.6942    109.8583
   680.5000      0.0000    738.9609      9.7076    108.8521
   680.7500      0.0000    737.1711      9.6919    109.3641
   681.0000      0.0000    736.9201      9.6379    111.0323
   681.2500      0.0000    737.9777      9.5564    113.0188
   681.5000      0.0000    739.6260      9.4752    114.9818
   681.7500      0.0000    740.4157      9.4264    117.3338
   682.0000      0.0000    738.9386      9.4319    120.4732
   682.2500      0.0000    735.5044      9.4961    124.1314
   682.5000      0.0000    732.4620      9.6071    127.5699
   682.7500      0.0000    732.1417      9.7396    129.8441
   683.0000      0.0000    734.5005      9.8609    129.6960
   683.2500      0.0000    737.0822      9.9449    125.9740
   683.5000      0.0000    737.4491      9.9847    118.8410
   683.7500      0.0000    735.5031      9.9911    110.3889
   684.0000      0.0000    733.0754      9.9806    103.6389
   684.2500      0.0000    731.4544      9.9704    100.6669
   684.5000      0.0000    730.1240      9.9786    101.5166
   684.7500      0.0000    728.0409     10.0160    104.5871
   685.0000      0.0000    725.2458     10.0752    107.7869
   685.2500      0.0000    722.7158     10.1302    109.7054
   685.5000      0.0000    721.2222     10.1516    110.4937
   685.7500      0.0000    720.8669     10.1228    111.7462
   686.0000      0.0000    721.5023     10.0487    114.9410
   686.2500      0.0000    723.1121      9.9543    119.7071
   686.5000      0.0000    725.5445      9.8715    123.8705
   686.7500      0.0000    727.9670      9.8223    125.2516
   687.0000      0.0000    729.0464      9.8125    123.2408
   687.2500      0.0000    728.0503      9.8395    118.7776
   687.5000      0.0000    725.6050      9.9020    113.3450
   687.7500      0.0000    723.0792      9.9989    108.2039
   688.0000      0.0000    721.4029     10.1223    104.1400
   688.2500      0.0000    720.6408     10.2529    101.4491
   688.5000      0.0000    720.4006     10.3651    100.2308
   688.7500      0.0000    720.3331     10.4403    100.6793
   689.0000      0.0000    720.2985     10.4769    102.6839
   689.2500      0.0000    720.2780     10.4895    105.1474
   689.5000      0.0000    720.2747     10.4996    106.3750
   689.7500      0.0000    720.3373     10.5263    105.6354
   690.0000      0.0000    720.6423     10.5800    103.9839
   690.2500      0.0000    721.5086     10.6587    103.0407
   690.5000      0.0000    723.2496     10.7439    103.2196
   690.7500      0.0000    725.7844     10.8085    103.6122
   691.0000      0.0000    728.2585     10.8352    103.3980
   691.2500      0.0000    729.3566     10.8308    102.7574
   691.5000      0.0000    728.3923     10.8172    102.2731
   691.7500      0.0000    725.9981     10.8108    102.0642
   692.0000      0.0000    723.4904     10.8114    101.9802
   692.2500      0.0000    721.7329     10.8088    102.0990
   692.5000      0.0000    720.7776     10.7968    102.4810
   692.7500      0.0000    720.2790     10.7825    102.8800
   693.0000      0.0000    719.9000     10.7815    103.2233
   693.2500      0.0000    719.2082     10.8019    103.9758
   693.5000      0.0000    717.0676     10.8357    105.5726
   693.7500      0.0000    710.9108     10.8685    107.7646
   694.0000      0.0000    697.0689     10.8941    109.8256
   694.2500      0.0000    673.9225     10.9186    111.2480
   694.5000      0.0000    646.8194     10.9535    112.0159
   694.7500      0.0000    628.6269     11.0051    112.3101
   695.0000      0.0000    631.1226     11.0673    112.2360
   695.2500      0.0000    653.6588     11.1240    111.9714
   695.5000      0.0000    681.2092     11.1589    112.0484
   695.7500      0.0000    693.9261     11.1649    113.2705
