~Version Information
VERS.                      2.0: CWLS Log ASCII Standard - VERSION 2.0
WRAP.                       NO: One line per depth step
~Well Information Block
STRT.FT              2246.0000: 
STOP.FT              2472.6000: 
STEP.FT                 0.1000: 
NULL.                -999.2500: 
COMP.          Petrogulf Corporation: COMPANY
WELL.           Schedler 9-23V: WELL
FLD.           Purgatorie River: FIELD
LOC.           2185' FSL & 2328' FWL: LOCATION
CNTY.               Las Animas: COUNTY
SRVC.                         : SERVICE COMPANY
DATE.          Thu Jul 10 10:29:30 2003: LOG DATE
UWI.           05 071 07876 00: UNIQUE WELL ID
STAT.                 Colorado: STATE
~Curve Information Block
DEPT.FT            0 000 00 00: Depth
DCAL.in                       : CDL Caliper
RHOB.g/cc                     : CDL Bulk Density
RHOC.g/cc                     : CDL Density Correction
DPOR.pu                       : CDL Density Porosity
GR.GAPI                       : Gamma Ray
NPOR.pu                       : Neutron Porosity
~Parameter Information Block
~A  Depth       DCAL        RHOB        RHOC        DPOR         GR         NPOR    
# ...
  2265.2000      8.0273      2.4806      0.1197     10.2690     94.0915     28.3431
  2265.3000      8.0275      2.4915      0.1199      9.6085     93.9169     28.0870
  2265.4000      8.0275      2.5017      0.1199      8.9894     93.5837     27.8462
  2265.5000      8.0282      2.5111      0.1194      8.4158     93.0794     27.6233
  2265.6000      8.0282      2.5198      0.1182      7.8913     92.4032     27.4205
  2265.7000      8.0282      2.5276      0.1161      7.4189     91.5699     27.2380
  2265.8000      8.0289      2.5345      0.1129      7.0007     90.6073     27.0732
  2265.9000      8.0289      2.5405      0.1088      6.6372     89.5540     26.9215
  2266.0000      8.0296      2.5456      0.1038      6.3274     88.4550     26.7757
  2266.1000      8.0296      2.5499      0.0980      6.0683     87.3524     26.6273
  2266.2000      8.0296      2.5534      0.0918      5.8548     86.2808     26.4680
  2266.3000      8.0295      2.5563      0.0854      5.6803     85.2652     26.2901
  2266.4000      8.0295      2.5586      0.0794      5.5367     84.3170     26.0882
  2266.5000      8.0288      2.5607      0.0741      5.4150     83.4380     25.8595
  2266.6000      8.0288      2.5625      0.0696      5.3060     82.6237     25.6043
  2266.7000      8.0288      2.5642      0.0662      5.2011     81.8688     25.3255
  2266.8000      8.0285      2.5660      0.0640      5.0923     81.1689     25.0283
  2266.9000      8.0285      2.5679      0.0629      4.9737     80.5230     24.7192
  2267.0000      8.0295      2.5701      0.0628      4.8409     79.9284     24.4043
  2267.1000      8.0295      2.5726      0.0634      4.6920     79.3746     24.0892
  2267.2000      8.0295      2.5753      0.0645      4.5277     78.8443     23.7771
  2267.3000      8.0302      2.5782      0.0659      4.3512     78.3079     23.4699
  2267.4000      8.0302      2.5812      0.0674      4.1683     77.7242     23.1673
  2267.5000      8.0294      2.5842      0.0687      3.9870     77.0501     22.8687
  2267.6000      8.0294      2.5870      0.0697      3.8180     76.2459     22.5739
  2267.7000      8.0294      2.5894      0.0703      3.6741     75.2866     22.2846
  2267.8000      8.0278      2.5911      0.0703      3.5704     74.1697     22.0044
  2267.9000      8.0278      2.5919      0.0696      3.5241     72.9179     21.7396
  2268.0000      8.0260      2.5914      0.0683      3.5541     71.5773     21.4984
  2268.1000      8.0260      2.5893      0.0664      3.6812     70.2144     21.2899
  2268.2000      8.0260      2.5852      0.0638      3.9274     68.9076     21.1239
  2268.3000      8.0276      2.5788      0.0606      4.3157     67.7357     21.0090
  2268.4000      8.0276      2.5697      0.0568      4.8689     66.7753     20.9526
  2268.5000      8.0399      2.5575      0.0524      5.6089     66.0939     20.9606
  2268.6000      8.0399      2.5418      0.0475      6.5549     65.7504     21.0378
  2268.7000      8.0399      2.5226      0.0419      7.7223     65.7917     21.1874
  2268.8000      8.0618      2.4995      0.0356      9.1205     66.2512     21.4122
  2268.9000      8.0618      2.4726      0.0287     10.7514     67.1456     21.7142
  2269.0000      8.0787      2.4420      0.0210     12.6075     68.4677     22.0948
  2269.1000      8.0787      2.4079      0.0126     14.6706     70.1793     22.5542
  2269.2000      8.0787      2.3710      0.0038     16.9114     72.2047     23.0907
  2269.3000      8.0858      2.3317     -0.0049     19.2891     74.4324     23.7006
  2269.4000      8.0858      2.2911     -0.0130     21.7522     76.7189     24.3768
  2269.5000      8.0894      2.2500     -0.0198     24.2407     78.9029     25.1082
  2269.6000      8.0894      2.2097     -0.0243     26.6876     80.8250     25.8804
  2269.7000      8.0894      2.1711     -0.0257     29.0230     82.3504     26.6751
  2269.8000      8.0954      2.1356     -0.0235     31.1765     83.3880     27.4714
  2269.9000      8.0954      2.1042     -0.0172     33.0816     83.9049     28.2467
  2270.0000      8.1094      2.0778     -0.0068     34.6782     83.9320     28.9777
  2270.1000      8.1094      2.0574      0.0073     35.9165     83.5582     29.6425
  2270.2000      8.1094      2.0435      0.0246     36.7585     82.9181     30.2217
  2270.3000      8.1405      2.0365      0.0442     37.1800     82.1697     30.6994
  2270.4000      8.1405      2.0367      0.0651     37.1713     81.4770     31.0655
  2270.5000      8.1962      2.0438      0.0862     36.7377     80.9898     31.3155
  2270.6000      8.1962      2.0577      0.1065     35.8983     80.8294     31.4506
  2270.7000      8.1962      2.0777      0.1251     34.6855     81.0794     31.4779
  2270.8000      8.2806      2.1031      0.1415     33.1431     81.7830     31.4086
  2270.9000      8.2806      2.1332      0.1549     31.3240     82.9418     31.2565
  2271.0000      8.3548      2.1667      0.1651     29.2881     84.5190     31.0366
  2271.1000      8.3548      2.2029      0.1719     27.0995     86.4441     30.7637
  2271.2000      8.3548      2.2404      0.1754     24.8238     88.6198     30.4510
  2271.3000      8.2796      2.2783      0.1756     22.5251     90.9294     30.1112
  2271.4000      8.2796      2.3157      0.1729     20.2632     93.2454     29.7555
  2271.5000      8.0553      2.3515      0.1677     18.0913     95.4392     29.3951
  2271.6000      8.0553      2.3851      0.1603     16.0541     97.3936     29.0408
  2271.7000      8.0553      2.4159      0.1513     14.1857     99.0086     28.7035
  2271.8000      7.9119      2.4436      0.1413     12.5099    100.2153     28.3931
  2271.9000      7.9119      2.4679      0.1311     11.0392    100.9774     28.1178
  2272.0000      7.8887      2.4887      0.1212      9.7765    101.2968     27.8834
  2272.1000      7.8887      2.5062      0.1122      8.7158    101.2126     27.6925
  2272.2000      7.8887      2.5206      0.1044      7.8445    100.7935     27.5446
  2272.3000      7.8925      2.5321      0.0980      7.1452    100.1286     27.4367
  2272.4000      7.8925      2.5411      0.0931      6.5975     99.3194     27.3638
  2272.5000      7.8914      2.5480      0.0893      6.1801     98.4631     27.3202
  2272.6000      7.8914      2.5531      0.0865      5.8725     97.6433     27.2998
  2272.7000      7.8914      2.5567      0.0842      5.6554     96.9200     27.2970
  2272.8000      7.8915      2.5591      0.0823      5.5115     96.3309     27.3068
  2272.9000      7.8915      2.5605      0.0803      5.4263     95.8890     27.3243
  2273.0000      7.8962      2.5611      0.0781      5.3871     95.5898     27.3449
  2273.1000      7.8962      2.5612      0.0757      5.3836     95.4190     27.3643
  2273.2000      7.8962      2.5608      0.0731      5.4068     95.3580     27.3780
  2273.3000      7.8996      2.5601      0.0704      5.4495     95.3881     27.3821
  2273.4000      7.8996      2.5592      0.0678      5.5053     95.4917     27.3735
  2273.5000      7.9006      2.5581      0.0654      5.5691     95.6486     27.3500
  2273.6000      7.9006      2.5570      0.0635      5.6364     95.8326     27.3113
  2273.7000      7.9006      2.5559      0.0621      5.7040     96.0095     27.2583
  2273.8000      7.9005      2.5548      0.0613      5.7695     96.1327     27.1938
  2273.9000      7.9005      2.5538      0.0611      5.8316     96.1488     27.1215
  2274.0000      7.9007      2.5528      0.0614      5.8898     96.0021     27.0457
  2274.1000      7.9007      2.5519      0.0620      5.9444     95.6430     26.9707
  2274.2000      7.9007      2.5511      0.0627      5.9965     95.0364     26.9001
  2274.3000      7.9004      2.5502      0.0634      6.0476     94.1703     26.8356
  2274.4000      7.9004      2.5494      0.0637      6.0991     93.0612     26.7778
  2274.5000      7.8995      2.5485      0.0637      6.1525     91.7504     26.7246
  2274.6000      7.8995      2.5476      0.0632      6.2088     90.3030     26.6719
  2274.7000      7.8995      2.5466      0.0622      6.2688     88.7989     26.6143
