~Version Information
VERS.                      2.0: CWLS Log ASCII Standard - VERSION 2.0
WRAP.                       NO: One line per depth step
~Well Information Block
STRT.FT               298.0000: 
STOP.FT              1325.5000: 
STEP.FT                 0.2500: 
NULL.                -999.2500: 
COMP.          Pioneer Natural Resources: COMPANY
WELL.          Santa Fe 43-27 Tr: WELL
FLD.           Purgatoire River: FIELD
LOC.           2018' FSL & 534' FEL: LOCATION
PROV.                 Colorado: PROVINCE
CNTY.               Las Animas: COUNTRY
SRVC.                Patterson: SERVICE COMPANY
DATE.          Tue Mar 08 10:44:11 2005: LOG DATE
UWI.           05 071 08303 00: UNIQUE WELL ID
~Curve Information Block
DEPT.FT            0 000 00 00: Depth
SN.Ohm-m                      : IEL Short Normal
SP.mV                         : IEL Spontaneous Potential
DIR.Ohm-m                     : IEL Induction Resistivity
GR.GAPI                       : Gamma Ray
~Parameter Information Block
~A  Depth        SN          SP         DIR          GR     
# ...
   901.0000     25.1872     10.6156     22.6816     57.2605
   901.2500     25.2555     10.5278     22.7313     57.9948
   901.5000     25.2828     10.4805     22.7821     59.5811
   901.7500     25.2727     10.4981     22.8322     60.2888
   902.0000     25.2874     10.5806     22.8860     60.6480
   902.2500     25.3626     10.7066     22.9508     60.9824
   902.5000     25.4520     10.8448     23.0307     62.7749
   902.7500     25.5103     10.9695     23.1225     65.0733
   903.0000     25.5534     11.0699     23.2188     69.5703
   903.2500     25.6149     11.1542     23.3146     72.4714
   903.5000     25.7103     11.2475     23.4090     75.2136
   903.7500     25.8446     11.3820     23.5034     75.5194
   904.0000     26.0234     11.5826     23.6029     74.1427
   904.2500     26.2582     11.8541     23.7229     72.7663
   904.5000     26.5760     12.1726     23.8928     71.0998
   904.7500     27.0389     12.4854     24.1490     70.3225
   905.0000     27.7305     12.7278     24.5208     69.0211
   905.2500     28.6870     12.8539     25.0205     67.6982
   905.5000     29.8679     12.8613     25.6438     64.9233
   905.7500     31.2033     12.7868     26.3726     62.7633
   906.0000     32.6416     12.6805     27.1757     59.6848
   906.2500     34.1567     12.5808     28.0030     58.1097
   906.5000     35.7370     12.5034     28.7857     56.7967
   906.7500     37.3469     12.4471     29.4484     56.5896
   907.0000     38.8754     12.4070     29.9330     57.1014
   907.2500     40.1564     12.3829     30.2184     57.9285
   907.5000     41.0533     12.3780     30.3248     59.7964
   907.7500     41.4933     12.3907     30.3061     61.4025
   908.0000     41.4431     12.4119     30.2354     64.4857
   908.2500     40.9112     12.4284     30.1800     67.1404
   908.5000     39.9817     12.4279     30.1714     71.6273
   908.7500     38.8161     12.4031     30.1829     74.0639
   909.0000     37.5902     12.3506     30.1365     75.0244
   909.2500     36.3937     12.2716     29.9383     73.4827
   909.5000     35.1981     12.1717     29.5267     69.1274
   909.7500     33.9602     12.0621     28.9065     66.0635
   910.0000     32.7379     11.9578     28.1512     62.4659
   910.2500     31.6459     11.8714     27.3716     60.8049
   910.5000     30.7464     11.8079     26.6706     59.3417
   910.7500     30.0286     11.7636     26.1116     59.1811
   911.0000     29.4550     11.7309     25.7109     60.1748
   911.2500     28.9990     11.7028     25.4463     61.2559
   911.5000     28.6402     11.6769     25.2736     62.4366
   911.7500     28.3521     11.6572     25.1444     62.4786
   912.0000     28.1201     11.6540     25.0234     61.2811
   912.2500     27.9504     11.6794     24.8969     59.8802
   912.5000     27.8480     11.7446     24.7651     57.6413
   912.7500     27.8139     11.8610     24.6292     56.5589
   913.0000     27.8436     12.0368     24.4887     56.0042
   913.2500     27.9084     12.2648     24.3517     56.1607
   913.5000     27.9762     12.5132     24.2452     56.3266
   913.7500     28.0528     12.7361     24.2109     56.0064
   914.0000     28.1624     12.8988     24.2869     54.9400
   914.2500     28.3075     12.9986     24.4872     54.1528
   914.5000     28.4866     13.0648     24.7913     53.2672
   914.7500     28.7128     13.1388     25.1496     52.8658
   915.0000     28.9909     13.2499     25.5066     52.2485
   915.2500     29.3102     13.3997     25.8287     51.6680
   915.5000     29.6657     13.5671     26.1183     50.5902
   915.7500     30.0641     13.7226     26.3999     50.0004
   916.0000     30.5113     13.8434     26.6936     49.9122
   916.2500     31.0066     13.9205     27.0010     50.5510
   916.5000     31.5467     13.9583     27.3124     52.2338
   916.7500     32.1316     13.9673     27.6234     53.4051
   917.0000     32.7593     13.9522     27.9446     54.5899
   917.2500     33.4163     13.9057     28.2948     54.9193
   917.5000     34.0872     13.8170     28.6855     55.1052
   917.7500     34.7556     13.6878     29.1077     55.2458
   918.0000     35.3885     13.5422     29.5304     55.3614
   918.2500     35.9460     13.4221     29.9120     55.1537
   918.5000     36.3994     13.3706     30.2158     54.4944
   918.7500     36.7350     13.4104     30.4186     54.2488
   919.0000     36.9514     13.5319     30.5140     54.9715
   919.2500     37.0499     13.6976     30.5113     56.3370
   919.5000     37.0129     13.8620     30.4284     59.3760
   919.7500     36.7991     13.9936     30.2806     61.7632
   920.0000     36.3670     14.0877     30.0743     65.6886
   920.2500     35.6985     14.1649     29.8115     68.6337
   920.5000     34.8054     14.2573     29.4962     73.7467
   920.7500     33.7325     14.3911     29.1378     77.5942
   921.0000     32.5615     14.5755     28.7519     83.6455
   921.2500     31.4090     14.8015     28.3606     87.4868
   921.5000     30.4050     15.0470     27.9835     92.2285
   921.7500     29.6462     15.2827     27.6180     94.3811
   922.0000     29.1448     15.4768     27.2288     95.9611
   922.2500     28.8080     15.6044     26.7651     96.2144
   922.5000     28.4715     15.6599     26.2002     96.5919
   922.7500     27.9715     15.6628     25.5529     97.6526
   923.0000     27.2259     15.6466     24.8673    101.1831
   923.2500     26.2808     15.6400     24.1708    104.6417
   923.5000     25.2539     15.6589     23.4498    110.4236
   923.7500     24.2193     15.7091     22.6623    113.9736
   924.0000     23.1819     15.7892     21.7730    118.1008
   924.2500     22.1427     15.8896     20.7808    120.0991
   924.5000     21.1201     15.9961     19.7191    122.9791
   924.7500     20.1214     16.0973     18.6343    125.7579
   925.0000     19.1373     16.1871     17.5644    132.3579
   925.2500     18.1526     16.2606     16.5338    138.1342
   925.5000     17.1622     16.3091     15.5586    146.9073
   925.7500     16.1948     16.3208     14.6539    151.6609
   926.0000     15.3107     16.2857     13.8351    156.6519
   926.2500     14.5550     16.2057     13.1144    158.9851
   926.5000     13.9256     16.0991     12.4956    161.4014
   926.7500     13.3994     15.9971     11.9732    161.9694
   927.0000     12.9615     15.9278     11.5358    160.7588
   927.2500     12.5990     15.9022     11.1726    158.9438
   927.5000     12.2987     15.9098     10.8762    156.4444
   927.7500     12.0542     15.9272     10.6408    156.0395
   928.0000     11.8660     15.9321     10.4586    158.0363
   928.2500     11.7450     15.9141     10.3201    160.3662
   928.5000     11.6967     15.8774     10.2153    162.7876
   928.7500     11.6997     15.8376     10.1370    162.4936
   929.0000     11.7253     15.8141     10.0813    159.1926
   929.2500     11.7753     15.8247     10.0470    156.1006
   929.5000     11.8833     15.8848     10.0348    151.7903
   929.7500     12.0813     16.0045     10.0471    149.2686
   930.0000     12.3635     16.1825     10.0859    145.2882
   930.2500     12.6864     16.3986     10.1516    142.4202
   930.5000     13.0066     16.6147     10.2409    138.6893
   930.7500     13.3072     16.7888     10.3476    137.0913
   931.0000     13.5817     16.8963     10.4661    136.1387
   931.2500     13.7991     16.9444     10.5961    136.4193
   931.5000     13.8973     16.9679     10.7440    138.5421
   931.7500     13.8623     17.0075     10.9203    141.2170
   932.0000     13.7811     17.0860     11.1338    146.2027
   932.2500     13.7425     17.1988     11.3895    148.8721
   932.5000     13.7522     17.3219     11.6905    149.3478
   932.7500     13.7752     17.4297     12.0407    146.5195
   933.0000     13.7972     17.5093     12.4424    138.4079
   933.2500     13.8788     17.5641     12.8874    131.9342
   933.5000     14.2101     17.6057     13.3478    123.2802
   933.7500     15.0795     17.6405     13.7766    118.9323
   934.0000     16.7121     17.6613     14.1229    113.9730
   934.2500     19.0888     17.6487     14.3565    110.7937
