~Version Information
VERS.                      2.0: CWLS Log ASCII Standard - VERSION 2.0
WRAP.                       NO: One line per depth step
~Well Information Block
STRT.FT               340.0000: 
STOP.FT              1731.0000: 
STEP.FT                 0.1000: 
NULL.                -999.2500: 
COMP.          Pioneer Natural Resources: COMPANY
WELL.          Rancher 12-35 Tr: WELL
FLD.           Purgatoire River: FIELD
LOC.           2242' FNL & 308' FWL SWNW 35 32S 67W: LOCATION
PROV.                 Colorado: PROVINCE
CNTY.               Las Animas: COUNTRY
SRVC.                Patterson: SERVICE COMPANY
DATE.          Tue Jul 05 07:18:22 2005: LOG DATE
UWI.              05 071 08430 00: UNIQUE WELL ID
~Curve Information Block
DEPT.FT            0 000 00 00: Depth
DCAL.in                       : CDL Caliper
RHOB.g/cc                     : CDL Bulk Density
RHOC.g/cc                     : CDL Density Correction
DPOR.pu                       : CDL Density Porosity
GR.GAPI                       : Gamma Ray
NPOR.pu                       : Neutron Porosity
~Parameter Information Block
~A  Depth       DCAL        RHOB        RHOC        DPOR         GR         NPOR    
# ...
   704.8000      8.2072      2.4936      0.0561      9.4762    170.5908     28.6770
   704.9000      8.2072      2.5017      0.0753      8.9885    166.5504     28.1859
   705.0000      8.1732      2.4921      0.0272      9.5683    160.4638     27.8173
   705.1000      8.1732      2.4738      0.0540     10.6766    156.9640     27.4097
   705.2000      8.1732      2.4447      0.0145     12.4437    154.8724     26.9467
   705.3000      8.1395      2.4086      0.0190     14.6280    153.0341     26.7018
   705.4000      8.1395      2.3844     -0.0049     16.0983    151.2764     26.7907
   705.5000      8.1488      2.3841      0.0126     16.1146    149.1726     27.0300
   705.6000      8.1488      2.3976      0.0430     15.2961    147.9629     27.2286
   705.7000      8.1488      2.4084      0.0810     14.6408    148.2048     27.1489
   705.8000      8.1274      2.4193      0.0947     13.9823    143.4751     26.8449
   705.9000      8.1274      2.4449      0.1282     12.4333    132.6411     26.7151
   706.0000      8.1486      2.4892      0.1767      9.7471    126.3602     26.8261
   706.1000      8.1486      2.5395      0.2181      6.6951    128.6685     26.9861
   706.2000      8.1486      2.5816      0.2587      4.1454    135.9677     27.1557
   706.3000      8.1477      2.6095      0.3271      2.4546    147.5304     27.3952
   706.4000      8.1477      2.6161      0.2976      2.0575    160.0822     27.6520
   706.5000      8.1432      2.5916      0.2406      3.5418    166.9123     27.6970
   706.6000      8.1432      2.5287      0.2282      7.3545    166.8939     27.3918
   706.7000      8.1432      2.4314      0.1471     13.2473    164.5690     26.9205
   706.8000      8.1975      2.3313      0.0176     19.3138    161.7657     26.3699
   706.9000      8.1975      2.2581      0.0363     23.7508    154.5722     25.6006
   707.0000      8.2268      2.2045      0.0377     27.0003    144.2834     24.5506
   707.1000      8.2268      2.1618     -0.0068     29.5864    141.4584     23.2807
   707.2000      8.2268      2.1426     -0.0193     30.7519    150.1802     21.9348
   707.3000      8.2164      2.1491      0.0694     30.3587    160.1896     20.7925
   707.4000      8.2164      2.1741      0.1609     28.8419    159.8258     19.9828
   707.5000      8.2095      2.2267      0.2012     25.6532    154.1420     19.3235
   707.6000      8.2095      2.3103      0.3180     20.5889    153.9872     18.7126
   707.7000      8.2095      2.3901      0.4289     15.7485    157.6994     18.3782
   707.8000      8.2430      2.4272      0.4253     13.5001    160.7894     18.3522
   707.9000      8.2430      2.4215      0.3561     13.8513    162.3235     18.4321
   708.0000      8.4002      2.3921      0.3335     15.6294    161.3513     18.6444
   708.1000      8.4002      2.3443      0.3372     18.5288    159.3816     19.1253
   708.2000      8.4002      2.2784      0.2449     22.5234    156.7047     19.7661
   708.3000      8.5885      2.2034      0.2021     27.0694    151.1728     20.4319
   708.4000      8.5885      2.1353      0.1249     31.1913    143.8904     21.0791
   708.5000      8.4813      2.0910      0.1060     33.8806    138.6530     21.4561
   708.6000      8.4813      2.0668      0.1321     35.3471    136.3037     21.4167
   708.7000      8.4813      2.0489      0.1021     36.4302    136.1294     21.1565
   708.8000      8.4530      2.0266      0.1181     37.7799    137.2841     20.9289
   708.9000      8.4530      1.9869      0.0819     40.1857    138.7950     20.8301
   709.0000      8.3918      1.9213      0.0736     44.1606    143.0829     20.5641
   709.1000      8.3918      1.8267     -0.0307     49.8949    148.2510     19.9888
   709.2000      8.3918      1.7074     -0.0827     57.1271    145.6361     19.6423
   709.3000      8.3493      1.5833     -0.0896     64.6464    137.1540     19.7753
   709.4000      8.3493      1.4868     -0.1206     70.4960    131.0823     20.0655
   709.5000      8.3163      1.4499     -0.1317     72.7356    126.0566     20.0281
   709.6000      8.3163      1.4844     -0.0611     70.6436    119.7370     19.5095
   709.7000      8.3163      1.5688      0.0470     65.5297    115.0548     19.0975
   709.8000      8.3780      1.6764      0.0569     59.0059    112.9236     19.1786
   709.9000      8.3780      1.8089      0.1115     50.9779    112.0151     19.6907
   710.0000      8.3556      1.9702      0.2669     41.1988    113.4660     20.6055
   710.1000      8.3556      2.1288      0.4561     31.5873    117.9183     21.5292
   710.2000      8.3556      2.2464      0.3994     24.4609    123.2503     22.0884
   710.3000      8.2950      2.3139      0.3533     20.3671    126.8769     22.4230
   710.4000      8.2950      2.3311      0.2213     19.3255    128.6557     22.9004
   710.5000      8.3922      2.3165      0.0595     20.2099    131.4838     23.7350
   710.6000      8.3922      2.3095      0.0343     20.6391    136.1757     24.6399
   710.7000      8.3922      2.3212      0.0502     19.9297    139.8963     25.2869
   710.8000      8.3594      2.3357      0.0814     19.0456    142.4395     25.7065
   710.9000      8.3594      2.3483      0.0573     18.2871    144.4328     26.0323
   711.0000      8.2508      2.3653      0.1145     17.2562    143.1669     26.0935
   711.1000      8.2508      2.3808      0.1345     16.3139    139.4199     25.7780
   711.2000      8.2508      2.3815      0.1542     16.2726    140.8776     25.4151
   711.3000      8.2386      2.3687      0.1229     17.0506    150.3271     25.1669
   711.4000      8.2386      2.3557      0.0965     17.8339    158.5190     25.0496
   711.5000      8.2526      2.3477      0.1038     18.3223    157.2031     25.2607
   711.6000      8.2526      2.3399      0.0633     18.7935    151.8699     25.7420
   711.7000      8.2526      2.3356      0.0629     19.0557    150.4747     26.0318
   711.8000      8.3068      2.3355      0.0494     19.0635    150.7602     25.7612
   711.9000      8.3068      2.3214      0.0705     19.9148    150.4712     25.0151
   712.0000      8.3271      2.2885      0.0509     21.9095    148.6616     24.2367
   712.1000      8.3271      2.2663      0.0342     23.2515    142.8618     23.8522
   712.2000      8.3271      2.2834      0.1030     22.2154    140.9005     24.0838
   712.3000      8.2857      2.3373      0.1481     18.9544    148.0522     24.6892
   712.4000      8.2857      2.4076      0.1863     14.6918    155.0359     25.2634
   712.5000      8.2729      2.4735      0.3194     10.6989    156.9664     25.8133
   712.6000      8.2729      2.5287      0.2698      7.3507    154.1001     26.3097
   712.7000      8.2729      2.5860      0.2970      3.8809    145.1925     26.6449
   712.8000      8.2794      2.6451      0.3469      0.2997    134.2948     27.1065
   712.9000      8.2794      2.6857      0.3789     -2.1658    129.0829     28.0169
   713.0000      8.3646      2.6925      0.3273     -2.5727    133.3942     28.9820
   713.1000      8.3646      2.6756      0.2135     -1.5517    142.2889     29.5657
   713.2000      8.3646      2.6636      0.1603     -0.8230    146.8342     29.9601
   713.3000      8.4490      2.6618      0.1375     -0.7155    145.1934     30.1430
   713.4000      8.4490      2.6497      0.0660      0.0203    141.6635     30.1298
   713.5000      8.4128      2.6184      0.0370      1.9130    138.2580     30.3361
   713.6000      8.4128      2.5724      0.0285      4.7037    132.0132     30.5014
   713.7000      8.4128      2.5230     -0.0759      7.6974    122.2093     30.1862
   713.8000      8.2731      2.4916     -0.0631      9.6018    116.5510     29.7593
   713.9000      8.2731      2.4915     -0.0392      9.6042    119.8323     29.5333
   714.0000      8.1334      2.5134      0.0773      8.2766    127.3558     29.3184
   714.1000      8.1334      2.5337      0.0932      7.0498    131.8707     28.9008
   714.2000      8.1334      2.5426      0.1350      6.5091    130.3688     28.1716
   714.3000      8.0255      2.5452      0.1135      6.3504    125.6597     27.2636
