~Version Information
VERS.                      2.0: CWLS Log ASCII Standard - VERSION 2.0
WRAP.                       NO: One line per depth step
~Well Information Block
STRT.FT               -10.8000: 
STOP.FT              2238.7000: 
STEP.FT                 0.1000: 
NULL.                -999.2500: 
COMP.          Petrogulf Corporation: COMPANY
WELL.             McLeod 9-42V: WELL
FLD.           Purgatorie River: FIELD
LOC.           1658' FNL & 415' FEL----: LOCATION
CNTY.               Las Animas: COUNTY
SRVC.                         : SERVICE COMPANY
DATE.          Wed Nov 17 12:01:16 2004: LOG DATE
UWI.                          : UNIQUE WELL ID
STAT.                       CO: STATE
~Curve Information Block
DEPT.FT            0 000 00 00: Depth
GR.GAPI                       : Gamma Ray
CCL.                          : Casing Collar Locator
TT3.usec                      : CBL 3' Travel Time
AMP3.mV                       : CBL 3' Amplitude
~Parameter Information Block
~A  Depth        GR         CCL         TT3         AMP3    
# ...
  1021.0000    115.5545     -2.0000    806.3755     19.9861
  1021.1000    115.5545      0.0000    806.3755     19.9861
  1021.2000    115.5545      0.0000    806.3755     19.9861
  1021.3000    116.0940      0.0000    799.5563     19.3788
  1021.4000    116.0940      0.0000    799.5563     19.3788
  1021.5000    119.8198      0.0000    778.3097     18.6566
  1021.6000    119.8198      0.0000    778.3097     18.6566
  1021.7000    119.8198      0.0000    778.3097     18.6566
  1021.8000    122.6370      0.0000    742.3506     17.9250
  1021.9000    122.6370      0.0000    742.3506     17.9250
  1022.0000    122.0688      0.0000    704.4730     17.2472
  1022.1000    122.0688      0.0000    704.4730     17.2472
  1022.2000    122.0688      0.0000    704.4730     17.2472
  1022.3000    119.2869      0.0000    683.1318     16.6500
  1022.4000    119.2869      0.0000    683.1318     16.6500
  1022.5000    117.5103      0.0000    687.4219     16.1393
  1022.6000    117.5103      0.0000    687.4219     16.1393
  1022.7000    117.5103      0.0000    687.4219     16.1393
  1022.8000    119.0699      0.0000    710.2402     15.6669
  1022.9000    119.0699      0.0000    710.2402     15.6669
  1023.0000    124.1783      0.0000    737.1580     15.1042
  1023.1000    124.1783      0.0000    737.1580     15.1042
  1023.2000    124.1783      0.0000    737.1580     15.1042
  1023.3000    131.3450      0.0000    759.1727     14.3431
  1023.4000    131.3450      0.0000    759.1727     14.3431
  1023.5000    138.1193      0.0000    775.7485     13.4473
  1023.6000    138.1193      0.0000    775.7485     13.4473
  1023.7000    138.1193      0.0000    775.7485     13.4473
  1023.8000    142.2225      0.0000    789.6631     12.6296
  1023.9000    142.2225      0.0000    789.6631     12.6296
  1024.0000    142.8857      0.0000    802.3157     12.0581
  1024.1000    142.8857      0.0000    802.3157     12.0581
  1024.2000    142.8857      0.0000    802.3157     12.0581
  1024.3000    141.0152      0.0000    812.5474     11.7329
  1024.4000    141.0152      0.0000    812.5474     11.7329
  1024.5000    138.0324      0.0000    817.7822     11.5408
  1024.6000    138.0324      0.0000    817.7822     11.5408
  1024.7000    138.0324      0.0000    817.7822     11.5408
  1024.8000    135.0496      0.0000    816.6973     11.3695
  1024.9000    135.0496      0.0000    816.6973     11.3695
  1025.0000    132.9964      0.0000    811.4879     11.1616
  1025.1000    132.9964      0.0000    811.4879     11.1616
  1025.2000    132.9964      0.0000    811.4879     11.1616
  1025.3000    132.6480      0.0000    806.7912     10.9212
  1025.4000    132.6480      0.0000    806.7912     10.9212
  1025.5000    133.9337      0.0000    806.3588     10.7006
  1025.6000    133.9337      0.0000    806.3588     10.7006
  1025.7000    133.9337      0.0000    806.3588     10.7006
  1025.8000    135.5507      0.0000    811.0467     10.5664
  1025.9000    135.5507      0.0000    811.0467     10.5664
  1026.0000    135.8620      0.0000    819.0518     10.5512
  1026.1000    135.8620      0.0000    819.0518     10.5512
  1026.2000    135.8620      0.0000    819.0518     10.5512
  1026.3000    134.2757      0.0000    826.8095     10.6457
  1026.4000    134.2757      0.0000    826.8095     10.6457
  1026.5000    131.5747      0.0000    830.4651     10.8561
  1026.6000    131.5747      0.0000    830.4651     10.8561
  1026.7000    131.5747      0.0000    830.4651     10.8561
  1026.8000    129.1212      0.0000    828.3422     11.2614
  1026.9000    129.1212      0.0000    828.3422     11.2614
  1027.0000    127.9369      0.0000    822.2669     11.9815
  1027.1000    127.9369      0.0000    822.2669     11.9815
  1027.2000    127.9369      0.0000    822.2669     11.9815
  1027.3000    128.2090      0.0000    815.7626     13.0701
  1027.4000    128.2090      0.0000    815.7626     13.0701
  1027.5000    129.3333      0.0000    811.1365     14.4415
  1027.6000    129.3333      0.0000    811.1365     14.4415
  1027.7000    129.3333      0.0000    811.1365     14.4415
  1027.8000    130.4039      0.0000    808.4697     15.9117
  1027.9000    130.4039      0.0000    808.4697     15.9117
  1028.0000    130.6521      0.0000    806.2188     17.3162
  1028.1000    130.6521      0.0000    806.2188     17.3162
  1028.2000    130.6521      0.0000    806.2188     17.3162
  1028.3000    129.5955      0.0000    801.2116     18.6108
  1028.4000    129.5955      0.0000    801.2116     18.6108
  1028.5000    127.2660      0.0000    787.2046     19.8796
  1028.6000    127.2660      0.0000    787.2046     19.8796
  1028.7000    127.2660      0.0000    787.2046     19.8796
  1028.8000    124.4092      0.0000    754.3009     21.2434
  1028.9000    124.4092      0.0000    754.3009     21.2434
  1029.0000    122.0591      0.0000    693.3381     22.7266
  1029.1000    122.0591      0.0000    693.3381     22.7266
  1029.2000    122.0591      0.0000    693.3381     22.7266
  1029.3000    120.9225      0.0000    605.5929     24.1776
  1029.4000    120.9225      0.0000    605.5929     24.1776
  1029.5000    121.3359      0.0000    509.3298     25.3022
  1029.6000    121.3359      0.0000    509.3298     25.3022
  1029.7000    121.3359      0.0000    509.3298     25.3022
  1029.8000    123.3358      0.0000    433.8662     25.7905
  1029.9000    123.3358      0.0000    433.8662     25.7905
  1030.0000    126.1390      0.0000    404.5211     25.4619
  1030.1000    126.1390      0.0000    404.5211     25.4619
  1030.2000    126.1390      0.0000    404.5211     25.4619
  1030.3000    127.9389      0.0000    430.4971     24.3457
  1030.4000    127.9389      0.0000    430.4971     24.3457
  1030.5000    126.8888      0.0000    501.4480     22.6665
  1030.6000    126.8888      0.0000    501.4480     22.6665
  1030.7000    126.8888      0.0000    501.4480     22.6665
  1030.8000    122.3514      0.0000    592.1850     20.7550
  1030.9000    122.3514      0.0000    592.1850     20.7550
  1031.0000    115.2755      0.0000    674.9233     18.9228
  1031.1000    115.2755      0.0000    674.9233     18.9228
  1031.2000    115.2755      0.0000    674.9233     18.9228
  1031.3000    107.7162      0.0000    733.0286     17.3438
  1031.4000    107.7162      0.0000    733.0286     17.3438
  1031.5000    101.9181      0.0000    765.3737     16.0116
  1031.6000    101.9181      0.0000    765.3737     16.0116
  1031.7000    101.9181      0.0000    765.3737     16.0116
  1031.8000     99.4014      0.0000    779.4902     14.8157
  1031.9000     99.4014      0.0000    779.4902     14.8157
  1032.0000    100.6144      0.0000    782.9167     13.6768
  1032.1000    100.6144      0.0000    782.9167     13.6768
  1032.2000    100.6144      0.0000    782.9167     13.6768
  1032.3000    105.1578      0.0000    780.2360     12.6278
  1032.4000    105.1578      0.0000    780.2360     12.6278
  1032.5000    111.9002      0.0000    774.4730     11.7834
  1032.6000    111.9002      0.0000    774.4730     11.7834
  1032.7000    111.9002      0.0000    774.4730     11.7834
  1032.8000    118.9905      0.0000    768.3576     11.2452
  1032.9000    118.9905      0.0000    768.3576     11.2452
  1033.0000    124.4221      0.0000    763.8384     11.0279
  1033.1000    124.4221      0.0000    763.8384     11.0279
  1033.2000    124.4221      0.0000    763.8384     11.0279
  1033.3000    126.9097      0.0000    761.4324     11.0591
  1033.4000    126.9097      0.0000    761.4324     11.0591
  1033.5000    126.3381      0.0000    760.5886     11.2364
  1033.6000    126.3381      0.0000    760.5886     11.2364
  1033.7000    126.3381      0.0000    760.5886     11.2364
  1033.8000    123.8499      0.0000    760.5806     11.4871
  1033.9000    123.8499      0.0000    760.5806     11.4871
  1034.0000    121.5017      0.0000    760.9982     11.7889
  1034.1000    121.5017      0.0000    760.9982     11.7889
  1034.2000    121.5017      0.0000    760.9982     11.7889
  1034.3000    121.1074      0.0000    761.8222     12.1433
