~Version Information
VERS.                      2.0: CWLS Log ASCII Standard - VERSION 2.0
WRAP.                       NO: One line per depth step
~Well Information Block
STRT.FT                -3.0000: 
STOP.FT              1679.2500: 
STEP.FT                 0.2500: 
NULL.                -999.2500: 
COMP.          Evergreen Operating Corp.: COMPANY
WELL.            Rimrock 14-29: WELL
FLD.           Purgatorie River: FIELD
LOC.           945' FSL & 604' FWL--: LOCATION
PROV.                       CO: PROVINCE
CNTY.               Las Animas: COUNTRY
SRVC.                         : SERVICE COMPANY
DATE.          Mon Oct 04 13:02:21 2004: LOG DATE
UWI.           05 071 08136 00: UNIQUE WELL ID
~Curve Information Block
DEPT.FT            0 000 00 00: Depth
GR.GAPI                       : Gamma Ray
CCL.                          : Casing Collar Locator
TT3.usec                      : CBL 3' Travel Time
AMP3.mV                       : CBL 3' Amplitude
~Parameter Information Block
~A  Depth        GR         CCL         TT3         AMP3    
# ...
  1404.0000     74.2030      0.0000    690.2385      5.5037
  1404.2500     72.1609      0.0000    700.5699      5.4995
  1404.5000     71.8102      0.0000    707.0856      5.5182
  1404.7500     75.0681      0.0000    709.8848      5.5291
  1405.0000     82.5792      0.0000    709.8549      5.5340
  1405.2500     93.3134      0.0000    708.6490      5.5499
  1405.5000    105.2655      0.0000    707.4079      5.5806
  1405.7500    116.1681      0.0000    706.1898      5.6050
  1406.0000    123.6218      0.0000    704.5114      5.5918
  1406.2500    125.6317      0.0000    702.2755      5.5327
  1406.5000    121.9241      0.0000    700.2397      5.4599
  1406.7500    114.5783      0.0000    699.5334      5.4198
  1407.0000    106.9616      0.0000    700.4493      5.4233
  1407.2500    101.8960      0.0000    701.6639      5.4337
  1407.5000    100.4631      0.0000    700.5297      5.4164
  1407.7500    101.9665      0.0000    693.9760      5.3867
  1408.0000    104.6070      0.0000    679.9128      5.3975
  1408.2500    106.3575      0.0000    659.3524      5.4821
  1408.5000    105.9570      0.0000    637.6580      5.6206
  1408.7500    103.7949      0.0000    622.2495      5.7624
  1409.0000    101.6848      0.0000    617.2030      5.8749
  1409.2500    101.1816      0.0000    619.2801      5.9600
  1409.5000    102.1064      0.0000    620.0775      6.0257
  1409.7500    103.0307      0.0000    613.3934      6.0597
  1410.0000    102.9641      0.0000    600.1960      6.0388
  1410.2500    102.0863      0.0000    585.5854      5.9550
  1410.5000    101.0256      0.0000    572.5875      5.8292
  1410.7500    100.0142      0.0000    560.4543      5.7056
  1411.0000     98.9283      0.0000    546.4893      5.6301
  1411.2500     97.8757      0.0000    527.8010      5.6185
  1411.5000     97.4232      0.0000    503.9054      5.6417
  1411.7500     98.2339      0.0000    478.7781      5.6489
  1412.0000    100.5989      0.0000    458.3108      5.6149
  1412.2500    104.1792      0.0000    445.5324      5.5667
  1412.5000    107.8745      0.0000    439.3885      5.5604
  1412.7500    110.1341      0.0000    437.1695      5.6268
  1413.0000    109.8776      0.0000    436.7465      5.7397
  1413.2500    107.1965      0.0000    437.0000      5.8377
  1413.5000    103.0881      0.0000    437.3972      5.8781
  1413.7500     98.8375      0.0000    437.5707      5.8709
  1414.0000     95.7960      0.0000    437.1191      5.8632
  1414.2500     95.0754      0.0000    435.7180      5.8906
  1414.5000     96.7802      0.0000    433.5078      5.9395
  1414.7500     99.6751      0.0000    431.6404      5.9493
  1415.0000    101.9581      0.0000    432.4073      5.8601
  1415.2500    102.4017      0.0000    438.7675      5.6691
  1415.5000    100.7677      0.0000    453.2059      5.4366
  1415.7500     97.4672      0.0000    475.9683      5.2279
  1416.0000     93.1140      0.0000    503.5407      5.0639
  1416.2500     88.3030      0.0000    529.9915      4.9496
  1416.5000     83.4301      0.0000    551.5826      4.9236
  1416.7500     78.6018      0.0000    570.0659      5.0328
  1417.0000     73.8953      0.0000    590.3001      5.2555
  1417.2500     69.6937      0.0000    614.6747      5.4894
  1417.5000     66.5133     -2.0000    640.5844      5.6276
  1417.7500     64.4990     -2.0000    662.8714      5.6273
  1418.0000     63.3050      0.0000    677.6080      5.5132
  1418.2500     62.4690      0.0000    684.1322      5.3482
  1418.5000     61.7321      0.0000    685.2101      5.2053
  1418.7500     61.1335      0.0000    685.4334      5.1362
  1419.0000     61.1124      0.0000    688.1693      5.1377
  1419.2500     62.5875      0.0000    693.5150      5.1522
  1419.5000     66.6078      0.0000    699.2117      5.1179
  1419.7500     73.6258      0.0000    703.2299      5.0224
  1420.0000     83.0200      0.0000    705.1306      4.9100
  1420.2500     93.2033      0.0000    705.5923      4.8451
  1420.5000    102.0871      0.0000    705.3040      4.8691
  1420.7500    107.8405      0.0000    704.3096      4.9781
  1421.0000    109.8462      0.0000    701.9678      5.1274
  1421.2500    109.0090      0.0000    697.5068      5.2625
  1421.5000    106.8500      0.0000    690.9467      5.3546
  1421.7500    104.2903      0.0000    683.6747      5.4137
  1422.0000    101.3410      0.0000    677.9802      5.4681
  1422.2500     97.7985      0.0000    675.8444      5.5299
  1422.5000     94.1153      0.0000    677.9374      5.5794
  1422.7500     91.4769      0.0000    683.1091      5.5823
  1423.0000     90.8576      0.0000    688.1483      5.5220
  1423.2500     92.0989      0.0000    687.7664      5.4207
  1423.5000     94.1785      0.0000    675.3203      5.3301
  1423.7500     96.3469      0.0000    645.3044      5.3005
  1424.0000     98.6542      0.0000    597.6402      5.3498
  1424.2500    101.2894      0.0000    540.2943      5.4526
  1424.5000    103.8320      0.0000    485.9609      5.5586
  1424.7500    105.5157      0.0000    444.5984      5.6246
  1425.0000    106.1204      0.0000    418.8108      5.6345
  1425.2500    106.2826      0.0000    405.3018      5.5986
  1425.5000    106.8546      0.0000    399.0528      5.5420
  1425.7500    108.0211      0.0000    396.1528      5.4930
  1426.0000    109.0156      0.0000    394.4595      5.4747
  1426.2500    108.7175      0.0000    393.1604      5.5004
  1426.5000    106.6869      0.0000    392.1479      5.5692
  1426.7500    103.7283      0.0000    391.5618      5.6625
  1427.0000    101.3360      0.0000    391.6223      5.7459
  1427.2500    100.4846      0.0000    392.6746      5.7836
  1427.5000    101.0346      0.0000    395.2552      5.7596
  1427.7500    102.2194      0.0000    399.8417      5.6916
  1428.0000    103.2568      0.0000    406.2566      5.6251
  1428.2500    103.3543      0.0000    413.3427      5.6067
  1428.5000    101.7649      0.0000    419.5593      5.6568
  1428.7500     98.4447      0.0000    424.2667      5.7605
  1429.0000     94.5216      0.0000    428.7515      5.8733
  1429.2500     91.6353      0.0000    436.6061      5.9320
  1429.5000     90.6860      0.0000    453.2896      5.8743
  1429.7500     91.2344      0.0000    483.8802      5.6630
  1430.0000     91.8792      0.0000    528.8746      5.3030
  1430.2500     91.0464      0.0000    581.3133      4.8399
  1430.5000     87.7521      0.0000    629.3041      4.3469
  1430.7500     82.1115      0.0000    662.7601      3.9042
  1431.0000     75.2133      0.0000    678.6651      3.5709
  1431.2500     68.2615      0.0000    681.3486      3.3601
  1431.5000     61.7980      0.0000    678.9296      3.2347
  1431.7500     56.0062      0.0000    678.8223      3.1340
  1432.0000     51.5349      0.0000    684.4973      3.0142
  1432.2500     49.3396      0.0000    694.5358      2.8735
  1432.5000     49.6234      0.0000    704.3690      2.7486
  1432.7500     51.5635      0.0000    709.9655      2.6891
  1433.0000     54.2578      0.0000    710.6264      2.7288
  1433.2500     57.3785      0.0000    708.5172      2.8724
  1433.5000     60.7204      0.0000    706.1374      3.1007
  1433.7500     63.8527      0.0000    704.6882      3.3804
  1434.0000     66.7245      0.0000    704.2016      3.6729
  1434.2500     70.0660      0.0000    704.2989      3.9436
  1434.5000     74.5311      0.0000    704.6438      4.1719
  1434.7500     79.6851      0.0000    704.9835      4.3571
  1435.0000     84.3311      0.0000    704.8616      4.5160
  1435.2500     87.7859      0.0000    702.9546      4.6748
  1435.5000     90.6123      0.0000    696.0417      4.8539
  1435.7500     94.1020      0.0000    678.5491      5.0493
  1436.0000     98.8827      0.0000    644.7576      5.2287
  1436.2500    103.9672      0.0000    594.0161      5.3509
  1436.5000    107.5680      0.0000    534.4150      5.3957
  1436.7500    109.0649      0.0000    479.3881      5.3802
  1437.0000    109.6589      0.0000    439.1703      5.3513
  1437.2500    110.7457      0.0000    415.5335      5.3602
