~Version Information
VERS.                      2.0: CWLS Log ASCII Standard - VERSION 2.0
WRAP.                       NO: One line per depth step
~Well Information Block
STRT.FT               258.0000: 
STOP.FT               998.2000: 
STEP.FT                 0.1000: 
NULL.                -999.2500: 
COMP.          Pioneer Natural Resources: COMPANY
WELL.          Piggyback 33-25: WELL
FLD.           Purgatoire River: FIELD
LOC.           1600' FSL & 1800' FEL: LOCATION
PROV.                 Colorado: PROVINCE
CNTY.               Las Animas: COUNTRY
SRVC.                Patterson: SERVICE COMPANY
DATE.          Fri Apr 29 16:11:48 2005: LOG DATE
UWI.           05 071 08233 00: UNIQUE WELL ID
~Curve Information Block
DEPT.FT            0 000 00 00: Depth
DCAL.in                       : CDL Caliper
RHOB.g/cc                     : CDL Bulk Density
RHOC.g/cc                     : CDL Density Correction
DPOR.pu                       : CDL Density Porosity
GR.GAPI                       : Gamma Ray
NPOR.pu                       : Neutron Porosity
~Parameter Information Block
~A  Depth       DCAL        RHOB        RHOC        DPOR         GR         NPOR    
# ...
   747.6000      7.9106      2.4751      0.0474     10.5976     81.7432     23.6916
   747.7000      7.9106      2.4545      0.0015     11.8502     83.7968     24.5315
   747.8000      7.9230      2.4335      0.0194     13.1230     82.4097     24.7842
   747.9000      7.9230      2.4140      0.0177     14.3028     77.3383     24.2125
   748.0000      7.8742      2.4038     -0.0079     14.9234     71.4978     22.9474
   748.1000      7.8742      2.4208     -0.0076     13.8923     67.5467     21.6799
   748.2000      7.8742      2.4665      0.0732     11.1191     66.4836     20.7808
   748.3000      7.8664      2.5157      0.0696      8.1404     66.7002     19.9209
   748.4000      7.8664      2.5472      0.0992      6.2320     66.0857     19.4561
   748.5000      7.8616      2.5578      0.0905      5.5865     65.7546     19.8131
   748.6000      7.8616      2.5552      0.0997      5.7458     65.3952     20.4808
   748.7000      7.8616      2.5514      0.0908      5.9758     62.6495     20.6871
   748.8000      7.8483      2.5532      0.0750      5.8693     59.8651     20.3593
   748.9000      7.8483      2.5525      0.0941      5.9091     62.2735     20.1725
   749.0000      7.8597      2.5379      0.1032      6.7933     68.1149     20.6277
   749.1000      7.8597      2.5164      0.0443      8.0978     71.5668     21.4221
   749.2000      7.8597      2.5080      0.0266      8.6072     70.6549     21.7065
   749.3000      7.8661      2.5174      0.0570      8.0360     66.1744     21.2184
   749.4000      7.8661      2.5314      0.0600      7.1901     61.8290     20.5727
   749.5000      7.8664      2.5341      0.0965      7.0252     61.3546     20.0866
   749.6000      7.8664      2.5171      0.0906      8.0560     64.3612     19.6108
   749.7000      7.8664      2.4909      0.0140      9.6447     67.7798     19.5138
   749.8000      7.8650      2.4735      0.0504     10.6965     69.2091     20.3965
   749.9000      7.8650      2.4637      0.0343     11.2909     71.0645     22.0325
   750.0000      7.8713      2.4535      0.0415     11.9109     75.1779     23.4677
   750.1000      7.8713      2.4496      0.0284     12.1428     76.4810     24.1772
   750.2000      7.8713      2.4590      0.0868     11.5738     72.2548     24.3104
   750.3000      7.8740      2.4767      0.0524     10.5058     66.9555     23.8222
   750.4000      7.8740      2.4953      0.1056      9.3771     65.1969     23.1290
   750.5000      7.8786      2.5062      0.1258      8.7145     67.0597     23.2925
   750.6000      7.8786      2.5077      0.1758      8.6269     71.3063     24.3330
   750.7000      7.8786      2.5069      0.1782      8.6736     78.5209     25.0799
   750.8000      7.8603      2.5088      0.1895      8.5549     86.3312     24.5064
   750.9000      7.8603      2.5118      0.1956      8.3753     90.5484     23.0317
   751.0000      7.8051      2.5112      0.1751      8.4137     92.1368     21.8282
   751.1000      7.8051      2.5108      0.1601      8.4375     90.1608     21.4817
   751.2000      7.8051      2.5191      0.1365      7.9364     81.4243     22.0062
   751.3000      7.8126      2.5295      0.1617      7.3031     69.5625     23.0706
   751.4000      7.8126      2.5302      0.1576      7.2629     61.3768     24.0731
   751.5000      7.8540      2.5238      0.1484      7.6511     60.1468     24.4739
   751.6000      7.8540      2.5176      0.1269      8.0266     64.2885     23.8914
   751.7000      7.8540      2.5147      0.1468      8.1988     68.8293     22.5180
   751.8000      7.8785      2.5168      0.0557      8.0744     70.1854     21.5330
   751.9000      7.8785      2.5195      0.0571      7.9087     68.9348     21.9613
   752.0000      7.8855      2.5151      0.0317      8.1771     66.0671     23.1466
   752.1000      7.8855      2.5052      0.0796      8.7773     62.0517     23.6186
   752.2000      7.8855      2.4952      0.0507      9.3793     58.8232     23.3172
   752.3000      7.8835      2.4909      0.0476      9.6434     57.4886     22.8634
   752.4000      7.8835      2.4900      0.0961      9.6966     57.2083     22.5511
   752.5000      7.8533      2.4839      0.0553     10.0645     57.8907     22.7500
   752.6000      7.8533      2.4761      0.0412     10.5366     60.3399     23.2452
   752.7000      7.8533      2.4802      0.0619     10.2930     63.4733     23.0670
   752.8000      7.8656      2.4988      0.1151      9.1644     65.2531     21.8671
   752.9000      7.8656      2.5226      0.1024      7.7185     66.6307     20.6499
   753.0000      7.8640      2.5417      0.1160      6.5649     68.4305     20.3853
   753.1000      7.8640      2.5424      0.1357      6.5221     67.2782     21.0534
   753.2000      7.8640      2.5261      0.0889      7.5068     63.1333     21.9659
   753.3000      7.8638      2.5183      0.1070      7.9798     61.1362     22.3710
   753.4000      7.8638      2.5334      0.0672      7.0643     61.7011     22.2140
   753.5000      7.8524      2.5560      0.1152      5.6995     60.8941     21.6755
   753.6000      7.8524      2.5641      0.0874      5.2054     58.9749     20.9140
   753.7000      7.8524      2.5637      0.0643      5.2295     58.8804     20.3301
   753.8000      7.8725      2.5749      0.0579      4.5533     59.9192     20.3184
   753.9000      7.8725      2.5916      0.0856      3.5409     60.4168     20.7222
   754.0000      7.8858      2.5873      0.1196      3.8020     59.1401     20.8195
   754.1000      7.8858      2.5595      0.0681      5.4844     57.7266     20.1040
   754.2000      7.8858      2.5359      0.0604      6.9125     59.7805     19.4517
   754.3000      7.8913      2.5400      0.0272      6.6637     63.0529     19.8256
   754.4000      7.8913      2.5679      0.0388      4.9787     63.9747     20.7776
   754.5000      7.9059      2.5933      0.0547      3.4369     62.4243     21.7089
   754.6000      7.9059      2.6011      0.1069      2.9648     59.2418     22.3245
   754.7000      7.9059      2.5951      0.0734      3.3300     56.5626     22.2406
   754.8000      7.8671      2.5792      0.1224      4.2885     56.0472     21.9476
   754.9000      7.8671      2.5668      0.0738      5.0407     55.9174     22.1804
   755.0000      7.8455      2.5768      0.1365      4.4363     56.1606     22.4950
   755.1000      7.8455      2.5964      0.1573      3.2480     59.0946     22.1805
   755.2000      7.8455      2.5963      0.0953      3.2548     62.1151     21.3972
   755.3000      7.8648      2.5708      0.0849      4.7973     62.1971     21.0058
   755.4000      7.8648      2.5418      0.0325      6.5590     60.7624     21.1118
   755.5000      7.8945      2.5354      0.0329      6.9465     58.4373     21.0252
   755.6000      7.8945      2.5503      0.1150      6.0451     55.0530     20.7344
   755.7000      7.8945      2.5639      0.1043      5.2169     52.1539     20.3752
   755.8000      7.9005      2.5678      0.0792      4.9816     51.0191     19.8876
   755.9000      7.9005      2.5652      0.1212      5.1421     51.1863     19.5210
   756.0000      7.8677      2.5596      0.0839      5.4815     51.6583     19.4237
   756.1000      7.8677      2.5601      0.0641      5.4467     50.3048     19.4238
   756.2000      7.8677      2.5618      0.1227      5.3438     46.4198     19.5231
   756.3000      7.8674      2.5454      0.0878      6.3378     45.1593     19.9055
   756.4000      7.8674      2.5192      0.0870      7.9272     48.9554     20.4432
   756.5000      7.8974      2.5126      0.0486      8.3290     52.9979     20.8263
   756.6000      7.8974      2.5354      0.1065      6.9476     55.7893     21.0106
   756.7000      7.8974      2.5689      0.1262      4.9134     59.6591     21.0339
   756.8000      7.8580      2.5933      0.1019      3.4390     61.3251     20.7296
   756.9000      7.8580      2.6045      0.0935      2.7588     57.2096     20.1780
   757.0000      7.8389      2.6029      0.1509      2.8553     51.9564     19.6432
   757.1000      7.8389      2.5888      0.1168      3.7120     48.4025     18.9373
