~Version Information
VERS.                      2.0: CWLS Log ASCII Standard - VERSION 2.0
WRAP.                       NO: One line per depth step
~Well Information Block
STRT.FT               -11.2500: 
STOP.FT              1934.7500: 
STEP.FT                 0.2500: 
NULL.                -999.2500: 
COMP.          Pioneer Natural Resources: COMPANY
WELL.          Commander 43-26 Tr: WELL
FLD.           Purgatorie River: FIELD
LOC.           2439' FSL  & 446' FEL--------: LOCATION
PROV.                       CO: PROVINCE
CNTY.               Las Animas: COUNTRY
SRVC.          Patterson Wireline: SERVICE COMPANY
DATE.          Tue Apr 26 09:07:23 2005: LOG DATE
UWI.           05 071 08341 00: UNIQUE WELL ID
~Curve Information Block
DEPT.FT            0 000 00 00: Depth
CCL.                          : Casing Collar Locator
TT3.usec                      : CBL 3' Travel Time
AMP3.mV                       : CBL 3' Amplitude
GR.GAPI                       : Gamma Ray
~Parameter Information Block
~A  Depth       CCL         TT3         AMP3         GR     
# ...
   357.2500      0.0000    764.8887      2.8527     56.9337
   357.5000      0.0000    765.3928      2.7223     54.3189
   357.7500      0.0000    769.5742      2.6161     52.0772
   358.0000      0.0000    774.6610      2.5515     50.9931
   358.2500      0.0000    778.4100      2.5316     51.5884
   358.5000      0.0000    780.1746      2.5520     53.3973
   358.7500      0.0000    780.4652      2.6064     55.2958
   359.0000      0.0000    780.0572      2.6856     56.6679
   359.2500      0.0000    779.4849      2.7780     57.7388
   359.5000      0.0000    779.0006      2.8745     58.6943
   359.7500      0.0000    778.7068      2.9699     59.1714
   360.0000      0.0000    778.6462      3.0608     58.8569
   360.2500      0.0000    778.8077      3.1458     58.1085
   360.5000      0.0000    779.1124      3.2275     57.7420
   360.7500      0.0000    779.4483      3.3081     58.4069
   361.0000      0.0000    779.7372      3.3840     60.0689
   361.2500      0.0000    779.9728      3.4458     61.8492
   361.5000      0.0000    780.2067      3.4853     62.5598
   361.7500      0.0000    780.5166      3.5041     61.7380
   362.0000      0.0000    781.0610      3.5158     60.0881
   362.2500      0.0000    782.3036      3.5380     58.7791
   362.5000      0.0000    785.3723      3.5826     58.4100
   362.7500      0.0000    792.1057      3.6496     58.7049
   363.0000      0.0000    804.0242      3.7292     59.1059
   363.2500      0.0000    820.2705      3.8083     59.6335
   363.5000      0.0000    836.4516      3.8798     61.0961
   363.7500      0.0000    846.6441      3.9486     64.1382
   364.0000      0.0000    847.7060      4.0274     68.1435
   364.2500      0.0000    841.8251      4.1254     71.8469
   364.5000      0.0000    834.6066      4.2426     75.4631
   364.7500      0.0000    830.7219      4.3757     81.5109
   365.0000      0.0000    831.4664      4.5240     92.5765
   365.2500      0.0000    835.7112      4.6874    108.3276
   365.5000      0.0000    841.7493      4.8655    125.4070
   365.7500      0.0000    847.5013      5.0636    140.2757
   366.0000      0.0000    849.8267      5.2950    151.4605
   366.2500      0.0000    845.3434      5.5713    159.2000
   366.5000      0.0000    833.1183      5.8909    164.1411
   366.7500      0.0000    816.5637      6.2403    166.8867
   367.0000      0.0000    801.8752      6.6050    168.1797
   367.2500      0.0000    793.7197      6.9779    168.9871
   367.5000      0.0000    791.9402      7.3607    170.1942
   367.7500      0.0000    792.2833      7.7598    171.8182
   368.0000      0.0000    790.2365      8.1769    172.6136
   368.2500      0.0000    784.2415      8.6022    171.0518
   368.5000      0.0000    776.0094      9.0161    166.6672
   368.7500      0.0000    768.8576      9.3933    160.0446
   369.0000      0.0000    765.7954      9.7035    151.9640
   369.2500      0.0000    768.1708      9.9145    143.2731
   369.5000      0.0000    775.5899     10.0037    135.0439
   369.7500      0.0000    787.2023      9.9719    127.8962
   370.0000      0.0000    802.6933      9.8480    121.4740
   370.2500      0.0000    821.3434      9.6795    115.3550
   370.5000      0.0000    840.4713      9.5134    110.0789
   370.7500      0.0000    856.0992      9.3733    106.5640
   371.0000      0.0000    865.7595      9.2488    104.8071
   371.2500      0.0000    870.2560      9.1086    103.6718
   371.5000      0.0000    872.4776      8.9270    101.7774
   371.7500      0.0000    874.8438      8.6984     98.3394
   372.0000      0.0000    878.0831      8.4290     93.5188
   372.2500      0.0000    881.8686      8.1234     88.3600
   372.5000      0.0000    885.6357      7.7870     84.2584
   372.7500      0.0000    888.5392      7.4384     82.1436
   373.0000      0.0000    889.4998      7.1101     81.9726
   373.2500      0.0000    888.0649      6.8328     82.9232
   373.5000      0.0000    885.0213      6.6190     83.9885
   373.7500      0.0000    881.7533      6.4615     84.3465
   374.0000      0.0000    879.1733      6.3475     83.4186
   374.2500      0.0000    877.4347      6.2730     81.1531
   374.5000      0.0000    876.3265      6.2453     78.4455
   374.7500      0.0000    875.6418      6.2735     76.5668
   375.0000      0.0000    875.2479      6.3621     75.7213
   375.2500      0.0000    874.9719      6.5100     74.8252
   375.5000      0.0000    874.3818      6.7122     73.2346
   375.7500      0.0000    872.6264      6.9613     72.1205
   376.0000      0.0000    868.7468      7.2499     73.6819
   376.2500      0.0000    862.5345      7.5753     79.3925
   376.5000      0.0000    855.1348      7.9381     89.1062
   376.7500      0.0000    848.4633      8.3313    101.2485
   377.0000      0.0000    843.8726      8.7292    113.6023
   377.2500      0.0000    841.4745      9.0889    124.3840
   377.5000      0.0000    840.5928      9.3737    132.9261
   377.7500      0.0000    840.5128      9.5770    139.3690
   378.0000      0.0000    840.7883      9.7212    143.8219
   378.2500      0.0000    841.1700      9.8313    146.0282
   378.5000      0.0000    841.4938      9.9155    145.8945
   378.7500      0.0000    841.6429      9.9696    144.1422
   379.0000      0.0000    841.5473      9.9906    142.1589
   379.2500      0.0000    841.1950      9.9818    141.0469
   379.5000      0.0000    840.6257      9.9536    140.9945
   379.7500      0.0000    839.8566      9.9223    141.6325
   380.0000      0.0000    838.6943      9.9042    142.7401
   380.2500      0.0000    836.4716      9.9055    144.3086
   380.5000      0.0000    831.9536      9.9222    145.9233
   380.7500      0.0000    823.9009      9.9506    146.4463
   381.0000      0.0000    812.3972      9.9916    144.7699
   381.2500      0.0000    799.7885     10.0446    141.0562
   381.5000      0.0000    789.6814     10.1025    137.0860
   381.7500      0.0000    784.5122     10.1539    135.0562
   382.0000      0.0000    784.3698     10.1859    135.7578
   382.2500      0.0000    788.2220     10.1860    137.9547
   382.5000      0.0000    795.4206     10.1495    139.6702
   382.7500      0.0000    805.4114     10.0874    139.9363
   383.0000      0.0000    816.6229     10.0226    139.0466
   383.2500      0.0000    826.6720      9.9719    137.1568
   383.5000      0.0000    833.8441      9.9375    133.2348
   383.7500      0.0000    837.9737      9.9163    126.0191
   384.0000      0.0000    839.9169      9.9093    116.0049
   384.2500      0.0000    840.6034      9.9172    105.8062
   384.5000      0.0000    840.6418      9.9317     98.1423
   384.7500      0.0000    840.4053      9.9368     93.8603
   385.0000      0.0000    840.1493      9.9165     92.2864
   385.2500      0.0000    840.0326      9.8613     92.8490
   385.5000      0.0000    840.1173      9.7706     95.4889
   385.7500      0.0000    840.3610      9.6493     99.8347
   386.0000      0.0000    840.6278      9.5020    104.9454
   386.2500      0.0000    840.7500      9.3331    109.7805
   386.5000      0.0000    840.6304      9.1511    113.1488
   386.7500      0.0000    840.3098      8.9722    113.2626
   387.0000      0.0000    839.9405      8.8137    108.3293
   387.2500      0.0000    839.6827      8.6834     98.0594
   387.5000      0.0000    839.6047      8.5745     84.2990
   387.7500      0.0000    839.6507      8.4709     70.0215
   388.0000      0.0000    839.6920      8.3594     57.7392
   388.2500      0.0000    839.6269      8.2381     48.6078
   388.5000      0.0000    839.4579      8.1166     42.6199
   388.7500      0.0000    839.2816      8.0082     39.3180
   389.0000      0.0000    839.2054      7.9228     38.1267
   389.2500      0.0000    839.2769      7.8644     38.2700
   389.5000      0.0000    839.4663      7.8329     38.9467
   389.7500      0.0000    839.6816      7.8259     39.8339
   390.0000      0.0000    839.6959      7.8409     41.2414
   390.2500      0.0000    838.9794      7.8773     43.6595
   390.5000      0.0000    836.5607      7.9366     47.3157
