~Version Information
VERS.                      2.0: CWLS Log ASCII Standard - VERSION 2.0
WRAP.                       NO: One line per depth step
~Well Information Block
STRT.FT               492.8000: 
STOP.FT              1992.0000: 
STEP.FT                 0.1000: 
NULL.                -999.2500: 
COMP.          Petrogulf Corporation: COMPANY
WELL.               Furu 6-23R: WELL
FLD.           Purgatoire River: FIELD
LOC.           2211' FSL & 1780' FWL--: LOCATION
CNTY.               Las Animas: COUNTY
SRVC.                Patterson: SERVICE COMPANY
DATE.          Thu Jun 22 14:21:35 2006: LOG DATE
UWI.           05 071 08266 00: UNIQUE WELL ID
STAT.                 Colorado: STATE
~Curve Information Block
DEPT.FT            0 000 00 00: Depth
DCAL.in                       : CDL Caliper
RHOB.g/cc                     : CDL Bulk Density
RHOC.g/cc                     : CDL Density Correction
DPOR.pu                       : CDL Density Porosity
NPOR.pu                       : Neutron Porosity
GR.GAPI                       : Gamma Ray
~Parameter Information Block
~A  Depth       DCAL        RHOB        RHOC        DPOR        NPOR         GR     
# ...
  1760.0000      8.2142      2.5182      0.0385      7.9891     24.2422    125.9024
  1760.1000      8.2142      2.5347      0.0592      6.9852     24.3046    128.5335
  1760.2000      8.2142      2.5571      0.0754      5.6306     24.3267    122.7632
  1760.3000      8.2154      2.5696      0.0854      4.8744     24.1352    112.4741
  1760.4000      8.2154      2.5695      0.0816      4.8797     23.6378    108.7457
  1760.5000      8.2166      2.5728      0.0610      4.6787     22.8936    113.3256
  1760.6000      8.2166      2.5849      0.1100      3.9472     22.3379    117.2418
  1760.7000      8.2166      2.5897      0.0889      3.6551     21.8477    112.4268
  1760.8000      8.2162      2.5856      0.0306      3.9054     20.7752    101.6073
  1760.9000      8.2162      2.5879      0.0670      3.7607     19.5745     93.2358
  1761.0000      8.2155      2.5974      0.0777      3.1875     19.2026     89.7826
  1761.1000      8.2155      2.6054      0.0712      2.7014     19.7918     90.3832
  1761.2000      8.2155      2.6113      0.0833      2.3443     20.7611     95.5385
  1761.3000      8.2164      2.6148      0.0907      2.1352     21.2697    103.8811
  1761.4000      8.2164      2.6151      0.0751      2.1134     21.3000    111.7061
  1761.5000      8.2179      2.6141      0.0683      2.1729     21.7642    114.1720
  1761.6000      8.2179      2.6111      0.0720      2.3568     22.7151    109.3265
  1761.7000      8.2179      2.6098      0.0497      2.4370     23.2246    103.3138
  1761.8000      8.2195      2.6163      0.0851      2.0414     22.8753    101.9649
  1761.9000      8.2195      2.6227      0.0868      1.6572     22.1694    102.1009
  1762.0000      8.2219      2.6183      0.0492      1.9199     21.7737     98.2736
  1762.1000      8.2219      2.6053      0.0612      2.7102     21.8482     91.8319
  1762.2000      8.2219      2.5960      0.0506      3.2697     22.2315     88.8145
  1762.3000      8.2248      2.6039      0.0414      2.7959     22.9116     92.3520
  1762.4000      8.2248      2.6212      0.0957      1.7454     23.3866     99.6301
  1762.5000      8.2255      2.6263      0.0833      1.4392     23.1524    105.5778
  1762.6000      8.2255      2.6177      0.0695      1.9576     22.7192    109.1021
  1762.7000      8.2255      2.6112      0.0741      2.3527     22.5117    112.4278
  1762.8000      8.2236      2.6069      0.0959      2.6097     22.7011    113.3673
  1762.9000      8.2236      2.5906      0.0950      3.6027     23.1884    110.9317
  1763.0000      8.2203      2.5638      0.0227      5.2250     23.5513    110.3065
  1763.1000      8.2203      2.5468      0.0698      6.2536     23.8670    112.0399
  1763.2000      8.2203      2.5492      0.0428      6.1108     23.9813    114.0824
  1763.3000      8.2146      2.5635      0.0632      5.2408     23.6342    116.2300
  1763.4000      8.2146      2.5755      0.0950      4.5179     23.2011    115.9817
  1763.5000      8.2109      2.5780      0.0845      4.3607     22.9078    112.9998
  1763.6000      8.2109      2.5780      0.0960      4.3646     22.6659    108.4552
  1763.7000      8.2109      2.5792      0.0968      4.2912     22.5297    104.1008
  1763.8000      8.2116      2.5747      0.1057      4.5630     22.7733    103.3407
  1763.9000      8.2116      2.5641      0.0475      5.2063     23.2721    104.7905
  1764.0000      8.2138      2.5574      0.0724      5.6116     23.6730    104.9637
  1764.1000      8.2138      2.5523      0.1021      5.9205     23.6276    103.6694
  1764.2000      8.2138      2.5425      0.0829      6.5137     22.9985    101.8073
  1764.3000      8.2162      2.5325      0.0628      7.1215     22.4412     99.5715
  1764.4000      8.2162      2.5229      0.0586      7.7042     22.6909     96.8871
  1764.5000      8.2207      2.5065      0.0488      8.6993     23.4773     94.4537
  1764.6000      8.2207      2.4808      0.0336     10.2533     23.9539     93.4877
  1764.7000      8.2207      2.4593      0.0238     11.5576     23.9219     93.7236
  1764.8000      8.2230      2.4548      0.0613     11.8325     23.7310     94.3238
  1764.9000      8.2230      2.4596      0.0286     11.5382     23.5254     93.6810
  1765.0000      8.2217      2.4636      0.0457     11.2982     23.2693     90.8864
  1765.1000      8.2217      2.4664      0.0213     11.1293     22.9427     90.5670
  1765.2000      8.2217      2.4689      0.0671     10.9785     22.6818     95.8922
  1765.3000      8.2229      2.4739      0.0369     10.6730     22.6190    102.3590
  1765.4000      8.2229      2.4881      0.0747      9.8144     22.7115    105.6835
  1765.5000      8.2276      2.5071      0.0757      8.6635     22.9314    103.6527
  1765.6000      8.2276      2.5154      0.1121      8.1564     22.8591     97.2287
  1765.7000      8.2276      2.5081      0.0963      8.6027     22.0731     93.4006
  1765.8000      8.2326      2.4942      0.0735      9.4419     21.1071     94.4204
  1765.9000      8.2326      2.4732      0.1294     10.7131     20.6063     96.0624
  1766.0000      8.2366      2.4460      0.0467     12.3612     20.5583     96.8937
  1766.1000      8.2366      2.4346      0.0732     13.0521     20.7142     98.7989
  1766.2000      8.2366      2.4454      0.0926     12.3981     21.0143     99.6068
  1766.3000      8.2375      2.4614      0.0904     11.4308     21.4175     95.2508
  1766.4000      8.2375      2.4753      0.0629     10.5898     21.7506     86.2288
  1766.5000      8.2360      2.4884      0.1146      9.7920     21.9503     77.4213
  1766.6000      8.2360      2.4941      0.1006      9.4499     21.8073     73.2144
  1766.7000      8.2360      2.4892      0.1110      9.7425     21.3227     74.4417
  1766.8000      8.2337      2.4884      0.0611      9.7956     20.8586     77.0577
  1766.9000      8.2337      2.5053      0.1079      8.7679     20.4767     76.3368
  1767.0000      8.2339      2.5271      0.1274      7.4494     20.3503     74.0070
  1767.1000      8.2339      2.5334      0.1238      7.0684     20.6463     73.2217
  1767.2000      8.2339      2.5252      0.0772      7.5633     20.9429     73.3281
  1767.3000      8.2374      2.5141      0.0558      8.2351     20.9780     74.4494
  1767.4000      8.2374      2.5038      0.0432      8.8582     20.9648     76.1678
  1767.5000      8.2472      2.4954      0.0568      9.3691     21.0394     76.3340
  1767.6000      8.2472      2.4914      0.0496      9.6111     21.3516     75.1727
  1767.7000      8.2472      2.4949      0.0717      9.4028     21.9668     74.4497
  1767.8000      8.2644      2.5045      0.0582      8.8207     22.4326     74.7723
  1767.9000      8.2644      2.5112      0.0634      8.4101     22.6351     75.7992
  1768.0000      8.2792      2.5123      0.0267      8.3467     22.9126     76.6367
  1768.1000      8.2792      2.5172      0.0662      8.0462     23.0224     75.8497
  1768.2000      8.2792      2.5288      0.0328      7.3452     22.6112     75.0989
  1768.3000      8.2879      2.5393      0.0760      6.7069     22.1225     76.1266
  1768.4000      8.2879      2.5423      0.0631      6.5244     21.8987     76.4443
  1768.5000      8.2927      2.5367      0.0784      6.8660     21.7664     76.3610
  1768.6000      8.2927      2.5256      0.0519      7.5386     21.7766     78.0638
  1768.7000      8.2927      2.5172      0.0672      8.0482     22.0096     80.1232
  1768.8000      8.2964      2.5180      0.0420      7.9981     22.3070     80.8985
  1768.9000      8.2964      2.5294      0.0340      7.3121     22.8529     80.0253
  1769.0000      8.2983      2.5454      0.0691      6.3371     23.8630     78.8177
  1769.1000      8.2983      2.5533      0.0696      5.8634     25.1863     78.9297
  1769.2000      8.2983      2.5362      0.0705      6.8955     26.5176     80.6310
  1769.3000      8.2976      2.4858      0.0172      9.9520     27.5253     84.7318
  1769.4000      8.2976      2.4091      0.0190     14.6002     28.1923     90.8439
  1769.5000      8.2968      2.3162     -0.0294     20.2299     28.9520     96.0828
