~Version Information
VERS.                      2.0: CWLS Log ASCII Standard - VERSION 2.0
WRAP.                       NO: One line per depth step
~Well Information Block
STRT.FT                -0.2500: 
STOP.FT              2376.7500: 
STEP.FT                 0.2500: 
NULL.                -999.2500: 
COMP.          Petrogulf Corporation: COMPANY
WELL.             State 16-23V: WELL
FLD.           Purgatorie River: FIELD
LOC.           2414' FSL & 2215' FWL: LOCATION
PROV.                 Colorado: PROVINCE
CNTY.               Las Animas: COUNTRY
SRVC.          Patterson Wireline: SERVICE COMPANY
DATE.          Wed Jun 25 14:56:54 2003: LOG DATE
UWI.           05 071 07865 00: UNIQUE WELL ID
~Curve Information Block
DEPT.FT            0 000 00 00: Depth
CCL.                          : Casing Collar Locator
TT3.usec                      : CBL 3' Travel Time
AMP3.mV                       : CBL 3' Amplitude
GR.GAPI                       : Gamma Ray
~Parameter Information Block
~A  Depth       CCL         TT3         AMP3         GR     
# ...
   301.2500      0.0000    257.0765     83.0806    115.3841
   301.5000      0.0000    257.1125     83.1226    116.7143
   301.7500      0.0000    257.2177     83.1106    117.4141
   302.0000      0.0000    257.3711     83.0452    116.5820
   302.2500      0.0000    257.5236     82.9601    113.7848
   302.5000      0.0000    257.6163     82.9038    109.7833
   302.7500      0.0000    257.6175     82.9124    106.2906
   303.0000      0.0000    257.5378     82.9794    104.7457
   303.2500      0.0000    257.4122     83.0474    105.2558
   303.5000      0.0000    257.2766     83.0433    106.9289
   303.7500      0.0000    257.1591     82.9290    109.2050
   304.0000      0.0000    257.0767     82.7319    112.4466
   304.2500      0.0000    257.0324     82.5405    116.9657
   304.5000      0.0000    257.0208     82.4492    121.6992
   304.7500      0.0000    257.0408     82.4721    124.4281
   305.0000      0.0000    257.1037     82.5163    123.8038
   305.2500      0.0000    257.2243     82.4757    120.9748
   305.5000      0.0000    257.4002     82.3520    118.7108
   305.7500      0.0000    257.5993     82.2584    118.9342
   306.0000      0.0000    257.7735     82.2956    121.1954
   306.2500      0.0000    257.8876     82.4438    123.2191
   306.5000      0.0000    257.9323     82.5768    122.9055
   306.7500      0.0000    257.9146     82.5658    120.2917
   307.0000      0.0000    257.8470     82.3818    117.6830
   307.2500      0.0000    257.7495     82.1293    117.3465
   307.5000      0.0000    257.6497     81.9847    118.9039
   307.7500      0.0000    257.5717     82.0617    119.5312
   308.0000      0.0000    257.5205     82.3076    116.9482
   308.2500      0.0000    257.4822     82.5393    111.7156
   308.5000      0.0000    257.4375     82.5969    106.4163
   308.7500      0.0000    257.3794     82.4645    103.2515
   309.0000      0.0000    257.3236     82.2559    102.7484
   309.2500      0.0000    257.2983     82.1113    103.9780
   309.5000      0.0000    257.3148     82.1002    105.2104
   309.7500      0.0000    257.3498     82.1851    104.8206
   310.0000      0.0000    257.3617     82.2600    102.4568
   310.2500      0.0000    257.3250     82.2374     99.3403
   310.5000      0.0000    257.2501     82.1130     97.0799
   310.7500      0.0000    257.1755     81.9639     96.4706
   311.0000      0.0000    257.1405     81.8874     97.6744
   311.2500      0.0000    257.1591     81.9274    100.7839
   311.5000      0.0000    257.2127     82.0412    105.3933
   311.7500      0.0000    257.2688     82.1316    109.9473
   312.0000      0.0000    257.3067     82.1232    112.3112
   312.2500      0.0000    257.3264     82.0267    111.1837
   312.5000      0.0000    257.3383     81.9301    106.8000
   312.7500      0.0000    257.3538     81.9186    100.5807
   313.0000      0.0000    257.3820     81.9993     94.5934
   313.2500      0.0000    257.4255     82.1119     90.9544
   313.5000      0.0000    257.4805     82.2090     90.7782
   313.7500      0.0000    257.5443     82.3056     93.4630
   314.0000      0.0000    257.6141     82.4366     97.4047
   314.2500      0.0000    257.6747     82.5731    101.2790
   314.5000      0.0000    257.7013     82.6097    104.3304
   314.7500      0.0000    257.6848     82.4651    105.8426
   315.0000      0.0000    257.6480     82.1968    105.1673
   315.2500      0.0000    257.6299     81.9779    102.5375
   315.5000      0.0000    257.6498     81.9315     99.4507
   315.7500      0.0000    257.6918     82.0074     97.6883
   316.0000      0.0000    257.7221     82.0545     97.9471
   316.2500      0.0000    257.7229     81.9962     99.8103
   316.5000      0.0000    257.7038     81.8967    102.8083
   316.7500      0.0000    257.6823     81.8602    106.6533
   317.0000      0.0000    257.6622     81.9068    110.3034
   317.2500      0.0000    257.6322     81.9598    111.8463
   317.5000      0.0000    257.5736     81.9316    110.2038
   317.7500      0.0000    257.4745     81.8070    106.5032
   318.0000      0.0000    257.3513     81.6438    103.0302
   318.2500      0.0000    257.2535     81.5084    101.1356
   318.5000      0.0000    257.2354     81.4265    100.7509
   318.7500      0.0000    257.3167     81.3968    101.2995
   319.0000      0.0000    257.4664     81.4274    102.0628
   319.2500      0.0000    257.6258     81.5330    101.9558
   319.5000      0.0000    257.7523     81.6968    100.1537
   319.7500      0.0000    257.8391     81.8556     97.2155
   320.0000      0.0000    257.8938     81.9461     94.9803
   320.2500      0.0000    257.9123     81.9652     95.0492
   320.5000      0.0000    257.8759     81.9676     97.5706
   320.7500      0.0000    257.7693     81.9992    101.4174
   321.0000      0.0000    257.6006     82.0384    105.1763
   321.2500      0.0000    257.4114     82.0091    107.8833
   321.5000      0.0000    257.2627     81.8605    109.2500
   321.7500      0.0000    257.2064     81.6418    109.6442
   322.0000      0.0000    257.2622     81.4858    109.8868
   322.2500      0.0000    257.4091     81.4984    110.9706
   322.5000      0.0000    257.5911     81.6653    113.8191
   322.7500      0.0000    257.7386     81.8859    118.7869
   323.0000      0.0000    257.7988     82.0869    124.9770
   323.2500      0.0000    257.7620     82.2574    130.3098
   323.5000      0.0000    257.6824     82.3147    132.8367
   323.7500      0.0000    257.6871     81.9277    132.0575
   324.0000      0.0000    257.9487     80.4862    128.8849
   324.2500      0.0000    258.5983     77.3217    124.7636
   324.5000      0.0000    259.6218     72.1438    121.0956
   324.7500      0.0000    260.8342     65.4680    118.8828
   325.0000      0.0000    261.9791     58.6016    118.3076
   325.2500      0.0000    262.8690     52.9708    118.6027
   325.5000      2.0000    263.4482     49.2915    118.4622
   325.7500      0.0000    263.7601     47.3663    116.7910
   326.0000      0.0000    263.8798     46.5647    113.3741
   326.2500     -2.0000    263.8619     46.3549    108.9934
   326.5000      0.0000    263.7186     46.5098    104.9267
   326.7500      0.0000    263.4193     47.0996    102.3288
   327.0000      0.0000    262.8992     48.3908    101.7951
   327.2500      0.0000    262.0851     50.6828    103.0143
   327.5000      0.0000    260.9620     54.1973    104.7202
   327.7500      0.0000    259.6532     59.0249    105.3516
   328.0000      0.0000    258.4114     64.8937    104.1964
   328.2500      0.0000    257.4860     70.9232    101.9176
   328.5000      0.0000    256.9744     75.9215     99.7352
   328.7500      0.0000    256.7902     79.1519     98.1699
   329.0000      0.0000    256.7563     80.7271     97.0351
   329.2500      0.0000    256.7299     81.2624     96.5189
   329.5000      0.0000    256.6680     81.3181     97.4403
   329.7500      0.0000    256.6110     81.1880    100.1470
   330.0000      0.0000    256.6109     81.0135    103.8137
   330.2500      0.0000    256.6667     80.9056    107.1744
   330.5000      0.0000    256.7224     80.9376    109.5838
   330.7500      0.0000    256.7221     81.1106    111.1870
   331.0000      0.0000    256.6650     81.3803    112.4314
   331.2500      0.0000    256.6043     81.6931    113.6042
   331.5000      0.0000    256.5926     81.9783    114.6391
   331.7500      0.0000    256.6288     82.1548    115.2164
   332.0000      0.0000    256.6657     82.1937    115.0722
   332.2500      0.0000    256.6648     82.1699    114.2251
   332.5000      0.0000    256.6328     82.2060    113.0218
   332.7500      0.0000    256.6012     82.3466    112.0593
   333.0000      0.0000    256.5851     82.5106    111.8366
   333.2500      0.0000    256.5724     82.5780    112.2582
   333.5000      0.0000    256.5523     82.4953    112.7737
   333.7500      0.0000    256.5400     82.2850    113.1392
   334.0000      0.0000    256.5595     82.0057    113.6394
   334.2500      0.0000    256.6015     81.7500    114.4031
   334.5000      0.0000    256.6235     81.6466    114.8806
