~Version Information
VERS.                      2.0: CWLS Log ASCII Standard - VERSION 2.0
WRAP.                       NO: One line per depth step
~Well Information Block
STRT.FT                 0.5000: 
STOP.FT              2744.2500: 
STEP.FT                 0.2500: 
NULL.                -999.2500: 
COMP.          Petrogulf Corporation: COMPANY
WELL.              Silva 1-43V: WELL
FLD.           Purgatoire River: FIELD
LOC.           2010' FSL & 614' FEL--: LOCATION
PROV.                 Colorado: PROVINCE
CNTY.               Las Animas: COUNTRY
SRVC.                Patterson: SERVICE COMPANY
DATE.          Mon Sep 12 10:37:12 2005: LOG DATE
UWI.           05 071 08371 00: UNIQUE WELL ID
~Curve Information Block
DEPT.FT            0 000 00 00: Depth
CCL.                          : Casing Collar Locator
TT3.usec                      : CBL 3' Travel Time
AMP3.mV                       : CBL 3' Amplitude
GR.GAPI                       : Gamma Ray
~Parameter Information Block
~A  Depth       CCL         TT3         AMP3         GR     
# ...
   737.5000      0.0000    763.3820      7.2654     82.3066
   737.7500      0.0000    749.4497      7.1120     81.0177
   738.0000      0.0000    743.8048      7.0439     83.2319
   738.2500      0.0000    745.1916      6.9715     90.0196
   738.5000      0.0000    749.0651      6.8482    101.1929
   738.7500      0.0000    752.3358      6.6866    114.5608
   739.0000      0.0000    754.3578      6.5233    126.9836
   739.2500      0.0000    755.3804      6.3907    136.4370
   739.5000      0.0000    755.5466      6.3131    142.9923
   739.7500      0.0000    754.8522      6.3072    148.2137
   740.0000      0.0000    753.3973      6.3696    153.9609
   740.2500      0.0000    751.5464      6.4647    161.1753
   740.5000      0.0000    749.7596      6.5334    168.8195
   740.7500      0.0000    748.1750      6.5260    174.0305
   741.0000      0.0000    746.5878      6.4341    174.2829
   741.2500      0.0000    744.6479      6.2915    170.0503
   741.5000      0.0000    741.8164      6.1460    165.0385
   741.7500      0.0000    737.5535      6.0345    163.2002
   742.0000      0.0000    732.0709      5.9800    165.3874
   742.2500      0.0000    726.4747      5.9938    169.0300
   742.5000      0.0000    721.8725      6.0708    170.7808
   742.7500      0.0000    718.9349      6.1873    169.2379
   743.0000      0.0000    718.2578      6.3103    165.6577
   743.2500      0.0000    720.2585      6.4131    162.6303
   743.5000      0.0000    724.6177      6.4837    161.9741
   743.7500      0.0000    730.3679      6.5230    163.7074
   744.0000      0.0000    736.6438      6.5340    166.8139
   744.2500      0.0000    743.4087      6.5163    170.1895
   744.5000      0.0000    751.5617      6.4737    172.4403
   744.7500      0.0000    761.8160      6.4257    171.9795
   745.0000      0.0000    772.9600      6.4044    168.4811
   745.2500      0.0000    781.7771      6.4324    163.5832
   745.5000      0.0000    785.2981      6.5008    159.3484
   745.7500      0.0000    782.9985      6.5729    156.6483
   746.0000      0.0000    776.6506      6.6144    155.3147
   746.2500      0.0000    768.6837      6.6183    154.8506
   746.5000      0.0000    761.5242      6.5995    154.4521
   746.7500      0.0000    758.1427      6.5675    153.1687
   747.0000      0.0000    761.3865      6.5141    150.7948
   747.2500      0.0000    771.6841      6.4320    148.2931
   747.5000      0.0000    786.5472      6.3385    146.7533
   747.7500      0.0000    802.8439      6.2695    146.0580
   748.0000      0.0000    817.8785      6.2477    145.2029
   748.2500      0.0000    827.4828      6.2630    143.9232
   748.5000      0.0000    825.6381      6.2870    143.1864
   748.7500      0.0000    808.7955      6.2999    143.6928
   749.0000      0.0000    780.2153      6.3028    144.5774
   749.2500      0.0000    748.3922      6.3079    144.3623
   749.5000      0.0000    721.2972      6.3221    142.9611
   749.7500      0.0000    702.6838      6.3424    141.9618
   750.0000      0.0000    692.5234      6.3621    142.8727
   750.2500      0.0000    688.8073      6.3811    145.6390
   750.5000      0.0000    688.6238      6.4113    148.7094
   750.7500      0.0000    689.2233      6.4729    149.8797
   751.0000      0.0000    689.6506      6.5841    147.3545
   751.2500      0.0000    691.5441      6.7515    141.0997
   751.5000      0.0000    697.7081      6.9723    133.3772
   751.7500      0.0000    709.2286      7.2438    127.2918
   752.0000      0.0000    723.7445      7.5680    124.5368
   752.2500      0.0000    736.6406      7.9392    124.6131
   752.5000      0.0000    743.9863      8.3267    125.8468
   752.7500      0.0000    744.1572      8.6767    126.6770
   753.0000      0.0000    737.3600      8.9409    126.2664
   753.2500      0.0000    725.2100      9.1055    124.7488
   753.5000      0.0000    711.1233      9.1908    123.1545
   753.7500      0.0000    699.8175      9.2260    122.5937
   754.0000      0.0000    695.3708      9.2306    123.2159
   754.2500      0.0000    699.4274      9.2144    124.1838
   754.5000      0.0000    710.5320      9.1814    124.5888
   754.7500      0.0000    724.6664      9.1258    124.0391
   755.0000      0.0000    737.1697      9.0287    122.6043
   755.2500      0.0000    745.4982      8.8659    120.7268
   755.5000      0.0000    750.9292      8.6241    119.0632
   755.7500      0.0000    757.5767      8.3158    117.9523
   756.0000      0.0000    768.9078      7.9795    116.9616
   756.2500      0.0000    784.5379      7.6619    115.1371
   756.5000      0.0000    800.7285      7.3918    111.7497
   756.7500      0.0000    814.0579      7.1694    106.8655
   757.0000      0.0000    823.7763      6.9760    101.3185
   757.2500      0.0000    830.7531      6.7943     96.2669
   757.5000      0.0000    836.3416      6.6170     92.8465
   757.7500      0.0000    843.5083      6.4409     92.0604
   758.0000      0.0000    856.9065      6.2606     94.4852
   758.2500      0.0000    877.7947      6.0717     99.7355
   758.5000      0.0000    897.8882      5.8767    106.3282
   758.7500      0.0000    901.6239      5.6849    112.4244
   759.0000      0.0000    877.7642      5.5091    116.8883
   759.2500      0.0000    829.4243      5.3645    119.6942
   759.5000      0.0000    772.3439      5.2651    121.4241
   759.7500      0.0000    723.4155      5.2136    122.3786
   760.0000      0.0000    690.9981      5.1977    122.1587
   760.2500      0.0000    674.8463      5.2031    120.0442
   760.5000      0.0000    672.0642      5.2327    115.6735
   760.7500      0.0000    681.0229      5.3103    109.5952
   761.0000      0.0000    700.3344      5.4640    103.4360
   761.2500      0.0000    725.7380      5.7070     99.2472
   761.5000      0.0000    749.4596      6.0360     98.0429
   761.7500      0.0000    764.0460      6.4435     98.7160
   762.0000      0.0000    767.4969      6.9285     98.6939
   762.2500      0.0000    763.8661      7.4930     96.0197
   762.5000      0.0000    758.8444      8.1297     90.8076
   762.7500      0.0000    755.6190      8.8189     84.7993
   763.0000      0.0000    754.4449      9.5416     79.8060
   763.2500      0.0000    754.3630     10.2971     76.5391
   763.5000      0.0000    754.2162     11.1040     74.4663
   763.7500      0.0000    752.3499     11.9767     72.5481
   764.0000      0.0000    745.9385     12.8958     70.2535
   764.2500      0.0000    731.5844     13.7945     67.8767
   764.5000      0.0000    708.4290     14.5727     65.8688
   764.7500      0.0000    681.2195     15.1402     64.2178
   765.0000      0.0000    658.3358     15.4656     62.7107
   765.2500      0.0000    645.7443     15.5815     61.3940
   765.5000      0.0000    644.7842     15.5352     60.4311
   765.7500      0.0000    654.9791     15.3391     59.8491
   766.0000      0.0000    674.4194     14.9784     59.7285
   766.2500      0.0000    697.6338     14.4540     60.4060
   766.5000      0.0000    717.9362     13.7979     62.3817
   766.7500      0.0000    732.4523     13.0526     66.2879
   767.0000      0.0000    742.5052     12.2571     72.9135
   767.2500      0.0000    749.8356     11.4551     82.9621
   767.5000      0.0000    754.4553     10.7036     96.7111
   767.7500      0.0000    755.7867     10.0625    113.9007
   768.0000      0.0000    754.4586      9.5679    133.4346
   768.2500      0.0000    752.5406      9.2068    152.8176
   768.5000      0.0000    752.1754      8.9108    168.4489
   768.7500      0.0000    754.1129      8.5892    177.2583
   769.0000      0.0000    758.7708      8.1850    178.1779
   769.2500      0.0000    770.2003      7.7123    172.0331
   769.5000      0.0000    797.9339      7.2404    160.5920
   769.7500      0.0000    850.2788      6.8480    145.8447
   770.0000      0.0000    921.9863      6.5837    129.5104
   770.2500     -2.0000    991.0717      6.4457    112.8834
   770.5000      0.0000   1034.1782      6.3858     97.3259
   770.7500      2.0000   1044.9017      6.3411     84.7237
