~Version Information
VERS.                      2.0: CWLS Log ASCII Standard - VERSION 2.0
WRAP.                       NO: One line per depth step
~Well Information Block
STRT.FT                12.0000: 
STOP.FT              1671.7500: 
STEP.FT                 0.2500: 
NULL.                -999.2500: 
COMP.          Pioneer Natural Resources: COMPANY
WELL.          Scott Canyon 11-18 Tr: WELL
FLD.           Purgatoire River: FIELD
LOC.           411' FNL & 580' FWL: LOCATION
PROV.                 Colorado: PROVINCE
CNTY.               Las Animas: COUNTRY
SRVC.                Patterson: SERVICE COMPANY
DATE.          Tue Feb 22 09:52:18 2005: LOG DATE
UWI.           05 071 08286 00: UNIQUE WELL ID
~Curve Information Block
DEPT.FT            0 000 00 00: Depth
GR.GAPI                       : Gamma Ray
CCL.                          : Casing Collar Locator
TT3.usec                      : CBL 3' Travel Time
AMP3.mV                       : CBL 3' Amplitude
~Parameter Information Block
~A  Depth        GR         CCL         TT3         AMP3    
# ...
   112.5000     66.3496      0.0000   1458.0000     28.4076
   112.7500     73.4845      0.0000   1458.0000     27.5765
   113.0000     82.9385      0.0000   1458.0000     26.7742
   113.2500     92.6069      0.0000   1458.0000     26.0843
   113.5000    100.9662      0.0000   1458.0000     25.4916
   113.7500    107.1781      0.0000   1458.0000     24.9753
   114.0000    111.1383      0.0000   1458.0000     24.5894
   114.2500    113.4800      0.0000   1458.0000     24.4145
   114.5000    114.9130      0.0000   1458.0000     24.4412
   114.7500    115.3533      0.0000   1458.0000     24.5346
   115.0000    114.1152      0.0000   1458.0000     24.5235
   115.2500    111.1538      0.0000   1458.0000     24.3260
   115.5000    107.7303      0.0000   1458.0000     23.9972
   115.7500    105.6430      0.0000   1458.0000     23.6665
   116.0000    106.0459      0.0000   1458.0000     23.4303
   116.2500    108.8643      0.0000   1458.0000     23.3011
   116.5000    112.7653      0.0000   1458.0000     23.2542
   116.7500    115.7006      0.0000   1458.0000     23.3058
   117.0000    116.3099      0.0000   1458.0000     23.5217
   117.2500    115.2495      0.0000   1458.0000     23.9518
   117.5000    114.6528      0.0000   1458.0000     24.5683
   117.7500    115.8707      0.0000   1458.0000     25.2655
   118.0000    117.9800      0.0000   1458.0000     25.9137
   118.2500    118.7072      0.0000   1458.0000     26.4255
   118.5000    116.5700      0.0000   1458.0000     26.7836
   118.7500    112.0876      0.0000   1458.0000     27.0103
   119.0000    107.3293      0.0000   1458.0000     27.1167
   119.2500    104.4205      0.0000   1458.0000     27.0905
   119.5000    104.0694      0.0000   1458.0000     26.9301
   119.7500    105.1441      0.0000   1458.0000     26.6767
   120.0000    105.5766      0.0000   1458.0000     26.4066
   120.2500    103.9861      0.0000   1458.0000     26.1975
   120.5000    100.8002      0.0000   1458.0000     26.1000
   120.7500     97.7806      0.0000   1458.0000     26.1235
   121.0000     96.3059      0.0000   1458.0000     26.2324
   121.2500     96.1476      0.0000   1458.0000     26.3510
   121.5000     95.8660      0.0000   1457.9281     26.3844
   121.7500     94.1737      0.0000   1457.5314     26.2536
   122.0000     90.9005      0.0000   1455.6204     25.9261
   122.2500     86.9072      0.0000   1448.5884     25.4064
   122.5000     83.2670      0.0000   1429.0103     24.6835
   122.7500     80.4528      0.0000   1388.4574     23.6725
   123.0000     78.0953      0.0000   1328.0773     22.2530
   123.2500     75.4356      0.0000   1268.9635     20.4469
   123.5000     72.0645      0.0000   1243.7936     18.5554
   123.7500     68.2728      0.0000   1268.9635     16.9936
   124.0000     64.7169      0.0000   1328.0773     15.9438
   124.2500     61.8476      0.0000   1388.4574     15.2732
   124.5000     59.7335      0.0000   1429.0103     14.7841
   124.7500     58.3265      0.0000   1448.5884     14.4053
   125.0000     57.5892      0.0000   1455.5549     14.1452
   125.2500     57.2080      0.0000   1457.1046     14.0167
   125.5000     56.4907      0.0000   1455.7604     14.0738
   125.7500     54.9030      0.0000   1449.4265     14.4941
   126.0000     52.7220      0.0000   1431.5919     15.5628
   126.2500     50.9904      0.0000   1394.6504     17.4532
   126.5000     50.7333      0.0000   1339.6473     19.9269
   126.7500     52.1673      0.0000   1285.7979     22.3235
   127.0000     54.6702      0.0000   1262.8694     23.9986
   127.2500     57.4946      0.0000   1285.7979     24.7719
   127.5000     60.2500      0.0000   1339.6473     24.9143
   127.7500     62.5291      0.0000   1394.6504     24.7983
   128.0000     63.5371      0.0000   1431.5919     24.6400
   128.2500     62.7758      0.0000   1449.4265     24.4854
   128.5000     61.0711      0.0000   1455.8323     24.3160
   128.7500     60.3237      0.0000   1457.5731     24.1288
   129.0000     61.9557      0.0000   1457.9346     23.9467
   129.2500     65.5797      0.0000   1458.0000     23.7941
   129.5000     69.1067      0.0000   1458.0000     23.6811
   129.7500     70.3036      0.0000   1458.0000     23.6074
   130.0000     68.6248      0.0000   1458.0000     23.5689
   130.2500     65.5333      0.0000   1458.0000     23.5683
   130.5000     62.9065      0.0000   1458.0000     23.6201
   130.7500     61.3903      0.0000   1458.0000     23.7430
   131.0000     60.4257      0.0000   1458.0000     23.9468
   131.2500     59.3647      0.0000   1458.0000     24.2384
   131.5000     58.0510      0.0000   1458.0000     24.6353
   131.7500     56.5338      0.0000   1458.0000     25.1540
   132.0000     54.8080      0.0000   1458.0000     25.7699
   132.2500     53.0374      0.0000   1458.0000     26.4012
   132.5000     51.8142      0.0000   1458.0000     26.9514
   132.7500     51.9444      0.0000   1458.0000     27.3708
   133.0000     53.7765      0.0000   1458.0000     27.6758
   133.2500     56.7153      0.0000   1458.0000     27.9196
   133.5000     59.6189      0.0000   1458.0000     28.1539
   133.7500     61.7602      0.0000   1458.0000     28.4124
   134.0000     63.2062      0.0000   1458.0000     28.7104
   134.2500     64.3547      0.0000   1458.0000     29.0325
   134.5000     65.5142      0.0000   1458.0000     29.3091
   134.7500     66.9119      0.0000   1458.0000     29.4286
   135.0000     68.5739      0.0000   1458.0000     29.3130
   135.2500     70.0386      0.0000   1458.0000     28.9985
   135.5000     70.5882      0.0000   1458.0000     28.6211
   135.7500     69.9824      0.0000   1458.0000     28.3095
   136.0000     68.8043      0.0000   1458.0000     28.1018
   136.2500     67.8733      0.0000   1458.0000     27.9597
   136.5000     67.3829      0.0000   1458.0000     27.8363
   136.7500     66.9838      0.0000   1458.0000     27.7133
   137.0000     66.7787      0.0000   1458.0000     27.5852
   137.2500     67.6536      0.0000   1458.0000     27.4269
   137.5000     70.0430      0.0000   1458.0000     27.1910
   137.7500     72.6308      0.0000   1458.0000     26.8474
   138.0000     73.0447      0.0000   1458.0000     26.4291
   138.2500     70.1483      0.0000   1458.0000     26.0262
   138.5000     65.2795      0.0000   1458.0000     25.7205
   138.7500     60.9634      0.0000   1458.0000     25.5306
   139.0000     58.6661      0.0000   1458.0000     25.4248
   139.2500     57.9889      0.0000   1458.0000     25.3639
   139.5000     57.6771      0.0000   1458.0000     25.3153
   139.7500     56.9273      0.0000   1458.0000     25.2422
   140.0000     55.7948      0.0000   1458.0000     25.1048
   140.2500     54.7502      0.0000   1458.0000     24.8811
   140.5000     54.1087      0.0000   1458.0000     24.5842
   140.7500     53.9350      0.0000   1458.0000     24.2547
   141.0000     54.3341      0.0000   1458.0000     23.9339
   141.2500     55.6244      0.0000   1458.0000     23.6436
   141.5000     58.0428      0.0000   1458.0000     23.3865
   141.7500     61.3180      0.0000   1458.0000     23.1606
   142.0000     64.7819      0.0000   1458.0000     22.9687
   142.2500     68.0174      0.0000   1458.0000     22.8162
   142.5000     71.2367      0.0000   1458.0000     22.7065
   142.7500     74.9498      0.0000   1458.0000     22.6425
   143.0000     79.3437      0.0000   1458.0000     22.6328
   143.2500     83.9049      0.0000   1458.0000     22.6937
   143.5000     87.5842      0.0000   1458.0000     22.8396
   143.7500     89.5869      0.0000   1458.0000     23.0611
   144.0000     90.3025      0.0000   1458.0000     23.3174
   144.2500     91.2090      0.0000   1458.0000     23.5667
   144.5000     93.4641      0.0000   1458.0000     23.8097
   144.7500     96.6826      0.0000   1458.0000     24.0955
   145.0000     99.3067      0.0000   1458.0000     24.4885
   145.2500    100.0569      0.0000   1458.0000     25.0314
   145.5000     98.9048      0.0000   1458.0000     25.7277
   145.7500     96.9109      0.0000   1458.0000     26.5417
