~Version Information
VERS.                      2.0: CWLS Log ASCII Standard - VERSION 2.0
WRAP.                       NO: One line per depth step
~Well Information Block
STRT.FT               930.0000: 
STOP.FT              2783.2000: 
STEP.FT                 0.1000: 
NULL.                -999.2500: 
COMP.          Pioneer Natural Resources: COMPANY
WELL.           Desoto 13-7TR: WELL
FLD.           Purgatoire River: FIELD
LOC.           1404' FSL & 1115' FWL: LOCATION
PROV.                 Colorado: PROVINCE
CNTY.               Las Animas: COUNTRY
SRVC.                Patterson: SERVICE COMPANY
DATE.          Fri Jan 14 14:42:18 2005: LOG DATE
UWI.           05 071 08216 00: UNIQUE WELL ID
~Curve Information Block
DEPT.FT            0 000 00 00: Depth
DCAL.in                       : CDL Caliper
RHOB.g/cc                     : CDL Bulk Density
RHOC.g/cc                     : CDL Density Correction
DPOR.pu                       : CDL Density Porosity
NPOR.pu                       : Neutron Porosity
GR.GAPI                       : Gamma Ray
~Parameter Information Block
~A  Depth       DCAL        RHOB        RHOC        DPOR        NPOR         GR     
# ...
  2024.4000      8.0094      2.4497     -0.0297     12.1371     23.6402     75.2145
  2024.5000      8.0003      2.4392     -0.0126     12.7760     23.0707     79.2806
  2024.6000      8.0003      2.4375     -0.0221     12.8812     22.9031     82.2049
  2024.7000      8.0003      2.4477     -0.0045     12.2622     22.6944     82.5831
  2024.8000      7.9990      2.4677      0.0510     11.0456     21.9825     81.3092
  2024.9000      7.9990      2.4874      0.0946      9.8550     21.2348     79.3955
  2025.0000      8.0064      2.5078      0.1031      8.6187     21.1147     78.1243
  2025.1000      8.0064      2.5269      0.1514      7.4606     21.8176     76.2777
  2025.2000      8.0064      2.5303      0.0532      7.2518     23.0029     72.5785
  2025.3000      8.0129      2.5266     -0.0068      7.4777     24.3759     74.9165
  2025.4000      8.0129      2.5338     -0.0008      7.0439     25.6378     86.8686
  2025.5000      8.0159      2.5439     -0.0046      6.4283     26.0942     95.9573
  2025.6000      8.0159      2.5454      0.0178      6.3410     25.3397     95.1954
  2025.7000      8.0159      2.5427      0.0498      6.5011     24.0491     93.7054
  2025.8000      8.0139      2.5366      0.1050      6.8709     23.4026     95.3356
  2025.9000      8.0139      2.5301      0.0452      7.2691     23.9523     96.2815
  2026.0000      8.0123      2.5354      0.0740      6.9460     25.2431     95.5497
  2026.1000      8.0123      2.5406      0.1276      6.6314     26.0416     94.0115
  2026.2000      8.0123      2.5275      0.0787      7.4262     25.6685     91.6265
  2026.3000      8.0186      2.5146      0.0360      8.2069     24.9530     86.7603
  2026.4000      8.0186      2.5218      0.0513      7.7707     24.7428     82.5163
  2026.5000      8.0255      2.5373      0.0763      6.8303     24.5498     81.1822
  2026.6000      8.0255      2.5447      0.0697      6.3818     23.7695     79.7502
  2026.7000      8.0255      2.5396      0.0866      6.6927     22.8733     77.7054
  2026.8000      8.0278      2.5205      0.0764      7.8491     22.4553     76.1977
  2026.9000      8.0278      2.4849      0.0860     10.0069     22.8685     76.5345
  2027.0000      8.0267      2.4408     -0.0373     12.6817     24.0517     79.1715
  2027.1000      8.0267      2.4072     -0.0354     14.7146     25.0627     80.9411
  2027.2000      8.0267      2.3826     -0.0391     16.2058     25.1815     79.6108
  2027.3000      8.0261      2.3576     -0.0784     17.7206     24.8019     79.9850
  2027.4000      8.0261      2.3463     -0.0887     18.4069     24.6241     86.9965
  2027.5000      8.0314      2.3678     -0.0730     17.1039     24.6427     98.5696
  2027.6000      8.0314      2.4167     -0.0047     14.1372     24.7417    109.0316
  2027.7000      8.0314      2.4660      0.0023     11.1527     25.1006    114.3288
  2027.8000      8.0408      2.4974      0.0591      9.2482     25.4957    114.7669
  2027.9000      8.0408      2.5171      0.0511      8.0554     25.5622    113.5662
  2028.0000      8.0453      2.5347      0.0689      6.9884     25.5272    115.9269
  2028.1000      8.0453      2.5437      0.1082      6.4425     25.8423    125.6996
  2028.2000      8.0453      2.5323      0.0933      7.1348     26.3761    141.0025
  2028.3000      8.0462      2.5029      0.0509      8.9149     27.0121    153.5171
  2028.4000      8.0462      2.4778      0.0275     10.4381     27.5896    157.2474
  2028.5000      8.0468      2.4745      0.0579     10.6337     27.2423    154.5177
  2028.6000      8.0468      2.4825      0.0684     10.1508     25.8840    149.3448
  2028.7000      8.0468      2.4921      0.0312      9.5685     24.5698    143.6912
  2028.8000      8.0473      2.5143      0.0423      8.2261     24.2080    141.5544
  2028.9000      8.0473      2.5448      0.0545      6.3779     24.5514    144.3724
  2029.0000      8.0500      2.5624      0.0893      5.3066     24.4445    146.9726
  2029.1000      8.0500      2.5639      0.0759      5.2162     23.7115    147.5545
  2029.2000      8.0500      2.5554      0.0900      5.7346     23.3542    147.4574
  2029.3000      8.0557      2.5420      0.0515      6.5458     23.9614    144.5112
  2029.4000      8.0557      2.5428      0.0364      6.4989     25.0180    136.4190
  2029.5000      8.0586      2.5588      0.1044      5.5302     25.5646    127.7466
  2029.6000      8.0586      2.5595      0.1085      5.4826     25.4250    123.0260
  2029.7000      8.0586      2.5414      0.0521      6.5794     24.9606    119.1463
  2029.8000      8.0542      2.5284      0.0453      7.3681     24.3186    117.9016
  2029.9000      8.0542      2.5215      0.0577      7.7869     23.9226    124.2149
  2030.0000      8.0506      2.5111      0.0495      8.4205     24.3909    135.2382
  2030.1000      8.0506      2.5002      0.0083      9.0793     25.4546    146.9021
  2030.2000      8.0506      2.4912      0.0440      9.6241     26.0302    156.7922
  2030.3000      8.0503      2.4848      0.0315     10.0121     25.5934    161.5690
  2030.4000      8.0503      2.4870      0.0180      9.8760     24.5723    159.5325
  2030.5000      8.0508      2.5018      0.0275      8.9806     23.4518    152.2383
  2030.6000      8.0508      2.5244      0.0715      7.6098     22.3511    143.3027
  2030.7000      8.0508      2.5430      0.0573      6.4844     21.3255    134.8499
  2030.8000      8.0510      2.5481      0.0737      6.1758     20.5070    124.6020
  2030.9000      8.0510      2.5447      0.0446      6.3837     19.7881    110.6148
  2031.0000      8.0454      2.5441      0.0690      6.4156     19.0907     98.5553
  2031.1000      8.0454      2.5438      0.1116      6.4354     18.7425     92.0092
  2031.2000      8.0454      2.5378      0.0541      6.7991     18.7049     84.1880
  2031.3000      8.0330      2.5306      0.0277      7.2349     18.3677     73.9254
  2031.4000      8.0330      2.5209      0.0317      7.8259     17.6089     69.3678
  2031.5000      8.0244      2.5081     -0.0017      8.5985     16.8164     70.8116
  2031.6000      8.0244      2.5025      0.0039      8.9415     16.2337     71.7717
  2031.7000      8.0244      2.5030      0.0547      8.9080     16.0606     69.7813
  2031.8000      8.0214      2.4999      0.0627      9.0989     16.1353     67.4083
  2031.9000      8.0214      2.4947      0.0185      9.4118     16.2641     66.6558
  2032.0000      8.0192      2.4925      0.0533      9.5449     16.2669     65.7502
  2032.1000      8.0192      2.4953      0.0313      9.3775     15.7612     63.9369
  2032.2000      8.0192      2.5052      0.0578      8.7759     15.1434     63.0548
  2032.3000      8.0155      2.5117      0.0816      8.3831     14.9869     62.5853
  2032.4000      8.0155      2.5054      0.0723      8.7623     15.0256     62.5556
  2032.5000      8.0126      2.4930      0.0720      9.5169     15.2716     64.6402
  2032.6000      8.0126      2.4736      0.0717     10.6928     15.9198     68.2196
  2032.7000      8.0126      2.4442     -0.0016     12.4730     16.2574     71.3154
  2032.8000      8.0164      2.4203      0.0037     13.9215     16.1186     70.4283
  2032.9000      8.0164      2.4215     -0.0193     13.8492     16.2064     66.7412
  2033.0000      8.0215      2.4492      0.0252     12.1698     16.1532     64.9095
  2033.1000      8.0215      2.4762      0.0846     10.5364     15.4104     62.5238
  2033.2000      8.0215      2.4765      0.0867     10.5148     14.8044     56.6125
  2033.3000      8.0241      2.4552      0.0649     11.8062     14.9525     52.2382
  2033.4000      8.0241      2.4307      0.0355     13.2891     15.5232     53.8775
  2033.5000      8.0268      2.4155      0.0611     14.2135     16.4038     58.7590
  2033.6000      8.0268      2.4066      0.0500     14.7522     17.5874     61.6485
  2033.7000      8.0268      2.3970      0.0280     15.3325     18.2257     60.2682
  2033.8000      8.0333      2.3909      0.0412     15.7032     17.8404     56.5794
  2033.9000      8.0333      2.3937      0.0352     15.5312     17.0260     52.6735
