~Version Information
 VERS.                      2.0: CWLS Log ASCII Standard - VERSION 2.0
 WRAP.                       NO: One line per depth step
 ~Well Information Block
 STRT.FT               130.0000: 
 STOP.FT              1766.9000: 
 STEP.FT                 0.1000: 
 NULL.                -999.2500: 
 COMP.          Petrogulf Corporation: COMPANY
 WELL.           Parsons 23-15V: WELL
 FLD.           Purgatorie River: FIELD
 LOC.           2095' FSL & 1817' FWL--API 05 071 07556 00----: LOCATION
 CNTY.               Las Animas: COUNTY
 SRVC.                         : SERVICE COMPANY
 DATE.          Fri Apr 19 17:40:55 2002: LOG DATE
 UWI.                          : UNIQUE WELL ID
 STAT.                       CO: STATE
 PROV.                         :Province
 ~Curve Information Block
 DEPT.FT            0 000 00 00: Depth
 DCAL.in                       : CDL Caliper
 RHOB.g/cc                     : CDL Bulk Density
 RHOC.g/cc                     : CDL Density Correction
 DPOR.pu                       : CDL Density Porosity
 GR.GAPI                       : Gamma Ray
 NPOR.pu                       : Neutron Porosity
 ~Parameter Information Block
 ~A  Depth       DCAL        RHOB        RHOC        DPOR         GR         NPOR    
# ...
   677.2000      7.9916      2.4334      0.0595     13.1303    175.2305     30.0169
   677.3000      7.9956      2.4336      0.0653     13.1134    175.8114     30.0092
   677.4000      7.9956      2.4350      0.0714     13.0280    176.0912     30.0414
   677.5000      7.9992      2.4375      0.0776     12.8795    176.0627     30.1120
   677.6000      7.9992      2.4409      0.0836     12.6750    175.7256     30.2117
   677.7000      7.9992      2.4450      0.0890     12.4235    175.0899     30.3241
   677.8000      8.0070      2.4498      0.0936     12.1349    174.1839     30.4296
   677.9000      8.0070      2.4550      0.0969     11.8193    173.0599     30.5087
   678.0000      8.0168      2.4605      0.0989     11.4873    171.7898     30.5466
   678.1000      8.0168      2.4660      0.0995     11.1486    170.4705     30.5339
   678.2000      8.0168      2.4716      0.0988     10.8121    169.2043     30.4689
   678.3000      8.0223      2.4770      0.0971     10.4857    168.0892     30.3575
   678.4000      8.0223      2.4821      0.0946     10.1759    167.2005     30.2107
   678.5000      8.0077      2.4868      0.0917      9.8881    166.5757     30.0440
   678.6000      8.0077      2.4912      0.0887      9.6266    166.2130     29.8749
   678.7000      8.0077      2.4950      0.0857      9.3952    166.0677     29.7219
   678.8000      7.9902      2.4983      0.0831      9.1966    166.0768     29.6024
   678.9000      7.9902      2.5009      0.0808      9.0335    166.1681     29.5312
   679.0000      7.9838      2.5030      0.0789      8.9080    166.2873     29.5187
   679.1000      7.9838      2.5044      0.0772      8.8221    166.4144     29.5691
   679.2000      7.9838      2.5052      0.0756      8.7770    166.5677     29.6796
   679.3000      7.9884      2.5052      0.0740      8.7735    166.8055     29.8405
   679.4000      7.9884      2.5046      0.0722      8.8111    167.2064     30.0359
   679.5000      8.0033      2.5033      0.0701      8.8882    167.8465     30.2463
   679.6000      8.0033      2.5015      0.0676      9.0015    168.7835     30.4522
   679.7000      8.0033      2.4991      0.0649      9.1460    170.0322     30.6368
   679.8000      8.0198      2.4963      0.0620      9.3149    171.5584     30.7888
   679.9000      8.0198      2.4932      0.0593      9.5004    173.2781     30.9033
   680.0000      8.0193      2.4901      0.0571      9.6933    175.0718     30.9823
   680.1000      8.0193      2.4869      0.0557      9.8844    176.8028     31.0319
   680.2000      8.0193      2.4839      0.0557     10.0647    178.3382     31.0608
   680.3000      8.0006      2.4813      0.0571     10.2268    179.5700     31.0771
   680.4000      8.0006      2.4790      0.0602     10.3648    180.4258     31.0876
   680.5000      7.9833      2.4771      0.0648     10.4759    180.8763     31.0951
   680.6000      7.9833      2.4758      0.0706     10.5595    180.9318     31.0999
   680.7000      7.9833      2.4748      0.0771     10.6182    180.6366     31.0999
   680.8000      7.9765      2.4742      0.0837     10.6568    180.0570     31.0916
   680.9000      7.9765      2.4737      0.0898     10.6821    179.2757     31.0719
   681.0000      7.9692      2.4734      0.0948     10.7017    178.3800     31.0388
   681.1000      7.9692      2.4731      0.0982     10.7232    177.4621     30.9918
   681.2000      7.9692      2.4726      0.0997     10.7533    176.6083     30.9324
   681.3000      7.9657      2.4719      0.0993     10.7969    175.9016     30.8643
   681.4000      7.9657      2.4709      0.0971     10.8563    175.4158     30.7931
   681.5000      7.9719      2.4696      0.0934     10.9314    175.2097     30.7257
   681.6000      7.9719      2.4682      0.0887     11.0191    175.3180     30.6710
   681.7000      7.9719      2.4666      0.0835     11.1142    175.7449     30.6378
   681.8000      7.9773      2.4650      0.0785     11.2099    176.4653     30.6346
   681.9000      7.9773      2.4636      0.0741     11.2984    177.4091     30.6680
   682.0000      7.9717      2.4624      0.0707     11.3722    178.4789     30.7401
   682.1000      7.9717      2.4615      0.0683     11.4247    179.5584     30.8474
   682.2000      7.9717      2.4611      0.0670     11.4506    180.5216     30.9795
   682.3000      7.9653      2.4611      0.0664     11.4466    181.2583     31.1193
   682.4000      7.9653      2.4617      0.0662     11.4115    181.6861     31.2436
   682.5000      7.9674      2.4628      0.0660     11.3462    181.7567     31.3275
   682.6000      7.9674      2.4643      0.0652     11.2528    181.4617     31.3467
   682.7000      7.9674      2.4663      0.0638     11.1345    180.8213     31.2823
   682.8000      7.9749      2.4686      0.0615     10.9951    179.8741     31.1236
   682.9000      7.9749      2.4712      0.0584     10.8379    178.6615     30.8703
   683.0000      7.9803      2.4740      0.0548     10.6658    177.2184     30.5329
   683.1000      7.9803      2.4771      0.0510     10.4805    175.5715     30.1317
   683.2000      7.9803      2.4803      0.0474     10.2827    173.7388     29.6931
   683.3000      7.9773      2.4838      0.0444     10.0718    171.7393     29.2468
   683.4000      7.9773      2.4875      0.0425      9.8465    169.6026     28.8223
   683.5000      7.9638      2.4915      0.0418      9.6051    167.3753     28.4453
   683.6000      7.9638      2.4958      0.0425      9.3449    165.1219     28.1354
   683.7000      7.9638      2.5004      0.0447      9.0640    162.9173     27.9043
   683.8000      7.9471      2.5055      0.0481      8.7601    160.8358     27.7552
   683.9000      7.9471      2.5109      0.0525      8.4320    158.9391     27.6845
   684.0000      7.9322      2.5167      0.0577      8.0787    157.2589     27.6825
   684.1000      7.9322      2.5230      0.0633      7.6997    155.7885     27.7351
   684.2000      7.9322      2.5296      0.0688      7.2952    154.4835     27.8270
   684.3000      7.9266      2.5367      0.0739      6.8656    153.2641     27.9423
   684.4000      7.9266      2.5442      0.0783      6.4114    152.0290     28.0672
   684.5000      7.9317      2.5521      0.0815      5.9337    150.6756     28.1900
   684.6000      7.9317      2.5603      0.0835      5.4336    149.1146     28.3019
   684.7000      7.9317      2.5689      0.0840      4.9126    147.2901     28.3967
   684.8000      7.9443      2.5778      0.0831      4.3728    145.1844     28.4707
   684.9000      7.9443      2.5870      0.0809      3.8172    142.8258     28.5217
   685.0000      7.9464      2.5964      0.0775      3.2499    140.2827     28.5491
   685.1000      7.9464      2.6058      0.0732      2.6764    137.6512     28.5529
   685.2000      7.9464      2.6153      0.0681      2.1037    135.0405     28.5338
   685.3000      7.9214      2.6246      0.0626      1.5400    132.5625     28.4931
   685.4000      7.9214      2.6336      0.0567      0.9949    130.3161     28.4319
   685.5000      7.8976      2.6421      0.0507      0.4789    128.3848     28.3521
   685.6000      7.8976      2.6500      0.0445      0.0022    126.8321     28.2563
   685.7000      7.8976      2.6570      0.0384     -0.4253    125.7045     28.1476
   685.8000      7.8901      2.6631      0.0325     -0.7950    125.0265     28.0306
   685.9000      7.8901      2.6682      0.0269     -1.1003    124.8022     27.9101
   686.0000      7.8911      2.6721      0.0220     -1.3369    125.0234     27.7919
   686.1000      7.8911      2.6748      0.0180     -1.5031    125.6520     27.6816
   686.2000      7.8911      2.6764      0.0153     -1.5998    126.6309     27.5848
   686.3000      7.8970      2.6769      0.0140     -1.6298    127.8815     27.5061
   686.4000      7.8970      2.6764      0.0143     -1.5978    129.3129     27.4488
   686.5000      7.9073      2.6749      0.0161     -1.5089    130.8240     27.4141
   686.6000      7.9073      2.6726      0.0192     -1.3688    132.3240     27.4016
   686.7000      7.9073      2.6695      0.0232     -1.1822    133.7398     27.4073
