~Version Information
VERS.                      2.0: CWLS Log ASCII Standard - VERSION 2.0
WRAP.                       NO: One line per depth step
~Well Information Block
STRT.FT                -3.0000: 
STOP.FT              1828.0000: 
STEP.FT                 0.2500: 
NULL.                -999.2500: 
COMP.          Pioneer Natural Resources: COMPANY
WELL.           Guajardo 24-16: WELL
FLD.           Purgatorie River: FIELD
LOC.           883' FSL & 2147' FWL--: LOCATION
PROV.                       CO: PROVINCE
CNTY.               Las Animas: COUNTRY
SRVC.          Patterson Wireline: SERVICE COMPANY
DATE.          Wed Aug 10 11:02:25 2005: LOG DATE
UWI.           05 071 08377 00: UNIQUE WELL ID
~Curve Information Block
DEPT.FT            0 000 00 00: Depth
CCL.                          : Casing Collar Locator
TT3.usec                      : CBL 3' Travel Time
AMP3.mV                       : CBL 3' Amplitude
GR.GAPI                       : Gamma Ray
~Parameter Information Block
~A  Depth       CCL         TT3         AMP3         GR     
# ...
  1437.5000      0.0000    677.6923      8.1214     63.5157
  1437.7500      0.0000    699.1805      8.1456     60.6820
  1438.0000      0.0000    707.9761      8.1790     56.8186
  1438.2500      0.0000    710.7291      8.2045     52.6004
  1438.5000      0.0000    711.4109      8.2101     48.3026
  1438.7500      0.0000    711.6263      8.1964     43.9977
  1439.0000      0.0000    711.8297      8.1735     40.2370
  1439.2500      0.0000    712.1037      8.1512     38.1170
  1439.5000      0.0000    712.4300      8.1339     38.5467
  1439.7500      0.0000    712.6741      8.1234     41.5265
  1440.0000      0.0000    712.5258      8.1205     46.0396
  1440.2500      0.0000    711.5259      8.1200     50.4730
  1440.5000      0.0000    709.3051      8.1118     53.3342
  1440.7500      0.0000    705.5940      8.0890     54.0605
  1441.0000      0.0000    699.3260      8.0530     53.3291
  1441.2500      0.0000    687.0486      8.0096     52.3601
  1441.5000      0.0000    663.0012      7.9650     51.8039
  1441.7500      0.0000    623.0995      7.9256     51.5317
  1442.0000      0.0000    571.1537      7.8973     51.5684
  1442.2500      0.0000    520.2871      7.8827     52.7341
  1442.5000      0.0000    484.2790      7.8800     55.9323
  1442.7500      0.0000    465.4203      7.8850     60.9974
  1443.0000      0.0000    453.2710      7.8938     66.6821
  1443.2500      0.0000    436.8947      7.9019     71.7562
  1443.5000      0.0000    415.4716      7.9032     75.8482
  1443.7500      0.0000    395.6482      7.8929     79.2031
  1444.0000      0.0000    382.5002      7.8709     82.0450
  1444.2500      0.0000    375.9307      7.8437     84.5135
  1444.5000      0.0000    373.3600      7.8197     86.8296
  1444.7500      0.0000    373.0014      7.8024     88.8352
  1445.0000      0.0000    375.0642      7.7872     89.4284
  1445.2500      0.0000    381.7319      7.7655     87.1538
  1445.5000      0.0000    396.1771      7.7319     81.5776
  1445.7500      0.0000    419.5887      7.6859     73.9546
  1446.0000      0.0000    447.6863      7.6285     66.6319
  1446.2500      0.0000    471.4672      7.5594     61.6811
  1446.5000      0.0000    483.9639      7.4778     59.5959
  1446.7500      0.0000    486.4003      7.3867     59.1611
  1447.0000      0.0000    487.0646      7.2932     58.8197
  1447.2500      0.0000    495.3380      7.2068     58.0426
  1447.5000      0.0000    516.7937      7.1357     57.2602
  1447.7500      0.0000    550.7069      7.0849     56.9186
  1448.0000      0.0000    589.9459      7.0530     57.0384
  1448.2500      0.0000    624.7518      7.0285     57.4925
  1448.5000      0.0000    648.6954      6.9925     58.3880
  1448.7500      0.0000    661.5125      6.9286     60.1055
  1449.0000      0.0000    666.9250      6.8316     63.0163
  1449.2500      0.0000    669.0708      6.7089     67.1595
  1449.5000      0.0000    670.7515      6.5756     72.0222
  1449.7500      0.0000    673.1693      6.4517     76.4965
  1450.0000      0.0000    675.4026      6.3603     79.3699
  1450.2500      0.0000    673.8948      6.3206     80.2532
  1450.5000      0.0000    664.5546      6.3366     79.9532
  1450.7500      0.0000    647.7635      6.3903     79.6603
  1451.0000      0.0000    630.6981      6.4489     79.7307
  1451.2500      0.0000    621.6940      6.4819     79.3180
  1451.5000      0.0000    621.8260      6.4761     77.2988
  1451.7500      0.0000    624.4650      6.4364     73.5839
  1452.0000      0.0000    623.5428      6.3750     69.4641
  1452.2500      0.0000    619.6052      6.3009     66.6863
  1452.5000      0.0000    617.0508      6.2122     66.2752
  1452.7500      0.0000    618.6382      6.0930     67.9576
  1453.0000      0.0000    625.3329      5.9209     70.3840
  1453.2500      0.0000    639.2660      5.6891     72.0068
  1453.5000      0.0000    662.6508      5.4326     71.9598
  1453.7500      0.0000    693.2504      5.2268     70.1774
  1454.0000      0.0000    723.2739      5.1385     67.0909
  1454.2500      0.0000    743.6700      5.1664     63.5665
  1454.5000      0.0000    748.4539      5.2448     60.8833
  1454.7500      0.0000    734.9112      5.3224     60.1267
  1455.0000      0.0000    703.1168      5.4117     61.3462
  1455.2500      0.0000    659.3982      5.5414     63.4238
  1455.5000      0.0000    618.8004      5.6914     64.9558
  1455.7500      2.0000    597.1631      5.8077     65.3371
  1456.0000      0.0000    597.9948      5.8703     64.9772
  1456.2500      0.0000    611.3188      5.9328     64.5387
  1456.5000      0.0000    626.6125      6.0940     64.3919
  1456.7500      0.0000    641.1118      6.4079     65.1301
  1457.0000      0.0000    653.0685      6.8043     68.1280
  1457.2500      0.0000    653.9550      7.1314     74.6394
  1457.5000      0.0000    635.0705      7.3080     83.9614
  1457.7500      0.0000    601.1105      7.3994     92.8490
  1458.0000      0.0000    571.3920      7.5168     97.2290
  1458.2500      0.0000    564.3250      7.6903     94.9245
  1458.5000      0.0000    581.4650      7.8727     87.2283
  1458.7500      0.0000    608.3686      8.0156     78.0103
  1459.0000      0.0000    629.5410      8.1014     71.1008
  1459.2500      0.0000    640.0652      8.1305     68.2820
  1459.5000      0.0000    644.1096      8.1113     69.3157
  1459.7500      0.0000    646.3887      8.0642     72.8949
  1460.0000      0.0000    647.4720      8.0179     77.0836
  1460.2500      0.0000    646.1039      7.9957     79.6688
  1460.5000      0.0000    643.2047      8.0026     79.3514
  1460.7500      0.0000    641.9857      8.0263     76.8877
  1461.0000      0.0000    644.6304      8.0502     74.5055
  1461.2500      0.0000    649.9320      8.0666     73.9397
  1461.5000      0.0000    654.3876      8.0760     75.2498
  1461.7500      0.0000    655.3091      8.0780     77.4531
  1462.0000      0.0000    653.0423      8.0674     79.7757
  1462.2500      0.0000    650.5710      8.0397     82.1483
  1462.5000      0.0000    650.9028      7.9968     84.9551
  1462.7500      0.0000    654.6055      7.9456     88.5728
  1463.0000      0.0000    659.7776      7.8926     93.0417
  1463.2500      0.0000    664.1246      7.8426     98.1602
  1463.5000      0.0000    666.6560      7.7991    103.7430
  1463.7500      0.0000    667.6585      7.7635    109.2460
  1464.0000      0.0000    667.6890      7.7350    113.1312
  1464.2500      0.0000    666.7377      7.7137    113.5612
  1464.5000      0.0000    663.8526      7.6999    110.1964
  1464.7500      0.0000    657.4775      7.6918    104.5917
  1465.0000      0.0000    646.9053      7.6854     98.5579
  1465.2500      0.0000    634.0321      7.6797     92.7793
  1465.5000      0.0000    622.8525      7.6782     87.1667
  1465.7500      0.0000    615.7436      7.6867     81.8262
  1466.0000      0.0000    610.2712      7.7079     77.3009
  1466.2500      0.0000    600.6409      7.7372     74.1584
  1466.5000      0.0000    582.2272      7.7636     72.6474
  1466.7500      0.0000    554.4800      7.7764     72.6585
  1467.0000      0.0000    521.0432      7.7728     73.7710
  1467.2500      0.0000    488.6810      7.7583     75.2262
  1467.5000      0.0000    465.3724      7.7396     75.9705
  1467.7500      0.0000    457.6023      7.7193     75.0305
  1468.0000      0.0000    468.2838      7.6968     72.0516
  1468.2500      0.0000    495.9515      7.6702     67.6117
  1468.5000      0.0000    534.6509      7.6375     63.0466
  1468.7500      0.0000    574.9916      7.5957     59.7682
  1469.0000      0.0000    607.1854      7.5426     58.3859
  1469.2500      0.0000    625.4147      7.4821     58.3158
  1469.5000      0.0000    630.8688      7.4275     58.2996
  1469.7500      0.0000    630.0861      7.3958     57.2981
  1470.0000      0.0000    628.6112      7.3937     55.0721
  1470.2500      0.0000    626.1042      7.4110     52.2994
  1470.5000      0.0000    618.8086      7.4298     50.2389
  1470.7500      0.0000    606.0245      7.4368     49.9715
