~Version Information
VERS.                      2.0: CWLS Log ASCII Standard - VERSION 2.0
WRAP.                       NO: One line per depth step
~Well Information Block
STRT.FT               -11.2500: 
STOP.FT              1767.0000: 
STEP.FT                 0.2500: 
NULL.                -999.2500: 
COMP.          Petrogulf Corporation: COMPANY
WELL.             McLeod 9-42R: WELL
FLD.           Purgatoire River: FIELD
LOC.           1748' FNL & 372' FEL--: LOCATION
PROV.                 Colorado: PROVINCE
CNTY.               Las Animas: COUNTRY
SRVC.                         : SERVICE COMPANY
DATE.          Thu Sep 29 13:28:07 2005: LOG DATE
UWI.                          : UNIQUE WELL ID
~Curve Information Block
DEPT.FT            0 000 00 00: Depth
GR.GAPI                       : Gamma Ray
CCL.                          : Casing Collar Locator
AMP3.mV                       : CBL 3' Amplitude
AMP5.mV                       : CBL 5' Amplitude
~Parameter Information Block
~A  Depth        GR         CCL         AMP3        AMP5    
# ...
  1496.2500    146.9117      0.0000      3.5801      0.5106
  1496.5000    152.3397      0.0000      3.5857      0.5005
  1496.7500    156.7572      0.0000      3.5660      0.4856
  1497.0000    158.8515      0.0000      3.5274      0.4750
  1497.2500    158.3695      0.0000      3.4839      0.4770
  1497.5000    155.8495      0.0000      3.4480      0.4901
  1497.7500    152.0137      0.0000      3.4261      0.5048
  1498.0000    147.5255      0.0000      3.4223      0.5141
  1498.2500    142.9877      0.0000      3.4412      0.5186
  1498.5000    138.7878      0.0000      3.4815      0.5235
  1498.7500    135.2017      0.0000      3.5328      0.5321
  1499.0000    133.0275      0.0000      3.5836      0.5445
  1499.2500    133.6431      0.0000      3.6320      0.5585
  1499.5000    137.6180      0.0000      3.6798      0.5717
  1499.7500    143.3559      0.0000      3.7194      0.5819
  1500.0000    147.7834      0.0000      3.7362      0.5862
  1500.2500    148.5823      0.0000      3.7284      0.5807
  1500.5000    145.6127      0.0000      3.7157      0.5631
  1500.7500    140.5612      0.0000      3.7251      0.5360
  1501.0000    135.7019      0.0000      3.7692      0.5081
  1501.2500    132.6678      0.0000      3.8368      0.4895
  1501.5000    131.6886      0.0000      3.8976      0.4853
  1501.7500    131.8921      0.0000      3.9178      0.4910
  1502.0000    132.3793      0.0000      3.8803      0.4967
  1502.2500    132.7992      0.0000      3.7985      0.4951
  1502.5000    133.1044      0.0000      3.7096      0.4854
  1502.7500    133.2643      0.0000      3.6494      0.4723
  1503.0000    133.2007      0.0000      3.6331      0.4630
  1503.2500    132.7254      0.0000      3.6516      0.4617
  1503.5000    131.6327      0.0000      3.6815      0.4652
  1503.7500    130.1164      0.0000      3.7033      0.4646
  1504.0000    129.0095      0.0000      3.7178      0.4551
  1504.2500    129.2525      0.0000      3.7415      0.4410
  1504.5000    130.8757      0.0000      3.7842      0.4313
  1504.7500    132.6722      0.0000      3.8344      0.4313
  1505.0000    133.0823      0.0000      3.8725      0.4389
  1505.2500    131.2897      0.0000      3.8883      0.4463
  1505.5000    127.3907      0.0000      3.8835      0.4453
  1505.7500    121.9402      0.0000      3.8614      0.4332
  1506.0000    115.6677      0.0000      3.8189      0.4136
  1506.2500    109.4153      0.0000      3.7495      0.3934
  1506.5000    103.9766      0.0000      3.6543      0.3794
  1506.7500     99.8734      0.0000      3.5490      0.3764
  1507.0000     97.1926      0.0000      3.4563      0.3852
  1507.2500     95.3319      0.0000      3.3900      0.4022
  1507.5000     92.9289      0.0000      3.3497      0.4236
  1507.7500     88.6216      0.0000      3.3303      0.4470
  1508.0000     82.2867      0.0000      3.3306      0.4695
  1508.2500     75.4000      0.0000      3.3502      0.4854
  1508.5000     69.8885      0.0000      3.3803      0.4901
  1508.7500     66.5857      0.0000      3.4029      0.4837
  1509.0000     64.9278      0.0000      3.4031      0.4706
  1509.2500     64.0224      0.0000      3.3803      0.4558
  1509.5000     63.6129      0.0000      3.3439      0.4421
  1509.7500     64.0438      0.0000      3.3003      0.4301
  1510.0000     65.6528      0.0000      3.2486      0.4203
  1510.2500     68.2544      0.0000      3.1877      0.4164
  1510.5000     71.0572      0.0000      3.1244      0.4225
  1510.7500     73.1372      0.0000      3.0726      0.4372
  1511.0000     74.0889      0.0000      3.0460      0.4538
  1511.2500     74.1497      0.0000      3.0474      0.4649
  1511.5000     73.6785      0.0000      3.0638      0.4665
  1511.7500     72.6900      0.0000      3.0753      0.4590
  1512.0000     71.1207      0.0000      3.0712      0.4485
  1512.2500     69.4359      0.0000      3.0560      0.4440
  1512.5000     68.5534      0.0000      3.0437      0.4505
  1512.7500     69.1191      0.0000      3.0473      0.4666
  1513.0000     71.1671      0.0000      3.0707      0.4869
  1513.2500     74.3050      0.0000      3.1064      0.5048
  1513.5000     77.7464      0.0000      3.1432      0.5135
  1513.7500     80.3699      0.0000      3.1779      0.5093
  1514.0000     81.3967      0.0000      3.2167      0.4946
  1514.2500     81.0272      0.0000      3.2649      0.4768
  1514.5000     80.0486      0.0000      3.3180      0.4625
  1514.7500     78.9628      0.0000      3.3615      0.4533
  1515.0000     77.8167      0.0000      3.3810      0.4464
  1515.2500     76.7220      0.0000      3.3743      0.4368
  1515.5000     76.1200      0.0000      3.3594      0.4207
  1515.7500     76.4041      0.0000      3.3650      0.3985
  1516.0000     77.4985      0.0000      3.4059      0.3760
  1516.2500     79.0370      0.0000      3.4684      0.3630
  1516.5000     80.8169      0.0000      3.5238      0.3688
  1516.7500     82.9241      0.0000      3.5585      0.3970
  1517.0000     85.5170      0.0000      3.5954      0.4392
  1517.2500     88.5115      0.0000      3.6873      0.4749
  1517.5000     91.3391      0.0000      3.8817      0.4856
  1517.7500     93.1159      0.0000      4.1720      0.4707
  1518.0000     93.2390      0.0000      4.4777      0.4468
  1518.2500     91.6282      0.0000      4.6943      0.4343
  1518.5000     88.2629      0.0000      4.7896      0.4433
  1518.7500     83.0058      0.0000      4.8528      0.4696
  1519.0000     76.3713      0.0000      5.0212      0.5000
  1519.2500     70.0780      0.0000      5.3455      0.5208
  1519.5000     66.1837      0.0000      5.7388      0.5241
  1519.7500     65.6225      0.0000      6.0622      0.5097
  1520.0000     67.7586     -1.0391      6.2402      0.4855
  1520.2500     71.2553     -1.4633      6.2913      0.4641
  1520.5000     75.2792      0.0000      6.2857      0.4537
  1520.7500     79.9003      0.0000      6.2940      0.4517
  1521.0000     85.2468      0.0000      6.3399      0.4490
  1521.2500     90.3538      0.0000      6.3662      0.4381
  1521.5000     93.2730      0.0000      6.2706      0.4184
  1521.7500     92.5741      0.0000      6.0005      0.3973
  1522.0000     88.5769      0.0000      5.5942      0.3851
  1522.2500     83.0931      0.0000      5.1321      0.3872
  1522.5000     78.1636      0.0000      4.6837      0.4001
  1522.7500     74.9793      0.0000      4.3008      0.4162
  1523.0000     73.5678      0.0000      4.0183      0.4305
  1523.2500     73.2338      0.0000      3.8441      0.4402
  1523.5000     73.3068      0.0000      3.7604      0.4431
  1523.7500     73.4806      0.0000      3.7394      0.4381
  1524.0000     73.5873      0.0000      3.7535      0.4262
  1524.2500     73.4465      0.0000      3.7758      0.4096
  1524.5000     73.0842      0.0000      3.7821      0.3898
  1524.7500     72.7652      0.0000      3.7593      0.3675
  1525.0000     72.7193      0.0000      3.7106      0.3469
  1525.2500     73.0981      0.0000      3.6509      0.3374
  1525.5000     74.1661      0.0000      3.5960      0.3469
  1525.7500     76.1801      0.0000      3.5519      0.3744
  1526.0000     78.9516      0.0000      3.5154      0.4104
  1526.2500     81.7001      0.0000      3.4819      0.4464
  1526.5000     83.5441      0.0000      3.4538      0.4790
  1526.7500     84.2044      0.0000      3.4362      0.5075
  1527.0000     84.0638      0.0000      3.4280      0.5286
  1527.2500     83.5684      0.0000      3.4190      0.5369
  1527.5000     82.8316      0.0000      3.3948      0.5271
  1527.7500     81.7034      0.0000      3.3483      0.4975
  1528.0000     79.8138      0.0000      3.2912      0.4573
  1528.2500     76.6637      0.0000      3.2502      0.4267
  1528.5000     72.1751      0.0000      3.2416      0.4216
  1528.7500     67.2090      0.0000      3.2547      0.4370
  1529.0000     63.3211      0.0000      3.2663      0.4543
  1529.2500     61.9219      0.0000      3.2613      0.4601
  1529.5000     63.5240      0.0000      3.2355      0.4539
