~Version Information
 VERS.                                  2.0 : CWLS LAS VERSION
 WRAP.                                   NO : WRAPING MODE
 SWARE .                 MController 2.5.0E : SOFTWARE VERSION
~Well Information
 WELL.                         STATE 16-32R : WELL
 COMP.                      Petrogulf Corp. : COMPANY
 FLD.                      Purgatorie River : FIELD
 LOC.                SW/NE Sec 16 T33S R67W : LOCATION
 DATE.                      5/12/04-5/13/04 : DATE(S) LOGGED
 SRVC.       Blanco Geological Services LLC : SERVICE COMPANY
 STAT.                                   CO : STATE
 CNTY.                           Las Animas : COUNTY
 CTRY.                                  USA : COUNTRY
 API.                       05-071-08033-00 : API NUMBER
 STRT.FT                             167.00 : START DEPTH
 STOP.FT                            1918.00 : STOP DEPTH
 STEP.FT                               1.00 : DEPTH INCREMENT
 NULL.                                -9999 : NULL VALUE
~Curve information
 DEPTH.FT                                   :
 ROP.MIN/FT                                 :
 GAS.UNITS                                  :
~ASCII Log data
# ...
     1567.00        0.350         61.5 
     1568.00        0.200         62.0 
     1569.00        0.300         62.1 
     1570.00        0.300         61.5 
     1571.00        0.333         57.8 
     1572.00        0.300         56.8 
     1573.00        0.267         46.2 
     1574.00        0.300         45.2 
     1575.00        0.267         47.7 
     1576.00        0.267         50.1 
     1577.00        0.267         56.9 
     1578.00        0.317         82.5 
     1579.00        0.400         95.6 
     1580.00        0.300        100.0 
     1581.00        0.367         97.0 
     1582.00        0.333         88.8 
     1583.00        0.333        101.8 
     1584.00        0.400        112.5 
     1585.00        0.367        112.1 
     1586.00        3.783        101.3 
     1587.00        0.367         55.2 
     1588.00        0.383         53.2 
     1589.00        0.267         52.5 
     1590.00        0.333         49.7 
     1591.00        0.400         49.1 
     1592.00        0.400         48.1 
     1593.00        0.467         47.5 
     1594.00        0.300         49.2 
     1595.00        0.367         49.3 
     1596.00        0.367         49.4 
     1597.00        0.350         48.8 
     1598.00        0.300         48.7 
     1599.00        0.267         47.4 
     1600.00        0.300         45.6 
     1601.00        0.267         39.5 
     1602.00        0.300         35.4 
     1603.00        0.267         33.5 
     1604.00        0.300         35.9 
     1605.00        0.333         39.0 
     1606.00        0.367         41.0 
     1607.00        0.300         49.3 
     1608.00        0.283         53.0 
     1609.00        0.233         68.1 
     1610.00        0.267         72.9 
     1611.00        0.300         77.7 
     1612.00        0.267         75.2 
     1613.00        0.267         72.9 
     1614.00        0.233         71.0 
     1615.00        0.367         85.1 
     1616.00        4.283         95.8 
     1617.00        0.383         47.1 
     1618.00        0.333         45.9 
     1619.00        0.400         43.3 
     1620.00        0.533         42.5 
     1621.00        0.467         42.5 
     1622.00        0.400         43.3 
     1623.00        0.367         42.5 
     1624.00        0.333         42.7 
     1625.00        0.300         41.7 
     1626.00        0.217         39.7 
     1627.00        0.167         39.7 
     1628.00        0.167         38.5 
     1629.00        0.233         36.8 
     1630.00        0.333         35.7 
     1631.00        0.433         34.3 
     1632.00        0.333         26.0 
     1633.00        0.367         24.8 
     1634.00        0.367         28.7 
     1635.00        0.300         33.6 
     1636.00        0.300         35.2 
     1637.00        0.317         38.3 
     1638.00        0.267         45.9 
     1639.00        0.267         56.7 
     1640.00        0.333         68.3 
     1641.00        0.267         84.4 
     1642.00        0.267         87.6 
     1643.00        0.333         83.8 
     1644.00        0.300         75.3 
     1645.00        0.300         67.4 
     1646.00        4.733         88.0 
     1647.00        0.300         40.7 
     1648.00        0.333         40.3 
     1649.00        0.400         38.7 
     1650.00        0.433         37.5 
     1651.00        0.400         37.0 
     1652.00        0.433         36.2 
     1653.00        0.367         35.3 
     1654.00        0.383         35.0 
     1655.00        0.333         34.8 
     1656.00        0.333         35.4 
     1657.00        0.300         36.7 
     1658.00        0.300         36.5 
     1659.00        0.333         35.5 
     1660.00        0.300         35.6 
     1661.00        0.300         35.2 
     1662.00        0.300         34.8 
     1663.00        0.300         31.2 
     1664.00        0.300         27.1 
     1665.00        0.350         25.3 
     1666.00        0.300         26.9 
     1667.00        0.333         29.0 
     1668.00        0.367         32.6 
     1669.00        0.333         35.0 
     1670.00        0.300         42.2 
     1671.00        0.267         52.8 
     1672.00        0.333         63.1 
     1673.00        0.367         77.3 
     1674.00        0.333         78.6 
     1675.00        0.383         73.3 
     1676.00        6.083         81.3 
     1677.00        0.300         36.1 
     1678.00        0.283         36.6 
     1679.00        0.267         36.4 
     1680.00        0.533         35.8 
     1681.00        0.433         34.0 
     1682.00        0.433         34.8 
     1683.00        0.300         33.3 
     1684.00        0.433         33.0 
     1685.00        0.367         29.5 
     1686.00        0.333         27.6 
     1687.00        0.350         30.2 
     1688.00        0.300         32.1 
     1689.00        0.367         30.5 
     1690.00        0.300         25.3 
     1691.00        0.333         24.3 
     1692.00        0.333         26.6 
     1693.00        0.400         28.9 
     1694.00        0.167         29.5 
     1695.00        0.267         30.5 
     1696.00        0.233         32.4 
     1697.00        0.233         37.0 
     1698.00        0.317         44.2 
     1699.00        0.267         53.9 
     1700.00        0.233         67.7 
     1701.00        0.200         70.9 
     1702.00        0.200         73.9 
     1703.00        0.200         73.2 
     1704.00        0.300         63.5 
     1705.00        0.300         61.2 
     1706.00        5.000         75.8 
     1707.00        0.367         33.6 
     1708.00        0.200         32.0 
     1709.00        0.267         30.4 
     1710.00        0.300         29.8 
     1711.00        0.367         29.7 
     1712.00        0.400         30.4 
     1713.00        0.400         32.8 
     1714.00        0.400         32.9 
     1715.00        0.367         31.1 
     1716.00        0.317         30.1 
     1717.00        0.233         29.5 
     1718.00        0.200         27.1 
     1719.00        0.267         26.0 
     1720.00        0.300         21.2 
     1721.00        0.300         20.5 
     1722.00        0.233         20.5 
     1723.00        0.333         21.6 
     1724.00        0.267         22.6 
     1725.00        0.267         24.5 
     1726.00        0.333         28.7 
     1727.00        0.233         35.2 
     1728.00        0.133         35.2 
     1729.00        0.217         44.7 
     1730.00        0.267         53.9 
     1731.00        0.300         62.0 
     1732.00        0.333         62.8 
     1733.00        0.233         60.3 
     1734.00        0.300         57.4 
     1735.00        0.233         62.3 
     1736.00        4.183         76.4 
     1737.00        0.467         34.3 
     1738.00        0.383         36.1 
     1739.00        0.467         36.2 
     1740.00        0.567         35.3 
     1741.00        0.433         32.6 
     1742.00        0.433         31.6 
     1743.00        0.367         30.2 
     1744.00        0.267         29.4 
     1745.00        0.300         28.4 
     1746.00        0.300         29.1 
     1747.00        0.183         30.2 
     1748.00        0.200         31.8 
     1749.00        0.300         32.2 
     1750.00        0.300         32.5 
     1751.00        0.200         31.5 
     1752.00        0.300         28.7 
     1753.00        0.367         27.2 
     1754.00        0.400         21.6 
     1755.00        0.300         21.2 
     1756.00        0.300         20.2 
     1757.00        0.300         20.8 
     1758.00        0.317         22.6 
     1759.00        0.300         26.9 
     1760.00        0.300         32.4 
     1761.00        0.300         36.1 
     1762.00        0.333         51.2 
     1763.00        0.333         56.5 
     1764.00        0.367         57.5 
     1765.00        0.367         54.8 
     1766.00        4.767         72.8 
