~Version Information
VERS.                      2.0: CWLS Log ASCII Standard - VERSION 2.0
WRAP.                       NO: One line per depth step
~Well Information Block
STRT.FT               491.0000: 
STOP.FT              1055.5000: 
STEP.FT                 0.1000: 
NULL.                -999.2500: 
COMP.          Evergreen Operating Corporation: COMPANY
WELL.              Sunset 24-3: WELL
FLD.           Purgatorie River: FIELD
LOC.           467' FSL & 2262' FWL: LOCATION
PROV.                 Colorado: PROVINCE
CNTY.               Las Animas: COUNTRY
SRVC.                         : SERVICE COMPANY
DATE.          Wed Sep 22 14:05:09 2004: LOG DATE
UWI.           05 071 08158 00: UNIQUE WELL ID
~Curve Information Block
DEPT.FT            0 000 00 00: Depth
DCAL.in                       : CDL Caliper
RHOB.g/cc                     : CDL Bulk Density
RHOC.g/cc                     : CDL Density Correction
DPOR.pu                       : CDL Density Porosity
GR.GAPI                       : Gamma Ray
NPOR.pu                       : Neutron Porosity
~Parameter Information Block
~A  Depth       DCAL        RHOB        RHOC        DPOR         GR         NPOR    
# ...
   750.2000      8.0153      2.5794      0.0745      4.2818     97.2323     25.2443
   750.3000      7.9686      2.5470      0.0179      6.2405     92.1567     25.5111
   750.4000      7.9686      2.5116     -0.0238      8.3885     93.1160     25.4621
   750.5000      7.9559      2.4839      0.0337     10.0691    100.1928     25.6187
   750.6000      7.9559      2.4457      0.0273     12.3827    104.6941     25.5531
   750.7000      7.9559      2.3844     -0.0143     16.0952    105.9444     25.0509
   750.8000      7.9498      2.3055     -0.0247     20.8782    107.3528     24.8628
   750.9000      7.9498      2.2190     -0.0341     26.1235    108.2396     25.2767
   751.0000      7.9615      2.1441     -0.0911     30.6599    106.4836     26.0054
   751.1000      7.9615      2.1005     -0.0777     33.3005    104.9014     27.2274
   751.2000      7.9615      2.0828     -0.0127     34.3744    106.8642     28.9566
   751.3000      7.9953      2.0765      0.0186     34.7575    107.4012     30.3816
   751.4000      7.9953      2.0831      0.0507     34.3579    101.4312     31.1796
   751.5000      8.0303      2.1062      0.1548     32.9556     95.7244     31.5582
   751.6000      8.0303      2.1374      0.1850     31.0651     98.2252     31.6318
   751.7000      8.0303      2.1687      0.1745     29.1686    102.3614     31.7434
   751.8000      8.0562      2.1985      0.1385     27.3661     99.8400     32.1049
   751.9000      8.0562      2.2270      0.1402     25.6355     94.2226     32.3057
   752.0000      8.1679      2.2564      0.1064     23.8534     91.9846     32.2045
   752.1000      8.1679      2.2880      0.0868     21.9380     94.1598     32.0083
   752.2000      8.1679      2.3194      0.0869     20.0388     97.3797     31.9366
   752.3000      8.0488      2.3452      0.1000     18.4709    102.1887     32.2492
   752.4000      8.0488      2.3616      0.0858     17.4815    110.3431     32.4766
   752.5000      8.0303      2.3705      0.0549     16.9391    118.8598     32.0390
   752.6000      8.0303      2.3789      0.0616     16.4312    126.1985     31.2885
   752.7000      8.0303      2.3875      0.0726     15.9105    132.2542     30.9122
   752.8000      8.0292      2.3945      0.0277     15.4877    132.8064     30.7106
   752.9000      8.0292      2.4038      0.0295     14.9209    127.4271     30.3540
   753.0000      8.0274      2.4192      0.0400     13.9900    121.9825     30.3728
   753.1000      8.0274      2.4328      0.0791     13.1660    120.5226     30.6459
   753.2000      8.0274      2.4344      0.0515     13.0683    121.1236     30.1751
   753.3000      8.0168      2.4304      0.0709     13.3101    119.5354     29.4290
   753.4000      8.0168      2.4305      0.0423     13.3050    114.3674     29.2889
   753.5000      8.0271      2.4355      0.0568     13.0019    106.9729     29.0221
   753.6000      8.0271      2.4400      0.0593     12.7303    100.6173     27.9932
   753.7000      8.0271      2.4410      0.0339     12.6683     97.6554     27.2628
   753.8000      8.0293      2.4412      0.0642     12.6529     99.9541     27.9124
   753.9000      8.0293      2.4415      0.0465     12.6355    104.2816     29.2424
   754.0000      8.0296      2.4417      0.0808     12.6272    103.7195     29.8819
   754.1000      8.0296      2.4425      0.0619     12.5730    100.2621     29.4654
   754.2000      8.0296      2.4446      0.0521     12.4475     98.2843     28.6915
   754.3000      8.0360      2.4411      0.0938     12.6595     96.6223     28.3535
   754.4000      8.0360      2.4275      0.0647     13.4827     96.9277     28.7025
   754.5000      8.0522      2.4159      0.0356     14.1856    100.5894     29.3261
   754.6000      8.0522      2.4192      0.0530     13.9899    101.8107     29.4804
   754.7000      8.0522      2.4326      0.0998     13.1780     96.2909     29.2391
   754.8000      8.0272      2.4464      0.1041     12.3406     89.5990     29.3315
   754.9000      8.0272      2.4593      0.0582     11.5546     87.9636     29.3115
   755.0000      8.0050      2.4753      0.0597     10.5888     88.0166     28.8021
   755.1000      8.0050      2.4931      0.0975      9.5082     86.6777     28.8949
   755.2000      8.0050      2.5069      0.1049      8.6757     87.0944     29.3944
   755.3000      7.9973      2.5158      0.0952      8.1326     87.6046     28.9786
   755.4000      7.9973      2.5269      0.0693      7.4601     84.3758     28.1279
   755.5000      7.9627      2.5430      0.0932      6.4833     81.1094     27.7577
   755.6000      7.9627      2.5580      0.0720      5.5775     83.2424     27.2873
   755.7000      7.9627      2.5597      0.1005      5.4720     89.5681     26.3253
   755.8000      7.9446      2.5427      0.0376      6.5037     94.3240     25.6385
   755.9000      7.9446      2.5221      0.0339      7.7505     95.3982     25.7984
   756.0000      7.9421      2.5127      0.0309      8.3213     94.7062     26.4897
   756.1000      7.9421      2.5105      0.0452      8.4568     94.1351     26.9074
   756.2000      7.9421      2.5071      0.0376      8.6603     95.2614     26.6609
   756.3000      7.9423      2.5041      0.0149      8.8409     99.7095     26.3929
   756.4000      7.9423      2.5026      0.0308      8.9329    105.3349     26.6382
   756.5000      7.9422      2.5003      0.0381      9.0739    108.3233     26.8169
   756.6000      7.9422      2.5034      0.0036      8.8850    110.6525     26.1194
   756.7000      7.9422      2.5132      0.0583      8.2939    113.8448     25.1426
   756.8000      7.9432      2.5180      0.0696      7.9991    113.9521     25.3045
   756.9000      7.9432      2.5146      0.0782      8.2046    110.3147     26.3830
   757.0000      7.9433      2.5111      0.0714      8.4190    106.3995     26.9555
   757.1000      7.9433      2.5112      0.0704      8.4101    101.6689     26.5605
   757.2000      7.9433      2.5119      0.0683      8.3702     96.3490     25.9599
   757.3000      7.9434      2.5117      0.0625      8.3836     98.2197     25.8187
   757.4000      7.9434      2.5155      0.0370      8.1513    106.9452     25.9378
   757.5000      7.9445      2.5261      0.0827      7.5061    109.6010     25.7806
   757.6000      7.9445      2.5337      0.0767      7.0488    104.5665     25.5060
   757.7000      7.9445      2.5286      0.0483      7.3556    104.3913     25.8710
   757.8000      7.9468      2.5139      0.0487      8.2476    113.1778     27.1095
   757.9000      7.9468      2.4979     -0.0005      9.2164    121.6889     28.3543
   758.0000      7.9434      2.4936     -0.0039      9.4781    122.3717     28.7763
   758.1000      7.9434      2.5148     -0.0048      8.1927    114.7584     28.4782
   758.2000      7.9434      2.5553      0.0507      5.7394    103.2794     27.4210
   758.3000      7.9451      2.5875      0.0546      3.7874     93.9814     25.8991
   758.4000      7.9451      2.5992      0.0481      3.0782     89.0456     25.0700
   758.5000      7.9422      2.5996      0.0622      3.0544     87.0433     25.1228
   758.6000      7.9422      2.5939      0.0700      3.4013     86.3199     25.1141
   758.7000      7.9422      2.5839      0.0274      4.0035     86.8361     24.9244
   758.8000      7.9433      2.5760      0.0196      4.4841     89.2398     25.4679
   758.9000      7.9433      2.5679      0.0354      4.9731     91.5032     26.3804
   759.0000      7.9417      2.5507      0.0463      6.0164     92.2240     26.7816
   759.1000      7.9417      2.5265      0.0262      7.4843     92.0119     26.9189
   759.2000      7.9417      2.5129      0.0022      8.3116     90.4537     27.1382
   759.3000      7.9415      2.5196      0.0266      7.9049     86.0568     27.4207
   759.4000      7.9415      2.5291      0.0822      7.3244     83.4166     27.7227
   759.5000      7.9442      2.5279      0.0049      7.3986     89.8980     27.8773
   759.6000      7.9442      2.5286      0.0226      7.3606    101.8454     28.1050
   759.7000      7.9442      2.5359      0.0301      6.9130    109.1885     28.5759
