~Version Information
 VERS.                                  2.0 : CWLS LAS VERSION
 WRAP.                                   NO : WRAPING MODE
 SWARE .                 MController 2.5.0J : SOFTWARE VERSION
~Well Information
 WELL.                  Great Plains 22-21V : WELL
 COMP.                Petrogulf Corporation : COMPANY
 FLD.                      Purgatoire River : FIELD
 LOC.                NE/NW Sec 22 T33S R67W : LOCATION
 DATE.                          08/29-30/05 : DATE(S) LOGGED
 SRVC.       Blanco Geological Services LLC : SERVICE COMPANY
 STAT.                                   CO : STATE
 CNTY.                           Las Animas : COUNTY
 CTRY.                                  USA : COUNTRY
 API.                       05-071-08346-00 : API NUMBER
 STRT.FT                              -2.00 : START DEPTH
 STOP.FT                            2090.00 : STOP DEPTH
 STEP.FT                               1.00 : DEPTH INCREMENT
 NULL.                                -9999 : NULL VALUE
~Curve information
 DEPTH.FT                                   :
 ROP.MIN/FT                                 :
 GAS.UNITS                                  :
~ASCII Log data
# ...
      1398.0         0.33       1377.6 
      1399.0         0.70       1402.0 
      1400.0         0.67       1493.1 
      1401.0         0.42       1567.1 
      1402.0         0.33       1574.4 
      1403.0         0.23       1392.5 
      1404.0         0.37       1108.5 
      1405.0         0.37        684.1 
      1406.0         0.47       1343.3 
      1407.0         0.23       1666.4 
      1408.0         0.40       2235.8 
      1409.0         0.43       3282.8 
      1410.0         3.93       4392.4 
      1411.0         1.00       1870.2 
      1412.0         0.57       1996.5 
      1413.0         0.50       1589.6 
      1414.0         0.43       1521.7 
      1415.0         0.48       1504.5 
      1416.0         0.50       1483.9 
      1417.0         0.47       1496.6 
      1418.0         0.40       1466.8 
      1419.0         0.47       1390.0 
      1420.0         0.47       1374.7 
      1421.0         0.57       1386.5 
      1422.0         0.65       1443.6 
      1423.0         0.63       1447.4 
      1424.0         0.90       1495.7 
      1425.0         0.47       1501.1 
      1426.0         0.43       1434.7 
      1427.0         0.40       1395.0 
      1428.0         0.52       1507.7 
      1429.0         0.70       1551.2 
      1430.0         0.43       1533.1 
      1431.0         0.67       1553.1 
      1432.0         0.60       1548.0 
      1433.0         0.48       1523.9 
      1434.0         0.87       1525.5 
      1435.0         0.73       1317.9 
      1436.0         0.60       1161.1 
      1437.0         0.40       1336.7 
      1438.0         0.30       1716.9 
      1439.0         0.52       2715.7 
      1440.0         2.92       4753.9 
      1441.0         0.73       1431.9 
      1442.0         0.43       1368.7 
      1443.0         0.33       1462.3 
      1444.0         0.40       1527.7 
      1445.0         0.40       1558.8 
      1446.0         0.37       1574.1 
      1447.0         1.02       1456.3 
      1448.0         0.60       1587.4 
      1449.0         0.27       1574.1 
      1450.0         0.20       1514.4 
      1451.0         0.23       1384.3 
      1452.0         0.37       1534.1 
      1453.0         0.33       1582.3 
      1454.0         0.33       1579.8 
      1455.0         0.23       1476.6 
      1456.0         0.23       1526.4 
      1457.0         0.32       1546.8 
      1458.0         0.30       1538.8 
      1459.0         0.33       1516.0 
      1460.0         0.30       1493.4 
      1461.0         0.63       1512.8 
      1462.0         0.57       1519.1 
      1463.0         0.27       1548.0 
      1464.0         0.33       1550.6 
      1465.0         0.27       1530.6 
      1466.0         0.32       1475.0 
      1467.0         0.33       1190.7 
      1468.0         0.43       1413.1 
      1469.0         0.50       1511.5 
      1470.0         5.17       3166.4 
      1471.0         0.70       1719.4 
      1472.0         0.43       2161.2 
      1473.0         0.50       2151.7 
      1474.0         0.33       1659.1 
      1475.0         0.43       1901.0 
      1476.0         0.38       1809.6 
      1477.0         0.17       1576.0 
      1478.0         0.20       1530.3 
      1479.0         0.30       1501.1 
      1480.0         0.40       1519.8 
      1481.0         0.37       1529.6 
      1482.0         0.37       1444.9 
      1483.0         0.50       1481.7 
      1484.0         0.53       1606.4 
      1485.0         0.38       1598.5 
      1486.0         0.40       1586.4 
      1487.0         0.50       1622.0 
      1488.0         0.47       1526.1 
      1489.0         0.50       1562.9 
      1490.0         0.50       1577.2 
      1491.0         0.50       1566.8 
      1492.0         0.42       1453.4 
      1493.0         0.50       1672.8 
      1494.0         0.50       1668.3 
      1495.0         0.20       1429.3 
      1496.0         0.37       1221.1 
      1497.0         0.43       1146.2 
      1498.0         0.53       2020.9 
      1499.0         0.65       3563.7 
      1500.0         4.78       6407.2 
      1501.0         0.80       1403.6 
      1502.0         0.53       1362.4 
      1503.0         0.65       1484.6 
      1504.0         0.50       1463.6 
      1505.0         0.50       1456.3 
      1506.0         0.57       1527.7 
      1507.0         0.53       1517.6 
      1508.0         0.67       1486.1 
      1509.0         0.48       1586.1 
      1510.0         0.30       1565.2 
      1511.0         0.33       1527.4 
      1512.0         0.30       1482.6 
      1513.0         0.50       1459.2 
      1514.0         0.47       1455.4 
      1515.0         0.47       1452.5 
      1516.0         0.47       1487.7 
      1517.0         0.68       1485.8 
      1518.0         0.50       1464.6 
      1519.0         0.57       1460.4 
      1520.0         0.53       1462.0 
      1521.0         0.47       1430.3 
      1522.0         0.62       1481.7 
      1523.0         0.87       1522.0 
      1524.0         0.70       1528.0 
      1525.0         0.43       1509.3 
      1526.0         0.50       1504.2 
      1527.0         0.40       1170.0 
      1528.0         0.45       1322.7 
      1529.0         0.40       1709.3 
      1530.0         4.98       5436.3 
      1531.0         0.93       1859.7 
      1532.0         1.28       1774.3 
      1533.0         0.70       1938.7 
      1534.0        34.68       2425.0 
      1535.0        31.80       2204.1 
      1536.0         0.63       1959.4 
      1537.0         0.48       1246.8 
      1538.0         0.40       1186.5 
      1539.0         0.37       1204.6 
      1540.0         0.33       1159.6 
      1541.0         0.33       1089.4 
      1542.0         0.30       1154.8 
      1543.0         0.27       1324.6 
      1544.0         0.27       1515.3 
      1545.0         0.30       1616.3 
      1546.0         0.30       1620.7 
      1547.0         0.32       1374.7 
      1548.0         0.40       1211.3 
      1549.0         0.67       1178.6 
      1550.0         0.47       1067.5 
      1551.0         0.37        998.6 
      1552.0         0.43       1012.6 
      1553.0         0.40       1104.3 
      1554.0         0.62       1091.6 
      1555.0         0.57       1011.7 
      1556.0         0.37        893.0 
      1557.0         0.37        572.1 
      1558.0         0.30        936.4 
      1559.0         0.23       1415.0 
      1560.0         5.13       5572.1 
      1561.0         0.60       1253.2 
      1562.0         0.63       1378.9 
      1563.0         0.53       1369.0 
      1564.0         0.43       1371.6 
      1565.0         0.45       1377.6 
      1566.0         0.47       1348.7 
      1567.0         0.43       1432.2 
      1568.0         0.43       1459.8 
      1569.0         0.47       1522.6 
      1570.0         0.37       1514.4 
      1571.0         0.33       1441.7 
      1572.0         0.37       1364.3 
      1573.0         0.45       1288.7 
      1574.0         0.43       1291.3 
      1575.0         0.43       1298.9 
      1576.0         0.43       1290.3 
      1577.0         0.40       1276.0 
      1578.0         0.43       1170.7 
      1579.0         0.37       1228.4 
      1580.0         0.40       1213.8 
      1581.0         0.38       1357.9 
      1582.0         0.40       1489.0 
      1583.0         0.37       1486.1 
      1584.0         0.37       1319.8 
      1585.0         0.37       1069.1 
      1586.0         0.47       1033.9 
      1587.0         0.40        606.4 
      1588.0         0.30        912.6 
      1589.0         0.40       1615.0 
      1590.0         5.47       4473.0 
      1591.0         0.47       1231.6 
      1592.0         0.75       1324.0 
      1593.0         0.57       1239.8 
      1594.0         0.73       1329.4 
      1595.0         0.50       1277.6 
      1596.0         0.47       1125.6 
      1597.0         0.57       1036.1 
