~Version Information
VERS.                      2.0: CWLS Log ASCII Standard - VERSION 2.0
WRAP.                       NO: One line per depth step
~Well Information Block
STRT.FT               -12.5000: 
STOP.FT              2487.7500: 
STEP.FT                 0.2500: 
NULL.                -999.2500: 
COMP.          Petrogulf Corporation: COMPANY
WELL.             Royal 8-33 V: WELL
FLD.           Purgatorie River: FIELD
LOC.           2365' FSL & 2336' FEL--: LOCATION
CNTY.               Las Animas: COUNTY
SRVC.                         : SERVICE COMPANY
DATE.          Sat Jan 17 11:43:49 2004: LOG DATE
UWI.           05 071 07934 00: UNIQUE WELL ID
STAT.                       CO: STATE
~Curve Information Block
DEPT.FT            0 000 00 00: Depth
CCL.                          : Casing Collar Locator
TT3.usec                      : CBL 3' Travel Time
AMP3.mV                       : CBL 3' Amplitude
GR.GAPI                       : Gamma Ray
~Parameter Information Block
~A  Depth       CCL         TT3         AMP3         GR     
# ...
  1461.5000      0.0000    688.8379      3.5231     91.8945
  1461.7500      0.0000    689.9417      3.7490     97.0763
  1462.0000      0.0000    688.0117      3.8544    106.4794
  1462.2500      0.0000    682.5903      3.7960    117.2242
  1462.5000      0.0000    675.1937      3.5942    125.0117
  1462.7500      0.0000    668.2986      3.3183    127.6892
  1463.0000      0.0000    663.6102      3.0597    127.0509
  1463.2500      0.0000    661.3461      2.9000    126.7524
  1463.5000      0.0000    660.8721      2.8780    128.6938
  1463.7500      0.0000    661.6639      2.9692    131.5696
  1464.0000      0.0000    663.7360      3.0983    132.6397
  1464.2500      0.0000    667.2892      3.1900    130.6660
  1464.5000      0.0000    671.5692      3.2223    127.1019
  1464.7500      0.0000    673.5177      3.2329    124.7107
  1465.0000      0.0000    668.2014      3.2722    125.4904
  1465.2500      0.0000    653.1072      3.3492    129.7946
  1465.5000      0.0000    633.9728      3.4199    136.5615
  1465.7500      0.0000    624.4909      3.4213    143.8478
  1466.0000      0.0000    636.1172      3.3251    149.7778
  1466.2500      0.0000    667.1611      3.1765    153.6802
  1466.5000      0.0000    704.0313      3.0813    156.1801
  1466.7500      0.0000    733.1458      3.1227    157.9744
  1467.0000      0.0000    749.7464      3.2772    158.8016
  1467.2500      0.0000    756.5992      3.4285    157.7895
  1467.5000      0.0000    758.1245      3.4720    154.5313
  1467.7500      0.0000    756.8199      3.3950    149.7282
  1468.0000      0.0000    753.0967      3.2601    145.1260
  1468.2500      0.0000    746.8253      3.1367    142.7948
  1468.5000      0.0000    739.3896      3.0609    143.7208
  1468.7500      0.0000    734.8457      3.0386    146.7256
  1469.0000      0.0000    738.3895      3.0553    149.2342
  1469.2500      0.0000    752.4624      3.0778    149.5353
  1469.5000      0.0000    773.9734      3.0657    148.1648
  1469.7500      0.0000    795.8455      2.9968    146.8423
  1470.0000      0.0000    811.5382      2.8814    146.2378
  1470.2500      0.0000    818.1186      2.7500    145.1516
  1470.5000      0.0000    815.9987      2.6299    141.9172
  1470.7500      0.0000    807.6077      2.5345    136.3702
  1471.0000      0.0000    796.8489      2.4717    130.1851
  1471.2500      0.0000    787.8027      2.4508    125.2405
  1471.5000      0.0000    781.4742      2.4761    122.1188
  1471.7500      0.0000    773.9483      2.5374    120.5637
  1472.0000      0.0000    760.1210      2.6203    120.8912
  1472.2500      0.0000    740.4918      2.7281    123.9879
  1472.5000      0.0000    723.0505      2.8841    129.7532
  1472.7500      0.0000    717.1692      3.1018    136.1494
  1473.0000      0.0000    725.7741      3.3522    140.3704
  1473.2500      0.0000    743.4229      3.5619    141.0971
  1473.5000      0.0000    760.6061      3.6487    139.3946
  1473.7500      0.0000    769.5074      3.5690    137.2129
  1474.0000      0.0000    768.0171      3.3455    135.2950
  1474.2500      0.0000    760.6395      3.0570    132.7401
  1474.5000      0.0000    755.0298      2.7992    128.2433
  1474.7500      0.0000    756.2830      2.6458    121.4334
  1475.0000      0.0000    764.9109      2.6244    113.2611
  1475.2500      0.0000    779.9989      2.7149    105.4786
  1475.5000      0.0000    801.2578      2.8670     99.8089
  1475.7500      0.0000    825.7982      3.0272     97.3529
  1476.0000      0.0000    845.1857      3.1551     98.3770
  1476.2500      4.0000    849.7368      3.2334    102.3078
  1476.5000      0.0000    836.3946      3.2822    107.9162
  1476.7500      0.0000    811.0154      3.3545    113.5843
  1477.0000      0.0000    783.8032      3.4889    117.5629
  1477.2500      0.0000    763.7383      3.6640    118.4792
  1477.5000      0.0000    755.2961      3.8217    116.1346
  1477.7500      0.0000    757.6281      3.9354    111.8393
  1478.0000      0.0000    766.2339      4.0280    107.6626
  1478.2500      0.0000    775.5565      4.1249    105.2003
  1478.5000      0.0000    780.4409      4.2137    104.9491
  1478.7500      0.0000    777.0841      4.2560    106.5892
  1479.0000      0.0000    764.4384      4.2265    109.6542
  1479.2500      0.0000    744.7113      4.1383    113.7720
  1479.5000      0.0000    722.3674      4.0399    118.2349
  1479.7500      0.0000    702.7697      3.9855    121.7441
  1480.0000      0.0000    690.5250      3.9990    123.1990
  1480.2500      0.0000    687.3283      4.0598    122.7062
  1480.5000      0.0000    691.1129      4.1247    121.2859
  1480.7500      0.0000    697.9912      4.1630    119.6017
  1481.0000      0.0000    705.2777      4.1731    117.5479
  1481.2500      0.0000    712.7879      4.1800    115.0875
  1481.5000      0.0000    721.7544      4.2232    113.0196
  1481.7500      0.0000    732.9073      4.3329    112.9841
  1482.0000      0.0000    745.4736      4.4998    116.8043
  1482.2500      0.0000    757.6600      4.6731    125.1483
  1482.5000      0.0000    767.9494      4.7994    136.3943
  1482.7500      0.0000    776.0873      4.8686    147.3038
  1483.0000      0.0000    782.8769      4.9248    155.0934
  1483.2500      0.0000    788.5958      5.0311    158.5982
  1483.5000      0.0000    791.4595      5.2174    157.7751
  1483.7500      0.0000    788.4779      5.4521    152.9831
  1484.0000      0.0000    778.6761      5.6602    145.0228
  1484.2500      0.0000    765.1776      5.7724    135.4959
  1484.5000      0.0000    753.3113      5.7644    126.7981
  1484.7500      0.0000    746.4065      5.6552    121.4190
  1485.0000      0.0000    743.5467      5.4815    120.7360
  1485.2500      0.0000    740.6582      5.2742    124.0831
  1485.5000      0.0000    732.7982      5.0517    128.9806
  1485.7500      0.0000    716.8693      4.8296    132.5473
  1486.0000      0.0000    694.9283      4.6372    133.1099
  1486.2500      0.0000    674.5350      4.5220    130.9562
  1486.5000      0.0000    662.8940      4.5215    127.7343
  1486.7500      0.0000    660.0475      4.6244    124.8338
  1487.0000      0.0000    659.8384      4.7654    122.1902
  1487.2500      0.0000    657.4662      4.8664    118.9573
  1487.5000      0.0000    654.0467      4.8872    115.2805
  1487.7500      0.0000    653.8700      4.8330    112.6168
  1488.0000      0.0000    659.2427      4.7158    111.9951
  1488.2500      0.0000    668.8452      4.5187    112.7069
  1488.5000      0.0000    679.8213      4.2169    113.2163
  1488.7500      0.0000    689.9221      3.8384    112.8809
  1489.0000      0.0000    697.9491      3.4800    112.3286
  1489.2500      0.0000    703.5154      3.2410    112.4082
  1489.5000      0.0000    706.8749      3.1441    113.1529
  1489.7500      0.0000    708.6424      3.1326    113.8790
  1490.0000      0.0000    709.4081      3.1362    114.3147
  1490.2500      0.0000    709.4944      3.1264    115.3994
  1490.5000      0.0000    708.8423      3.1165    118.3401
  1490.7500      0.0000    707.0568      3.1329    122.7475
  1491.0000      0.0000    703.7902      3.1947    126.4602
  1491.2500      0.0000    699.2360      3.3085    127.6449
  1491.5000      0.0000    694.1290      3.4698    126.4986
  1491.7500      0.0000    689.0831      3.6672    124.4173
  1492.0000      0.0000    684.0049      3.8843    122.0647
  1492.2500      0.0000    678.2017      4.0984    118.9504
  1492.5000      0.0000    670.7048      4.2737    114.7026
  1492.7500      0.0000    659.8113      4.3673    110.0885
  1493.0000      0.0000    642.3445      4.3548    106.6049
  1493.2500      0.0000    615.0419      4.2503    105.3247
  1493.5000      0.0000    578.8888      4.1008    106.2418
  1493.7500      0.0000    542.5150      3.9628    108.5022
  1494.0000      0.0000    519.4843      3.8811    110.9017
  1494.2500      0.0000    520.0403      3.8725    112.0705
  1494.5000      0.0000    543.9798      3.9157    110.7575
  1494.7500      0.0000    580.6666      3.9561    106.7440
