~Version Information
VERS.                      2.0: CWLS Log ASCII Standard - VERSION 2.0
WRAP.                       NO: One line per depth step
~Well Information Block
STRT.FT               510.0000: 
STOP.FT              1848.7500: 
STEP.FT                 0.2500: 
NULL.                -999.2500: 
COMP.          Pioneer Natural Resources: COMPANY
WELL.           Stampede 42-18: WELL
FLD.           Purgatoire River: FIELD
LOC.           2479' FNL & 160' FEL--: LOCATION
CNTY.               Las Animas: COUNTY
SRVC.          Superior Well Services: SERVICE COMPANY
DATE.          Sat Jun 09 02:07:27 2007: LOG DATE
UWI.           05 071 08237 00: UNIQUE WELL ID
STAT.                 Colorado: STATE
~Curve Information Block
DEPT.FT            0 000 00 00: Depth
SN.Ohm-m                      : IEL Short Normal
SP.mV                         : IEL Spontaneous Potential
DIR.Ohm-m                     : IEL Induction Resistivity
GR.GAPI                       : Gamma Ray
~Parameter Information Block
~A  Depth        SN          SP         DIR          GR     
# ...
  1716.0000     33.9429     54.2526     32.7767     88.9184
  1716.2500     33.4439     54.6738     32.7380     89.2021
  1716.5000     33.2312     55.0839     32.5642     89.1785
  1716.7500     33.3810     55.4845     32.3193     88.8631
  1717.0000     33.8345     55.8891     32.0616     88.1720
  1717.2500     34.4245     56.3170     31.8315     87.5907
  1717.5000     34.9568     56.7796     31.6531     86.0008
  1717.7500     35.3390     57.2705     31.5387     84.1080
  1718.0000     35.6346     57.7623     31.4926     80.3361
  1718.2500     35.9954     58.2130     31.5142     77.9538
  1718.5000     36.5580     58.5798     31.5980     75.8689
  1718.7500     37.3598     58.8309     31.7404     75.7969
  1719.0000     38.3167     58.9518     31.9532     77.3329
  1719.2500     39.2992     58.9493     32.2679     78.8064
  1719.5000     40.2295     58.8522     32.7144     80.2233
  1719.7500     41.0826     58.7062     33.2883     80.0183
  1720.0000     41.8320     58.5619     33.9445     78.0049
  1720.2500     42.4324     58.4611     34.6285     76.1416
  1720.5000     42.8340     58.4302     35.3122     73.9684
  1720.7500     42.9891     58.4805     35.9828     73.4953
  1721.0000     42.8584     58.6167     36.5943     74.1678
  1721.2500     42.4425     58.8442     37.0276     74.8979
  1721.5000     41.7966     59.1704     37.1072     75.1982
  1721.7500     40.9711     59.5964     36.6752     74.6403
  1722.0000     39.9374     60.1074     35.6828     73.2271
  1722.2500     38.5975     60.6699     34.2310     72.3735
  1722.5000     36.8892     61.2398     32.5217     71.7850
  1722.7500     34.8882     61.7794     30.7556     72.1418
  1723.0000     32.7837     62.2695     29.0617     74.4584
  1723.2500     30.7599     62.7102     27.4945     77.5866
  1723.5000     28.9292     63.1086     26.0708     84.9926
  1723.7500     27.3368     63.4684     24.7961     91.4953
  1724.0000     25.9760     63.7893     23.6666    102.2600
  1724.2500     24.8118     64.0745     22.6621    109.0987
  1724.5000     23.8116     64.3366     21.7491    117.6384
  1724.7500     22.9598     64.5971     20.8934    121.9679
  1725.0000     22.2444     64.8838     20.0697    126.6083
  1725.2500     21.6147     65.2274     19.2638    128.6872
  1725.5000     20.9598     65.6544     18.4725    130.3840
  1725.7500     20.1584     66.1737     17.7057    130.3450
  1726.0000     19.1837     66.7686     16.9873    128.1280
  1726.2500     18.1610     67.4023     16.3508    125.3639
  1726.5000     17.3041     68.0346     15.8295    120.3486
  1726.7500     16.7982     68.6339     15.4469    117.2915
  1727.0000     16.7248     69.1738     15.2115    114.6357
  1727.2500     17.0416     69.6254     15.1160    114.7853
  1727.5000     17.6064     69.9613     15.1416    118.0282
  1727.7500     18.2304     70.1711     15.2627    121.6433
  1728.0000     18.7420     70.2694     15.4504    127.5900
  1728.2500     19.0542     70.2865     15.6742    130.8928
  1728.5000     19.2091     70.2496     15.9066    133.6394
  1728.7500     19.3365     70.1725     16.1297    133.7631
  1729.0000     19.5427     70.0586     16.3421    131.6125
  1729.2500     19.8408     69.9107     16.5586    128.9481
  1729.5000     20.1736     69.7381     16.8016    123.9576
  1729.7500     20.4874     69.5572     17.0898    120.6544
  1730.0000     20.7841     69.3837     17.4317    116.8311
  1730.2500     21.1108     69.2254     17.8273    115.2880
  1730.5000     21.5117     69.0812     18.2749    114.1143
  1730.7500     21.9980     68.9492     18.7767    113.7245
  1731.0000     22.5394     68.8302     19.3369    113.4909
  1731.2500     23.0688     68.7240     19.9554    113.6569
  1731.5000     23.5082     68.6256     20.6214    114.3369
  1731.7500     23.8007     68.5302     21.3117    114.7771
  1732.0000     23.9330     68.4382     21.9938    114.8980
  1732.2500     23.9593     68.3540     22.6339    114.6172
  1732.5000     24.0019     68.2775     23.2069    114.2007
  1732.7500     24.1832     68.1969     23.7044    114.3333
  1733.0000     24.5465     68.0919     24.1357    115.4442
  1733.2500     25.0606     67.9460     24.5241    116.4698
  1733.5000     25.6892     67.7574     24.9046    117.1773
  1733.7500     26.4348     67.5359     25.3223    116.4408
  1734.0000     27.3364     67.2927     25.8278    113.3050
  1734.2500     28.4624     67.0326     26.4638    110.1178
  1734.5000     29.8948     66.7548     27.2510    104.0223
  1734.7500     31.6798     66.4581     28.1835     99.2181
  1735.0000     33.7750     66.1458     29.2373     91.7741
  1735.2500     36.0696     65.8275     30.3795     87.4919
  1735.5000     38.4755     65.5137     31.5599     82.7808
  1735.7500     40.9721     65.2060     32.6901     80.3362
  1736.0000     43.5478     64.8897     33.6471     76.5729
  1736.2500     46.1118     64.5342     34.3256     73.9140
  1736.5000     48.4672     64.0974     34.7063     70.4600
  1736.7500     50.3616     63.5289     34.8653     68.9050
  1737.0000     51.5435     62.7754     34.9062     67.8728
  1737.2500     51.8063     61.7927     34.8814     68.1018
  1737.5000     51.0617     60.5609     34.7683     69.9342
  1737.7500     49.4001     59.0944     34.5084     71.9686
  1738.0000     47.0777     57.4452     34.0717     75.3929
  1738.2500     44.4469     55.6946     33.4963     77.4914
  1738.5000     41.8659     53.9344     32.8824     80.3971
  1738.7500     39.6153     52.2408     32.3512     82.4749
  1739.0000     37.8569     50.6527     31.9982     85.9416
  1739.2500     36.6378     49.1648     31.8601     88.1735
  1739.5000     35.8973     47.7384     31.9041     90.6153
  1739.7500     35.4953     46.3248     32.0430     91.2539
  1740.0000     35.2921     44.8869     32.1808     90.4101
  1740.2500     35.2282     43.4062     32.2663     88.8585
  1740.5000     35.3274     41.8767     32.3159     86.2028
  1740.7500     35.6274     40.2978     32.3799     84.9138
  1741.0000     36.1198     38.6765     32.4781     83.9517
  1741.2500     36.7485     37.0360     32.5681     83.5344
  1741.5000     37.4302     35.4226     32.5803     82.4297
  1741.7500     38.0656     33.9004     32.4932     81.3137
  1742.0000     38.5642     32.5369     32.3808     79.8054
  1742.2500     38.8843     31.3913     32.3833     79.4168
  1742.5000     39.0521     30.5126     32.6270     79.9118
  1742.7500     39.1443     29.9407     33.1517     80.6678
  1743.0000     39.2540     29.7019     33.8835     81.9989
  1743.2500     39.4511     29.8046     34.6559     82.9264
  1743.5000     39.7410     30.2413     35.2632     84.2800
  1743.7500     40.0206     31.0005     35.5141     85.1595
  1744.0000     40.0407     32.0803     35.2613     86.7671
  1744.2500     39.4505     33.4961     34.4254     88.2459
  1744.5000     37.9815     35.2797     33.0286     90.8819
  1744.7500     35.6403     37.4687     31.2094     92.4535
  1745.0000     32.7501     40.0877     29.1800     93.8768
  1745.2500     29.8573     43.1222     27.1455     94.3775
  1745.5000     27.5168     46.4962     25.2449     95.8172
  1745.7500     25.9899     50.0670     23.5378     98.1731
  1746.0000     25.1352     53.6387     22.0274    104.4706
  1746.2500     24.6477     56.9933     20.6925    110.1180
  1746.5000     24.3387     59.9359     19.5088    119.3635
  1746.7500     24.1701     62.3418     18.4567    125.3121
  1747.0000     24.1342     64.1866     17.5204    133.0613
  1747.2500     24.1797     65.5394     16.6905    136.9851
  1747.5000     24.2357     66.5223     15.9668    139.9417
  1747.7500     24.2625     67.2609     15.3591    139.3973
  1748.0000     24.2575     67.8510     14.8802    135.1094
  1748.2500     24.2352     68.3507     14.5380    131.3024
  1748.5000     24.2203     68.7892     14.3334    127.4318
  1748.7500     24.2435     69.1810     14.2641    127.1075
  1749.0000     24.3313     69.5377     14.3294    128.9940
  1749.2500     24.5116     69.8739     14.5325    130.4605
