~Version Information
VERS.                      2.0: CWLS Log ASCII Standard - VERSION 2.0
WRAP.                       NO: One line per depth step
~Well Information Block
STRT.FT               752.0000: 
STOP.FT              2474.2000: 
STEP.FT                 0.1000: 
NULL.                -999.2500: 
COMP.          Petrogulf Corporation: COMPANY
WELL.            Montoya 7-14V: WELL
FLD.           Purgatorie River: FIELD
LOC.           535' FSL & 491' FWL: LOCATION
CNTY.               Las Animas: COUNTY
SRVC.                         : SERVICE COMPANY
DATE.          Mon Aug 23 10:41:01 2004: LOG DATE
UWI.           05 071 08019 00: UNIQUE WELL ID
STAT.                 Colorado: STATE
~Curve Information Block
DEPT.FT            0 000 00 00: Depth
DCAL.in                       : CDL Caliper
RHOB.g/cc                     : CDL Bulk Density
RHOC.g/cc                     : CDL Density Correction
DPOR.pu                       : CDL Density Porosity
GR.GAPI                       : Gamma Ray
NPOR.pu                       : Neutron Porosity
~Parameter Information Block
~A  Depth       DCAL        RHOB        RHOC        DPOR         GR         NPOR    
# ...
  2230.4000      7.5173      2.5287      0.0869      7.3493     69.7010     19.9771
  2230.5000      7.5572      2.5201      0.0332      7.8738     73.0591     21.2119
  2230.6000      7.5572      2.5173      0.0550      8.0423     80.8835     22.4266
  2230.7000      7.5572      2.5225      0.0636      7.7300     88.6597     22.8017
  2230.8000      7.5625      2.5311      0.0684      7.2079     90.4569     21.9378
  2230.9000      7.5625      2.5398      0.0752      6.6774     84.4874     20.8950
  2231.0000      7.5628      2.5476      0.0701      6.2071     77.3216     21.0213
  2231.1000      7.5628      2.5503      0.0740      6.0406     73.4780     22.2953
  2231.2000      7.5628      2.5441      0.0739      6.4180     71.7882     23.2799
  2231.3000      7.5640      2.5282      0.0802      7.3831     71.2607     22.8983
  2231.4000      7.5640      2.5106      0.0519      8.4514     71.9956     21.7671
  2231.5000      7.5649      2.5017      0.0311      8.9881     73.5202     20.7234
  2231.6000      7.5649      2.4966      0.0303      9.2964     75.2499     20.0000
  2231.7000      7.5649      2.4842      0.0308     10.0468     77.6926     19.8803
  2231.8000      7.5648      2.4703      0.0158     10.8897     78.8767     20.2741
  2231.9000      7.5648      2.4679      0.0053     11.0337     76.1478     20.5910
  2232.0000      7.5632      2.4795     -0.0291     10.3317     73.0802     20.6981
  2232.1000      7.5632      2.5001     -0.0025      9.0849     72.5244     21.0682
  2232.2000      7.5632      2.5166      0.0357      8.0866     73.5239     21.6734
  2232.3000      7.5627      2.5234      0.0350      7.6751     76.4029     21.7099
  2232.4000      7.5627      2.5325      0.0542      7.1203     79.3755     20.5826
  2232.5000      7.5635      2.5464      0.0754      6.2763     79.2627     18.7070
  2232.6000      7.5635      2.5498      0.0881      6.0717     75.8339     17.4611
  2232.7000      7.5635      2.5352      0.0736      6.9603     72.0865     17.5486
  2232.8000      7.5664      2.5199      0.0242      7.8872     70.2165     18.3019
  2232.9000      7.5664      2.5270      0.0132      7.4559     70.7102     19.0260
  2233.0000      7.5638      2.5485      0.0691      6.1503     73.5329     19.5736
  2233.1000      7.5638      2.5578      0.0705      5.5896     74.9407     19.7641
  2233.2000      7.5638      2.5493      0.0525      6.1023     73.6152     19.5911
  2233.3000      7.5618      2.5328      0.0660      7.1004     74.3185     19.5800
  2233.4000      7.5618      2.5168      0.0202      8.0705     76.6239     19.8760
  2233.5000      7.5557      2.5061      0.0252      8.7229     76.4978     20.3401
  2233.6000      7.5557      2.4919      0.0270      9.5843     75.1354     21.4922
  2233.7000      7.5557      2.4695      0.0198     10.9392     74.0981     23.2655
  2233.8000      7.5545      2.4586     -0.0049     11.5987     72.2299     24.2646
  2233.9000      7.5545      2.4738      0.0347     10.6775     71.0047     23.8521
  2234.0000      7.4955      2.4999      0.0996      9.0956     72.9063     23.1078
  2234.1000      7.4955      2.5243      0.0700      7.6153     76.3569     22.9468
  2234.2000      7.4955      2.5545      0.0846      5.7873     78.8456     22.8667
  2234.3000      7.4794      2.5805      0.1502      4.2121     79.2750     22.4139
  2234.4000      7.4794      2.5782      0.1485      4.3488     77.6766     22.0644
  2234.5000      7.4764      2.5570      0.1127      5.6388     77.2122     22.0832
  2234.6000      7.4764      2.5423      0.1418      6.5262     79.2481     22.1751
  2234.7000      7.4764      2.5329      0.1257      7.0991     81.2288     22.0074
  2234.8000      7.5081      2.5214      0.0746      7.7934     81.0230     21.5915
  2234.9000      7.5081      2.5183      0.0190      7.9818     81.3814     21.2037
  2235.0000      7.5578      2.5325      0.0353      7.1204     85.8253     21.0375
  2235.1000      7.5578      2.5572      0.0859      5.6241     90.4475     21.0519
  2235.2000      7.5578      2.5779      0.0777      4.3723     88.6908     20.9029
  2235.3000      7.5645      2.5872      0.0565      3.8048     81.9577     20.2870
  2235.4000      7.5645      2.5859      0.0874      3.8876     76.6352     19.4154
  2235.5000      7.5649      2.5731      0.0766      4.6598     74.3403     18.5076
  2235.6000      7.5649      2.5488      0.0821      6.1320     73.9998     17.8071
  2235.7000      7.5649      2.5226      0.0161      7.7191     74.7262     17.6853
  2235.8000      7.5662      2.5054      0.0223      8.7607     74.9644     18.0316
  2235.9000      7.5662      2.4942      0.0106      9.4419     74.1940     18.4523
  2236.0000      7.5770      2.4838      0.0085     10.0733     74.4070     18.7229
  2236.1000      7.5770      2.4815     -0.0382     10.2142     76.2116     18.8460
  2236.2000      7.5770      2.4937      0.0002      9.4728     77.6152     18.8754
  2236.3000      7.5681      2.5158      0.0138      8.1336     77.1522     18.7748
  2236.4000      7.5681      2.5420      0.0111      6.5432     75.2158     18.7272
  2236.5000      7.5806      2.5630      0.0488      5.2746     74.6776     18.8171
  2236.6000      7.5806      2.5672      0.0216      5.0178     75.3765     18.6286
  2236.7000      7.5806      2.5566      0.0272      5.6624     75.2754     18.3528
  2236.8000      7.5836      2.5435      0.0171      6.4523     76.4006     18.7592
  2236.9000      7.5836      2.5349      0.0263      6.9765     77.2160     19.7491
  2237.0000      7.5839      2.5350     -0.0043      6.9727     74.6721     20.5297
  2237.1000      7.5839      2.5478      0.0320      6.1955     72.8290     21.1430
  2237.2000      7.5839      2.5566      0.0539      5.6599     74.3704     21.8422
  2237.3000      7.5841      2.5459      0.0444      6.3092     77.7937     21.7910
  2237.4000      7.5841      2.5288      0.0236      7.3474     82.9433     20.5176
  2237.5000      7.5935      2.5229      0.0525      7.7044     87.3725     19.1730
  2237.6000      7.5935      2.5286      0.0734      7.3546     89.2868     18.9518
  2237.7000      7.5935      2.5332      0.0839      7.0801     91.4555     19.6976
  2237.8000      7.5776      2.5283      0.0804      7.3741     94.7647     20.4542
  2237.9000      7.5776      2.5220      0.0720      7.7581     96.7851     20.8926
  2238.0000      7.5662      2.5235      0.0907      7.6664     96.7829     21.3763
  2238.1000      7.5662      2.5359      0.0771      6.9131     95.3526     22.0203
  2238.2000      7.5662      2.5554      0.0948      5.7308     91.0349     22.2729
  2238.3000      7.5674      2.5717      0.1001      4.7445     82.3750     21.6779
  2238.4000      7.5674      2.5784      0.0889      4.3383     71.9287     20.6471
  2238.5000      7.5873      2.5742      0.0842      4.5955     65.6533     20.2317
  2238.6000      7.5873      2.5607      0.0613      5.4116     65.2108     20.7481
  2238.7000      7.5873      2.5456      0.0567      6.3287     67.3309     21.4876
  2238.8000      7.6065      2.5384      0.0469      6.7621     69.8379     22.1880
  2238.9000      7.6065      2.5435      0.0176      6.4550     70.4053     22.9041
  2239.0000      7.6098      2.5538      0.0329      5.8320     66.7353     23.4169
  2239.1000      7.6098      2.5468      0.0590      6.2557     61.3278     23.6626
  2239.2000      7.6098      2.5004      0.0338      9.0694     58.4028     23.5729
  2239.3000      7.6098      2.4142      0.0205     14.2891     59.9886     23.4085
  2239.4000      7.6098      2.3120     -0.0254     20.4835     64.6858     23.7450
  2239.5000      7.6103      2.2134     -0.0234     26.4577     68.1295     24.4097
  2239.6000      7.6103      2.1040     -0.0630     33.0919     68.5032     25.1882
  2239.7000      7.6103      1.9636     -0.1134     41.5975     66.6034     26.6407
  2239.8000      7.6346      1.8050     -0.0985     51.2133     62.9492     28.4851
  2239.9000      7.6346      1.6652     -0.0962     59.6824     59.7529     29.6370
