~Version Information
 VERS.                                  2.0 : CWLS LAS VERSION
 WRAP.                                   NO : WRAPING MODE
 SWARE .                 MController 2.5.0J : SOFTWARE VERSION
~Well Information
 WELL.                          Silva 6-22V : WELL
 COMP.                       Petrogulf Corp : COMPANY
 FLD.                      Purgatoire River : FIELD
 LOC.                 SE/NW Sec 6 T33S R67W : LOCATION
 DATE.                            11/7-9/04 : DATE(S) LOGGED
 SRVC.       Blanco Geological Services LLC : SERVICE COMPANY
 STAT.                                   CO : STATE
 CNTY.                           Las Animas : COUNTY
 CTRY.                                  USA : COUNTRY
 API.                       05-071-08143-00 : API NUMBER
 STRT.FT                              35.00 : START DEPTH
 STOP.FT                            2732.00 : STOP DEPTH
 STEP.FT                               1.00 : DEPTH INCREMENT
 NULL.                                -9999 : NULL VALUE
~Curve information
 DEPTH.FT                                   :
 ROP.MIN/FT                                 :
 GAS.UNITS                                  :
~ASCII Log data
# ...
      2435.0         0.90         19.2 
      2436.0         0.83         20.1 
      2437.0         0.92         19.4 
      2438.0         0.87         19.3 
      2439.0         0.83         19.8 
      2440.0         0.77         18.7 
      2441.0         0.72         19.0 
      2442.0         0.70         18.6 
      2443.0         0.70         19.1 
      2444.0         0.53         18.9 
      2445.0         0.60         18.0 
      2446.0         0.68         18.0 
      2447.0         0.77         17.8 
      2448.0         0.83         18.4 
      2449.0         0.67         18.0 
      2450.0         0.50         18.3 
      2451.0         0.53         17.8 
      2452.0         0.45         18.0 
      2453.0         0.73         18.1 
      2454.0         0.80         17.9 
      2455.0         0.50         18.2 
      2456.0         0.47         52.7 
      2457.0         0.62         45.7 
      2458.0         0.60         39.9 
      2459.0         0.57         22.5 
      2460.0         0.23         17.1 
      2461.0         0.27         18.0 
      2462.0         0.65         18.6 
      2463.0         0.60         19.1 
      2464.0         0.47         20.5 
      2465.0         0.63         20.2 
      2466.0         0.63         19.8 
      2467.0         0.75         19.2 
      2468.0         0.67         18.8 
      2469.0         0.60         19.2 
      2470.0         0.57         19.0 
      2471.0         0.70         19.8 
      2472.0         0.63         19.1 
      2473.0         0.42         18.7 
      2474.0         0.40         18.9 
      2475.0         0.30         17.9 
      2476.0         0.30         18.1 
      2477.0         0.40         17.9 
      2478.0         0.47         17.6 
      2479.0         0.50         18.0 
      2480.0         0.43         17.6 
      2481.0         0.52         16.8 
      2482.0         0.57         17.5 
      2483.0         0.37         17.7 
      2484.0         0.37         17.5 
      2485.0         0.23         16.9 
      2486.0         0.23         16.8 
      2487.0         0.50         67.2 
      2488.0         0.53         69.6 
      2489.0         0.55         58.4 
      2490.0         0.93         28.8 
      2491.0         0.47         15.8 
      2492.0         0.67         17.1 
      2493.0         0.87         18.9 
      2494.0         0.95         20.6 
      2495.0         0.47         21.9 
      2496.0         0.53         21.3 
      2497.0         0.30         21.8 
      2498.0         0.30         20.8 
      2499.0         0.33         20.5 
      2500.0         0.33         20.2 
      2501.0         0.30         19.4 
      2502.0         0.33         19.8 
      2503.0         0.65         20.9 
      2504.0         0.60         19.9 
      2505.0         0.57         19.9 
      2506.0         0.63         19.6 
      2507.0         0.70         18.9 
      2508.0         0.85         17.6 
      2509.0         0.63         18.1 
      2510.0         0.67         18.3 
      2511.0         0.63         17.8 
      2512.0         0.67         17.6 
      2513.0         1.02         17.6 
      2514.0         0.83         18.1 
      2515.0         0.93         17.5 
      2516.0         0.92         18.4 
      2517.0         0.90         17.7 
      2518.0         0.83         59.7 
      2519.0         0.87         54.0 
      2520.0         0.78         23.2 
      2521.0         0.33         17.3 
      2522.0         0.63         18.0 
      2523.0         0.65         19.7 
      2524.0         0.43         24.2 
      2525.0         0.47         17.4 
      2526.0         0.40         17.4 
      2527.0         0.33         17.5 
      2528.0         0.33         17.1 
      2529.0         0.60         18.1 
      2530.0         0.28         17.5 
      2531.0         0.33         16.8 
      2532.0         0.27         16.7 
      2533.0         0.30         17.6 
      2534.0         0.37         17.2 
      2535.0         0.38         17.5 
      2536.0         0.40         17.6 
      2537.0         0.37         17.8 
      2538.0         0.47         16.0 
      2539.0         0.50         15.5 
      2540.0         0.60         16.7 
      2541.0         0.82         16.9 
      2542.0         0.77         17.4 
      2543.0         0.73         17.7 
      2544.0         0.73         17.1 
      2545.0         0.77         69.9 
      2546.0         0.65         72.3 
      2547.0         0.53         36.1 
      2548.0         0.30         18.0 
      2549.0         0.27         16.9 
      2550.0         0.53         16.3 
      2551.0         0.63         18.6 
      2552.0         0.70         19.1 
      2553.0         0.60         17.7 
      2554.0         0.67         18.9 
      2555.0         0.65         18.2 
      2556.0         0.73         18.6 
      2557.0         0.73         18.7 
      2558.0         0.77         18.2 
      2559.0         0.78         19.4 
      2560.0         0.57         19.2 
      2561.0         0.57         18.9 
      2562.0         0.57         18.6 
      2563.0         0.53         19.1 
      2564.0         0.57         19.4 
      2565.0         0.72         17.3 
      2566.0         0.57         17.7 
      2567.0         0.77         18.3 
      2568.0         0.63         17.8 
      2569.0         0.77         17.4 
      2570.0         0.68         17.2 
      2571.0         0.70         17.1 
      2572.0         0.70         17.2 
      2573.0         0.70         16.7 
      2574.0         0.85         16.2 
      2575.0         0.77         16.3 
      2576.0         0.70         17.7 
      2577.0         0.80         35.0 
      2578.0         0.73         36.1 
      2579.0         0.78         30.3 
      2580.0         0.83         18.6 
      2581.0         0.33         19.1 
      2582.0         0.23         21.8 
      2583.0         0.33         23.0 
      2584.0         0.33         23.7 
      2585.0         0.50         23.1 
      2586.0         0.47         22.3 
      2587.0         0.43         22.3 
      2588.0         0.55         24.0 
      2589.0         0.83         24.7 
      2590.0         0.57         20.6 
      2591.0         0.50         20.2 
      2592.0         0.43         21.3 
      2593.0         0.37         20.8 
      2594.0         0.33         22.1 
      2595.0         0.38         21.5 
      2596.0         0.33         20.5 
      2597.0         0.27         20.3 
      2598.0         0.33         19.9 
      2599.0         0.37         19.2 
      2600.0         0.23         42.4 
      2601.0         0.27         42.4 
      2602.0         0.13         42.4 
      2603.0         0.20         43.8 
      2604.0         0.13         42.2 
      2605.0         0.23         38.1 
      2606.0         0.17         32.4 
      2607.0         0.17         32.4 
      2608.0         0.30         31.3 
      2609.0         0.35         24.2 
      2610.0         0.43         19.2 
      2611.0         0.37         18.2 
      2612.0         0.40         17.6 
      2613.0         0.43         18.2 
      2614.0         0.47         20.1 
      2615.0         0.45         20.4 
      2616.0         0.30         20.7 
      2617.0         0.23         22.6 
      2618.0         0.43         24.4 
      2619.0         0.57         24.5 
      2620.0         0.60         24.2 
      2621.0         0.50         24.5 
      2622.0         0.42         23.6 
      2623.0         0.50         22.5 
      2624.0         0.53         22.4 
      2625.0         0.50         21.9 
      2626.0         0.57         20.8 
      2627.0         0.60         20.9 
      2628.0         0.57         21.3 
      2629.0         0.55         21.5 
      2630.0         0.53         20.0 
      2631.0         0.53         19.2 
      2632.0         0.57         19.7 
      2633.0         0.40         19.4 
      2634.0         0.47         18.8 
