~Version Information
VERS.                      2.0: CWLS Log ASCII Standard - VERSION 2.0
WRAP.                       NO: One line per depth step
~Well Information Block
STRT.FT               -12.2500: 
STOP.FT              1948.2500: 
STEP.FT                 0.2500: 
NULL.                -999.2500: 
COMP.          Petrogulf Corporation: COMPANY
WELL.            Torcom 17-33R: WELL
FLD.           Purgatorie River: FIELD
LOC.           1483' FSL & 1804' FEL--: LOCATION
PROV.                       CO: PROVINCE
CNTY.               Las Animas: COUNTRY
SRVC.          Patterson Wireline: SERVICE COMPANY
DATE.          Fri Sep 30 10:11:43 2005: LOG DATE
UWI.           05 071 08096 00: UNIQUE WELL ID
~Curve Information Block
DEPT.FT            0 000 00 00: Depth
CCL.                          : Casing Collar Locator
TT3.usec                      : CBL 3' Travel Time
AMP3.mV                       : CBL 3' Amplitude
GR.GAPI                       : Gamma Ray
~Parameter Information Block
~A  Depth       CCL         TT3         AMP3         GR     
# ...
   255.7500      0.0000    278.5587     75.2806     43.7965
   256.0000      0.0000    278.5529     75.2364     44.2219
   256.2500      0.0000    278.5494     75.2022     43.1454
   256.5000      0.0000    278.5473     75.1773     40.6914
   256.7500      0.0000    278.5450     75.1525     37.1681
   257.0000      0.0000    278.5418     75.1150     32.9218
   257.2500      0.0000    278.5380     75.0590     28.5377
   257.5000      0.0000    278.5339     74.9924     24.9490
   257.7500      0.0000    278.5298     74.9325     23.0144
   258.0000      0.0000    278.5255     74.8927     22.8917
   258.2500      0.0000    278.5212     74.8721     23.8962
   258.5000      0.0000    278.5176     74.8589     25.0103
   258.7500      0.0000    278.5153     74.8416     25.6292
   259.0000      0.0000    278.5152     74.8175     25.8947
   259.2500      0.0000    278.5182     74.7931     26.2673
   259.5000      0.0000    278.5242     74.7782     26.8425
   259.7500      0.0000    278.5316     74.7763     27.3532
   260.0000      0.0000    278.5376     74.7799     27.7989
   260.2500      0.0000    278.5389     74.7782     28.7803
   260.5000      0.0000    278.5334     74.7675     31.1074
   260.7500      0.0000    278.5209     74.7529     35.1140
   261.0000      0.0000    278.5039     74.7376     40.2431
   261.2500      0.0000    278.4865     74.7143     45.1992
   261.5000      0.0000    278.4725     74.6678     48.6544
   261.7500      0.0000    278.4636     74.5876     50.1040
   262.0000      0.0000    278.4590     74.4755     50.1535
   262.2500      0.0000    278.4567     74.3405     49.8732
   262.5000      0.0000    278.4560     74.1930     49.9401
   262.7500      0.0000    278.4576     74.0480     50.6233
   263.0000      0.0000    278.4625     73.9279     52.4662
   263.2500      0.0000    278.4699     73.8539     56.5216
   263.5000      0.0000    278.4775     73.8315     63.6333
   263.7500      0.0000    278.4828     73.8457     73.3540
   264.0000      0.0000    278.4850     73.8718     83.4950
   264.2500      0.0000    278.4856     73.8924     91.0337
   264.5000      0.0000    278.4872     73.9003     94.1157
   264.7500      0.0000    278.4908     73.8818     93.3962
   265.0000      0.0000    278.4942     73.8049     91.1719
   265.2500      0.0000    278.4933     73.6397     89.3077
   265.5000      0.0000    278.4857     73.3945     88.3387
   265.7500      0.0000    278.4735     73.1211     88.2055
   266.0000      0.0000    278.4615     72.8817     88.9445
   266.2500      0.0000    278.4533     72.7142     90.4532
   266.5000      0.0000    278.4495     72.6284     92.2818
   266.7500      0.0000    278.4485     72.6209     94.0031
   267.0000      0.0000    278.4484     72.6886     95.4038
   267.2500      0.0000    278.4486     72.8263     96.2483
   267.5000      0.0000    278.4502     73.0145     96.3339
   267.7500      0.0000    278.4550     73.2157     95.8024
   268.0000      0.0000    278.4647     73.3894     95.0307
   268.2500      0.0000    278.4784     73.5122     94.2257
   268.5000      0.0000    278.4930     73.5820     93.2903
   268.7500      0.0000    278.5046     73.6096     91.8546
   269.0000      0.0000    278.5109     73.6092     89.4277
   269.2500      0.0000    278.5116     73.5941     85.9161
   269.5000      0.0000    278.5083     73.5753     82.1308
   269.7500      0.0000    278.5023     73.5618     79.5048
   270.0000      0.0000    278.4942     73.5604     78.9781
   270.2500      0.0000    278.4848     73.5723     79.9714
   270.5000      0.0000    278.4761     73.5976     80.6424
   270.7500      0.0000    278.4707     73.6424     79.6048
   271.0000      0.0000    278.4699     73.7193     77.4443
   271.2500      0.0000    278.4732     73.8343     76.0455
   271.5000      0.0000    278.4783     73.9743     76.4168
   271.7500      0.0000    278.4821     74.1104     77.8096
   272.0000      0.0000    278.4822     74.2130     78.9881
   272.2500      0.0000    278.4769     74.2663     79.6060
   272.5000      0.0000    278.4670     74.2723     80.1242
   272.7500      0.0000    278.4546     74.2430     80.9988
   273.0000      0.0000    278.4420     74.1898     82.3666
   273.2500      0.0000    278.4307     74.1182     84.1831
   273.5000      0.0000    278.4216     74.0309     86.1401
   273.7500      0.0000    278.4143     73.9312     87.5176
   274.0000      0.0000    278.4083     73.8196     87.6385
   274.2500      0.0000    278.4041     73.6887     86.4948
   274.5000      0.0000    278.4032     73.5283     84.5186
   274.7500      0.0000    278.4068     73.3360     81.8519
   275.0000      0.0000    278.4139     73.1160     78.4505
   275.2500      0.0000    278.4217     72.8686     74.8581
   275.5000      0.0000    278.4273     72.5878     72.2462
   275.7500      0.0000    278.4289     72.2704     71.5098
   276.0000      0.0000    278.4269     71.9255     72.6588
   276.2500      0.0000    278.4236     71.5715     75.0606
   276.5000      0.0000    278.4226     71.2267     77.8617
   276.7500      0.0000    278.4281     70.9014     80.1426
   277.0000      0.0000    278.4429     70.5965     81.1335
   277.2500      0.0000    278.4671     70.3096     80.7245
   277.5000      0.0000    278.4990     70.0467     79.7742
   277.7500      0.0000    278.5356     69.8272     79.6433
   278.0000      0.0000    278.5723     69.6759     81.1931
   278.2500      0.0000    278.6020     69.6019     84.2214
   278.5000      0.0000    278.6166     69.5806     87.9398
   278.7500      0.0000    278.6130     69.5583     91.9270
   279.0000      0.0000    278.5965     69.4786     96.4190
   279.2500      0.0000    278.5799     69.3148    101.5203
   279.5000      0.0000    278.5773     69.0909    106.3651
   279.7500      0.0000    278.5959     68.8794    109.5028
   280.0000      0.0000    278.6315     68.7614    110.1336
   280.2500      0.0000    278.6710     68.7710    108.7289
   280.5000      0.0000    278.7014     68.8754    106.5217
   280.7500      0.0000    278.7177     69.0108    104.6170
   281.0000      0.0000    278.7205     69.1333    103.4748
   281.2500      0.0000    278.7115     69.2400    103.0903
   281.5000      0.0000    278.6910     69.3557    103.6299
   281.7500      0.0000    278.6610     69.5087    105.5663
   282.0000      0.0000    278.6279     69.7165    108.7593
   282.2500      0.0000    278.5998     69.9752    111.7201
   282.5000      0.0000    278.5821     70.2504    112.5164
   282.7500      0.0000    278.5732     70.4881    110.6051
   283.0000      0.0000    278.5659     70.6512    107.5140
   283.2500      0.0000    278.5534     70.7503    105.4874
   283.5000      0.0000    278.5337     70.8363    105.5662
   283.7500      0.0000    278.5101     70.9666    107.1390
   284.0000      0.0000    278.4875     71.1739    109.1714
   284.2500      0.0000    278.4680     71.4572    111.4122
   284.5000      0.0000    278.4502     71.7933    114.1299
   284.7500      0.0000    278.4316     72.1553    116.9752
   285.0000      0.0000    278.4116     72.5247    118.5586
   285.2500      0.0000    278.3919     72.8872    117.2296
   285.5000      0.0000    278.3759     73.2216    112.2219
   285.7500      0.0000    278.3662     73.4960    104.2706
   286.0000      0.0000    278.3630     73.6843     95.3650
   286.2500      0.0000    278.3650     73.7897     87.8283
   286.5000      0.0000    278.3712     73.8516     83.1587
   286.7500      0.0000    278.3816     73.9255     81.2485
   287.0000      0.0000    278.3951     74.0495     80.5664
   287.2500      0.0000    278.4091     74.2263     79.3630
   287.5000      0.0000    278.4207     74.4304     77.0779
   287.7500      0.0000    278.4280     74.6326     74.5883
   288.0000      0.0000    278.4304     74.8190     73.1853
   288.2500      0.0000    278.4283     74.9887     73.7000
   288.5000      0.0000    278.4243     75.1396     76.5499
   288.7500      0.0000    278.4222     75.2628     81.7213
   289.0000      0.0000    278.4258     75.3543     88.1858
