~Version Information
VERS.                      2.0: CWLS Log ASCII Standard - VERSION 2.0
WRAP.                       NO: One line per depth step
~Well Information Block
STRT.FT               521.0000: 
STOP.FT              2732.5000: 
STEP.FT                 0.2500: 
NULL.                -999.2500: 
COMP.          Petrogulf Corporation: COMPANY
WELL.              Silva 6-22V: WELL
FLD.           Purgatorie River: FIELD
LOC.           1936' FNL & 1798' FWL: LOCATION
CNTY.               Las Animas: COUNTY
SRVC.                         : SERVICE COMPANY
DATE.          Tue Nov 09 08:09:38 2004: LOG DATE
UWI.           05 071 08143 00: UNIQUE WELL ID
STAT.                 Colorado: STATE
~Curve Information Block
DEPT.FT            0 000 00 00: Depth
SP.mV                         : DIL Spontaneous Potential
RILD.Ohm-m                    : DIL Deep Resistivity
RILM.Ohm-m                    : DIL Medium Resistivity
RLL3.Ohm-m                    : DIL Shallow Resistivity
GR.GAPI                       : Gamma Ray
~Parameter Information Block
~A  Depth        SP         RILD        RILM        RLL3         GR     
# ...
  2425.0000     19.4241     14.4289     14.7691     17.5736     87.9853
  2425.2500     20.2569     14.3410     14.6843     17.7096     87.4259
  2425.5000     20.9109     14.3127     14.6436     17.8178     87.1102
  2425.7500     21.2934     14.3384     14.6443     17.8547     87.1024
  2426.0000     21.3557     14.4098     14.6844     17.7955     87.1081
  2426.2500     21.1007     14.5163     14.7630     17.6531     87.0887
  2426.5000     20.5728     14.6459     14.8797     17.4852     87.2272
  2426.7500     19.8589     14.7859     15.0343     17.3860     87.6217
  2427.0000     19.0698     14.9253     15.2262     17.4606     88.8306
  2427.2500     18.3336     15.0566     15.4539     17.7917     89.8381
  2427.5000     17.7719     15.1770     15.7146     18.4102     90.5783
  2427.7500     17.4878     15.2892     16.0041     19.2824     89.8142
  2428.0000     17.5406     15.3998     16.3173     20.3196     86.3869
  2428.2500     17.9380     15.5165     16.6484     21.4069     83.1333
  2428.5000     18.6355     15.6459     16.9908     22.4397     78.3550
  2428.7500     19.5461     15.7901     17.3380     23.3509     75.8724
  2429.0000     20.5573     15.9457     17.6826     24.1191     73.3936
  2429.2500     21.5542     16.1041     18.0155     24.7538     72.3590
  2429.5000     22.4427     16.2531     18.3264     25.2685     71.2070
  2429.7500     23.1612     16.3809     18.6025     25.6571     70.3670
  2430.0000     23.6935     16.4789     18.8305     25.8872     68.5969
  2430.2500     24.0602     16.5453     18.9978     25.9130     67.1487
  2430.5000     24.3102     16.5853     19.0964     25.6987     65.2387
  2430.7500     24.4992     16.6095     19.1249     25.2391     64.6012
  2431.0000     24.6690     16.6307     19.0912     24.5670     65.1800
  2431.2500     24.8369     16.6606     19.0110     23.7456     66.8630
  2431.5000     24.9907     16.7072     18.9070     22.8536     71.6366
  2431.7500     25.0962     16.7727     18.8048     21.9723     76.1176
  2432.0000     25.1158     16.8539     18.7290     21.1815     83.5929
  2432.2500     25.0315     16.9438     18.7012     20.5628     88.2798
  2432.5000     24.8548     17.0334     18.7372     20.2014     94.1502
  2432.7500     24.6321     17.1149     18.8465     20.1783     97.1047
  2433.0000     24.4287     17.1842     19.0312     20.5498     99.1540
  2433.2500     24.3009     17.2420     19.2862     21.3230     97.9785
  2433.5000     24.2747     17.2944     19.5993     22.4390     91.6224
  2433.7500     24.3265     17.3509     19.9528     23.7746     85.1361
  2434.0000     24.3874     17.4221     20.3252     25.1657     74.9766
  2434.2500     24.3622     17.5172     20.6949     26.4432     69.4060
  2434.5000     24.1524     17.6419     21.0439     27.4679     63.6658
  2434.7500     23.6897     17.7970     21.3606     28.1550     61.2096
  2435.0000     22.9514     17.9794     21.6420     28.4805     58.7117
  2435.2500     21.9751     18.1836     21.8936     28.4754     57.6738
  2435.5000     20.8541     18.4030     22.1275     28.2128     57.1751
  2435.7500     19.7265     18.6332     22.3595     27.7958     57.3732
  2436.0000     18.7462     18.8720     22.6058     27.3453     57.5329
  2436.2500     18.0624     19.1199     22.8804     26.9862     57.1566
  2436.5000     17.7828     19.3782     23.1917     26.8326     56.3088
  2436.7500     17.9492     19.6469     23.5410     26.9721     56.1564
  2437.0000     18.5247     19.9225     23.9203     27.4522     56.8102
  2437.2500     19.4036     20.1962     24.3125     28.2749     57.3005
  2437.5000     20.4298     20.4544     24.6934     29.3980     56.9776
  2437.7500     21.4438     20.6802     25.0344     30.7444     55.8719
  2438.0000     22.3222     20.8566     25.3089     32.2132     53.5020
  2438.2500     23.0057     20.9713     25.4979     33.6910     51.9500
  2438.5000     23.5102     21.0191     25.5934     35.0610     50.0194
  2438.7500     23.9077     21.0041     25.5998     36.2109     48.9053
  2439.0000     24.2963     20.9383     25.5306     37.0425     47.3577
  2439.2500     24.7578     20.8391     25.4038     37.4833     46.5732
  2439.5000     25.3288     20.7242     25.2368     37.4987     46.3254
  2439.7500     25.9897     20.6083     25.0422     37.0998     46.9685
  2440.0000     26.6759     20.5007     24.8281     36.3432     48.8206
  2440.2500     27.3030     20.4047     24.5975     35.3190     50.1638
  2440.5000     27.7962     20.3191     24.3507     34.1324     51.6078
  2440.7500     28.1133     20.2404     24.0873     32.8820     52.0281
  2441.0000     28.2483     20.1661     23.8079     31.6450     51.9132
  2441.2500     28.2291     20.0959     23.5162     30.4718     51.4463
  2441.5000     28.0942     20.0328     23.2191     29.3918     50.4466
  2441.7500     27.8766     19.9823     22.9272     28.4241     49.8569
  2442.0000     27.5938     19.9505     22.6541     27.5887     49.6381
  2442.2500     27.2592     19.9420     22.4162     26.9127     50.1195
  2442.5000     26.8927     19.9581     22.2299     26.4328     51.5656
  2442.7500     26.5389     19.9953     22.1113     26.1919     52.5584
  2443.0000     26.2691     20.0458     22.0725     26.2315     53.1522
  2443.2500     26.1572     20.0978     22.1200     26.5816     52.6386
  2443.5000     26.2499     20.1382     22.2527     27.2472     50.7536
  2443.7500     26.5381     20.1539     22.4596     28.1937     49.2802
  2444.0000     26.9520     20.1351     22.7199     29.3354     47.7026
  2444.2500     27.3824     20.0769     23.0043     30.5341     47.3291
  2444.5000     27.7253     19.9805     23.2789     31.6126     47.4943
  2444.7500     27.9307     19.8528     23.5101     32.3849     47.6481
  2445.0000     28.0198     19.7059     23.6720     32.6964     47.2758
  2445.2500     28.0797     19.5551     23.7513     32.4641     46.5497
  2445.5000     28.2168     19.4177     23.7491     31.7034     45.2947
  2445.7500     28.5129     19.3107     23.6788     30.5304     44.8913
  2446.0000     28.9819     19.2499     23.5621     29.1383     45.6684
  2446.2500     29.5704     19.2475     23.4234     27.7551     47.1706
  2446.5000     30.1726     19.3122     23.2849     26.5935     50.3253
  2446.7500     30.6694     19.4477     23.1653     25.8096     52.4955
  2447.0000     30.9611     19.6520     23.0798     25.4832     55.1224
  2447.2500     30.9853     19.9179     23.0412     25.6200     56.2409
  2447.5000     30.7228     20.2331     23.0618     26.1745     56.7226
  2447.7500     30.1814     20.5821     23.1545     27.0833     56.0969
  2448.0000     29.3917     20.9471     23.3326     28.3022     53.7902
  2448.2500     28.3969     21.3103     23.6094     29.8327     51.7473
  2448.5000     27.2572     21.6554     23.9954     31.7268     49.0484
  2448.7500     26.0467     21.9681     24.4957     34.0598     47.9311
  2449.0000     24.8560     22.2378     25.1064     36.8778     46.9097
  2449.2500     23.7804     22.4567     25.8108     40.1326     45.9230
  2449.5000     22.9086     22.6215     26.5771     43.6392     42.9924
  2449.7500     22.3094     22.7321     27.3574     47.0778     40.1606
  2450.0000     22.0121     22.7935     28.0910     50.0509     35.6410
  2450.2500     21.9971     22.8151     28.7110     52.1740     33.0889
  2450.5000     22.2015     22.8097     29.1575     53.1662     30.6136
  2450.7500     22.5269     22.7918     29.3895     52.9065     29.9938
  2451.0000     22.8634     22.7740     29.3947     51.4451     30.3840
  2451.2500     23.1158     22.7640     29.1922     48.9793     31.1953
  2451.5000     23.2320     22.7618     28.8271     45.8143     32.9345
  2451.7500     23.2109     22.7590     28.3577     42.3250     34.6953
  2452.0000     23.0934     22.7390     27.8425     38.9183     38.9731
  2452.2500     22.9403     22.6796     27.3295     35.9876     42.9328
  2452.5000     22.7937     22.5586     26.8489     33.8535     49.3702
  2452.7500     22.6453     22.3573     26.4112     32.6966     53.0125
