~Version Information
 VERS.                      2.0: CWLS Log ASCII Standard - VERSION 2.0
 WRAP.                       NO: One line per depth step
 ~Well Information Block
 STRT.FT               886.1000: 
 STOP.FT              2599.0000: 
 STEP.FT                 0.1000: 
 NULL.                -999.2500: 
 COMP.          Petrogulf Corporation: COMPANY
 WELL.               YWAM 7-23V: WELL
 FLD.           Purgatorie River: FIELD
 LOC.           230' FSL & 225' FWL: LOCATION
 CNTY.               Las Animas: COUNTY
 SRVC.                         : SERVICE COMPANY
 DATE.          Sat Oct 30 10:42:52 2004: LOG DATE
 UWI.           05 071 08227 00: UNIQUE WELL ID
 STAT.                 Colorado: STATE
 PROV.                         :Province
 ~Curve Information Block
 DEPT.FT            0 000 00 00: Depth
 DCAL.in                       : CDL Caliper
 RHOB.g/cc                     : CDL Bulk Density
 RHOC.g/cc                     : CDL Density Correction
 DPOR.pu                       : CDL Density Porosity
 GR.GAPI                       : Gamma Ray
 NPOR.pu                       : Neutron Porosity
 ~Parameter Information Block
 ~A  Depth       DCAL        RHOB        RHOC        DPOR         GR         NPOR    
# ...
  2364.5000      8.2115      2.2745      0.2021     22.7578     87.1316     31.6918
  2364.6000      8.2115      2.3626      0.1438     17.4197     90.5011     30.9904
  2364.7000      8.2115      2.4131      0.1277     14.3558     91.8030     30.3157
  2364.8000      8.2101      2.4399      0.0776     12.7356     94.0436     29.7182
  2364.9000      8.2101      2.4496      0.1151     12.1482    101.4511     28.9989
  2365.0000      8.0878      2.4409      0.0461     12.6733    112.0490     28.1918
  2365.1000      8.0878      2.4249      0.0231     13.6433    117.5348     27.7589
  2365.2000      8.0878      2.4156      0.0045     14.2066    113.4614     27.3853
  2365.3000      8.0586      2.4148      0.0346     14.2536    103.4229     26.4376
  2365.4000      8.0586      2.4218      0.0346     13.8281     95.0628     25.4278
  2365.5000      8.0461      2.4407      0.0333     12.6869     93.0170     24.9184
  2365.6000      8.0461      2.4619      0.0847     11.3983     97.8950     24.2303
  2365.7000      8.0461      2.4698      0.0797     10.9209    106.3274     23.2794
  2365.8000      8.0499      2.4695      0.0096     10.9394    109.9356     23.0511
  2365.9000      8.0499      2.4727      0.0326     10.7425    103.2764     23.5907
  2366.0000      8.0590      2.4689      0.0557     10.9744     91.0202     24.3518
  2366.1000      8.0590      2.4504      0.0380     12.0955     82.3965     25.0848
  2366.2000      8.0590      2.4366      0.0094     12.9305     80.5796     25.4110
  2366.3000      8.0666      2.4391      0.0301     12.7842     83.3353     25.3670
  2366.4000      8.0666      2.4485      0.0097     12.2117     89.9898     25.5053
  2366.5000      8.0733      2.4582      0.0531     11.6252     99.6995     25.5245
  2366.6000      8.0733      2.4665      0.0583     11.1196    107.8529     24.9400
  2366.7000      8.0733      2.4741      0.0747     10.6580    108.6661     24.3837
  2366.8000      8.0758      2.4755      0.0640     10.5746    102.9760     24.4061
  2366.9000      8.0758      2.4627      0.0463     11.3502     98.1992     25.1262
  2367.0000      8.0774      2.4394      0.0393     12.7642     96.8795     26.4382
  2367.1000      8.0774      2.4169      0.0403     14.1250     95.5805     27.7659
  2367.2000      8.0774      2.4055      0.0270     14.8170     95.0831     28.3207
  2367.3000      8.0704      2.4097      0.0458     14.5623     98.1115     27.7701
  2367.4000      8.0704      2.4302      0.0364     13.3221    101.1353     26.9628
  2367.5000      8.0714      2.4540      0.1033     11.8766    101.8399     26.5677
  2367.6000      8.0714      2.4548      0.0581     11.8293    103.2164     26.3236
  2367.7000      8.0714      2.4232      0.0643     13.7458    105.5328     26.0474
  2367.8000      8.0686      2.3744      0.0052     16.7007    108.3258     25.9217
  2367.9000      8.0686      2.3233      0.0180     19.8015    108.9227     25.8667
  2368.0000      8.0616      2.2582     -0.0142     23.7452    102.5818     25.8140
  2368.1000      8.0616      2.1564     -0.0108     29.9164     93.2333     25.9648
  2368.2000      8.0616      2.0188     -0.0383     38.2522     85.8521     26.4542
  2368.3000      8.0504      1.8795     -0.1408     46.6944     77.0934     27.1496
  2368.4000      8.0504      1.7691     -0.1295     53.3856     66.9708     27.9585
  2368.5000      8.0497      1.6795     -0.1416     58.8156     61.0598     28.9078
  2368.6000      8.0497      1.5878     -0.1219     64.3785     59.3658     30.0179
  2368.7000      8.0497      1.4960     -0.0932     69.9402     57.8018     31.3820
  2368.8000      8.0552      1.4303     -0.0048     73.9192     55.3593     32.6353
  2368.9000      8.0552      1.4012      0.0659     75.6833     54.2451     33.5053
  2369.0000      8.1203      1.3961      0.0407     75.9956     54.9324     33.9072
  2369.1000      8.1203      1.4203      0.0188     74.5282     56.1807     33.6167
  2369.2000      8.1203      1.4990      0.0198     69.7572     58.2962     32.8831
  2369.3000      8.4722      1.6272      0.1581     61.9860     61.1059     32.4237
  2369.4000      8.4722      1.7667      0.1747     53.5310     62.5299     32.4481
  2369.5000      8.6980      1.9025      0.1644     45.3043     64.1196     31.8528
  2369.6000      8.6980      2.0399      0.2529     36.9731     70.4961     30.1505
  2369.7000      8.6980      2.1693      0.2733     29.1349     81.1023     28.5182
  2369.8000      8.3651      2.2785      0.2307     22.5134     91.5537     27.6955
  2369.9000      8.3651      2.3592      0.2441     17.6247     99.7550     27.9331
  2370.0000      8.1455      2.4046      0.1465     14.8707    105.0838     28.9525
  2370.1000      8.1455      2.4258      0.0912     13.5878    106.1692     29.3294
  2370.2000      8.1455      2.4382      0.1003     12.8390    106.6875     28.6367
  2370.3000      8.1072      2.4487      0.0671     12.1980    110.5727     27.8994
  2370.4000      8.1072      2.4660      0.0597     11.1524    112.8322     27.7114
  2370.5000      8.0915      2.4875      0.1167      9.8490    109.3762     27.8228
  2370.6000      8.0915      2.4969      0.0993      9.2782    105.1812     27.7828
  2370.7000      8.0915      2.4921      0.0557      9.5710    103.5443     27.3608
  2370.8000      8.0676      2.4856      0.0419      9.9620    100.5755     26.4818
  2370.9000      8.0676      2.4843      0.0456     10.0405     96.3995     25.6550
  2371.0000      8.0438      2.4830      0.0369     10.1192     96.3902     25.2866
  2371.1000      8.0438      2.4740      0.0392     10.6659     99.6559     25.3961
  2371.2000      8.0438      2.4637     -0.0128     11.2889    100.9612     25.9954
  2371.3000      8.0054      2.4642      0.0620     11.2623     99.7996     26.5985
  2371.4000      8.0054      2.4693      0.0169     10.9540    101.1135     26.9237
  2371.5000      7.9664      2.4715     -0.0002     10.8187    107.1366     27.2330
  2371.6000      7.9664      2.4717      0.0480     10.8033    114.0749     27.2613
  2371.7000      7.9664      2.4652      0.0758     11.2029    118.6948     26.7850
  2371.8000      7.9543      2.4468      0.0672     12.3130    121.1980     26.2451
  2371.9000      7.9543      2.4284     -0.0007     13.4287    125.2319     25.6471
  2372.0000      7.9832      2.4272      0.0304     13.5041    128.4849     25.1504
  2372.1000      7.9832      2.4401      0.0677     12.7192    126.4084     25.3955
  2372.2000      7.9832      2.4525      0.0497     11.9712    122.8457     26.3039
  2372.3000      8.0053      2.4617      0.0509     11.4097    121.2055     26.4601
  2372.4000      8.0053      2.4645      0.0854     11.2417    121.0741     25.3705
  2372.5000      8.0490      2.4521      0.0425     11.9911    124.2299     24.4020
  2372.6000      8.0490      2.4329      0.0464     13.1574    129.2718     24.4986
  2372.7000      8.0490      2.4237      0.0274     13.7169    131.1813     25.7090
  2372.8000      8.0552      2.4302      0.0437     13.3207    130.1698     26.9313
  2372.9000      8.0552      2.4438      0.0978     12.4962    130.7936     26.8185
  2373.0000      8.0689      2.4540      0.0606     11.8787    132.0983     25.6405
  2373.1000      8.0689      2.4563      0.0915     11.7379    131.9151     24.4431
  2373.2000      8.0689      2.4484      0.0419     12.2171    132.8330     23.9297
  2373.3000      8.0719      2.4334      0.0697     13.1300    134.8696     24.2208
  2373.4000      8.0719      2.4135      0.0199     14.3344    134.3399     25.1017
  2373.5000      8.0803      2.3711      0.0819     16.9007    133.1900     26.2835
  2373.6000      8.0803      2.2749      0.0520     22.7324    135.5073     27.5436
  2373.7000      8.0803      2.1345      0.0082     31.2427    140.3425     28.5086
  2373.8000      8.0871      2.0031     -0.0702     39.2048    144.6881     28.6155
  2373.9000      8.0871      1.9085     -0.0781     44.9412    144.7434     28.1058
  2374.0000      8.0879      1.8212     -0.0584     50.2295    141.5534     28.1046
