~Version Information
VERS.                      2.0: CWLS Log ASCII Standard - VERSION 2.0
WRAP.                       NO: One line per depth step
~Well Information Block
STRT.FT               460.0000: 
STOP.FT               961.2500: 
STEP.FT                 0.2500: 
NULL.                -999.2500: 
COMP.          Pioneer Natural Resources: COMPANY
WELL.                Pug 33-19: WELL
FLD.           Purgatoire River: FIELD
LOC.           1381' FSL & 2140' FEL: LOCATION
PROV.                 Colorado: PROVINCE
CNTY.               Las Animas: COUNTRY
SRVC.                Patterson: SERVICE COMPANY
DATE.          Tue Dec 14 08:25:14 2004: LOG DATE
UWI.           05 071 08193 00: UNIQUE WELL ID
~Curve Information Block
DEPT.FT            0 000 00 00: Depth
SN.Ohm-m                      : IEL Short Normal
SP.mV                         : IEL Spontaneous Potential
DIR.Ohm-m                     : IEL Induction Resistivity
GR.GAPI                       : Gamma Ray
~Parameter Information Block
~A  Depth        SN          SP         DIR          GR     
# ...
   761.5000     13.2606     46.4163     10.8786    111.8111
   761.7500     13.7602     46.2171     11.1738    108.1553
   762.0000     14.2163     46.0253     11.5240    102.7369
   762.2500     14.6302     45.8468     11.9345     99.2539
   762.5000     15.0335     45.6852     12.4082     94.1474
   762.7500     15.4629     45.5410     12.9400     90.8636
   763.0000     15.9409     45.4114     13.5178     86.9431
   763.2500     16.4757     45.2914     14.1266     85.8705
   763.5000     17.0724     45.1740     14.7524     87.4260
   763.7500     17.7376     45.0511     15.3844     90.0579
   764.0000     18.4698     44.9149     16.0134     94.4309
   764.2500     19.2439     44.7591     16.6283     96.8474
   764.5000     20.0090     44.5810     17.2121     99.5521
   764.7500     20.7060     44.3820     17.7428    100.6222
   765.0000     21.2930     44.1683     18.2021    100.0617
   765.2500     21.7621     43.9501     18.5868     97.7131
   765.5000     22.1357     43.7393     18.9144     91.9847
   765.7500     22.4485     43.5478     19.2145     88.0683
   766.0000     22.7320     43.3847     19.5132     84.4207
   766.2500     23.0080     43.2535     19.8214     84.0169
   766.5000     23.2860     43.1516     20.1342     85.5580
   766.7500     23.5584     43.0709     20.4361     86.9079
   767.0000     23.8005     43.0013     20.7056     87.7944
   767.2500     23.9791     42.9345     20.9179     87.2517
   767.5000     24.0662     42.8658     21.0511     85.0698
   767.7500     24.0534     42.7931     21.0955     83.1845
   768.0000     23.9621     42.7139     21.0631     80.2651
   768.2500     23.8433     42.6223     20.9869     78.1688
   768.5000     23.7600     42.5090     20.9125     74.4748
   768.7500     23.7603     42.3639     20.8840     71.9938
   769.0000     23.8621     42.1804     20.9303     69.9914
   769.2500     24.0549     41.9572     21.0583     70.6455
   769.5000     24.3093     41.6989     21.2527     73.8873
   769.7500     24.5865     41.4135     21.4822     75.9521
   770.0000     24.8499     41.1103     21.7070     76.3942
   770.2500     25.0825     40.7978     21.8924     74.6758
   770.5000     25.2943     40.4821     22.0224     70.6000
   770.7500     25.5117     40.1668     22.1100     67.9654
   771.0000     25.7543     39.8534     22.1901     64.9604
   771.2500     26.0194     39.5432     22.2996     63.4845
   771.5000     26.2838     39.2408     22.4566     61.7954
   771.7500     26.5169     38.9552     22.6520     61.0594
   772.0000     26.6948     38.7010     22.8576     60.5530
   772.2500     26.8081     38.4948     23.0408     60.4620
   772.5000     26.8609     38.3512     23.1771     60.5269
   772.7500     26.8648     38.2779     23.2549     60.7859
   773.0000     26.8324     38.2720     23.2769     61.7032
   773.2500     26.7747     38.3187     23.2593     62.7581
   773.5000     26.6993     38.3940     23.2266     65.2027
   773.7500     26.6109     38.4695     23.2014     67.4690
   774.0000     26.5146     38.5196     23.1948     71.5632
   774.2500     26.4184     38.5272     23.2030     74.3671
   774.5000     26.3306     38.4867     23.2084     77.6372
   774.7500     26.2554     38.4025     23.1862     78.3455
   775.0000     26.1946     38.2851     23.1164     75.9743
   775.2500     26.1543     38.1466     22.9978     72.3004
   775.5000     26.1493     37.9971     22.8558     66.0956
   775.7500     26.1983     37.8434     22.7319     63.2388
   776.0000     26.3087     37.6895     22.6646     62.0719
   776.2500     26.4650     37.5375     22.6735     62.8031
   776.5000     26.6289     37.3901     22.7558     64.5063
   776.7500     26.7562     37.2522     22.8898     65.3952
   777.0000     26.8153     37.1323     23.0399     66.0765
   777.2500     26.7950     37.0425     23.1622     66.3811
   777.5000     26.7010     36.9958     23.2144     67.6337
   777.7500     26.5482     37.0012     23.1728     69.4089
   778.0000     26.3568     37.0587     23.0460     72.9193
   778.2500     26.1529     37.1561     22.8738     74.9609
   778.5000     25.9695     37.2707     22.7116     76.6923
   778.7500     25.8410     37.3744     22.6103     77.2613
   779.0000     25.7919     37.4424     22.6023     78.3192
   779.2500     25.8280     37.4587     22.6963     79.3588
   779.5000     25.9372     37.4191     22.8762     80.6160
   779.7500     26.0982     37.3293     23.1043     80.4678
   780.0000     26.2912     37.2008     23.3341     77.7790
   780.2500     26.5099     37.0472     23.5301     74.3916
   780.5000     26.7704     36.8810     23.6857     68.2944
   780.7500     27.1074     36.7125     23.8255     64.7120
   781.0000     27.5515     36.5494     23.9932     61.4054
   781.2500     28.1000     36.3959     24.2301     60.5953
   781.5000     28.7045     36.2532     24.5581     60.4624
   781.7500     29.2865     36.1197     24.9701     60.4370
   782.0000     29.7679     35.9932     25.4287     60.0875
   782.2500     30.0967     35.8725     25.8721     59.8157
   782.5000     30.2598     35.7594     26.2256     59.7345
   782.7500     30.2788     35.6595     26.4206     60.0035
   783.0000     30.1971     35.5807     26.4190     60.9146
   783.2500     30.0613     35.5313     26.2286     61.7561
   783.5000     29.9061     35.5177     25.8991     62.9842
   783.7500     29.7436     35.5420     25.4982     63.6056
   784.0000     29.5641     35.6013     25.0861     64.2383
   784.2500     29.3497     35.6873     24.7042     64.5100
   784.5000     29.0912     35.7876     24.3759     64.6489
   784.7500     28.7966     35.8875     24.1109     64.5913
   785.0000     28.4901     35.9733     23.9083     64.8007
   785.2500     28.2035     36.0336     23.7587     65.6259
   785.5000     27.9644     36.0612     23.6491     68.1967
   785.7500     27.7854     36.0533     23.5709     70.2627
   786.0000     27.6586     36.0113     23.5256     72.0642
   786.2500     27.5625     35.9401     23.5231     71.5728
   786.5000     27.4775     35.8474     23.5742     68.4939
   786.7500     27.3980     35.7416     23.6825     65.7716
   787.0000     27.3321     35.6294     23.8430     62.0630
   787.2500     27.2922     35.5141     24.0447     60.0950
   787.5000     27.2878     35.3947     24.2733     57.9293
   787.7500     27.3218     35.2670     24.5114     57.1459
   788.0000     27.3874     35.1267     24.7398     57.0966
   788.2500     27.4664     34.9726     24.9398     57.6075
   788.5000     27.5340     34.8090     25.1001     58.7907
   788.7500     27.5684     34.6455     25.2208     59.8918
   789.0000     27.5608     34.4952     25.3113     62.0318
   789.2500     27.5192     34.3702     25.3801     63.3238
   789.5000     27.4652     34.2778     25.4255     63.8503
   789.7500     27.4265     34.2172     25.4355     63.0304
   790.0000     27.4253     34.1796     25.3991     60.9465
   790.2500     27.4687     34.1509     25.3214     59.7852
   790.5000     27.5464     34.1159     25.2296     59.2753
   790.7500     27.6351     34.0625     25.1636     59.9081
   791.0000     27.7086     33.9836     25.1548     62.0109
   791.2500     27.7499     33.8770     25.2061     63.6471
   791.5000     27.7603     33.7443     25.2902     65.2816
   791.7500     27.7590     33.5899     25.3676     65.4413
   792.0000     27.7738     33.4197     25.4123     64.6160
   792.2500     27.8258     33.2409     25.4260     63.8572
   792.5000     27.9183     33.0604     25.4298     62.8195
   792.7500     28.0364     32.8833     25.4431     61.9776
   793.0000     28.1583     32.7112     25.4700     60.0547
   793.2500     28.2696     32.5427     25.5041     58.5182
   793.5000     28.3680     32.3740     25.5432     56.7360
   793.7500     28.4570     32.2013     25.5950     56.2659
   794.0000     28.5364     32.0222     25.6663     56.5412
   794.2500     28.5990     31.8358     25.7479     57.0582
   794.5000     28.6342     31.6423     25.8133     57.7628
   794.7500     28.6360     31.4423     25.8334     57.9668
