~Version Information
 VERS.                                  2.0 : CWLS LAS VERSION
 WRAP.                                   NO : WRAPING MODE
 SWARE .                 MController 2.5.0J : SOFTWARE VERSION
~Well Information
 WELL.                  Dude Canyon 22-32Tr : WELL
 COMP.   Pioneer Natural Resources USA Inc. : COMPANY
 FLD.                      Purgatoire River : FIELD
 LOC.                SE/NW Sec 32 T32S R67W : LOCATION
 DATE.                             07/08/04 : DATE(S) LOGGED
 SRVC.       BLANCO Geological Services LLC : SERVICE COMPANY
 STAT.                                   CO : STATE
 CNTY.                           Las Animas : COUNTY
 CTRY.                                  USA : COUNTRY
 API.                       05-071-08421-00 : API NUMBER
 STRT.FT                             476.00 : START DEPTH
 STOP.FT                             1630.00 : STOP DEPTH
 STEP.FT                               1.00 : DEPTH INCREMENT
 NULL.                                -9999 : NULL VALUE
~Curve information
 DEPTH.FT                                   :
 ROP.MIN/FT                                 :
 GAS.UNITS                                  :
~ASCII Log data
# ...
       874.0       -9999.0       -9999.0
       875.0       -9999.0       -9999.0
       876.0       -9999.0       -9999.0
       877.0       -9999.0       -9999.0
       878.0       -9999.0       -9999.0
       879.0       -9999.0       -9999.0
       880.0       -9999.0       -9999.0
       881.0       -9999.0       -9999.0
       882.0       -9999.0       -9999.0
       883.0       -9999.0       -9999.0
       884.0       -9999.0       -9999.0
       885.0       -9999.0       -9999.0
       886.0     -9999.0       -9999.0
       887.0       -9999.0       -9999.0
       888.0       -9999.0       -9999.0
       889.0       -9999.0       -9999.0
       890.0       -9999.0       -9999.0
       891.0       -9999.0       -9999.0
       892.0       -9999.0       -9999.0
       893.0       -9999.0       -9999.0
       894.0       -9999.0       -9999.0
       895.0       -9999.0       -9999.0
       896.0       -9999.0       -9999.0
       897.0       -9999.0       -9999.0
       898.0     -9999.0       -9999.0
       899.0     -9999.0       -9999.0
       900.0       -9999.0       -9999.0
       901.0       -9999.0       -9999.0
       902.0     -9999.0       -9999.0
       903.0       -9999.0       -9999.0
       904.0       -9999.0       -9999.0
       905.0       -9999.0       -9999.0
       906.0       -9999.0       -9999.0
       907.0       -9999.0       -9999.0
       908.0       -9999.0       -9999.0
       909.0     -9999.00         34.9 
       910.0         0.03         34.9 
       911.0         0.17         35.6 
       912.0         0.17         35.2 
       913.0         0.13         34.6 
       914.0         0.13         34.6 
       915.0         0.17         35.1 
       916.0         0.28         35.3 
       917.0         0.63         35.2 
       918.0         0.67         24.1 
       919.0         0.40         17.5 
       920.0         0.13         16.5 
       921.0         0.17         16.5 
       922.0         0.40          0.0 
       923.0         0.35          0.0 
       924.0         0.23          0.0 
       925.0         0.27          0.0 
       926.0         0.27          0.0 
       927.0         8.40         17.1 
       928.0         0.13         16.5 
       929.0         0.23         16.8 
       930.0         0.20         16.8 
       931.0         0.20         15.9 
       932.0         0.25         16.8 
       933.0         0.23         16.1 
       934.0         0.23         15.8 
       935.0         0.20         16.8 
       936.0         0.17         16.8 
       937.0         0.20         15.8 
       938.0         0.17         17.2 
       939.0         0.17         16.2 
       940.0         0.20         17.3 
       941.0         0.20         16.0 
       942.0         0.33         16.4 
       943.0         0.27         17.1 
       944.0         0.30         17.0 
       945.0         0.13         17.0 
       946.0         0.13         17.1 
       947.0         0.13         17.1 
       948.0         0.22         17.0 
       949.0         0.17         16.5 
       950.0         0.17         16.5 
       951.0         0.17         15.6 
       952.0         0.13         17.1 
       953.0         0.23         17.0 
       954.0         0.70         16.9 
       955.0         0.73         15.8 
       956.0         1.32          4.6 
       957.0         0.30          3.4 
       958.0         0.17          3.4 
       959.0         0.13          3.7 
       960.0         0.13          4.3 
       961.0         0.23          4.1 
       962.0         0.33          4.9 
       963.0         0.40          4.6 
       964.0         0.37         58.3 
       965.0         0.45         75.4 
       966.0         0.30         44.1 
       967.0         0.17         29.5 
       968.0         0.23         17.1 
       969.0         0.17         10.8 
       970.0         0.25          8.9 
       971.0         0.20          6.2 
       972.0         0.17          5.9 
       973.0         0.20          5.4 
       974.0         0.17          5.7 
       975.0         0.20          4.8 
       976.0         0.17          5.2 
       977.0         0.33          4.8 
       978.0         0.27          5.6 
       979.0         0.22          5.6 
       980.0         0.17          6.3 
       981.0         0.17          6.1 
       982.0         0.13          7.4 
       983.0         0.17          7.4 
       984.0         0.23          7.0 
       985.0         0.23          7.4 
       986.0         2.30         11.2 
       987.0         0.37         15.6 
       988.0         0.30         14.6 
       989.0         0.40         11.8 
       990.0         0.28         10.2 
       991.0         0.23          9.0 
       992.0         0.23          7.9 
       993.0         0.23          8.1 
       994.0         0.20          7.7 
       995.0         0.20          6.8 
       996.0         0.20          7.0 
       997.0         0.17          6.8 
       998.0         0.20          7.1 
       999.0         0.18          6.5 
      1000.0         0.17          6.7 
      1001.0         0.17          6.8 
      1002.0         0.23          7.3 
      1003.0         0.20          6.8 
      1004.0         0.20          7.1 
      1005.0         0.17          6.5 
      1006.0         0.10          6.5 
      1007.0         0.13          6.8 
      1008.0         0.17          7.7 
      1009.0         0.22          7.1 
      1010.0         0.17          7.5 
      1011.0         0.20          7.0 
      1012.0         0.17          7.0 
      1013.0         0.27          8.1 
      1014.0         0.33          8.0 
      1015.0         0.20          8.2 
      1016.0         2.08         12.6 
      1017.0         0.40         16.4 
      1018.0         0.27         17.0 
      1019.0         0.23         16.1 
      1020.0         0.23         14.4 
      1021.0         0.25         12.2 
      1022.0         0.27         11.8 
      1023.0         0.20          9.2 
      1024.0         0.20         10.0 
      1025.0         0.20          8.1 
      1026.0         0.17          8.9 
      1027.0         0.20          8.8 
      1028.0         0.20          8.3 
      1029.0         0.20          7.6 
      1030.0         0.22          8.1 
      1031.0         0.33          6.9 
      1032.0         0.33          7.4 
      1033.0         0.23          7.0 
      1034.0         0.20          7.5 
      1035.0         0.18          7.1 
      1036.0         0.20          7.1 
      1037.0         0.17          6.7 
      1038.0         0.17          6.7 
      1039.0         0.17          7.1 
      1040.0         0.13          8.2 
      1041.0         0.10          8.2 
      1042.0         0.10          8.2 
      1043.0         0.10          8.6 
      1044.0         0.10          9.8 
      1045.0         0.12          9.8 
      1046.0         2.20         14.9 
      1047.0         0.28         15.3 
      1048.0         0.30         16.2 
      1049.0         0.27         12.9 
      1050.0         0.27         11.0 
      1051.0         0.23         10.1 
      1052.0         0.23         10.2 
      1053.0         0.23          8.7 
      1054.0         0.23          8.5 
      1055.0         0.23          8.0 
      1056.0         0.27          8.4 
      1057.0         0.30          8.5 
      1058.0         0.17          7.5 
      1059.0         0.13          8.0 
      1060.0         0.13          8.2 
      1061.0         0.13          8.2 
      1062.0         0.18          9.1 
      1063.0         0.20          8.3 
      1064.0         0.13          8.4 
      1065.0         0.13          8.1 
      1066.0         0.17          7.6 
      1067.0         0.13          7.6 
      1068.0         0.23          7.5 
      1069.0         0.17          5.7 
      1070.0         0.20          3.9 
      1071.0         0.17          3.9 
      1072.0         0.20          2.5 
      1073.0         0.17          1.7 
