~Version Information
 VERS.                      2.0: CWLS Log ASCII Standard - VERSION 2.0
 WRAP.                       NO: One line per depth step
 ~Well Information Block
 STRT.FT               465.6000: 
 STOP.FT              1777.2000: 
 STEP.FT                 0.1000: 
 NULL.                -999.2500: 
 COMP.          Petrogulf Corporation: COMPANY
 WELL.          Alexander 9-43R: WELL
 FLD.           Purgatorie River: FIELD
 LOC.           1652' FSL & 1049' FEL: LOCATION
 CNTY.               Las Animas: COUNTY
 SRVC.                         : SERVICE COMPANY
 DATE.          Fri Sep 03 15:08:45 2004: LOG DATE
 UWI.           05 071 08036 00: UNIQUE WELL ID
 STAT.                 Colorado: STATE
 PROV.                         :Province
 ~Curve Information Block
 DEPT.FT            0 000 00 00: Depth
 DCAL.in                       : CDL Caliper
 RHOB.g/cc                     : CDL Bulk Density
 RHOC.g/cc                     : CDL Density Correction
 DPOR.pu                       : CDL Density Porosity
 GR.GAPI                       : Gamma Ray
 NPOR.pu                       : Neutron Porosity
 ~Parameter Information Block
 ~A  Depth       DCAL        RHOB        RHOC        DPOR         GR         NPOR    
# ...
   830.4000      8.1683      2.3509     -0.0553     18.1287    121.7689     20.9215
   830.5000      8.1392      2.2914     -0.0335     21.7348    124.3940     20.8636
   830.6000      8.1392      2.2274     -0.0431     25.6119    124.1566     21.4908
   830.7000      8.1392      2.1550     -0.0497     30.0003    118.3778     22.5516
   830.8000      8.1394      2.1003     -0.0026     33.3129    113.2262     23.8026
   830.9000      8.1394      2.0901      0.0163     33.9342    117.0106     24.7209
   831.0000      8.1380      2.1167      0.1661     32.3183    126.7851     25.2683
   831.1000      8.1380      2.1499      0.1511     30.3099    135.0138     26.0506
   831.2000      8.1380      2.1794      0.1274     28.5240    137.0634     27.3459
   831.3000      8.1549      2.2169      0.1517     26.2512    132.8916     28.7439
   831.4000      8.1549      2.2741      0.1761     22.7844    125.9468     29.6971
   831.5000      8.1615      2.3456      0.2281     18.4494    119.2822     30.3104
   831.6000      8.1615      2.3993      0.2655     15.1942    116.9763     31.0999
   831.7000      8.1615      2.4169      0.1156     14.1281    120.2640     32.0311
   831.8000      8.1573      2.4257      0.0763     13.5939    122.2296     32.7081
   831.9000      8.1573      2.4469      0.1539     12.3120    118.2408     33.0168
   832.0000      8.1625      2.4706      0.1130     10.8737    113.9343     32.8719
   832.1000      8.1625      2.4924      0.0925      9.5489    114.0508     32.4895
   832.2000      8.1625      2.5205      0.0660      7.8515    116.0450     32.4081
   832.3000      8.1130      2.5611      0.1232      5.3882    115.4540     32.4670
   832.4000      8.1130      2.6087      0.1722      2.5030    111.2154     32.2120
   832.5000      8.0950      2.6491      0.1794      0.0549    107.2854     31.8284
   832.6000      8.0950      2.6717      0.1834     -1.3138    106.6668     31.5662
   832.7000      8.0950      2.6770      0.1759     -1.6388    109.1617     31.2826
   832.8000      8.0882      2.6731      0.1466     -1.3972    112.8714     30.8990
   832.9000      8.0882      2.6643      0.1385     -0.8675    112.9817     30.6815
   833.0000      8.0870      2.6526      0.1074     -0.1590    108.6367     30.5857
   833.1000      8.0870      2.6438      0.0993      0.3769    106.2203     30.1760
   833.2000      8.0870      2.6388      0.0460      0.6784    106.6802     29.3215
   833.3000      8.0911      2.6256      0.0713      1.4769    107.0032     28.2579
   833.4000      8.0911      2.5959      0.0361      3.2782    108.0492     27.4048
   833.5000      8.0946      2.5568     -0.0134      5.6455    109.3048     26.8911
   833.6000      8.0946      2.5242     -0.0404      7.6250    109.0491     26.5274
   833.7000      8.0946      2.5107     -0.0042      8.4434    108.4232     26.4730
   833.8000      8.0979      2.5182     -0.0014      7.9889    111.1035     26.8535
   833.9000      8.0979      2.5382     -0.0133      6.7742    118.2053     27.4443
   834.0000      8.1122      2.5505      0.0259      6.0284    127.0360     28.1975
   834.1000      8.1122      2.5372      0.0402      6.8358    134.4915     28.8772
   834.2000      8.1122      2.5145     -0.0319      8.2147    136.3145     29.0960
   834.3000      8.1180      2.5167      0.0298      8.0794    132.3461     29.0691
   834.4000      8.1180      2.5461      0.0582      6.2946    132.7617     29.1435
   834.5000      8.1318      2.5742      0.0744      4.5926    141.9939     29.2981
   834.6000      8.1318      2.5783      0.0840      4.3482    149.3871     29.2728
   834.7000      8.1318      2.5616      0.0535      5.3558    147.0709     28.9900
   834.8000      8.1206      2.5405      0.0600      6.6388    140.1823     29.0561
   834.9000      8.1206      2.5172      0.0366      8.0484    137.8900     29.8684
   835.0000      8.1199      2.4890      0.0326      9.7550    140.3218     30.7264
   835.1000      8.1199      2.4647      0.0001     11.2284    141.7605     31.1282
   835.2000      8.1199      2.4589     -0.0171     11.5802    142.3550     31.2694
   835.3000      8.1212      2.4776     -0.0084     10.4477    144.1471     31.1419
   835.4000      8.1212      2.5143      0.0736      8.2216    145.1137     30.9661
   835.5000      8.1213      2.5555      0.0453      5.7292    143.8891     31.1832
   835.6000      8.1213      2.5934      0.0783      3.4307    142.5069     31.6673
   835.7000      8.1213      2.6257      0.1139      1.4737    142.0620     31.9573
   835.8000      8.1393      2.6384      0.1696      0.7036    141.9923     32.1423
   835.9000      8.1393      2.6145      0.1632      2.1511    144.6165     32.3773
   836.0000      8.1546      2.5637      0.0763      5.2309    149.9976     32.3210
   836.1000      8.1546      2.5138      0.0554      8.2564    153.7463     31.8004
   836.2000      8.1546      2.4775      0.0742     10.4542    157.1424     31.1439
   836.3000      8.1614      2.4485      0.0611     12.2100    165.0988     30.7177
   836.4000      8.1614      2.4300      0.0429     13.3337    173.9952     30.5821
   836.5000      8.1475      2.4354      0.0648     13.0043    174.2274     30.6821
   836.6000      8.1475      2.4604      0.0951     11.4892    164.9552     31.0217
   836.7000      8.1475      2.4898      0.0992      9.7088    153.9425     31.4474
   836.8000      8.1459      2.5269      0.0987      7.4618    147.6635     31.5559
   836.9000      8.1459      2.5741      0.1614      4.5981    149.2755     31.2485
   837.0000      8.1490      2.5972      0.2348      3.2019    154.9524     31.0343
   837.1000      8.1490      2.5706      0.1909      4.8142    155.8317     31.1575
   837.2000      8.1490      2.5232      0.0985      7.6847    151.4436     31.3192
   837.3000      8.1469      2.4905      0.1218      9.6641    149.4265     31.2935
   837.4000      8.1469      2.4800      0.0548     10.3002    150.6558     31.1525
   837.5000      8.1416      2.4880      0.0681      9.8173    150.0611     31.0859
   837.6000      8.1416      2.5085      0.0696      8.5784    148.8988     31.2584
   837.7000      8.1416      2.5420      0.0455      6.5481    147.4837     31.5564
   837.8000      8.1394      2.5837      0.1597      4.0199    143.6071     31.7049
   837.9000      8.1394      2.6099      0.2057      2.4319    141.7304     31.7490
   838.0000      8.1454      2.6078      0.1811      2.5568    143.3660     31.8658
   838.1000      8.1454      2.5868      0.1558      3.8304    144.3340     32.1056
   838.2000      8.1454      2.5618      0.1185      5.3484    144.5146     32.3635
   838.3000      8.1731      2.5433      0.0817      6.4669    142.1324     32.3286
   838.4000      8.1731      2.5316      0.0678      7.1735    135.2779     32.2779
   838.5000      8.1623      2.5284     -0.0134      7.3677    129.2993     32.7951
   838.6000      8.1623      2.5397     -0.0161      6.6845    128.6577     33.4313
   838.7000      8.1623      2.5620      0.0034      5.3361    129.3503     33.4530
   838.8000      8.1546      2.5884      0.0105      3.7340    127.9344     32.9902
   838.9000      8.1546      2.6152      0.0131      2.1076    128.0104     32.6237
   839.0000      8.1604      2.6302      0.0698      1.1971    134.4603     32.5266
   839.1000      8.1604      2.6255      0.0165      1.4876    144.1700     32.5079
   839.2000      8.1604      2.6095      0.0179      2.4541    146.6402     32.5697
   839.3000      8.1609      2.5955     -0.0204      3.3007    142.0788     32.7174
   839.4000      8.1609      2.5907      0.0022      3.5941    139.8703     32.6400
   839.5000      8.1593      2.5898     -0.0045      3.6503    138.5880     31.9841
   839.6000      8.1593      2.5832      0.0133      4.0483    134.2973     30.8438
   839.7000      8.1593      2.5677     -0.0047      4.9863    133.6229     29.5796
   839.8000      8.1703      2.5397      0.0187      6.6835    138.4984     28.3443
   839.9000      8.1703      2.4954     -0.0030      9.3712    140.6561     27.3483
