~Version Information
VERS.                      2.0: CWLS Log ASCII Standard - VERSION 2.0
WRAP.                       NO: One line per depth step
~Well Information Block
STRT.FT               480.0000: 
STOP.FT              1625.5000: 
STEP.FT                 0.1000: 
NULL.                -999.2500: 
COMP.          Pioneer Natural Resources: COMPANY
WELL.          Dude Canyon 22-32 Tr: WELL
FLD.           Purgatoire River: FIELD
LOC.           1741' FNL & 2331' FWL: LOCATION
PROV.                 Colorado: PROVINCE
CNTY.               Las Animas: COUNTRY
SRVC.                Patterson: SERVICE COMPANY
DATE.          Mon Jul 11 10:33:06 2005: LOG DATE
UWI.           05 071 08421 00: UNIQUE WELL ID
~Curve Information Block
DEPT.FT            0 000 00 00: Depth
DCAL.in                       : CDL Caliper
RHOB.g/cc                     : CDL Bulk Density
RHOC.g/cc                     : CDL Density Correction
DPOR.pu                       : CDL Density Porosity
GR.GAPI                       : Gamma Ray
NPOR.pu                       : Neutron Porosity
~Parameter Information Block
~A  Depth       DCAL        RHOB        RHOC        DPOR         GR         NPOR    
# ...
  1008.0000      8.0483      2.4971     -0.0000      9.2693    132.6095     31.4063
  1008.1000      8.0483      2.4798      0.0222     10.3167    137.7824     31.7743
  1008.2000      8.0483      2.4781      0.0135     10.4196    142.9870     31.8098
  1008.3000      8.0504      2.4941      0.0506      9.4494    148.6820     31.2923
  1008.4000      8.0504      2.5214      0.1192      7.7951    149.0738     29.7568
  1008.5000      8.0659      2.5474      0.1135      6.2168    144.4814     28.1318
  1008.6000      8.0659      2.5689      0.0828      4.9134    140.0690     27.8975
  1008.7000      8.0659      2.5791      0.1171      4.2953    135.9885     28.9587
  1008.8000      8.0828      2.5746      0.0866      4.5717    135.7099     29.9058
  1008.9000      8.0828      2.5739      0.0547      4.6111    141.9606     29.8062
  1009.0000      8.0992      2.5852      0.1066      3.9275    148.3095     29.3295
  1009.1000      8.0992      2.5997      0.0276      3.0508    150.5423     29.4152
  1009.2000      8.0992      2.6180      0.0405      1.9380    149.9689     29.9390
  1009.3000      8.1024      2.6353      0.1039      0.8891    146.5887     30.1938
  1009.4000      8.1024      2.6435      0.0636      0.3910    140.9013     29.6203
  1009.5000      8.0835      2.6444      0.1047      0.3410    135.7542     28.7104
  1009.6000      8.0835      2.6318      0.0941      1.1033    131.5794     28.2884
  1009.7000      8.0835      2.6007      0.1054      2.9868    125.8085     28.2754
  1009.8000      8.0953      2.5591      0.0818      5.5073    117.3794     28.4269
  1009.9000      8.0953      2.5186      0.0347      7.9626    110.7370     28.4505
  1010.0000      8.0653      2.4912      0.0367      9.6266    109.6310     27.7097
  1010.1000      8.0653      2.4863      0.0056      9.9186    110.7212     26.3875
  1010.2000      8.0653      2.4992      0.0300      9.1383    108.6292     25.3846
  1010.3000      8.0639      2.5132      0.0611      8.2894    103.5583     25.0294
  1010.4000      8.0639      2.5220      0.0387      7.7546     98.6115     24.8366
  1010.5000      8.0698      2.5255      0.0674      7.5435     91.0123     24.3182
  1010.6000      8.0698      2.5188      0.0768      7.9536     79.2899     23.7091
  1010.7000      8.0698      2.5010      0.1206      9.0327     70.7204     23.2894
  1010.8000      8.0481      2.4854      0.0819      9.9778     70.0707     22.9733
  1010.9000      8.0481      2.4879      0.0891      9.8256     74.8739     22.5315
  1011.0000      8.0234      2.4980      0.1323      9.2133     79.4260     21.8105
  1011.1000      8.0234      2.4962      0.0914      9.3197     81.3595     21.1645
  1011.2000      8.0234      2.4856      0.0912      9.9629     82.7358     21.1159
  1011.3000      8.0090      2.4768      0.0635     10.4978     82.3140     21.4772
  1011.4000      8.0090      2.4766      0.0655     10.5079     78.1692     21.3172
  1011.5000      8.0212      2.4811      0.1099     10.2381     72.7361     20.3404
  1011.6000      8.0212      2.4767      0.0738     10.5058     66.5854     19.6254
  1011.7000      8.0212      2.4646      0.0427     11.2390     60.6556     19.7211
  1011.8000      8.0430      2.4547      0.0732     11.8381     58.4078     19.9853
  1011.9000      8.0430      2.4431      0.0662     12.5421     60.7468     20.3875
  1012.0000      8.0506      2.4252      0.0436     13.6268     65.6254     20.8292
  1012.1000      8.0506      2.4094      0.0886     14.5807     71.2144     20.5412
  1012.2000      8.0506      2.4041      0.0776     14.9016     74.8696     20.1849
  1012.3000      8.0514      2.4134      0.1244     14.3424     74.8560     20.6851
  1012.4000      8.0514      2.4362      0.0974     12.9594     74.5467     21.4540
  1012.5000      8.0369      2.4697      0.1052     10.9281     77.5977     21.6549
  1012.6000      8.0369      2.5154      0.1077      8.1603     82.4533     21.1245
  1012.7000      8.0369      2.5726      0.1549      4.6939     84.0403     20.5721
  1012.8000      7.9902      2.6205      0.2071      1.7890     80.9420     20.7808
  1012.9000      7.9902      2.6373      0.1959      0.7699     76.6376     21.3494
  1013.0000      7.9638      2.6358      0.1562      0.8616     73.0251     21.2095
  1013.1000      7.9638      2.6382      0.1861      0.7135     70.6509     19.9787
  1013.2000      7.9638      2.6510      0.1007     -0.0612     69.4516     18.6648
  1013.3000      7.9644      2.6685      0.1195     -1.1240     67.7444     17.9017
  1013.4000      7.9644      2.6761      0.1111     -1.5848     65.8368     17.5067
  1013.5000      7.9607      2.6760      0.0839     -1.5746     63.8468     17.4720
  1013.6000      7.9607      2.6767      0.0985     -1.6155     60.2067     18.0142
  1013.7000      7.9607      2.6713      0.0607     -1.2922     55.9849     18.7441
  1013.8000      7.9786      2.6664      0.0621     -0.9963     53.4916     18.8012
  1013.9000      7.9786      2.6765      0.0489     -1.6045     53.9676     18.3677
  1014.0000      8.0452      2.6893      0.1325     -2.3798     57.2392     18.0819
  1014.1000      8.0452      2.6776      0.0625     -1.6746     59.3474     18.1690
  1014.2000      8.0452      2.6415      0.0736      0.5132     57.5783     18.9250
  1014.3000      8.0578      2.6087      0.0077      2.5035     54.0291     20.1263
  1014.4000      8.0578      2.5981      0.0330      3.1462     51.8705     20.6076
  1014.5000      8.0596      2.6073      0.0244      2.5884     53.4131     19.6194
  1014.6000      8.0596      2.6308      0.0058      1.1611     57.9107     17.9518
  1014.7000      8.0596      2.6560      0.0807     -0.3650     61.8526     17.2662
  1014.8000      8.0611      2.6618      0.0752     -0.7128     62.6942     18.0792
  1014.9000      8.0611      2.6434      0.0972      0.4013     59.7345     19.3220
  1015.0000      8.0501      2.6221      0.0243      1.6891     55.5438     20.0886
  1015.1000      8.0501      2.6170      0.0718      2.0029     54.7597     20.5262
  1015.2000      8.0501      2.6141      0.0421      2.1777     58.5643     21.0156
  1015.3000      8.0477      2.5918      0.0857      3.5286     63.1110     21.1632
  1015.4000      8.0477      2.5571     -0.0084      5.6306     64.3874     20.3690
  1015.5000      8.0480      2.5433     -0.0170      6.4657     62.5621     19.2763
  1015.6000      8.0480      2.5569      0.0876      5.6402     60.7306     19.2583
  1015.7000      8.0480      2.5658      0.0863      5.1015     61.6914     20.3204
  1015.8000      8.0461      2.5515      0.0869      5.9698     65.9659     21.2087
  1015.9000      8.0461      2.5256      0.0557      7.5420     70.8321     21.5741
  1016.0000      8.0607      2.5003      0.0716      9.0717     71.2752     22.0571
  1016.1000      8.0607      2.4718      0.0848     10.7990     65.9691     22.6267
  1016.2000      8.0607      2.4381      0.0566     12.8431     59.8812     22.6466
  1016.3000      8.0498      2.4120     -0.0034     14.4237     55.4878     22.1159
  1016.4000      8.0498      2.4042      0.0516     14.8967     53.4689     21.8648
  1016.5000      8.0185      2.4164      0.0485     14.1606     57.0755     22.0190
  1016.6000      8.0185      2.4421      0.0813     12.5993     63.1931     21.5698
  1016.7000      8.0185      2.4664      0.0766     11.1287     65.9776     20.3457
  1016.8000      8.0225      2.4827      0.0973     10.1420     66.4929     19.3600
  1016.9000      8.0225      2.4969      0.1210      9.2789     67.9405     19.5715
  1017.0000      8.0120      2.5105      0.0713      8.4574     70.5039     20.6493
  1017.1000      8.0120      2.5101      0.1320      8.4798     73.5144     21.3057
  1017.2000      8.0120      2.4837      0.0913     10.0807     74.4138     21.2935
  1017.3000      8.0081      2.4447      0.0608     12.4430     70.6061     20.9653
  1017.4000      8.0081      2.4186      0.0487     14.0225     63.6630     20.6227
  1017.5000      8.0252      2.4208      0.0387     13.8882     59.0265     20.4523
