~Version Information
VERS.                      2.0: CWLS Log ASCII Standard - VERSION 2.0
WRAP.                       NO: One line per depth step
~Well Information Block
STRT.FT               494.2500: 
STOP.FT              1992.0000: 
STEP.FT                 0.2500: 
NULL.                -999.2500: 
COMP.          Petrogulf Corporation: COMPANY
WELL.               Furu 6-23R: WELL
FLD.           Purgatoire River: FIELD
LOC.           2211' FSL & 1780' FWL--: LOCATION
CNTY.               Las Animas: COUNTY
SRVC.                Patterson: SERVICE COMPANY
DATE.          Wed Jun 21 14:57:59 2006: LOG DATE
UWI.           05 071 08266 00: UNIQUE WELL ID
STAT.                 Colorado: STATE
~Curve Information Block
DEPT.FT            0 000 00 00: Depth
GR.GAPI                       : Gamma Ray
RILD.Ohm-m                    : DIL Deep Resistivity
RILM.Ohm-m                    : DIL Medium Resistivity
RLL3.Ohm-m                    : DIL Shallow Resistivity
SP.mV                         : DIL Spontaneous Potential
~Parameter Information Block
~A  Depth        GR         RILD        RILM        RLL3         SP     
# ...
   914.2500    112.7141     30.3018     28.8546   2000.0000   2020.0000
   914.5000    112.4360     31.0555     29.3595   2000.0000   2020.0000
   914.7500    113.1381     31.8758     30.0894   2000.0000   2020.0000
   915.0000    113.9085     32.7422     31.0728   2000.0000   2020.0000
   915.2500    113.2770     33.6480     32.3116   2000.0000   2020.0000
   915.5000    110.4708     34.6021     33.7784   2000.0000   2020.0000
   915.7500    107.9566     35.6271     35.4260   2000.0000   2020.0000
   916.0000    103.9947     36.7561     37.2098   2000.0000   2020.0000
   916.2500    101.2920     38.0243     39.1152   2000.0000   2020.0000
   916.5000     97.2896     39.4515     41.1680   2000.0000   2020.0000
   916.7500     94.9573     41.0230     43.4143   2000.0000   2020.0000
   917.0000     92.2972     42.6864     45.8815   2000.0000   2020.0000
   917.2500     90.8715     44.3699     48.5472   2000.0000   2020.0000
   917.5000     88.4470     46.0097     51.3375   2000.0000   2020.0000
   917.7500     86.3047     47.5650     54.1479   2000.0000   2020.0000
   918.0000     82.3479     49.0077     56.8623   2000.0000   2020.0000
   918.2500     79.4728     50.2924     59.3539   2000.0000   2020.0000
   918.5000     75.2678     51.3347     61.4790   2000.0000   2020.0000
   918.7500     72.8419     52.0239     63.0799   2000.0000   2020.0000
   919.0000     70.6600     52.2650     64.0044   2000.0000   2020.0000
   919.2500     70.7657     52.0099     64.1366   2000.0000   2020.0000
   919.5000     73.4802     51.2498     63.4330   2000.0000   2020.0000
   919.7500     76.4734     49.9907     61.9387   2000.0000   2020.0000
   920.0000     81.6523     48.2542     59.7556   2000.0000   2020.0000
   920.2500     85.3496     46.1077     56.9823   2000.0000   2020.0000
   920.5000     91.4289     43.6842     53.6917   2000.0000   2020.0000
   920.7500     95.8215     41.1614     49.9737   2000.0000   2020.0000
   921.0000    102.4202     38.7127     45.9920   2000.0000   2020.0000
   921.2500    106.4342     36.4617     41.9816   2000.0000   2020.0000
   921.5000    111.4355     34.4656     38.1859   2000.0000   2020.0000
   921.7500    114.0667     32.7271     34.7882   2000.0000   2020.0000
   922.0000    117.2597     31.2209     31.8848   2000.0000   2020.0000
   922.2500    119.1280     29.9143     29.5000   2000.0000   2020.0000
   922.5000    121.6745     28.7734     27.6152   2000.0000   2020.0000
   922.7500    122.9847     27.7599     26.1887   2000.0000   2020.0000
   923.0000    123.7918     26.8325     25.1641   2000.0000   2020.0000
   923.2500    123.3472     25.9581     24.4708   2000.0000   2020.0000
   923.5000    121.1398     25.1230     24.0280   2000.0000   2020.0000
   923.7500    118.7475     24.3334     23.7533   2000.0000   2020.0000
   924.0000    114.4438     23.6047     23.5703   2000.0000   2020.0000
   924.2500    111.7806     22.9511     23.4095   2000.0000   2020.0000
   924.5000    109.1753     22.3824     23.2070   2000.0000   2020.0000
   924.7500    108.6256     21.9050     22.9081   2000.0000   2020.0000
   925.0000    109.5205     21.5218     22.4796   2000.0000   2020.0000
   925.2500    111.1558     21.2291     21.9216   2000.0000   2020.0000
   925.5000    114.9314     21.0133     21.2691   2000.0000   2020.0000
   925.7500    118.0556     20.8513     20.5812   2000.0000   2020.0000
   926.0000    122.9157     20.7155     19.9223   2000.0000   2020.0000
   926.2500    125.8046     20.5841     19.3450   2000.0000   2020.0000
   926.5000    129.1460     20.4507     18.8791   2000.0000   2020.0000
   926.7500    130.7717     20.3275     18.5334   2000.0000   2020.0000
   927.0000    132.5868     20.2396     18.3044   2000.0000   2020.0000
   927.2500    133.3098     20.2160     18.1891   2000.0000   2020.0000
   927.5000    133.1610     20.2805     18.1937   2000.0000   2020.0000
   927.7500    132.0927     20.4478     18.3365   2000.0000   2020.0000
   928.0000    129.3872     20.7217     18.6464   2000.0000   2020.0000
   928.2500    127.2049     21.0949     19.1591   2000.0000   2020.0000
   928.5000    123.6412     21.5492     19.9113   2000.0000   2020.0000
   928.7500    120.8874     22.0545     20.9319   2000.0000   2020.0000
   929.0000    115.5864     22.5724     22.2278   2000.0000   2020.0000
   929.2500    111.1722     23.0653     23.7637   2000.0000   2020.0000
   929.5000    104.0192     23.5095     25.4449   2000.0000   2020.0000
   929.7500     99.7741     23.9041     27.1131   2000.0000   2020.0000
   930.0000     95.6322     24.2679     28.5692   2000.0000   2020.0000
   930.2500     94.8784     24.6268     29.6230   2000.0000   2020.0000
   930.5000     97.0530     25.0008     30.1549   2000.0000   2020.0000
   930.7500    100.5622     25.3965     30.1589   2000.0000   2020.0000
   931.0000    108.1534     25.8066     29.7441   2000.0000   2020.0000
   931.2500    114.0515     26.2116     29.0894   2000.0000   2020.0000
   931.5000    122.6919     26.5796     28.3804   2000.0000   2020.0000
   931.7500    127.5776     26.8666     27.7604   2000.0000   2020.0000
   932.0000    132.9198     27.0243     27.3096   2000.0000   2020.0000
   932.2500    135.0121     27.0180     27.0464   2000.0000   2020.0000
   932.5000    135.7622     26.8450     26.9444   2000.0000   2020.0000
   932.7500    134.7066     26.5410     26.9550   2000.0000   2020.0000
   933.0000    131.5010     26.1704     27.0319   2000.0000   2020.0000
   933.2500    128.9293     25.8079     27.1454   2000.0000   2020.0000
   933.5000    125.2326     25.5196     27.2834   2000.0000   2020.0000
   933.7500    123.0600     25.3499     27.4440   2000.0000   2020.0000
   934.0000    120.3469     25.3161     27.6262   2000.0000   2020.0000
   934.2500    118.9236     25.4123     27.8220   2000.0000   2020.0000
   934.5000    117.1888     25.6182     28.0145   2000.0000   2020.0000
   934.7500    116.1255     25.9054     28.1795   2000.0000   2020.0000
   935.0000    114.7942     26.2385     28.2950   2000.0000   2020.0000
   935.2500    114.5176     26.5752     28.3522   2000.0000   2020.0000
   935.5000    115.6599     26.8714     28.3633   2000.0000   2020.0000
   935.7500    117.2614     27.0919     28.3587   2000.0000   2020.0000
   936.0000    119.6908     27.2192     28.3767   2000.0000   2020.0000
   936.2500    120.6636     27.2532     28.4486   2000.0000   2020.0000
   936.5000    120.7960     27.2012     28.5853   2000.0000   2020.0000
   936.7500    120.0838     27.0688     28.7707   2000.0000   2020.0000
   937.0000    117.9990     26.8610     28.9601   2000.0000   2020.0000
   937.2500    116.1789     26.5917     29.0879   2000.0000   2020.0000
   937.5000    113.8220     26.2889     29.0793   2000.0000   2020.0000
   937.7500    113.2986     25.9888     28.8716   2000.0000   2020.0000
   938.0000    115.0942     25.7222     28.4405   2000.0000   2020.0000
   938.2500    118.0375     25.5033     27.8186   2000.0000   2020.0000
   938.5000    123.8499     25.3287     27.0885   2000.0000   2020.0000
   938.7500    127.4502     25.1837     26.3487   2000.0000   2020.0000
   939.0000    130.8975     25.0534     25.6756   2000.0000   2020.0000
   939.2500    131.9210     24.9308     25.1047   2000.0000   2020.0000
   939.5000    132.6604     24.8187     24.6368   2000.0000   2020.0000
   939.7500    133.0749     24.7260     24.2591   2000.0000   2020.0000
   940.0000    133.5332     24.6637     23.9651   2000.0000   2020.0000
   940.2500    133.7005     24.6437     23.7616   2000.0000   2020.0000
   940.5000    134.1559     24.6786     23.6646   2000.0000   2020.0000
   940.7500    134.6938     24.7779     23.6928   2000.0000   2020.0000
   941.0000    135.1708     24.9408     23.8616   2000.0000   2020.0000
   941.2500    134.6805     25.1510     24.1780   2000.0000   2020.0000
   941.5000    132.4538     25.3795     24.6323   2000.0000   2020.0000
   941.7500    130.4070     25.5962     25.1911   2000.0000   2020.0000
   942.0000    127.6492     25.7845     25.8000   2000.0000   2020.0000
