~Version Information
VERS.                                  2.0 : CWLS LAS VERSION
WRAP.                                   NO : WRAPING MODE
SWARE .                 MController 2.5.0J : SOFTWARE VERSION
~Well Information
WELL.                         State 16-43V : WELL
COMP.                       Petrogulf CORP : COMPANY
FLD.                NE/SE Sec 16 T33S R67W : FIELD
LOC.                      Purgatoire River : LOCATION
DATE.                            12/3-4/04 : DATE(S) LOGGED
SRVC.        Blanco Geological Service LLC : SERVICE COMPANY
STAT.                                   CO : STATE
CNTY.                            Las Animas: COUNTY
CTRY.                                  USA : COUNTRY
API.                           05-071-08015: API NUMBER
STRT.FT                             626.00 : START DEPTH
STOP.FT                            2125.00 : STOP DEPTH
STEP.FT                               1.00 : DEPTH INCREMENT
NULL.                                -9999 : NULL VALUE
~Curve information
DEPTH.FT                                   :
ROP.MIN/FT                                 :
GAS.UNITS                                  :
~ASCII Log data
# ...
      1862.0         0.30         38.0
      1863.0         0.30         39.5
      1864.0         0.27         40.8
      1865.0         0.27         39.6
      1866.0         0.33         37.5
      1867.0         0.22         36.4
      1868.0         0.13         35.0
      1869.0         0.20         34.0
      1870.0         0.27         33.9
      1871.0         0.23         32.1
      1872.0         0.30         31.9
      1873.0         0.23         30.7
      1874.0         0.30         31.9
      1875.0         0.30         35.1
      1876.0         0.27         35.5
      1877.0         0.27         36.2
      1878.0         0.27         36.2
      1879.0         0.23         34.8
      1880.0         0.27         32.7
      1881.0         0.28         32.5
      1882.0         0.27         31.1
      1883.0         0.23         29.5
      1884.0         0.27         28.8
      1885.0         0.30         26.0
      1886.0         0.27         31.8
      1887.0         0.37         36.3
      1888.0         0.30         35.9
      1889.0         0.30         35.3
      1890.0         0.27         34.5
      1891.0         0.22         35.3
      1892.0         0.17         37.2
      1893.0         0.17         37.9
      1894.0         0.17         39.1
      1895.0         0.30         37.9
      1896.0         0.27         35.9
      1897.0         0.30         34.4
      1898.0         0.30         38.1
      1899.0         0.30         48.0
      1900.0         0.33         56.4
      1901.0         0.33         57.9
      1902.0         0.27         54.8
      1903.0         0.32         51.7
      1904.0         0.30         48.9
      1905.0         0.27         45.8
      1906.0         0.23         43.7
      1907.0         0.27         40.4
      1908.0         0.30         36.9
      1909.0         0.27         35.8
      1910.0         0.30         32.1
      1911.0         0.33         30.2
      1912.0         0.33         27.7
      1913.0         0.30         27.1
      1914.0         0.33         28.2
      1915.0         0.28         27.8
      1916.0         0.27         19.9
      1917.0         0.47         24.3
      1918.0         0.30         30.2
      1919.0         0.37         35.4
      1920.0         0.37         36.4
      1921.0         0.37         39.4
      1922.0         0.33         42.7
      1923.0         0.30         41.5
      1924.0         0.30         41.2
      1925.0         0.33         37.9
      1926.0         0.38         37.1
      1927.0         0.33         36.5
      1928.0         0.30         33.5
      1929.0         0.33         33.6
      1930.0         0.43         31.5
      1931.0         0.37         29.7
      1932.0         0.37         26.9
      1933.0         0.37         26.0
      1934.0         0.40         23.9
      1935.0         0.42         23.9
      1936.0         0.40         25.2
      1937.0         0.40         22.3
      1938.0         0.43         19.6
      1939.0         0.43         19.4
      1940.0         0.43         20.1
      1941.0         0.47         18.6
      1942.0         0.43         19.2
      1943.0         0.45         20.1
      1944.0         0.37         18.9
      1945.0         0.50         17.8
      1946.0         0.27         31.7
      1947.0         0.23         35.8
      1948.0         0.33         36.9
      1949.0         0.43         36.6
      1950.0         0.27         39.5
      1951.0         0.30         40.0
      1952.0         0.28         39.3
      1953.0         0.30         38.3
      1954.0         0.27         36.7
      1955.0         0.23         35.0
      1956.0         0.27         32.4
      1957.0         0.27         29.7
      1958.0         0.23         29.7
      1959.0         0.23         28.9
      1960.0         0.27         29.1
      1961.0         0.27         29.4
      1962.0         0.27         27.8
      1963.0         0.23         27.5
      1964.0         0.27         26.6
      1965.0         0.28         26.5
      1966.0         0.23         25.5
      1967.0         0.27         25.3
      1968.0         0.30         24.8
      1969.0         0.27         23.6
      1970.0         0.27         23.8
      1971.0         0.30         24.4
      1972.0         0.30         22.5
      1973.0         0.33         22.6
      1974.0         0.27         22.5
      1975.0         0.33         22.3
      1976.0         0.20         18.4
      1977.0         0.45         23.9
      1978.0         0.37         29.9
      1979.0         0.30         32.9
      1980.0         0.33         35.3
      1981.0         0.33         39.5
      1982.0         0.33         41.3
      1983.0         0.33         37.8
      1984.0         0.37         37.1
      1985.0         0.30         33.4
      1986.0         0.32         31.2
      1987.0         0.33         30.8
      1988.0         0.30         27.7
      1989.0         0.30         28.1
      1990.0         0.30         28.0
      1991.0         0.30         27.2
      1992.0         0.33         26.1
      1993.0         0.30         25.0
      1994.0         0.33         25.6
      1995.0         0.30         25.5
      1996.0         0.33         23.8
      1997.0         0.32         22.2
      1998.0         0.37         21.1
      1999.0         0.33         20.4
      2000.0         0.37         21.0
      2001.0         0.37         21.4
      2002.0         0.37         18.9
      2003.0         0.40         18.2
      2004.0         0.43         18.0
      2005.0         0.27         17.2
      2006.0         0.27         19.2
      2007.0         0.30         23.5
      2008.0         0.37         28.5
      2009.0         0.33         30.9
      2010.0         0.40         33.2
      2011.0         0.47         35.6
      2012.0         0.27         37.6
      2013.0         0.33         38.0
      2014.0         0.30         37.4
      2015.0         0.33         36.5
      2016.0         0.28         33.5
      2017.0         0.30         33.6
      2018.0         0.30         35.5
      2019.0         0.27         42.3
      2020.0         0.43         45.3
      2021.0         0.33         44.3
      2022.0         0.33         41.8
      2023.0         0.33         41.6
      2024.0         0.40         40.9
      2025.0         0.37         37.9
      2026.0         0.28         37.1
      2027.0         0.27         35.8
      2028.0         0.53         33.3
      2029.0         0.40         31.9
      2030.0         0.33         31.1
      2031.0         0.40         26.7
      2032.0         0.33         26.5
      2033.0         0.30         26.5
      2034.0         0.27         26.6
      2035.0         0.30         27.0
      2036.0         0.28         69.1
      2037.0         0.30         73.3
      2038.0         0.40         72.7
      2039.0         0.50         70.5
      2040.0         0.32         72.0
      2041.0         0.37         69.7
      2042.0         0.33         66.3
      2043.0         0.40         60.9
      2044.0         0.30         57.4
      2045.0         0.30         56.1
      2046.0         0.33         54.9
      2047.0         0.40         52.0
      2048.0         0.50         49.1
      2049.0         0.48         43.2
      2050.0         0.53         39.7
      2051.0         0.40         40.0
      2052.0         0.30         37.3
      2053.0         0.33         37.4
      2054.0         0.30         36.7
      2055.0         0.37         35.2
      2056.0         0.27         35.0
      2057.0         0.33         32.6
      2058.0         0.35         33.4
      2059.0         0.27         32.8
      2060.0         0.33         32.3
      2061.0         0.30         32.2
      2062.0         0.30         32.0
      2063.0         0.37         30.2
      2064.0         0.30         30.5
      2065.0         0.47         42.1
      2066.0         0.40         53.7
      2067.0         0.30         56.6
