~Version Information
VERS.                      2.0: CWLS Log ASCII Standard - VERSION 2.0
WRAP.                       NO: One line per depth step
~Well Information Block
STRT.FT               375.0000: 
STOP.FT              2637.2500: 
STEP.FT                 0.2500: 
NULL.                -999.2500: 
COMP.          Pioneer Natural Resources: COMPANY
WELL.            Cortina 23-25: WELL
FLD.           Purgatoire River: FIELD
LOC.           2344' FWL & 2526' FSL----: LOCATION
PROV.                 Colorado: PROVINCE
CNTY.               Las Animas: COUNTRY
SRVC.                Patterson: SERVICE COMPANY
DATE.          Wed Mar 23 19:09:49 2005: LOG DATE
UWI.           05 071 08340 00: UNIQUE WELL ID
~Curve Information Block
DEPT.FT            0 000 00 00: Depth
DIR.Ohm-m                     : IEL Induction Resistivity
SN.Ohm-m                      : IEL Short Normal
SP.mV                         : IEL Spontaneous Potential
GR.GAPI                       : Gamma Ray
~Parameter Information Block
~A  Depth       DIR          SN          SP          GR     
# ...
  2016.5000      8.8998      9.3339     21.4873    156.1895
  2016.7500      9.0837      9.1730     22.6524    158.3861
  2017.0000      9.2059      8.7698     23.6779    155.9124
  2017.2500      9.2736      8.3103     24.5511    151.5415
  2017.5000      9.3098      8.0108     25.2559    143.8426
  2017.7500      9.3409      8.0116     25.7753    139.6199
  2018.0000      9.3851      8.3291     26.0944    136.5141
  2018.2500      9.4457      8.8806     26.2044    136.4534
  2018.5000      9.5119      9.5451     26.1061    137.0251
  2018.7500      9.5676     10.2198     25.8118    136.4600
  2019.0000      9.6029     10.8441     25.3456    133.9407
  2019.2500      9.6203     11.3891     24.7426    131.8348
  2019.5000      9.6353     11.8401     24.0457    128.3372
  2019.7500      9.6690     12.1898     23.3023    125.1213
  2020.0000      9.7410     12.4434     22.5603    118.2439
  2020.2500      9.8645     12.6175     21.8642    112.9582
  2020.5000     10.0427     12.7279     21.2524    106.2430
  2020.7500     10.2658     12.7757     20.7546    103.3980
  2021.0000     10.5100     12.7448     20.3906    101.1733
  2021.2500     10.7382     12.6153     20.1695    100.2209
  2021.5000     10.9060     12.3868     20.0893     98.1244
  2021.7500     10.9727     12.0926     20.1374     95.5641
  2022.0000     10.9138     11.7865     20.2911     89.7099
  2022.2500     10.7297     11.5089     20.5199     85.5342
  2022.5000     10.4437     11.2617     20.7883     82.4568
  2022.7500     10.0914     11.0138     21.0609     84.2760
  2023.0000      9.7086     10.7312     21.3071     92.9948
  2023.2500      9.3232     10.4020     21.5071    101.4333
  2023.5000      8.9536     10.0401     21.6537    115.0882
  2023.7500      8.6106      9.6726     21.7538    123.6954
  2024.0000      8.3011      9.3263     21.8247    135.1689
  2024.2500      8.0296      9.0191     21.8886    141.8159
  2024.5000      7.8007      8.7551     21.9662    149.8815
  2024.7500      7.6187      8.5259     22.0702    153.3877
  2025.0000      7.4884      8.3169     22.2011    154.6702
  2025.2500      7.4138      8.1127     22.3464    152.6332
  2025.5000      7.3973      7.9017     22.4825    146.2547
  2025.7500      7.4362      7.6834     22.5798    141.0228
  2026.0000      7.5223      7.4759     22.6089    133.7369
  2026.2500      7.6423      7.3091     22.5458    129.8216
  2026.5000      7.7812      7.2049     22.3769    125.3180
  2026.7500      7.9247      7.1601     22.0994    123.1646
  2027.0000      8.0622      7.1573     21.7201    121.7332
  2027.2500      8.1873      7.1992     21.2525    122.2906
  2027.5000      8.2987      7.3344     20.7126    125.0744
  2027.7500      8.3997      7.6384     20.1161    127.7439
  2028.0000      8.4971      8.1540     19.4779    132.6441
  2028.2500      8.5988      8.8416     18.8124    136.5930
  2028.5000      8.7125      9.5852     18.1353    143.3655
  2028.7500      8.8432     10.2519     17.4651    148.0016
  2029.0000      8.9937     10.7540     16.8227    153.9981
  2029.2500      9.1643     11.0740     16.2292    156.4447
  2029.5000      9.3557     11.2492     15.7015    156.2091
  2029.7500      9.5713     11.3396     15.2471    153.2958
  2030.0000      9.8183     11.4025     14.8602    146.6915
  2030.2500     10.1071     11.4872     14.5193    142.3477
  2030.5000     10.4480     11.6454     14.1886    136.9559
  2030.7500     10.8494     11.9390     13.8232    133.5783
  2031.0000     11.3166     12.4302     13.3758    127.9267
  2031.2500     11.8520     13.1610     12.8056    124.1152
  2031.5000     12.4541     14.1409     12.0852    119.6484
  2031.7500     13.1162     15.3509     11.2057    117.7186
  2032.0000     13.8266     16.7523     10.1775    115.2666
  2032.2500     14.5715     18.2901      9.0284    112.9067
  2032.5000     15.3400     19.8943      7.7978    107.0321
  2032.7500     16.1280     21.4888      6.5302    101.6174
  2033.0000     16.9377     23.0050      5.2677     92.9872
  2033.2500     17.7729     24.3975      4.0435     88.2550
  2033.5000     18.6327     25.6567      2.8792     83.7564
  2033.7500     19.5063     26.8123      1.7834     82.0278
  2034.0000     20.3743     27.9195      0.7540     79.6098
  2034.2500     21.2150     29.0282     -0.2184     77.2196
  2034.5000     22.0151     30.1546     -1.1468     71.8260
  2034.7500     22.7734     31.2763     -2.0437     67.3662
  2035.0000     23.4938     32.3517     -2.9196     61.0658
  2035.2500     24.1742     33.3426     -3.7806     58.2072
  2035.5000     24.8013     34.2248     -4.6283     56.7278
  2035.7500     25.3594     34.9903     -5.4598     57.2173
  2036.0000     25.8431     35.6523     -6.2679     58.5853
  2036.2500     26.2608     36.2457     -7.0427     58.9429
  2036.5000     26.6305     36.8194     -7.7732     57.4846
  2036.7500     26.9732     37.4151     -8.4492     55.0431
  2037.0000     27.3088     38.0427     -9.0619     50.0392
  2037.2500     27.6481     38.6651     -9.6040     46.7509
  2037.5000     27.9841     39.2101    -10.0695     43.3140
  2037.7500     28.2929     39.6068    -10.4520     42.3478
  2038.0000     28.5499     39.8221    -10.7443     42.7853
  2038.2500     28.7488     39.8749    -10.9387     44.1558
  2038.5000     28.9036     39.8236    -11.0272     46.9965
  2038.7500     29.0317     39.7362    -11.0034     48.3982
  2039.0000     29.1348     39.6558    -10.8638     48.1458
  2039.2500     29.1934     39.5814    -10.6090     46.4599
  2039.5000     29.1795     39.4755    -10.2447     43.4508
  2039.7500     29.0755     39.2927     -9.7824     42.2128
  2040.0000     28.8882     39.0118     -9.2392     42.1042
  2040.2500     28.6477     38.6522     -8.6371     42.8442
  2040.5000     28.3946     38.2650     -8.0014     43.9686
  2040.7500     28.1626     37.9109     -7.3578     43.9870
  2041.0000     27.9685     37.6381     -6.7296     42.4613
  2041.2500     27.8125     37.4711     -6.1350     41.0131
  2041.5000     27.6860     37.4092     -5.5854     39.9374
  2041.7500     27.5825     37.4321     -5.0850     40.3717
  2042.0000     27.5069     37.5149     -4.6322     41.8271
  2042.2500     27.4771     37.6430     -4.2208     42.5229
  2042.5000     27.5135     37.8167     -3.8421     42.5791
  2042.7500     27.6243     38.0419     -3.4863     42.0712
  2043.0000     27.7954     38.3187     -3.1428     40.8535
  2043.2500     27.9928     38.6422     -2.8015     39.9049
  2043.5000     28.1751     39.0058     -2.4532     38.5708
  2043.7500     28.3082     39.3968     -2.0907     37.9616
  2044.0000     28.3729     39.7854     -1.7094     37.7254
  2044.2500     28.3620     40.1225     -1.3072     37.8695
  2044.5000     28.2733     40.3509     -0.8838     37.7783
  2044.7500     28.1057     40.4211     -0.4395     37.1739
  2045.0000     27.8631     40.3062      0.0248     35.6259
  2045.2500     27.5595     40.0138      0.5082     34.5224
  2045.5000     27.2203     39.5893      1.0089     33.1323
  2045.7500     26.8742     39.1032      1.5237     32.4375
  2046.0000     26.5439     38.6267      2.0491     32.1560
  2046.2500     26.2363     38.2029      2.5830     33.0463
  2046.5000     25.9402     37.8251      3.1273     36.7755
  2046.7500     25.6332     37.4322      3.6906     40.5544
  2047.0000     25.2909     36.9246      4.2888     46.1783
  2047.2500     24.8894     36.1861      4.9442     48.5932
  2047.5000     24.3943     35.1025      5.6824     49.1615
  2047.7500     23.7530     33.5866      6.5275     47.7537
  2048.0000     22.9094     31.6217      7.4966     44.4159
  2048.2500     21.8420     29.2963      8.5951     42.5467
  2048.5000     20.5926     26.7916      9.8119     42.1831
  2048.7500     19.2547     24.3152     11.1185     44.1616
  2049.0000     17.9309     22.0279     12.4693     50.5395
  2049.2500     16.6941     20.0108     13.8061     57.0871
  2049.5000     15.5765     18.2805     15.0648     70.7829
  2049.7500     14.5805     16.8215     16.1831     82.4325
