~Version Information
VERS.                      2.0: CWLS Log ASCII Standard - VERSION 2.0
WRAP.                       NO: One line per depth step
~Well Information Block
STRT.FT              2246.0000: 
STOP.FT              2472.6000: 
STEP.FT                 0.1000: 
NULL.                -999.2500: 
COMP.          Petrogulf Corporation: COMPANY
WELL.           Schedler 9-23V: WELL
FLD.           Purgatorie River: FIELD
LOC.           2185' FSL & 2328' FWL: LOCATION
CNTY.               Las Animas: COUNTY
SRVC.                         : SERVICE COMPANY
DATE.          Thu Jul 10 10:29:30 2003: LOG DATE
UWI.           05 071 07876 00: UNIQUE WELL ID
STAT.                 Colorado: STATE
~Curve Information Block
DEPT.FT            0 000 00 00: Depth
DCAL.in                       : CDL Caliper
RHOB.g/cc                     : CDL Bulk Density
RHOC.g/cc                     : CDL Density Correction
DPOR.pu                       : CDL Density Porosity
GR.GAPI                       : Gamma Ray
NPOR.pu                       : Neutron Porosity
~Parameter Information Block
~A  Depth       DCAL        RHOB        RHOC        DPOR         GR         NPOR    
# ...
  2313.2000      7.7964      2.3883      0.0804     15.8592     99.4549     30.2813
  2313.3000      7.6584      2.3927      0.0842     15.5932     99.0737     30.2791
  2313.4000      7.6584      2.3983      0.0879     15.2575     98.7226     30.2867
  2313.5000      7.5843      2.4048      0.0912     14.8594     98.4182     30.3034
  2313.6000      7.5843      2.4123      0.0943     14.4087     98.1653     30.3259
  2313.7000      7.5843      2.4204      0.0971     13.9167     97.9604     30.3487
  2313.8000      7.6075      2.4290      0.0996     13.3964     97.7918     30.3666
  2313.9000      7.6075      2.4378      0.1016     12.8623     97.6390     30.3743
  2314.0000      7.7108      2.4466      0.1031     12.3292     97.4799     30.3687
  2314.1000      7.7108      2.4551      0.1040     11.8127     97.2945     30.3492
  2314.2000      7.7108      2.4631      0.1042     11.3281     97.0737     30.3188
  2314.3000      7.8459      2.4703      0.1037     10.8904     96.8234     30.2829
  2314.4000      7.8459      2.4765      0.1026     10.5139     96.5668     30.2492
  2314.5000      7.9203      2.4815      0.1008     10.2123     96.3457     30.2264
  2314.6000      7.9203      2.4850      0.0986      9.9981     96.2113     30.2216
  2314.7000      7.9203      2.4869      0.0958      9.8833     96.2184     30.2400
  2314.8000      7.9350      2.4870      0.0926      9.8785     96.4128     30.2830
  2314.9000      7.9350      2.4851      0.0891      9.9935     96.8157     30.3480
  2315.0000      7.9358      2.4811      0.0851     10.2363     97.4144     30.4288
  2315.1000      7.9358      2.4749      0.0807     10.6138     98.1575     30.5168
  2315.2000      7.9358      2.4663      0.0760     11.1304     98.9520     30.6021
  2315.3000      7.9366      2.4555      0.0710     11.7875     99.6745     30.6749
  2315.4000      7.9366      2.4424      0.0656     12.5834    100.1857     30.7263
  2315.5000      7.9374      2.4271      0.0599     13.5114    100.3500     30.7491
  2315.6000      7.9374      2.4098      0.0540     14.5598    100.0578     30.7380
  2315.7000      7.9374      2.3908      0.0481     15.7115     99.2423     30.6893
  2315.8000      7.9400      2.3704      0.0424     16.9432     97.8900     30.6011
  2315.9000      7.9400      2.3493      0.0372     18.2263     96.0441     30.4740
  2316.0000      7.9425      2.3278      0.0330     19.5268     93.7935     30.3112
  2316.1000      7.9425      2.3067      0.0303     20.8072     91.2605     30.1191
  2316.2000      7.9425      2.2865      0.0295     22.0276     88.5822     29.9072
  2316.3000      7.9416      2.2681      0.0312     23.1477     85.8897     29.6873
  2316.4000      7.9416      2.2519      0.0356     24.1287     83.2942     29.4725
  2316.5000      7.9442      2.2386      0.0426     24.9355     80.8770     29.2750
  2316.6000      7.9442      2.2286      0.0522     25.5384     78.6869     29.1039
  2316.7000      7.9442      2.2224      0.0636     25.9145     76.7400     28.9634
  2316.8000      7.9561      2.2202      0.0763     26.0493     75.0284     28.8518
  2316.9000      7.9561      2.2220      0.0893     25.9365     73.5282     28.7611
  2317.0000      7.9651      2.2279      0.1016     25.5791     72.2046     28.6778
  2317.1000      7.9651      2.2377      0.1124     24.9882     71.0229     28.5851
  2317.2000      7.9651      2.2510      0.1211     24.1832     69.9499     28.4643
  2317.3000      7.9520      2.2674      0.1271     23.1898     68.9596     28.2977
  2317.4000      7.9520      2.2864      0.1302     22.0393     68.0331     28.0707
  2317.5000      7.9277      2.3073      0.1305     20.7669     67.1606     27.7739
  2317.6000      7.9277      2.3297      0.1281     19.4098     66.3387     27.4038
  2317.7000      7.9277      2.3529      0.1236     18.0059     65.5735     26.9648
  2317.8000      7.9173      2.3762      0.1173     16.5914     64.8778     26.4674
  2317.9000      7.9173      2.3992      0.1099     15.2000     64.2665     25.9283
  2318.0000      7.9169      2.4213      0.1018     13.8607     63.7590     25.3686
  2318.1000      7.9169      2.4421      0.0935     12.5974     63.3742     24.8113
  2318.2000      7.9169      2.4614      0.0855     11.4279     63.1282     24.2791
  2318.3000      7.9105      2.4790      0.0781     10.3638     63.0299     23.7921
  2318.4000      7.9105      2.4947      0.0715      9.4107     63.0806     23.3661
  2318.5000      7.9041      2.5086      0.0659      8.5691     63.2703     23.0116
  2318.6000      7.9041      2.5207      0.0614      7.8350     63.5771     22.7334
  2318.7000      7.9041      2.5312      0.0580      7.2012     63.9683     22.5314
  2318.8000      7.9029      2.5401      0.0556      6.6588     64.4000     22.4007
  2318.9000      7.9029      2.5477      0.0542      6.1983     64.8249     22.3336
  2319.0000      7.9037      2.5541      0.0535      5.8102     65.1955     22.3205
  2319.1000      7.9037      2.5595      0.0533      5.4864     65.4703     22.3509
  2319.2000      7.9037      2.5639      0.0536      5.2200     65.6204     22.4148
  2319.3000      7.9050      2.5674      0.0540      5.0060     65.6358     22.5027
  2319.4000      7.9050      2.5701      0.0544      4.8410     65.5271     22.6064
  2319.5000      7.9053      2.5721      0.0547      4.7228     65.3274     22.7188
  2319.6000      7.9053      2.5733      0.0548      4.6500     65.0870     22.8342
  2319.7000      7.9053      2.5737      0.0547      4.6221     64.8703     22.9480
  2319.8000      7.9048      2.5735      0.0542      4.6378     64.7431     23.0570
  2319.9000      7.9048      2.5725      0.0534      4.6956     64.7676     23.1588
  2320.0000      7.9041      2.5709      0.0522      4.7931     64.9890     23.2533
  2320.1000      7.9041      2.5687      0.0508      4.9263     65.4336     23.3414
  2320.2000      7.9041      2.5660      0.0491      5.0898     66.1041     23.4257
  2320.3000      7.9039      2.5629      0.0473      5.2768     66.9816     23.5095
  2320.4000      7.9039      2.5596      0.0456      5.4789     68.0316     23.5966
  2320.5000      7.9031      2.5562      0.0443      5.6873     69.2106     23.6898
  2320.6000      7.9031      2.5528      0.0436      5.8923     70.4737     23.7910
  2320.7000      7.9031      2.5496      0.0439      6.0848     71.7806     23.9000
  2320.8000      7.9024      2.5468      0.0455      6.2564     73.0998     24.0153
  2320.9000      7.9024      2.5444      0.0485      6.4006     74.4088     24.1340
  2321.0000      7.9035      2.5425      0.0531      6.5131     75.6905     24.2528
  2321.1000      7.9035      2.5412      0.0592      6.5922     76.9338     24.3688
  2321.2000      7.9035      2.5405      0.0664      6.6393     78.1264     24.4796
  2321.3000      7.9100      2.5401      0.0745      6.6586     79.2553     24.5848
  2321.4000      7.9100      2.5402      0.0829      6.6570     80.3071     24.6855
  2321.5000      7.9188      2.5404      0.0909      6.6430     81.2718     24.7843
  2321.6000      7.9188      2.5407      0.0982      6.6269     82.1437     24.8850
  2321.7000      7.9188      2.5408      0.1041      6.6189     82.9259     24.9921
  2321.8000      7.9157      2.5406      0.1085      6.6294     83.6340     25.1098
  2321.9000      7.9157      2.5400      0.1111      6.6672     84.2967     25.2421
  2322.0000      7.9174      2.5388      0.1120      6.7394     84.9534     25.3921
  2322.1000      7.9174      2.5370      0.1113      6.8512     85.6499     25.5610
  2322.2000      7.9174      2.5344      0.1094      7.0049     86.4324     25.7496
  2322.3000      7.9525      2.5312      0.1065      7.2009     87.3419     25.9564
  2322.4000      7.9525      2.5273      0.1030      7.4369     88.4088     26.1793
  2322.5000      7.9980      2.5228      0.0992      7.7085     89.6474     26.4147
  2322.6000      7.9980      2.5178      0.0954      8.0098     91.0555     26.6584
  2322.7000      7.9980      2.5125      0.0918      8.3334     92.6150     26.9058
