~Version Information
VERS.                      2.0: CWLS Log ASCII Standard - VERSION 2.0
WRAP.                       NO: One line per depth step
~Well Information Block
STRT.FT               811.0000: 
STOP.FT              2507.0000: 
STEP.FT                 0.1000: 
NULL.                -999.2500: 
COMP.          Petrogulf Corporation: COMPANY
WELL.               YWAM 7-32V: WELL
FLD.           Purgatoire River: FIELD
LOC.           2423' FNL & 2412' FEL: LOCATION
PROV.                 Colorado: PROVINCE
CNTY.               Las Animas: COUNTRY
SRVC.                Patterson: SERVICE COMPANY
DATE.          Mon Dec 15 07:18:47 2003: LOG DATE
UWI.                          : UNIQUE WELL ID
~Curve Information Block
DEPT.FT            0 000 00 00: Depth
DCAL.in                       : CDL Caliper
RHOB.g/cc                     : CDL Bulk Density
RHOC.g/cc                     : CDL Density Correction
DPOR.pu                       : CDL Density Porosity
NPOR.pu                       : Neutron Porosity
GR.GAPI                       : Gamma Ray
~Parameter Information Block
~A  Depth       DCAL        RHOB        RHOC        DPOR        NPOR         GR     
# ...
  2491.0000      7.9377      2.4723      0.1007     10.7689     25.6234     47.0934
  2491.1000      7.9377      2.4649      0.0552     11.2173     24.8495     14.7976
  2491.2000      7.9377      2.4745      0.1147     10.6336     24.3973      2.6832
  2491.3000      7.9385      2.5031      0.1186      8.9017     24.0245      0.2693
  2491.4000      7.9385      2.5385      0.1191      6.7586     23.4616      0.0142
  2491.5000      7.9464      2.5726      0.1438      4.6934     23.0370      0.0000
  2491.6000      7.9464      2.5937      0.1815      3.4132     22.8728   -999.2500
  2491.7000      7.9464      2.5914      0.1684      3.5503     22.4877   -999.2500
  2491.8000      7.9539      2.5783      0.1178      4.3480     21.3180   -999.2500
  2491.9000      7.9539      2.5710      0.1059      4.7861     19.6676   -999.2500
  2492.0000      7.9561      2.5597      0.0992      5.4752     18.4848   -999.2500
  2492.1000      7.9561      2.5351      0.0681      6.9654     17.9297   -999.2500
  2492.2000      7.9561      2.5187      0.0014      7.9568     17.6148   -999.2500
  2492.3000      7.9448      2.5296      0.0290      7.2981     17.4306   -999.2500
  2492.4000      7.9448      2.5556      0.0210      5.7184     17.1774   -999.2500
  2492.5000      7.8601      2.5804      0.0109      4.2157     17.0319   -999.2500
  2492.6000      7.8601      2.5965      0.0567      3.2421     17.2886   -999.2500
  2492.7000      7.8601      2.5963      0.0670      3.2537     17.6281   -999.2500
  2492.8000      7.8526      2.5835      0.0084      4.0286     17.9031   -999.2500
  2492.9000      7.8526      2.5708      0.0302      4.8024     18.2044   -999.2500
  2493.0000      7.8477      2.5564      0.0552      5.6741     18.3581   -999.2500
  2493.1000      7.8477      2.5389      0.0096      6.7342     18.4877   -999.2500
  2493.2000      7.8477      2.5315      0.0356      7.1796     18.9649   -999.2500
  2493.3000      7.8527      2.5436      0.0083      6.4504     19.5231   -999.2500
  2493.4000      7.8527      2.5674      0.0536      5.0080     19.7107   -999.2500
  2493.5000      7.8503      2.5797      0.0899      4.2616     19.5257   -999.2500
  2493.6000      7.8503      2.5682      0.0506      4.9579     19.3063   -999.2500
  2493.7000      7.8503      2.5401      0.0900      6.6591     19.2080   -999.2500
  2493.8000      7.8511      2.5108      0.0022      8.4368     19.1482   -999.2500
  2493.9000      7.8511      2.4961      0.0192      9.3282     19.1919   -999.2500
  2494.0000      7.8509      2.4939      0.0538      9.4602     19.5067   -999.2500
  2494.1000      7.8509      2.4970      0.0340      9.2722     20.2958   -999.2500
  2494.2000      7.8509      2.5065      0.0326      8.6948     21.2819   -999.2500
  2494.3000      7.8526      2.5153      0.0718      8.1658     21.7414   -999.2500
  2494.4000      7.8526      2.5166      0.0487      8.0862     21.8073   -999.2500
  2494.5000      7.8512      2.5214      0.0507      7.7960     22.1525   -999.2500
  2494.6000      7.8512      2.5341      0.0867      7.0244     22.6571   -999.2500
  2494.7000      7.8512      2.5379      0.0781      6.7933     22.8051   -999.2500
  2494.8000      7.8533      2.5250      0.0785      7.5733     22.7369   -999.2500
  2494.9000      7.8533      2.5107      0.0761      8.4396     22.9128   -999.2500
  2495.0000      7.8519      2.5068      0.0905      8.6782     23.6568   -999.2500
  2495.1000      7.8519      2.5033      0.0654      8.8928     24.6699   -999.2500
  2495.2000      7.8519      2.4895      0.0567      9.7246     24.6262   -999.2500
  2495.3000      7.8556      2.4779      0.0230     10.4333     23.1339   -999.2500
  2495.4000      7.8556      2.4853      0.0375      9.9823     21.5880   -999.2500
  2495.5000      7.8314      2.5033      0.0721      8.8930     20.8701   -999.2500
  2495.6000      7.8314      2.5156      0.0601      8.1478     20.6574   -999.2500
  2495.7000      7.8314      2.5279      0.0569      7.4023     20.5886   -999.2500
  2495.8000      7.8449      2.5457      0.0752      6.3199     20.6706   -999.2500
  2495.9000      7.8449      2.5566      0.0912      5.6597     20.7049   -999.2500
  2496.0000      7.8485      2.5524      0.0917      5.9170     20.2244   -999.2500
  2496.1000      7.8485      2.5419      0.0482      6.5530     19.5292   -999.2500
  2496.2000      7.8485      2.5345      0.0348      6.9978     19.1499   -999.2500
  2496.3000      7.8423      2.5303      0.0218      7.2533     19.2550   -999.2500
  2496.4000      7.8423      2.5283      0.0388      7.3758     21.4702   -999.2500
  2496.5000      7.8353      2.5316      0.0079      7.1780     29.1224   -999.2500
  2496.6000      7.8353      2.5429      0.0090      6.4909     40.8501   -999.2500
  2496.7000      7.8353      2.5557      0.0163      5.7174     49.1120   -999.2500
  2496.8000      7.8356      2.5598      0.0343      5.4685     52.0467   -999.2500
  2496.9000      7.8356      2.5554      0.0402      5.7311     52.6174   -999.2500
  2497.0000      7.8391      2.5489      0.0306      6.1266     52.6777   -999.2500
  2497.1000      7.8391      2.5432      0.0490      6.4709     52.6810   -999.2500
  2497.2000      7.8391      2.5391      0.0497      6.7227   -999.2500   -999.2500
  2497.3000      7.8376      2.5330      0.0313      7.0929   -999.2500   -999.2500
  2497.4000      7.8376      2.5223      0.0221      7.7371   -999.2500   -999.2500
  2497.5000      7.8342      2.5158      0.0195      8.1321   -999.2500   -999.2500
  2497.6000      7.8342      2.5208      0.0551      7.8298   -999.2500   -999.2500
  2497.7000      7.8342      2.5315      0.0636      7.1820   -999.2500   -999.2500
  2497.8000      7.8401      2.5368      0.0757      6.8635   -999.2500   -999.2500
  2497.9000      7.8401      2.5332      0.0385      7.0809   -999.2500   -999.2500
  2498.0000      7.8324      2.5313      0.0261      7.1920   -999.2500   -999.2500
  2498.1000      7.8324      2.5371      0.0592      6.8451   -999.2500   -999.2500
  2498.2000      7.8324      2.5423      0.0301      6.5252   -999.2500   -999.2500
  2498.3000      7.8340      2.5469      0.0231      6.2502   -999.2500   -999.2500
  2498.4000      7.8340      2.5570      0.0503      5.6386   -999.2500   -999.2500
  2498.5000      7.8343      2.5699      0.0664      4.8529   -999.2500   -999.2500
  2498.6000      7.8343      2.5752      0.0639      4.5340   -999.2500   -999.2500
  2498.7000      7.8343      2.5639      0.0407      5.2165   -999.2500   -999.2500
  2498.8000      7.8334      2.5469     -0.0203      6.2465   -999.2500   -999.2500
  2498.9000      7.8334      2.5447      0.0029      6.3838   -999.2500   -999.2500
  2499.0000      7.8322      2.5498      0.0745      6.0699   -999.2500   -999.2500
  2499.1000      7.8322      2.5400      0.0353      6.6648   -999.2500   -999.2500
  2499.2000      7.8322      2.5191     -0.0042      7.9323   -999.2500   -999.2500
  2499.3000      7.8346      2.5024      0.0217      8.9469   -999.2500   -999.2500
  2499.4000      7.8346      2.4872      0.0394      9.8680   -999.2500   -999.2500
  2499.5000      7.8324      2.4750     -0.0128     10.6060   -999.2500   -999.2500
  2499.6000      7.8324      2.4783      0.0067     10.4032   -999.2500   -999.2500
  2499.7000      7.8324      2.4926      0.0504      9.5424   -999.2500   -999.2500
  2499.8000      7.8291      2.5043      0.0388      8.8292   -999.2500   -999.2500
  2499.9000      7.8291      2.5053      0.0820      8.7693   -999.2500   -999.2500
  2500.0000      7.8321      2.4897      0.0285      9.7160   -999.2500   -999.2500
  2500.1000      7.8321      2.4668      0.0316     11.1060   -999.2500   -999.2500
  2500.2000      7.8321      2.4488      0.0640     12.1945   -999.2500   -999.2500
  2500.3000      7.8266      2.4389      0.0126     12.7940   -999.2500   -999.2500
  2500.4000      7.8266      2.4455      0.0489     12.3957   -999.2500   -999.2500
  2500.5000      7.8207      2.4682      0.0520     11.0154   -999.2500   -999.2500
