~Version Information
VERS.                      2.0: CWLS Log ASCII Standard - VERSION 2.0
WRAP.                       NO: One line per depth step
~Well Information Block
STRT.FT               675.0000: 
STOP.FT              2373.5000: 
STEP.FT                 0.2500: 
NULL.                -999.2500: 
COMP.          Pioneer Natural Resources: COMPANY
WELL.            Harrier 44-33: WELL
FLD.           Purgatoire River: FIELD
LOC.           456' FSL & 930' FEL: LOCATION
PROV.                 Colorado: PROVINCE
CNTY.               Las Animas: COUNTRY
SRVC.                Patterson: SERVICE COMPANY
DATE.          Mon Jun 20 07:40:56 2005: LOG DATE
UWI.           05 071 08398 00: UNIQUE WELL ID
~Curve Information Block
DEPT.FT            0 000 00 00: Depth
SN.Ohm-m                      : IEL Short Normal
SP.mV                         : IEL Spontaneous Potential
DIR.Ohm-m                     : IEL Induction Resistivity
GR.GAPI                       : Gamma Ray
~Parameter Information Block
~A  Depth        SN          SP         DIR          GR     
# ...
  1445.5000     18.6828    210.3343     15.4912     83.7054
  1445.7500     18.9329    210.3596     16.0925     84.2905
  1446.0000     19.1262    210.4196     16.4672     86.0928
  1446.2500     19.2961    210.5121     16.6077     87.4831
  1446.5000     19.5052    210.6253     16.5678     90.1554
  1446.7500     19.7497    210.7424     16.4309     92.6639
  1447.0000     19.9294    210.8501     16.2786     97.6203
  1447.2500     19.9218    210.9434     16.1721    101.5731
  1447.5000     19.6525    211.0239     16.1455    108.4092
  1447.7500     19.1601    211.0930     16.2043    113.6320
  1448.0000     18.5796    211.1470     16.3234    122.1532
  1448.2500     18.0284    211.1781     16.4491    127.6688
  1448.5000     17.5317    211.1830     16.5069    134.1598
  1448.7500     17.0475    211.1743     16.4255    136.3911
  1449.0000     16.5265    211.1859     16.1675    135.2775
  1449.2500     15.9781    211.2618     15.7470    131.2068
  1449.5000     15.4863    211.4318     15.2201    121.3567
  1449.7500     15.1087    211.6899     14.6603    114.4857
  1450.0000     14.8183    211.9936     14.1356    108.5564
  1450.2500     14.5784    212.2838     13.6952    109.3014
  1450.5000     14.3794    212.5112     13.3637    116.7746
  1450.7500     14.1921    212.6544     13.1420    123.9208
  1451.0000     13.9477    212.7227     13.0125    134.0795
  1451.2500     13.6067    212.7450     12.9466    139.0833
  1451.5000     13.2555    212.7511     12.9126    142.9689
  1451.7500     13.0412    212.7555     12.8820    143.0185
  1452.0000     12.9897    212.7518     12.8332    139.4865
  1452.2500     12.9898    212.7194     12.7546    135.2076
  1452.5000     12.9350    212.6365     12.6472    127.5799
  1452.7500     12.8159    212.4883     12.5257    123.0860
  1453.0000     12.7125    212.2641     12.4175    119.6246
  1453.2500     12.7205    211.9512     12.3568    120.3171
  1453.5000     12.8669    211.5419     12.3745    125.4287
  1453.7500     13.1469    211.0500     12.4874    130.2197
  1454.0000     13.5577    210.5193     12.6927    136.1520
  1454.2500     14.0054    210.0083     12.9696    137.4758
  1454.5000     14.3147    209.5626     13.2877    134.1511
  1454.7500     14.4039    209.1943     13.6195    129.0314
  1455.0000     14.3767    208.8852     13.9473    120.0398
  1455.2500     14.4184    208.6067     14.2643    115.0903
  1455.5000     14.6250    208.3433     14.5685    110.8604
  1455.7500     14.9450    208.1071     14.8607    109.8397
  1456.0000     15.3014    207.9354     15.1461    109.1415
  1456.2500     15.7202    207.8711     15.4391    108.0706
  1456.5000     16.2281    207.9379     15.7636    104.4250
  1456.7500     16.7269    208.1274     16.1477    100.7782
  1457.0000     17.1347    208.4036     16.6149     94.9515
  1457.2500     17.5309    208.7185     17.1776     91.9009
  1457.5000     18.0570    209.0273     17.8335     89.8377
  1457.7500     18.7864    209.2987     18.5672     90.2975
  1458.0000     19.6980    209.5206     19.3549     92.9736
  1458.2500     20.7176    209.6965     20.1700     95.1578
  1458.5000     21.7905    209.8318     20.9873     97.3699
  1458.7500     22.8892    209.9215     21.7841     97.5971
  1459.0000     24.0137    209.9566     22.5387     96.0082
  1459.2500     25.2369    209.9464     23.2258     93.7282
  1459.5000     26.6430    209.9269     23.8064     88.2788
  1459.7500     28.1962    209.9418     24.2208     83.3057
  1460.0000     29.7382    210.0166     24.3980     74.9019
  1460.2500     31.0984    210.1552     24.2859     69.8319
  1460.5000     32.1540    210.3559     23.8805     64.9658
  1460.7500     32.7637    210.6205     23.2305     64.2195
  1461.0000     32.7007    210.9432     22.4148     67.0466
  1461.2500     31.7892    211.2984     21.5133     71.2774
  1461.5000     30.0935    211.6473     20.5897     80.2384
  1461.7500     27.8884    211.9513     19.6868     87.2352
  1462.0000     25.4942    212.1741     18.8284     97.8212
  1462.2500     23.1539    212.2778     18.0262    104.2278
  1462.5000     20.9843    212.2325     17.2852    112.5053
  1462.7500     19.0204    212.0391     16.6079    117.5012
  1463.0000     17.3157    211.7481     15.9955    125.1160
  1463.2500     15.9511    211.4531     15.4494    130.3849
  1463.5000     14.9330    211.2515     14.9721    137.6628
  1463.7500     14.1837    211.1875     14.5650    141.3103
  1464.0000     13.6694    211.2273     14.2248    144.2104
  1464.2500     13.3995    211.2883     13.9417    144.4955
  1464.5000     13.3035    211.2970     13.7025    142.9984
  1464.7500     13.2941    211.2264     13.4958    140.9844
  1465.0000     13.3733    211.0974     13.3160    136.6179
  1465.2500     13.5465    210.9550     13.1617    132.9002
  1465.5000     13.7679    210.8369     13.0303    126.6753
  1465.7500     13.9964    210.7536     12.9142    122.7100
  1466.0000     14.1861    210.6898     12.8020    118.2691
  1466.2500     14.2508    210.6250     12.6840    116.8483
  1466.5000     14.1390    210.5539     12.5538    117.2270
  1466.7500     13.8933    210.4900     12.4038    118.9394
  1467.0000     13.5542    210.4444     12.2199    123.4820
  1467.2500     13.0976    210.4064     11.9850    127.9437
  1467.5000     12.5123    210.3486     11.6884    136.5187
  1467.7500     11.8437    210.2490     11.3343    142.5528
  1468.0000     11.1732    210.1079     10.9401    149.7940
  1468.2500     10.5730    209.9488     10.5280    152.6308
  1468.5000     10.0638    209.8087     10.1178    154.3783
  1468.7500      9.6405    209.7252      9.7242    154.8393
  1469.0000      9.3008    209.7205      9.3586    156.0226
  1469.2500      9.0274    209.7905      9.0298    157.4894
  1469.5000      8.8008    209.9135      8.7445    160.2258
  1469.7500      8.6498    210.0713      8.5057    161.7608
  1470.0000      8.6274    210.2607      8.3130    162.4756
  1470.2500      8.7134    210.4878      8.1645    161.4651
  1470.5000      8.8143    210.7550      8.0590    157.9309
  1470.7500      8.8688    211.0556      7.9969    155.0372
  1471.0000      8.9083    211.3745      7.9798    151.7299
  1471.2500      9.0239    211.6915      8.0090    150.7887
  1471.5000      9.2377    211.9914      8.0855    150.7531
  1471.7500      9.4554    212.2743      8.2102    150.8689
  1472.0000      9.6243    212.5555      8.3860    150.1766
  1472.2500      9.8228    212.8485      8.6192    148.8880
  1472.5000     10.1161    213.1531      8.9198    145.8629
  1472.7500     10.4212    213.4659      9.2970    143.3043
  1473.0000     10.6339    213.7995      9.7536    138.3577
  1473.2500     10.8344    214.1787     10.2820    133.6070
  1473.5000     11.2467    214.6171     10.8666    123.0722
  1473.7500     12.0258    215.0996     11.4906    113.8733
  1474.0000     13.1885    215.5859     12.1434     98.9531
  1474.2500     14.7386    216.0289     12.8260     90.1488
  1474.5000     16.7291    216.4003     13.5512     81.3657
  1474.7500     19.1447    216.7051     14.3381     79.1815
  1475.0000     21.7466    216.9734     15.2013     81.1095
  1475.2500     24.0593    217.2334     16.1407     85.0266
  1475.5000     25.5681    217.4900     17.1352     92.9276
  1475.7500     25.9578    217.7254     18.1435     98.5494
  1476.0000     25.2599    217.9126     19.1060    106.4621
  1476.2500     23.9004    218.0300     19.9456    111.0602
  1476.5000     22.5305    218.0700     20.5764    116.4635
  1476.7500     21.6620    218.0434     20.9315    118.8149
  1477.0000     21.4223    217.9783     21.0025    120.3810
  1477.2500     21.6112    217.9088     20.8551    120.3152
  1477.5000     21.9055    217.8577     20.5988    118.8762
  1477.7500     22.0589    217.8233     20.3323    116.9897
  1478.0000     22.0373    217.7834     20.1073    112.5912
  1478.2500     21.9376    217.7142     19.9289    108.7459
  1478.5000     21.8076    217.6056     19.7813    102.3277
  1478.7500     21.6595    217.4645     19.6530     98.0738
