~Version Information
VERS.                      2.0: CWLS Log ASCII Standard - VERSION 2.0
WRAP.                       NO: One line per depth step
~Well Information Block
STRT.FT               660.8000: 
STOP.FT              2375.1000: 
STEP.FT                 0.1000: 
NULL.                -999.2500: 
COMP.          Petrogulf Corporation: COMPANY
WELL.             State 16-34V: WELL
FLD.           Purgatorie River: FIELD
LOC.           1146' FSL & 1393' FEL: LOCATION
CNTY.               Las Animas: COUNTY
SRVC.                         : SERVICE COMPANY
DATE.          Sat Jun 07 20:51:20 2003: LOG DATE
UWI.           05 071 07724 00: UNIQUE WELL ID
STAT.                 Colorado: STATE
~Curve Information Block
DEPT.FT            0 000 00 00: Depth
DCAL.in                       : Caliper from Density Tool
RHOB.g/cc                     : Bulk Density
RHOC.g/cc                     : Density Correction
DPOR.pu                       : Density Porosity
GR.GAPI                       : Gamma Ray
NPOR.pu                       : Neutron Porosity
~Parameter Information Block
~A  Depth       DCAL        RHOB        RHOC        DPOR         GR         NPOR    
# ...
  1006.4000      8.3699      1.9245      0.2008     43.9678    146.1320     16.1923
  1006.5000      8.3253      1.8033      0.2113     51.3174    143.6719     14.4588
  1006.6000      8.3253      1.8033      0.2113     51.3174    140.6443     12.8238
  1006.7000      8.3253      1.8033      0.2113     51.3174    137.1073     11.3381
  1006.8000      8.3725      1.6439      0.2084     60.9747    133.1464     10.0443
  1006.9000      8.3725      1.6439      0.2084     60.9747    128.8700      8.9761
  1007.0000      8.6488      1.5587      0.1958     66.1372    124.4058      8.1580
  1007.1000      8.6488      1.5587      0.1958     66.1372    119.8897      7.6030
  1007.2000      8.6488      1.5587      0.1958     66.1372    115.4562      7.3128
  1007.3000      9.0439      1.4685      0.1649     71.6080    111.2318      7.2775
  1007.4000      9.0439      1.4685      0.1649     71.6080    107.3251      7.4772
  1007.5000      9.1452      1.4338      0.1377     73.7094    103.8245      7.8851
  1007.6000      9.1452      1.4338      0.1377     73.7094    100.7986      8.4711
  1007.7000      9.1452      1.4338      0.1377     73.7094     98.2994      9.2051
  1007.8000      8.8495      1.4175      0.0865     74.6953     96.3657     10.0596
  1007.9000      8.8495      1.4175      0.0865     74.6953     95.0285     11.0109
  1008.0000      8.5718      1.4296      0.0462     73.9626     94.3144     12.0398
  1008.1000      8.5718      1.4296      0.0462     73.9626     94.2449     13.1306
  1008.2000      8.5718      1.4296      0.0462     73.9626     94.8359     14.2700
  1008.3000      8.5229      1.4863     -0.0172     70.5281     96.0922     15.4450
  1008.4000      8.5229      1.4863     -0.0172     70.5281     98.0059     16.6421
  1008.5000      8.5458      1.5555     -0.0533     66.3339    100.5524     17.8435
  1008.6000      8.5458      1.5555     -0.0533     66.3339    103.6890     19.0277
  1008.7000      8.5458      1.5555     -0.0533     66.3339    107.3525     20.1720
  1008.8000      8.4681      1.7140     -0.0824     56.7274    111.4642     21.2545
  1008.9000      8.4681      1.7140     -0.0824     56.7274    115.9284     22.2549
  1009.0000      8.3313      1.8517     -0.0806     48.3827    120.6384     23.1567
  1009.1000      8.3313      1.8517     -0.0806     48.3827    125.4799     23.9483
  1009.2000      8.3313      1.8517     -0.0806     48.3827    130.3367     24.6242
  1009.3000      8.2047      2.0750     -0.0537     34.8494    135.0961     25.1862
  1009.4000      8.2047      2.0750     -0.0537     34.8494    139.6544     25.6426
  1009.5000      8.0874      2.2088     -0.0308     26.7420    143.9235     26.0083
  1009.6000      8.0874      2.2088     -0.0308     26.7420    147.8323     26.3024
  1009.7000      8.0874      2.2088     -0.0308     26.7420    151.3296     26.5476
  1009.8000      8.0019      2.3548     -0.0060     17.8890    154.3827     26.7668
  1009.9000      8.0019      2.3548     -0.0060     17.8890    156.9778     26.9815
  1010.0000      7.9783      2.4145      0.0008     14.2729    159.1125     27.2100
  1010.1000      7.9783      2.4145      0.0008     14.2729    160.7947     27.4654
  1010.2000      7.9783      2.4145      0.0008     14.2729    162.0399     27.7557
  1010.3000      7.9836      2.4657      0.0009     11.1672    162.8696     28.0833
  1010.4000      7.9836      2.4657      0.0009     11.1672    163.3090     28.4452
  1010.5000      8.0320      2.4862     -0.0014      9.9298    163.3891     28.8339
  1010.6000      8.0320      2.4862     -0.0014      9.9298    163.1455     29.2390
  1010.7000      8.0320      2.4862     -0.0014      9.9298    162.6159     29.6477
  1010.8000      8.0765      2.5074     -0.0032      8.6433    161.8406     30.0459
  1010.9000      8.0765      2.5074     -0.0032      8.6433    160.8560     30.4204
  1011.0000      8.0411      2.5169     -0.0026      8.0696    159.6960     30.7584
  1011.1000      8.0411      2.5169     -0.0026      8.0696    158.3878     31.0493
  1011.2000      8.0411      2.5169     -0.0026      8.0696    156.9558     31.2846
  1011.3000      7.9627      2.5238      0.0001      7.6513    155.4223     31.4588
  1011.4000      7.9627      2.5238      0.0001      7.6513    153.8142     31.5692
  1011.5000      7.8798      2.5240      0.0022      7.6391    152.1636     31.6163
  1011.6000      7.8798      2.5240      0.0022      7.6391    150.5104     31.6032
  1011.7000      7.8798      2.5240      0.0022      7.6391    148.8980     31.5353
  1011.8000      7.8222      2.5207      0.0049      7.8337    147.3711     31.4203
  1011.9000      7.8222      2.5207      0.0049      7.8337    145.9688     31.2672
  1012.0000      7.8108      2.5187      0.0066      7.9586    144.7184     31.0858
  1012.1000      7.8108      2.5187      0.0066      7.9586    143.6311     30.8860
  1012.2000      7.8108      2.5187      0.0066      7.9586    142.7052     30.6777
  1012.3000      7.8931      2.5190      0.0093      7.9384    141.9269     30.4695
  1012.4000      7.8931      2.5190      0.0093      7.9384    141.2778     30.2695
  1012.5000      8.0754      2.5223      0.0117      7.7377    140.7384     30.0836
  1012.6000      8.0754      2.5223      0.0117      7.7377    140.2941     29.9161
  1012.7000      8.0754      2.5223      0.0117      7.7377    139.9338     29.7693
  1012.8000      8.1990      2.5313      0.0164      7.1948    139.6517     29.6433
  1012.9000      8.1990      2.5313      0.0164      7.1948    139.4406     29.5370
  1013.0000      8.1410      2.5388      0.0203      6.7409    139.2904     29.4477
  1013.1000      8.1410      2.5388      0.0203      6.7409    139.1881     29.3728
  1013.2000      8.1410      2.5388      0.0203      6.7409    139.1157     29.3108
  1013.3000      7.9885      2.5502      0.0260      6.0514    139.0551     29.2616
  1013.4000      7.9885      2.5502      0.0260      6.0514    138.9906     29.2275
  1013.5000      7.8896      2.5571      0.0289      5.6302    138.9108     29.2134
  1013.6000      7.8896      2.5571      0.0289      5.6302    138.8096     29.2257
  1013.7000      7.8896      2.5571      0.0289      5.6302    138.6852     29.2717
  1013.8000      7.8425      2.5668      0.0303      5.0454    138.5349     29.3577
  1013.9000      7.8425      2.5668      0.0303      5.0454    138.3543     29.4878
  1014.0000      7.8044      2.5734      0.0291      4.6402    138.1301     29.6629
  1014.1000      7.8044      2.5734      0.0291      4.6402    137.8449     29.8792
  1014.2000      7.8044      2.5734      0.0291      4.6402    137.4727     30.1290
  1014.3000      7.7839      2.5851      0.0252      3.9340    136.9858     30.4003
  1014.4000      7.7839      2.5851      0.0252      3.9340    136.3553     30.6784
  1014.5000      7.7953      2.5937      0.0229      3.4097    135.5564     30.9468
  1014.6000      7.7953      2.5937      0.0229      3.4097    134.5736     31.1885
  1014.7000      7.7953      2.5937      0.0229      3.4097    133.3982     31.3877
  1014.8000      7.7933      2.6050      0.0223      2.7273    132.0338     31.5306
  1014.9000      7.7933      2.6050      0.0223      2.7273    130.4938     31.6066
  1015.0000      7.7565      2.6084      0.0241      2.5197    128.8029     31.6091
  1015.1000      7.7565      2.6084      0.0241      2.5197    126.9915     31.5364
  1015.2000      7.7565      2.6084      0.0241      2.5197    125.0983     31.3922
  1015.3000      7.7269      2.6034      0.0289      2.8247    123.1671     31.1850
  1015.4000      7.7269      2.6034      0.0289      2.8247    121.2437     30.9280
  1015.5000      7.7452      2.5931      0.0319      3.4509    119.3725     30.6380
  1015.6000      7.7452      2.5931      0.0319      3.4509    117.5955     30.3329
  1015.7000      7.7452      2.5931      0.0319      3.4509    115.9497     30.0306
  1015.8000      7.8189      2.5708      0.0346      4.8029    114.4674     29.7461
  1015.9000      7.8189      2.5708      0.0346      4.8029    113.1744     29.4906
