~Version Information
VERS.                      2.0: CWLS Log ASCII Standard - VERSION 2.0
WRAP.                       NO: One line per depth step
~Well Information Block
STRT.FT               580.0000: 
STOP.FT              1756.0000: 
STEP.FT                 0.1000: 
NULL.                -999.2500: 
COMP.          Pioneer Natural Resources: COMPANY
WELL.          Lookout Point 31-23 Tr: WELL
FLD.           Purgatoire River: FIELD
LOC.           541' FNL & 1768' FEL: LOCATION
PROV.                 Colorado: PROVINCE
CNTY.               Las Animas: COUNTRY
SRVC.                Patterson: SERVICE COMPANY
DATE.          Mon Jan 24 07:20:20 2005: LOG DATE
UWI.           05 071 08260 00: UNIQUE WELL ID
~Curve Information Block
DEPT.FT            0 000 00 00: Depth
DCAL.in                       : CDL Caliper
DPOR.pu                       : CDL Density Porosity
GR.GAPI                       : Gamma Ray
NPOR.pu                       : Neutron Porosity
RHOB.g/cc                     : CDL Bulk Density
RHOC.g/cc                     : CDL Density Correction
~Parameter Information Block
~A  Depth       DCAL        DPOR         GR         NPOR        RHOB        RHOC    
# ...
  1722.4000      7.6852      8.7704    148.8652     27.5162      2.5053      0.0616
  1722.5000      7.6796      8.7908    146.3204     27.4547      2.5050      0.0549
  1722.6000      7.6796      9.0620    147.4177     26.8353      2.5005      0.0405
  1722.7000      7.6796     10.4570    151.6781     26.8989      2.4775      0.0229
  1722.8000      7.6773     12.5247    154.2596     27.4942      2.4433      0.0111
  1722.9000      7.6773     13.6240    151.7029     27.7748      2.4252     -0.0264
  1723.0000      7.6753     13.2761    148.5464     27.4728      2.4309      0.0126
  1723.1000      7.6753     12.7774    151.3994     27.1398      2.4392      0.0337
  1723.2000      7.6753     12.7807    158.8760     27.4672      2.4391      0.0131
  1723.3000      7.6724     12.6792    161.9584     28.1945      2.4408      0.0636
  1723.4000      7.6724     12.1326    157.0617     28.4875      2.4498      0.0345
  1723.5000      7.6731     11.1827    150.3418     28.5480      2.4655      0.0352
  1723.6000      7.6731     10.2022    146.5283     29.0108      2.4817      0.0566
  1723.7000      7.6731      9.7906    144.3758     29.5350      2.4885      0.0632
  1723.8000      7.6781      9.8876    142.7358     29.5839      2.4869      0.0703
  1723.9000      7.6781      9.8030    144.3582     29.3560      2.4883      0.0602
  1724.0000      7.6802      9.4044    146.4704     29.2029      2.4948      0.0595
  1724.1000      7.6802      9.1524    144.5732     29.2311      2.4990      0.0732
  1724.2000      7.6802      9.0998    142.1614     29.2110      2.4999      0.0522
  1724.3000      7.6725      9.4283    140.8892     28.9335      2.4944      0.0455
  1724.4000      7.6725     10.4752    137.7426     28.6321      2.4772     -0.0018
  1724.5000      7.6642     11.3889    131.2655     28.4243      2.4621     -0.0331
  1724.6000      7.6642     11.3864    117.5636     28.2075      2.4621      0.0180
  1724.7000      7.6642     10.9076     87.3442     28.0230      2.4700      0.0224
  1724.8000      7.6645     10.4490     45.5417     28.0328      2.4776      0.0529
  1724.9000      7.6645     10.1002     14.6593     28.2446      2.4833      0.0310
  1725.0000      7.6688      9.9449      2.7027     28.1358      2.4859      0.0832
  1725.1000      7.6688     10.2241      0.2740     27.3660      2.4813      0.0639
  1725.2000      7.6688     10.6869      0.0146     26.5952      2.4737      0.0462
  1725.3000      7.6749     10.7378      0.0000     26.3190      2.4728      0.0378
  1725.4000      7.6749     10.4346   -999.2500     26.3019      2.4778      0.0522
  1725.5000      7.6832     10.1703   -999.2500     26.4300      2.4822      0.0395
  1725.6000      7.6832     10.0289   -999.2500     26.7244      2.4845      0.0438
  1725.7000      7.6832     10.1936   -999.2500     27.0075      2.4818      0.0373
  1725.8000      7.6900     10.7735   -999.2500     27.3192      2.4722      0.0144
  1725.9000      7.6900     11.4853   -999.2500     27.7973      2.4605      0.0056
  1726.0000      7.6945     12.0156   -999.2500     28.0133      2.4517     -0.0057
  1726.1000      7.6945     12.2102   -999.2500     27.4140      2.4485      0.0167
  1726.2000      7.6945     11.6319   -999.2500     26.2358      2.4581     -0.0359
  1726.3000      7.6956     10.3156   -999.2500     25.3252      2.4798      0.0736
  1726.4000      7.6956      9.6986   -999.2500     25.1301      2.4900      0.0341
  1726.5000      7.6935     10.5418   -999.2500     25.2010      2.4761      0.0144
  1726.6000      7.6935     12.0330   -999.2500     25.0900      2.4515      0.0126
  1726.7000      7.6935     12.9840   -999.2500     24.9848      2.4358     -0.0120
  1726.8000      7.6905     12.9658   -999.2500     25.2556      2.4361      0.0284
  1726.9000      7.6905     13.0847   -999.2500     25.8575      2.4341      0.0233
  1727.0000      7.6827     14.3656   -999.2500     26.4154      2.4130      0.0020
  1727.1000      7.6827     16.0215   -999.2500     26.6806      2.3856     -0.0552
  1727.2000      7.6827     16.8320   -999.2500     26.5057      2.3723      0.0021
  1727.3000      7.6730     17.1463   -999.2500     26.1582      2.3671      0.0254
  1727.4000      7.6730     17.4370   -999.2500     26.1902      2.3623     -0.0226
  1727.5000      7.6761     17.2661   -999.2500     26.4700      2.3651      0.0122
  1727.6000      7.6761     16.7609   -999.2500     26.7115      2.3734      0.0184
  1727.7000      7.6761     16.2494   -999.2500     27.0972      2.3819     -0.0244
  1727.8000      7.6865     15.7574   -999.2500     27.4671      2.3900      0.0505
  1727.9000      7.6865     15.9646   -999.2500     27.8085      2.3866      0.0485
  1728.0000      7.6901     17.0931   -999.2500     28.5984      2.3680      0.0210
  1728.1000      7.6901     18.4097   -999.2500     29.5568      2.3462      0.0189
  1728.2000      7.6901     19.5953   -999.2500     29.9961      2.3267     -0.0063
  1728.3000      7.6898     20.8804   -999.2500     29.8746      2.3055      0.0048
  1728.4000      7.6898     22.2083   -999.2500     29.5549      2.2836     -0.0131
  1728.5000      7.6891     22.8551   -999.2500     29.2613      2.2729     -0.0388
  1728.6000      7.6891     22.2855   -999.2500     28.8495      2.2823     -0.0246
  1728.7000      7.6891     21.2554   -999.2500     28.2741      2.2993      0.0487
  1728.8000      7.6891     20.7352   -999.2500     28.0842      2.3079      0.0363
  1728.9000      7.6891     20.5257   -999.2500     28.4893      2.3113      0.0521
  1729.0000      7.6885     20.3207   -999.2500     28.6589      2.3147      0.0749
  1729.1000      7.6885     20.1092   -999.2500     28.1251      2.3182      0.0570
  1729.2000      7.6885     19.4756   -999.2500     27.4336      2.3287      0.0298
  1729.3000      7.6823     18.1885   -999.2500     26.9980      2.3499      0.0732
  1729.4000      7.6823     16.7207   -999.2500     26.8162      2.3741      0.0363
  1729.5000      7.6725     15.9413   -999.2500     26.6331      2.3870      0.1041
  1729.6000      7.6725     16.3975   -999.2500     26.0925      2.3794      0.0564
  1729.7000      7.6725     17.0975   -999.2500     25.2773      2.3679      0.0214
  1729.8000      7.6647     16.7141   -999.2500     24.5297      2.3742      0.0220
  1729.9000      7.6647     15.3323   -999.2500     24.0329      2.3970      0.0235
  1730.0000      7.6551     13.9253   -999.2500     24.2077      2.4202      0.0830
  1730.1000      7.6551     13.1687   -999.2500     26.6463      2.4327      0.0794
  1730.2000      7.6551     12.8593   -999.2500     33.7338      2.4378      0.0696
  1730.3000      7.6323     12.3640   -999.2500     43.8526      2.4460      0.0475
  1730.4000      7.6323     11.4044   -999.2500     50.8484      2.4618      0.0583
  1730.5000      7.5941     10.2289   -999.2500     53.3410      2.4812      0.0583
  1730.6000      7.5941      9.2245   -999.2500     53.8289      2.4978      0.0833
  1730.7000      7.5941      8.8036   -999.2500     53.8807      2.5047      0.1007
  1730.8000      7.5505      8.9247   -999.2500     53.8836      2.5027      0.0676
  1730.9000      7.5505      9.0471   -999.2500   -999.2500      2.5007      0.0588
  1731.0000      7.5208      9.2622   -999.2500   -999.2500      2.4972      0.0554
  1731.1000      7.5208     10.2610   -999.2500   -999.2500      2.4807      0.0567
  1731.2000      7.5208     11.7662   -999.2500   -999.2500      2.4559     -0.0011
  1731.3000      7.5257     12.6751   -999.2500   -999.2500      2.4409      0.0137
  1731.4000      7.5257     12.8131   -999.2500   -999.2500      2.4386      0.0394
  1731.5000      7.5698     12.5115   -999.2500   -999.2500      2.4436      0.0067
  1731.6000      7.5698     11.9759   -999.2500   -999.2500      2.4524      0.0179
  1731.7000      7.5698     11.5648   -999.2500   -999.2500      2.4592      0.0151
  1731.8000      7.6233     11.3561   -999.2500   -999.2500      2.4626      0.0373
  1731.9000      7.6233     11.0707   -999.2500   -999.2500      2.4673      0.0167
