~Version Information
VERS.                      2.0: CWLS Log ASCII Standard - VERSION 2.0
WRAP.                       NO: One line per depth step
~Well Information Block
STRT.FT                15.0000: 
STOP.FT              1869.0000: 
STEP.FT                 0.2500: 
NULL.                -999.2500: 
COMP.          Pioneer Natural Resources: COMPANY
WELL.          Victory 12-14 Tr: WELL
FLD.           Purgatoire River: FIELD
LOC.           2522' FNL & 276' FWL: LOCATION
PROV.                 Colorado: PROVINCE
CNTY.               Las Animas: COUNTRY
SRVC.                Patterson: SERVICE COMPANY
DATE.          Fri Jul 22 14:39:41 2005: LOG DATE
UWI.           05 071 08433 00: UNIQUE WELL ID
~Curve Information Block
DEPT.FT            0 000 00 00: Depth
GR.GAPI                       : Gamma Ray
CCL.                          : Casing Collar Locator
TT3.usec                      : CBL 3' Travel Time
AMP3.mV                       : CBL 3' Amplitude
~Parameter Information Block
~A  Depth        GR         CCL         TT3         AMP3    
# ...
  1355.0000    144.6861      0.0000    758.9127     12.1765
  1355.2500    142.9628      0.0000    754.3130     12.0490
  1355.5000    140.4848      0.0000    746.3878     11.8769
  1355.7500    138.1321      0.0000    736.5611     11.6549
  1356.0000    136.9271      0.0000    728.7030     11.4105
  1356.2500    137.0467      0.0000    726.6586     11.1877
  1356.5000    137.5504      0.0000    731.1401     11.0100
  1356.7500    137.2987      0.0000    739.4484     10.8613
  1357.0000    135.8919      0.0000    747.9738     10.7178
  1357.2500    133.6814      0.0000    754.4313     10.5992
  1357.5000    131.2249      0.0000    758.2321     10.5674
  1357.7500    128.8402      0.0000    759.7742     10.6633
  1358.0000    126.4020      0.0000    759.6586     10.8551
  1358.2500    123.4271      0.0000    758.2731     11.0610
  1358.5000    119.5152      0.0000    755.9053     11.2197
  1358.7500    114.8375      0.0000    753.0698     11.3315
  1359.0000    110.1291      0.0000    750.3925     11.4370
  1359.2500    106.1842      0.0000    748.1359     11.5654
  1359.5000    103.4854      0.0000    746.3075     11.7078
  1359.7500    102.3375      0.0000    745.2228     11.8433
  1360.0000    103.0194      0.0000    745.2197     11.9789
  1360.2500    105.4819      0.0000    745.5847     12.1546
  1360.5000    108.8637      0.0000    744.3800     12.3998
  1360.7500    111.4637      0.0000    739.6434     12.6896
  1361.0000    111.4301      0.0000    730.8436     12.9489
  1361.2500    107.8539      0.0000    719.9104     13.0989
  1361.5000    101.5509      0.0000    711.2417     13.1031
  1361.7500     94.7532      0.0000    709.6220     12.9846
  1362.0000     89.6729      0.0000    716.7733     12.8112
  1362.2500     87.1179      0.0000    729.7241     12.6587
  1362.5000     86.4526      0.0000    742.9025     12.5750
  1362.7500     86.6037      0.0000    751.7903     12.5690
  1363.0000     86.7604      0.0000    754.6797     12.6230
  1363.2500     86.3064      0.0000    752.0189     12.7128
  1363.5000     84.6918      0.0000    745.3455     12.8208
  1363.7500     81.7487      0.0000    736.7667     12.9396
  1364.0000     78.0174      0.0000    728.2293     13.0684
  1364.2500     74.5633      0.0000    720.4775     13.2039
  1364.5000     72.4279      0.0000    712.9373     13.3339
  1364.7500     72.2112      0.0000    704.9406     13.4405
  1365.0000     73.9906      0.0000    696.6277     13.5121
  1365.2500     77.4043      0.0000    687.7993     13.5551
  1365.5000     81.6508      0.0000    675.7451     13.5947
  1365.7500     85.5710      0.0000    655.5275     13.6594
  1366.0000     88.2121      0.0000    624.3906     13.7638
  1366.2500     89.4987      0.0000    587.3004     13.9054
  1366.5000     90.2862      0.0000    557.7678     14.0748
  1366.7500     91.8187      0.0000    550.4688     14.2660
  1367.0000     95.1392      0.0000    569.3491     14.4759
  1367.2500    100.6460      0.0000    601.7911     14.6976
  1367.5000    107.9420      0.0000    626.5900     14.9188
  1367.7500    116.1486      0.0000    630.4556     15.1313
  1368.0000    124.3634      0.0000    618.7607     15.3388
  1368.2500    131.8222      0.0000    610.9777     15.5452
  1368.5000    137.9145      0.0000    623.9333     15.7410
  1368.7500    142.2848      0.0000    657.5502     15.9082
  1369.0000    144.8806      0.0000    696.5400     16.0396
  1369.2500    145.9435      0.0000    724.8484     16.1508
  1369.5000    146.1040      0.0000    737.1706     16.2723
  1369.7500    146.3246      0.0000    738.9027     16.4278
  1370.0000    147.3061      0.0000    738.5348     16.6102
  1370.2500    148.8110      0.0000    740.1252     16.7781
  1370.5000    149.9006      0.0000    740.5244     16.8764
  1370.7500    149.9736      0.0000    732.4640     16.8581
  1371.0000    149.3310      0.0000    710.6149     16.6861
  1371.2500    148.6434      0.0000    675.5318     16.3525
  1371.5000    148.1720      0.0000    632.2146     15.9240
  1371.7500    147.6088      0.0000    585.9648     15.5069
  1372.0000    146.4007      0.0000    541.3106     15.1019
  1372.2500    143.9961      0.0000    503.4150     14.5597
  1372.5000    140.0325      0.0000    476.0126     13.7734
  1372.7500    134.7032      0.0000    457.6151     12.8532
  1373.0000    129.0495      0.0000    443.1329     12.0251
  1373.2500    124.6648      0.0000    429.3281     11.4181
  1373.5000    122.9441      0.0000    416.7271     11.0162
  1373.7500    124.4986      0.0000    407.2768     10.7613
  1374.0000    128.8991      0.0000    402.3676     10.6522
  1374.2500    134.4919      0.0000    402.7774     10.7592
  1374.5000    138.6472      0.0000    408.1890     11.1421
  1374.7500    139.0689      0.0000    415.4293     11.7224
  1375.0000    135.4632      0.0000    418.4160     12.2731
  1375.2500    129.8688      0.0000    412.4723     12.6050
  1375.5000    125.1678      0.0000    399.3455     12.7355
  1375.7500    123.0656      0.0000    386.5951     12.8142
  1376.0000    123.0932      0.0000    381.4826     12.9353
  1376.2500    123.2594      0.0000    385.8240     13.0801
  1376.5000    121.8285      0.0000    395.8444     13.1870
  1376.7500    118.7444      0.0000    405.4802     13.2108
  1377.0000    115.4416      0.0000    409.9492     13.1370
  1377.2500    113.3777      0.0000    407.8341     12.9841
  1377.5000    112.9850      0.0000    401.0145     12.8003
  1377.7500    114.0724      0.0000    392.5720     12.6378
  1378.0000    116.7446      0.0000    384.4044     12.5239
  1378.2500    121.3481      0.0000    376.6662     12.4532
  1378.5000    127.5405      0.0000    369.3108     12.4095
  1378.7500    133.8508      0.0000    363.6441     12.3913
  1379.0000    138.4337      0.0000    361.8468     12.4108
  1379.2500    140.3588      0.0000    364.9317     12.4691
  1379.5000    140.3275      0.0000    371.5577     12.5387
  1379.7500    140.0540      0.0000    379.2573     12.5731
  1380.0000    140.6435      0.0000    386.9203     12.5333
  1380.2500    141.6537      0.0000    396.3704     12.4079
  1380.5000    141.9673      0.0000    411.7061     12.2196
  1380.7500    141.3966      0.0000    436.1048     12.0176
  1381.0000    141.1803      0.0000    467.5598     11.8555
  1381.2500    142.9185      0.0000    497.9535     11.7590
  1381.5000    147.0251      0.0000    519.2158     11.7092
  1381.7500    152.0315      0.0000    532.1602     11.6614
  1382.0000    155.2103      0.0000    547.4556     11.5853
  1382.2500    154.0608      0.0000    575.4861     11.4929
  1382.5000    147.6911      0.0000    615.7900     11.4252
  1382.7500    137.2240      0.0000    657.9282     11.4151
  1383.0000    124.9655      0.0000    691.4560     11.4610
  1383.2500    113.0164      0.0000    713.0814     11.5359
  1383.5000    102.5565      0.0000    725.6488     11.6189
  1383.7500     94.1772      0.0000    733.4302     11.7114
  1384.0000     88.2524      0.0000    739.0469     11.8230
  1384.2500     84.6781      0.0000    742.9821     11.9522
  1384.5000     82.7454      0.0000    744.3469     12.0823
  1384.7500     81.7900      0.0000    742.0960     12.1899
  1385.0000     81.7994      0.0000    736.3055     12.2553
  1385.2500     83.2218      0.0000    728.4965     12.2735
  1385.5000     86.5593      0.0000    720.6713     12.2550
  1385.7500     92.2079      0.0000    714.3089     12.2133
  1386.0000    100.0868      0.0000    710.3606     12.1502
  1386.2500    109.1773      0.0000    709.4707     12.0550
  1386.5000    117.8050      0.0000    711.4348     11.9115
  1386.7500    124.5042      0.0000    714.4220     11.7118
  1387.0000    128.4527      0.0000    715.6868     11.4748
  1387.2500    129.4592      0.0000    714.1718     11.2575
  1387.5000    128.1235      0.0000    712.1238     11.1321
  1387.7500    125.8332      0.0000    712.7624     11.1409
  1388.0000    123.9064      0.0000    716.4602     11.2758
  1388.2500    122.5728      0.0000    720.4476     11.4983
