~Version Information
 VERS.                                  2.0 : CWLS LAS VERSION
 WRAP.                                   NO : WRAPING MODE
 SWARE .                 MController 2.5.0E : SOFTWARE VERSION
~Well Information
 WELL.                    Dude canyon 22-32 : WELL
 COMP.    Pioneer Natural Resources USA Inc : COMPANY
 FLD.                      Purgatoire River : FIELD
 LOC.                SE/NW Sec 32 T32S R67W : LOCATION
 DATE.                         3/06-07/2005 : DATE(S) LOGGED
 SRVC.       Blanco Geological Services LLC : SERVICE COMPANY
 STAT.                                   CO : STATE
 CNTY.                           Las Animas : COUNTY
 CTRY.                                  USA : COUNTRY
 API.                       05-071-08257-00 : API NUMBER
 STRT.FT                             494.00 : START DEPTH
 STOP.FT                            2760.00 : STOP DEPTH
 STEP.FT                               1.00 : DEPTH INCREMENT
 NULL.                                -9999 : NULL VALUE
~Curve information
 DEPTH.FT                                   :
 ROP.MIN/FT                                 :
 GAS.UNITS                                  :
~ASCII Log data
# ...
     1694.00        0.300         17.9 
     1695.00        0.267         25.5 
     1696.00        0.533         31.4 
     1697.00        0.700         30.5 
     1698.00        0.633         32.1 
     1699.00        0.517         22.5 
     1700.00        0.533         22.5 
     1701.00        0.567         25.2 
     1702.00        0.300         20.2 
     1703.00        0.300         13.7 
     1704.00        0.300         12.2 
     1705.00        0.300         15.1 
     1706.00        0.233         19.4 
     1707.00        0.200         22.2 
     1708.00        0.200         22.6 
     1709.00        0.233         22.4 
     1710.00        0.250         20.0 
     1711.00        6.767        230.0 
     1712.00        0.600        950.9 
     1713.00        0.467        440.0 
     1714.00        1.033         28.6 
     1715.00        0.167         19.2 
     1716.00        0.367         22.3 
     1717.00        0.333         23.0 
     1718.00        0.317         21.7 
     1719.00        0.267         22.8 
     1720.00        0.167         22.1 
     1721.00        0.167         19.4 
     1722.00        0.167         17.8 
     1723.00        0.300         13.6 
     1724.00        0.367         19.0 
     1725.00        0.333         24.8 
     1726.00        0.367         28.1 
     1727.00        0.400         25.1 
     1728.00        0.367         15.8 
     1729.00        0.417         13.0 
     1730.00        0.400         11.0 
     1731.00        0.500         11.3 
     1732.00        0.433          9.8 
     1733.00        0.433          4.5 
     1734.00        0.400          5.1 
     1735.00        0.400          5.3 
     1736.00        0.367          9.8 
     1737.00        0.383         11.5 
     1738.00        0.367         11.7 
     1739.00        0.467         15.9 
     1740.00        0.450         19.3 
     1741.00        8.367        447.3 
     1742.00        0.367         89.1 
     1743.00        0.400         54.6 
     1744.00        0.267         33.7 
     1745.00        0.350         22.2 
     1746.00        0.500         16.0 
     1747.00        0.400          7.8 
     1748.00        0.267          3.6 
     1749.00        0.333          5.2 
     1750.00        0.467         10.5 
     1751.00        0.267         13.8 
     1752.00        0.267         17.5 
     1753.00        0.400         16.6 
     1754.00        0.550         13.7 
     1755.00        0.567         14.9 
     1756.00        0.333         11.0 
     1757.00        0.333         16.4 
     1758.00        0.333         15.7 
     1759.00        0.300         10.7 
     1760.00        0.233          9.4 
     1761.00        0.133          9.8 
     1762.00        0.200          9.8 
     1763.00        0.200          9.8 
     1764.00        0.433         14.5 
     1765.00        0.417         15.5 
     1766.00        0.500         12.0 
     1767.00        0.400          9.2 
     1768.00        0.367          5.7 
     1769.00        0.367          2.2 
     1770.00        0.733         -0.7 
     1771.00        8.450        300.7 
     1772.00        0.367         58.0 
     1773.00        0.300         23.0 
     1774.00        0.267          9.2 
     1775.00        0.267          2.5 
     1776.00        0.233          3.3 
     1777.00        0.200         10.2 
     1778.00        0.167         18.9 
     1779.00        0.200         21.0 
     1780.00        0.283         26.5 
     1781.00        0.300         39.8 
     1782.00        0.300         36.5 
     1783.00        0.333         25.9 
     1784.00        0.300         11.8 
     1785.00        0.233          2.9 
     1786.00        0.233          0.1 
     1787.00        0.233         -0.3 
     1788.00        0.400         -1.6 
     1789.00        0.533         34.0 
     1790.00        0.367         47.1 
     1791.00        0.583         44.4 
     1792.00        0.567         19.8 
     1793.00        0.500          1.0 
     1794.00        0.400         -1.4 
     1795.00        0.467          0.2 
     1796.00        0.633          2.3 
     1797.00        0.483          2.2 
     1798.00        0.567          0.5 
     1799.00        0.500         -1.1 
     1800.00        0.600         -2.4 
     1801.00        9.317        368.1 
     1802.00        0.633         -2.9 
     1803.00        0.533         -3.1 
     1804.00        0.500          1.9 
     1805.00        0.433         12.4 
     1806.00        0.350         19.1 
     1807.00        0.333         19.7 
     1808.00        0.267         13.9 
     1809.00        0.367         19.5 
     1810.00        0.333         20.2 
     1811.00        0.233         16.1 
     1812.00        0.400          9.2 
     1813.00        0.333          0.5 
     1814.00        0.333          0.0 
     1815.00        0.200          2.6 
     1816.00        0.250          6.0 
     1817.00        0.267          7.1 
     1818.00        0.567          7.1 
     1819.00        0.533          3.5 
     1820.00        0.533          3.0 
     1821.00        0.533          0.7 
     1822.00        0.433          1.1 
     1823.00        0.367          0.0 
     1824.00        0.350         -1.6 
     1825.00        0.267         -2.6 
     1826.00        0.200         -2.7 
     1827.00        0.367         -2.6 
     1828.00        0.400         -2.8 
     1829.00        0.333         -2.7 
     1830.00        0.633         -2.6 
     1831.00        9.250        232.3 
     1832.00        0.133         -2.9 
     1833.00        0.433         -3.0 
     1834.00        0.333         -2.9 
     1835.00        0.267         -2.9 
     1836.00        0.200         -2.8 
     1837.00        0.233         -3.0 
     1838.00        0.150         -3.0 
     1839.00        0.133         -3.0 
     1840.00        0.200         -2.4 
     1841.00        0.300          0.7 
     1842.00        0.400          2.5 
     1843.00        0.167          3.9 
     1844.00        0.300         13.8 
     1845.00        0.300         14.2 
     1846.00        0.400         12.8 
     1847.00        0.300         12.3 
     1848.00        0.167         11.9 
     1849.00        0.167         12.0 
     1850.00        0.233         14.7 
     1851.00        0.283         15.7 
     1852.00        0.233         15.3 
     1853.00        0.267         13.8 
     1854.00        0.300         10.7 
     1855.00        0.267          5.1 
     1856.00        0.233          1.1 
     1857.00        0.267         -1.3 
     1858.00        0.267         -2.5 
     1859.00        0.333         -3.2 
     1860.00        0.367         -3.3 
     1861.00        9.583        444.7 
     1862.00        0.467        220.9 
     1863.00        0.333        129.4 
     1864.00        0.517        107.3 
     1865.00        0.400         60.0 
     1866.00        0.467         45.8 
     1867.00        0.667         27.4 
     1868.00        0.667          5.7 
     1869.00        0.533          4.4 
     1870.00        0.550          0.9 
     1871.00        0.533          1.1 
     1872.00        0.533          0.2 
     1873.00        0.500          0.8 
     1874.00        0.267          0.0 
     1875.00        0.267         -0.4 
     1876.00        0.433         -1.5 
     1877.00        0.467          0.7 
     1878.00        0.350          3.4 
     1879.00        0.233          3.7 
     1880.00        0.200          3.4 
     1881.00        0.333          4.7 
     1882.00        0.367          7.2 
     1883.00        0.300         10.2 
     1884.00        0.333         10.2 
     1885.00        0.367          6.7 
     1886.00        0.333          5.6 
     1887.00        0.333          5.0 
     1888.00        0.300          2.5 
     1889.00        0.283          2.0 
     1890.00        0.400          3.3 
     1891.00       10.783        292.9 
     1892.00        0.067        219.7 
     1893.00        0.367        212.1 
