~Version Information
VERS.                      2.0: CWLS Log ASCII Standard - VERSION 2.0
WRAP.                       NO: One line per depth step
~Well Information Block
STRT.FT               -16.5000: 
STOP.FT              1244.7500: 
STEP.FT                 0.2500: 
NULL.                -999.2500: 
COMP.          Pioneer Natural Resources: COMPANY
WELL.          Bouncer41-27 Tr: WELL
FLD.           Purgatorie River: FIELD
LOC.           292' FNL & 222' FEL--------: LOCATION
PROV.                       CO: PROVINCE
CNTY.               Las Animas: COUNTRY
SRVC.                         : SERVICE COMPANY
DATE.          Fri Feb 11 15:34:51 2005: LOG DATE
UWI.                071-08291 : UNIQUE WELL ID
~Curve Information Block
DEPT.FT            0 000 00 00: Depth
CCL.                          : Casing Collar Locator
TT3.usec                      : CBL 3' Travel Time
AMP3.mV                       : CBL 3' Amplitude
GR.GAPI                       : Gamma Ray
~Parameter Information Block
~A  Depth       CCL         TT3         AMP3         GR     
# ...
   888.0000      0.0000    728.2497      4.9642     76.7130
   888.2500      0.0000    724.2789      4.9692     78.3512
   888.5000      0.0000    719.2483      5.0050     81.1395
   888.7500      0.0000    714.3732      5.0780     83.3825
   889.0000      0.0000    710.9415      5.1743     83.1471
   889.2500      0.0000    709.5286      5.2728     80.1161
   889.5000      0.0000    710.0746      5.3769     75.7885
   889.7500      0.0000    712.2263      5.5026     71.6257
   890.0000      0.0000    715.3415      5.6369     67.7440
   890.2500      0.0000    718.7462      5.7406     63.7777
   890.5000      0.0000    722.2543      5.7915     60.2931
   890.7500      0.0000    725.9668      5.7995     58.5872
   891.0000      0.0000    729.5862      5.7825     59.1861
   891.2500      0.0000    732.4476      5.7504     61.0797
   891.5000      0.0000    734.1744      5.7053     62.7265
   891.7500      0.0000    734.9348      5.6429     63.6763
   892.0000      0.0000    735.1420      5.5644     64.8990
   892.2500      0.0000    735.1366      5.4936     67.4332
   892.5000      0.0000    735.0488      5.4623     71.3015
   892.7500      0.0000    734.7901      5.4667     76.2710
   893.0000      0.0000    734.1693      5.4551     83.0668
   893.2500      0.0000    732.9597      5.3759     92.7697
   893.5000      0.0000    730.5200      5.2315    105.2023
   893.7500      0.0000    725.0613      5.0760    118.8228
   894.0000      0.0000    713.6773      4.9619    132.1588
   894.2500      0.0000    694.3572      4.9002    144.5211
   894.5000      0.0000    669.4174      4.8707    155.2025
   894.7500      0.0000    647.0172      4.8563    162.6412
   895.0000      0.0000    637.3127      4.8614    164.9901
   895.2500      0.0000    644.7831      4.9066    161.7590
   895.5000      0.0000    664.0214      5.0157    154.7089
   895.7500      0.0000    684.1378      5.2016    146.7814
   896.0000      0.0000    697.3699      5.4519    140.0451
   896.2500      0.0000    702.8587      5.7273    134.6013
   896.5000      0.0000    703.5220      5.9803    129.4744
   896.7500      0.0000    701.3359      6.1771    124.4649
   897.0000      0.0000    695.8065      6.3078    120.7265
   897.2500      0.0000    686.5261      6.3868    119.3751
   897.5000      0.0000    677.1990      6.4364    120.2072
   897.7500      0.0000    675.2582      6.4493    122.2332
   898.0000      0.0000    684.9301      6.3804    124.9901
   898.2500      0.0000    701.9509      6.2049    128.8486
   898.5000      0.0000    717.7434      5.9740    134.2149
   898.7500      0.0000    727.3692      5.7738    140.8575
   899.0000      0.0000    731.4855      5.6320    147.9352
   899.2500      0.0000    732.6936      5.5018    154.0491
   899.5000      0.0000    732.5577      5.3347    157.2615
   899.7500      0.0000    731.2522      5.1388    156.2226
   900.0000      0.0000    727.9899      4.9699    151.8927
   900.2500      0.0000    721.3575      4.8939    147.4673
   900.5000      0.0000    710.2550      4.9470    146.0269
   900.7500      0.0000    695.1882      5.1026    148.5144
   901.0000      0.0000    678.9089      5.2714    153.8855
   901.2500      0.0000    665.6143      5.3595    160.3533
   901.5000      0.0000    658.5833      5.3436    166.1034
   901.7500      0.0000    656.4963      5.2902    169.6241
   902.0000      0.0000    650.9663      5.2918    170.2204
   902.2500      0.0000    629.9846      5.3813    168.3075
   902.5000      0.0000    587.6274      5.5090    164.8711
   902.7500      0.0000    531.1790      5.6051    160.5773
   903.0000      0.0000    476.6647      5.6551    155.3458
   903.2500      0.0000    436.8452      5.6969    148.6014
   903.5000      0.0000    414.3568      5.7519    140.1704
   903.7500      0.0000    404.6993      5.7842    131.3885
   904.0000      0.0000    402.6296      5.7374    125.0254
   904.2500      0.0000    405.3879      5.6053    123.4257
   904.5000      0.0000    412.1797      5.4599    126.6109
   904.7500      0.0000    422.2384      5.4050    132.5198
   905.0000      0.0000    433.4788      5.4903    138.8470
   905.2500      0.0000    442.7550      5.6684    144.0856
   905.5000      0.0000    447.4804      5.8440    147.2219
   905.7500      0.0000    447.1592      5.9627    147.8827
   906.0000      0.0000    443.5638      6.0417    147.4145
   906.2500      0.0000    439.4868      6.1221    148.7717
   906.5000      0.0000    437.1907      6.2124    154.0142
   906.7500      0.0000    437.8250      6.2810    161.8841
   907.0000      0.0000    441.6728      6.2903    168.5941
   907.2500      0.0000    448.0146      6.2322    171.1208
   907.5000      0.0000    454.5525      6.1398    169.2815
   907.7500      0.0000    458.1466      6.0719    164.9423
   908.0000      0.0000    457.3927      6.0668    160.1440
   908.2500      0.0000    454.3546      6.0960    156.0521
   908.5000      0.0000    453.1245      6.0755    152.7726
   908.7500      0.0000    456.9255      5.9471    149.6167
   909.0000      0.0000    466.8258      5.7446    145.8563
   909.2500      0.0000    482.8530      5.5674    141.6412
   909.5000      0.0000    505.9717      5.4841    137.9899
   909.7500      0.0000    538.1232      5.4663    135.3503
   910.0000      0.0000    578.8768      5.4194    132.3010
   910.2500      0.0000    621.6444      5.2713    126.4749
   910.5000      0.0000    655.1873      5.0290    117.1127
   910.7500      0.0000    671.6274      4.7602    106.1719
   911.0000      0.0000    673.9229      4.5449     96.5257
   911.2500      0.0000    673.5886      4.4475     89.3980
   911.5000      0.0000    678.6638      4.4977     84.0450
   911.7500      0.0000    685.0427      4.6707     79.6505
   912.0000      0.0000    682.1755      4.9087     76.8487
   912.2500     -2.0000    666.1616      5.1754     77.4064
   912.5000      2.0000    644.3268      5.4666     82.7771
   912.7500      0.0000    626.9448      5.7746     92.8602
   913.0000      0.0000    616.2472      6.0816    105.9297
   913.2500      0.0000    604.4717      6.3869    119.7630
   913.5000      0.0000    582.9528      6.7011    132.5237
   913.7500      0.0000    552.1253      7.0211    142.2804
   914.0000      0.0000    520.5345      7.3455    146.7090
   914.2500      0.0000    493.7965      7.6948    144.6965
   914.5000      0.0000    468.3542      8.0720    138.0770
   914.7500      0.0000    438.6888      8.4201    130.7051
   915.0000      0.0000    406.9608      8.6518    125.5431
   915.2500      0.0000    381.3822      8.7160    122.9826
   915.5000      0.0000    367.4555      8.6286    121.8536
   915.7500      0.0000    364.2210      8.4597    121.4226
   916.0000      0.0000    367.3400      8.2995    122.0218
   916.2500      0.0000    372.9154      8.2128    124.0039
   916.5000      0.0000    378.5147      8.1993    126.6037
   916.7500      0.0000    382.4632      8.2005    128.1100
   917.0000      0.0000    383.3813      8.1541    127.0340
   917.2500      0.0000    380.6167      8.0464    123.0007
   917.5000      0.0000    375.1521      7.9222    116.9038
   917.7500      0.0000    369.8120      7.8539    110.5993
   918.0000      0.0000    368.2690      7.8948    106.2676
   918.2500      0.0000    373.6530      8.0421    105.6145
   918.5000      0.0000    388.6505      8.2332    109.2377
   918.7500      0.0000    416.8710      8.3929    116.1537
   919.0000      0.0000    461.9723      8.4938    123.6618
   919.2500      0.0000    522.4698      8.5678    128.3608
   919.5000      0.0000    587.1971      8.6605    128.1689
   919.7500      0.0000    638.0751      8.7854    123.4858
   920.0000      0.0000    659.0618      8.9218    116.4313
   920.2500      0.0000    644.5883      9.0453    109.3599
   920.5000      0.0000    604.2191      9.1563    103.8217
   920.7500      0.0000    561.2175      9.2738     99.9670
   921.0000      0.0000    540.9814      9.3925     96.7817
   921.2500      0.0000    553.4659      9.4565     93.6615
