~Version Information
VERS.                      2.0: CWLS Log ASCII Standard - VERSION 2.0
WRAP.                       NO: One line per depth step
~Well Information Block
STRT.FT               400.0000: 
STOP.FT              2201.0000: 
STEP.FT                 0.2500: 
NULL.                -999.2500: 
COMP.          Evergreen Operating Corporation: COMPANY
WELL.            Triumph 13-10: WELL
FLD.           Purgatorie River: FIELD
LOC.           1551' FSL & 522' FWL: LOCATION
PROV.                 Colorado: PROVINCE
CNTY.               Las Animas: COUNTRY
SRVC.                Patterson: SERVICE COMPANY
DATE.          Fri Jul 23 20:28:37 2004: LOG DATE
UWI.           05 071 08108 00: UNIQUE WELL ID
~Curve Information Block
DEPT.FT            0 000 00 00: Depth
SN.Ohm-m                      : IEL Short Normal
SP.mV                         : IEL Spontaneous Potential
DIR.Ohm-m                     : IEL Induction Resistivity
GR.GAPI                       : Gamma Ray
~Parameter Information Block
~A  Depth        SN          SP         DIR          GR     
# ...
  2175.5000     28.8335    173.4876     26.4430   -999.2500
  2175.7500     28.4844    173.4681     26.0116   -999.2500
  2176.0000     28.1560    173.4290     25.5135   -999.2500
  2176.2500     27.8160    173.3616     24.9499   -999.2500
  2176.5000     27.4646    173.2700     24.3665   -999.2500
  2176.7500     27.1625    173.1636     23.8423   -999.2500
  2177.0000     26.9467    173.0453     23.4485   -999.2500
  2177.2500     26.7649    172.9095     23.2103   -999.2500
  2177.5000     26.5617    172.7506     23.1013   -999.2500
  2177.7500     26.3498    172.5721     23.0737   -999.2500
  2178.0000     26.1642    172.3912     23.0957   -999.2500
  2178.2500     26.0224    172.2372     23.1621   -999.2500
  2178.5000     25.9304    172.1397     23.2776   -999.2500
  2178.7500     25.8905    172.1111     23.4351   -999.2500
  2179.0000     25.9086    172.1343     23.6156   -999.2500
  2179.2500     25.9935    172.1679     23.8051   -999.2500
  2179.5000     26.1475    172.1640     24.0104   -999.2500
  2179.7500     26.3650    172.0878     24.2554   -999.2500
  2180.0000     26.6375    171.9288     24.5597   -999.2500
  2180.2500     26.9666    171.7029     24.9191   -999.2500
  2180.5000     27.3744    171.4419     25.3049   -999.2500
  2180.7500     27.8711    171.1772     25.6812   -999.2500
  2181.0000     28.4201    170.9265     26.0283   -999.2500
  2181.2500     28.9578    170.6917     26.3491   -999.2500
  2181.5000     29.4341    170.4668     26.6586   -999.2500
  2181.7500     29.8249    170.2456     26.9683   -999.2500
  2182.0000     30.1302    170.0271     27.2826   -999.2500
  2182.2500     30.3686    169.8169     27.6073   -999.2500
  2182.5000     30.5635    169.6248     27.9525   -999.2500
  2182.7500     30.7257    169.4606     28.3101   -999.2500
  2183.0000     30.8337    169.3326     28.6162   -999.2500
  2183.2500     30.8393    169.2480     28.7442   -999.2500
  2183.5000     30.7103    169.2130     28.5728   -999.2500
  2183.7500     30.4571    169.2262     28.0954   -999.2500
  2184.0000     30.1055    169.2744     27.4494   -999.2500
  2184.2500     29.6733    169.3346     26.8152   -999.2500
  2184.5000     29.1741    169.3825     26.2889   -999.2500
  2184.7500     28.6249    169.4038     25.8407   -999.2500
  2185.0000     28.0555    169.3989     25.3732   -999.2500
  2185.2500     27.5093    169.3794     24.8166   -999.2500
  2185.5000     27.0324    169.3593     24.1837   -999.2500
  2185.7500     26.6484    169.3464     23.5480   -999.2500
  2186.0000     26.3476    169.3399     22.9873   -999.2500
  2186.2500     26.1115    169.3312     22.5472   -999.2500
  2186.5000     25.9384    169.3060     22.2393   -999.2500
  2186.7500     25.8356    169.2490     22.0566   -999.2500
  2187.0000     25.8049    169.1504     21.9890   -999.2500
  2187.2500     25.8478    169.0113     22.0324   -999.2500
  2187.5000     25.9646    168.8426     22.1907   -999.2500
  2187.7500     26.1441    168.6581     22.4743   -999.2500
  2188.0000     26.3769    168.4603     23.4383   -999.2500
  2188.2500     26.6685    168.2306     24.0267   -999.2500
  2188.5000     27.0202    167.9329     24.7523   -999.2500
  2188.7500     27.4071    167.5370     25.5727   -999.2500
  2189.0000     27.7857    167.0445     26.4105   -999.2500
  2189.2500     28.1306    166.4975     27.1695   -999.2500
  2189.5000     28.4553    165.9620     27.7749   -999.2500
  2189.7500     28.7821    165.5000     28.2079   -999.2500
  2190.0000     29.1062    165.1486     28.5214   -999.2500
  2190.2500     29.4034    164.9149     28.8441   -999.2500
  2190.5000     29.6424    164.7800     29.4101   -999.2500
  2190.7500     29.7832    164.7075     30.6441   -999.2500
  2191.0000     29.7832    164.6557     33.3474   -999.2500
  2191.2500     29.6282    164.5921     39.1997   -999.2500
  2191.5000     29.3641    164.5053     49.5621   -999.2500
  2191.7500     29.0894    164.4046     82.7716   -999.2500
  2192.0000     28.8999    164.3087    283.2630   -999.2500
  2192.2500     28.8448    164.2318 100000.0000   -999.2500
  2192.5000     28.9251    164.1749 100000.0000   -999.2500
  2192.7500     29.0912    164.1235 100000.0000   -999.2500
  2193.0000     29.2700    164.0562 100000.0000   -999.2500
  2193.2500     29.4288    163.9576 100000.0000   -999.2500
  2193.5000     29.5554    163.8266 100000.0000   -999.2500
  2193.7500     29.6288    163.6721 100000.0000   -999.2500
  2194.0000     29.6960    163.5056 100000.0000   -999.2500
  2194.2500     29.8701    163.3390 100000.0000   -999.2500
  2194.5000     30.1657    163.1859 100000.0000   -999.2500
  2194.7500     30.4382    163.0562 100000.0000   -999.2500
  2195.0000     30.5650    162.9474 100000.0000   -999.2500
  2195.2500     30.5835    162.8435 100000.0000   -999.2500
  2195.5000     30.6098    162.7272 100000.0000   -999.2500
  2195.7500     30.7001    162.5827 100000.0000   -999.2500
  2196.0000     30.8259    162.3718 100000.0000   -999.2500
  2196.2500     30.9413    161.8837 100000.0000   -999.2500
  2196.5000     31.0400    160.3605 100000.0000   -999.2500
  2196.7500     31.1753    155.9159 100000.0000   -999.2500
  2197.0000     31.4157    145.3825 100000.0000   -999.2500
  2197.2500     31.6075    125.7585 100000.0000   -999.2500
  2197.5000     30.8889     97.2228 100000.0000   -999.2500
  2197.7500     27.4657     64.8892 100000.0000   -999.2500
  2198.0000     20.0679     36.3530 100000.0000   -999.2500
  2198.2500     10.4875     16.7386 100000.0000   -999.2500
  2198.5000      2.6926      6.2391 100000.0000   -999.2500
  2198.7500     -1.3420      1.8620   4518.7368   -999.2500
  2199.0000     -2.6761      0.4409   1905.5114   -999.2500
  2199.2500     -2.9584      0.0816   1373.9277   -999.2500
  2199.5000     -2.9967      0.0109   1185.3801   -999.2500
  2199.7500   -999.2500   -999.2500   1111.2711   -999.2500
  2200.0000   -999.2500   -999.2500   1083.2219   -999.2500
  2200.2500   -999.2500   -999.2500   1073.6539   -999.2500
  2200.5000   -999.2500   -999.2500   1070.8086   -999.2500
  2200.7500   -999.2500   -999.2500   1070.0817   -999.2500
  2201.0000   -999.2500   -999.2500 100000.0000   -999.2500
