~Version Information
VERS.                      2.0: CWLS Log ASCII Standard - VERSION 2.0
WRAP.                       NO: One line per depth step
~Well Information Block
STRT.FT              1684.7500: 
STOP.FT              2367.7500: 
STEP.FT                 0.2500: 
NULL.                -999.2500: 
COMP.          Petrogulf Corporation: COMPANY
WELL.             Norton 9-14V: WELL
FLD.           Purgatorie River: FIELD
LOC.           250' FSL & 225' FWL--: LOCATION
CNTY.               Las Animas: COUNTY
SRVC.                         : SERVICE COMPANY
DATE.          Mon Jan 10 10:00:10 2005: LOG DATE
UWI.                          : UNIQUE WELL ID
STAT.                       CO: STATE
~Curve Information Block
DEPT.FT            0 000 00 00: Depth
CCL.                          : Casing Collar Locator
TT3.usec                      : CBL 3' Travel Time
AMP3.mV                       : CBL 3' Amplitude
GR.GAPI                       : Gamma Ray
~Parameter Information Block
~A  Depth       CCL         TT3         AMP3         GR     
# ...
  1818.7500      0.0000    311.5175     13.6795     48.4448
  1819.0000      0.0000    311.3201     14.2605     46.7274
  1819.2500      0.0000    311.1330     14.7581     43.9198
  1819.5000      0.0000    310.9559     15.1667     40.5163
  1819.7500      0.0000    310.7623     15.5040     37.6113
  1820.0000      0.0000    310.5076     15.8486     35.9481
  1820.2500      0.0000    310.1674     16.3486     35.4147
  1820.5000      0.0000    309.7742     17.1480     35.3032
  1820.7500      0.0000    309.4098     18.2783     35.1450
  1821.0000      0.0000    309.1571     19.6036     35.4426
  1821.2500      0.0000    309.0461     20.8730     37.5554
  1821.5000      0.0000    309.0388     21.8634     42.7640
  1821.7500      0.0000    309.0632     22.5030     51.3865
  1822.0000      0.0000    309.0676     22.8587     62.5919
  1822.2500      0.0000    309.0461     23.0087     74.7898
  1822.5000      0.0000    309.0208     22.9482     86.3078
  1822.7500      0.0000    309.0110     22.6183     96.0892
  1823.0000      0.0000    309.0225     21.9975    103.8931
  1823.2500      0.0000    309.0623     21.1299    109.6942
  1823.5000      0.0000    309.1505     20.0627    112.8168
  1823.7500      0.0000    309.3048     18.8054    111.8288
  1824.0000      0.0000    309.5110     17.3993    105.6729
  1824.2500      0.0000    309.7473     15.9941     95.1584
  1824.5000      0.0000    310.0896     14.7800     83.1899
  1824.7500      0.0000    311.0867     13.8300     73.1304
  1825.0000      0.0000    314.6198     13.0541     66.6403
  1825.2500      0.0000    325.2231     12.3128     63.1222
  1825.5000      0.0000    350.3956     11.5367     61.0955
  1825.7500      0.0000    397.1486     10.7214     59.5728
  1826.0000      0.0000    464.8716      9.8624     58.0057
  1826.2500      0.0000    541.1625      8.9556     55.7541
  1826.5000      0.0000    607.5887      8.0591     52.3484
  1826.7500      0.0000    651.3360      7.3002     48.0750
  1827.0000      0.0000    671.2991      6.7879     43.8346
  1827.2500      0.0000    674.9587      6.5264     40.5130
  1827.5000      0.0000    672.2644      6.4279     38.7326
  1827.7500      0.0000    671.2440      6.3953     39.0915
  1828.0000      0.0000    675.3246      6.3750     42.2706
  1828.2500      0.0000    682.7851      6.3546     48.6357
  1828.5000      0.0000    689.1237      6.3538     57.5869
  1828.7500      0.0000    689.8051      6.4167     67.2786
  1829.0000      0.0000    680.9266      6.5733     75.2280
  1829.2500      0.0000    659.0491      6.8045     79.7070
  1829.5000      0.0000    622.0479      7.0737     80.9278
  1829.7500      0.0000    570.8025      7.3781     80.8081
  1830.0000      0.0000    511.3587      7.7258     81.2919
  1830.2500      0.0000    457.0720      8.0691     82.9584
  1830.5000      0.0000    426.7492      8.3169     85.3662
  1830.7500      0.0000    435.3553      8.4210     88.2968
  1831.0000      0.0000    482.7101      8.4076     91.8708
  1831.2500      0.0000    551.2095      8.3181     95.5395
  1831.5000      0.0000    616.5327      8.1649     97.9103
  1831.7500      0.0000    662.2902      7.9551     97.8749
  1832.0000      0.0000    686.0964      7.7076     95.2447
  1832.2500      0.0000    694.8181      7.4298     90.2048
  1832.5000      0.0000    696.8496      7.1164     82.9089
  1832.7500      0.0000    697.7828      6.7841     73.7820
  1833.0000      0.0000    699.7307      6.4670     63.7351
  1833.2500      0.0000    702.1748      6.1645     53.9997
  1833.5000      0.0000    703.4868      5.8362     45.9298
  1833.7500      0.0000    702.6436      5.4560     40.6276
  1834.0000      0.0000    700.0563      5.0312     38.2732
  1834.2500      0.0000    697.0280      4.5732     37.7913
  1834.5000      0.0000    694.6412      4.0988     37.5413
  1834.7500      0.0000    693.2077      3.6635     36.6200
  1835.0000      0.0000    692.4031      3.3385     35.4199
  1835.2500      0.0000    691.5473      3.1406     34.8262
  1835.5000      0.0000    689.8045      3.0200     35.1028
  1835.7500      0.0000    686.5655      2.9225     35.7873
  1836.0000      0.0000    682.1597      2.8255     36.4519
  1836.2500      0.0000    678.2477      2.7185     37.3010
  1836.5000      0.0000    677.0211      2.6074     39.1684
  1836.7500      0.0000    679.5027      2.5516     43.3352
  1837.0000      0.0000    684.6664      2.6414     51.5468
  1837.2500      0.0000    690.5573      2.9077     65.6536
  1837.5000      0.0000    696.3132      3.2882     86.0849
  1837.7500      0.0000    702.7884      3.6999    110.0896
  1838.0000      0.0000    711.0092      4.1121    132.1014
  1838.2500      0.0000    720.2634      4.5327    146.9167
  1838.5000      0.0000    727.9767      4.9654    152.9510
  1838.7500      0.0000    731.4352      5.4027    152.2431
  1839.0000      0.0000    729.5204      5.8294    147.6914
  1839.2500      0.0000    722.9469      6.2210    141.1458
  1839.5000      0.0000    713.4988      6.5624    133.9579
  1839.7500      0.0000    703.5067      6.8563    127.8574
  1840.0000      0.0000    695.3680      7.0823    124.4013
  1840.2500      0.0000    690.0383      7.1758    124.0147
  1840.5000      0.0000    685.1871      7.0968    126.0007
  1840.7500      0.0000    675.1807      6.8966    129.1190
  1841.0000      0.0000    653.9648      6.6784    132.1511
  1841.2500      0.0000    620.1225      6.5079    134.5273
  1841.5000      0.0000    581.4348      6.3788    136.5535
  1841.7500      0.0000    553.6708      6.2379    138.4697
  1842.0000      0.0000    550.6173      6.0236    139.2784
  1842.2500      0.0000    572.9011      5.7006    137.4209
  1842.5000      0.0000    607.9214      5.2752    133.1329
  1842.7500      0.0000    640.8575      4.7916    129.3663
  1843.0000      0.0000    664.0487      4.3133    129.3316
  1843.2500      0.0000    677.3182      3.8910    133.2395
  1843.5000      0.0000    683.5798      3.5390    138.2842
  1843.7500      0.0000    685.7043      3.2452    141.5661
  1844.0000      0.0000    685.7162      2.9930    141.9934
  1844.2500      0.0000    684.9524      2.7648    139.5781
  1844.5000      0.0000    684.3293      2.5510    134.5338
  1844.7500      0.0000    684.5247      2.3633    127.7084
  1845.0000      0.0000    685.9744      2.2184    121.0560
  1845.2500      0.0000    688.6409      2.1162    116.7640
  1845.5000      0.0000    691.6047      2.0452    115.6767
  1845.7500      0.0000    693.0767      1.9980    116.5484
  1846.0000      0.0000    690.8546      1.9732    116.9554
  1846.2500      0.0000    682.9659      1.9774    115.0393
  1846.5000      0.0000    669.0857      2.0176    110.4968
  1846.7500      0.0000    652.6600      2.0823    104.3216
  1847.0000      0.0000    640.2787      2.1469     98.0020
  1847.2500      0.0000    636.4619      2.1940     92.6491
  1847.5000      0.0000    639.7537      2.2075     88.2829
  1847.7500      0.0000    645.8868      2.1612     83.9362
  1848.0000      0.0000    653.1345      2.0433     78.7226
  1848.2500      0.0000    662.2087      1.8850     72.7088
  1848.5000      0.0000    672.2881      1.7496     66.7119
  1848.7500      0.0000    679.7395      1.6976     61.5600
  1849.0000      0.0000    681.0495      1.7549     57.7332
  1849.2500      0.0000    676.2708      1.8936     55.3403
  1849.5000      0.0000    669.2256      2.0457     53.9440
  1849.7500      0.0000    664.2924      2.1453     52.4816
  1850.0000      0.0000    663.2505      2.1685     49.9895
  1850.2500      0.0000    665.2010      2.1347     46.5877
  1850.5000      0.0000    668.2162      2.0776     43.2623
  1850.7500      0.0000    670.2943      2.0249     40.6127
  1851.0000      0.0000    669.6434      2.0044     38.3806
  1851.2500      0.0000    665.2529      2.0425     36.2927
  1851.5000      0.0000    657.5568      2.1377     34.8171
  1851.7500      0.0000    648.4930      2.2493     34.7811
  1852.0000      0.0000    640.6410      2.3279     36.3432
