~Version Information
VERS.                      2.0: CWLS Log ASCII Standard - VERSION 2.0
WRAP.                       NO: One line per depth step
~Well Information Block
STRT.FT               745.0000: 
STOP.FT              2945.7000: 
STEP.FT                 0.1000: 
NULL.                -999.2500: 
COMP.          Pioneer Natural Resources: COMPANY
WELL.          Old Yeller 31-32: WELL
FLD.           Purgatoire River: FIELD
LOC.           1832' FEL & 793' FNL--: LOCATION
STAT.                 Colorado: State
CNTY.               Las Animas: COUNTY
CTRY. USA : Country
SECT. 32 : Section
TOWN. 32S : Township
RANG. 67W : Range
SRVC.                Patterson: SERVICE COMPANY
DATE.          Mon Aug 29 11:12:35 2005: LOG DATE
API.           05 071 08356 00: UNIQUE WELL ID
~Curve Information Block
DEPT.FT            0 000 00 00: Depth
DCAL.in                       : CDL Caliper
RHOB.g/cc                     : CDL Bulk Density
RHOC.g/cc                     : CDL Density Correction
DPOR.pu                       : CDL Density Porosity
NPOR.pu                       : Neutron Porosity
GR.GAPI                       : Gamma Ray
~Parameter Information Block
~A  Depth       DCAL        RHOB        RHOC        DPOR        NPOR         GR     
# ...
  1321.0000      7.9557      2.6210      0.0640      1.7558     26.1280    109.9347
  1321.1000      7.9557      2.6157      0.0573      2.0780     25.4287    113.9679
  1321.2000      7.9557      2.6106      0.0557      2.3873     25.7626    113.8345
  1321.3000      7.9492      2.6086      0.0530      2.5121     26.3087    110.5082
  1321.4000      7.9492      2.6100      0.0394      2.4253     26.2450    108.6838
  1321.5000      7.9473      2.6100      0.0434      2.4220     25.6889    109.8686
  1321.6000      7.9473      2.6100      0.0351      2.4252     24.8234    111.2572
  1321.7000      7.9473      2.6168      0.0493      2.0128     23.9578    111.7948
  1321.8000      7.9472      2.6290      0.0599      1.2752     23.6716    113.6533
  1321.9000      7.9472      2.6415      0.0378      0.5160     23.9743    118.9310
  1322.0000      7.9489      2.6483      0.0731      0.1026     24.2725    122.3443
  1322.1000      7.9489      2.6439      0.0233      0.3695     24.2540    118.7581
  1322.2000      7.9489      2.6348      0.0321      0.9196     24.3921    113.3803
  1322.3000      7.9510      2.6325      0.0099      1.0611     25.0370    110.6328
  1322.4000      7.9510      2.6368      0.0532      0.7981     26.0537    109.8184
  1322.5000      7.9581      2.6362      0.0332      0.8384     27.2218    110.9090
  1322.6000      7.9581      2.6303      0.0323      1.1947     28.1291    113.6545
  1322.7000      7.9581      2.6277      0.0098      1.3485     28.2602    117.2384
  1322.8000      7.9720      2.6241      0.0136      1.5724     27.5607    120.7788
  1322.9000      7.9720      2.6105     -0.0048      2.3964     26.6668    122.7165
  1323.0000      7.9831      2.5957      0.0071      3.2912     26.2788    123.2565
  1323.1000      7.9831      2.5940      0.0467      3.3912     26.1663    126.1480
  1323.2000      7.9831      2.6030      0.0635      2.8503     25.6783    132.2846
  1323.3000      7.9855      2.6130      0.0576      2.2433     25.1654    136.2112
  1323.4000      7.9855      2.6218      0.0456      1.7118     25.4034    130.9213
  1323.5000      7.9846      2.6269      0.0809      1.4017     26.1846    120.8876
  1323.6000      7.9846      2.6146      0.0681      2.1442     26.6180    118.7572
  1323.7000      7.9846      2.5754      0.0265      4.5183     26.4628    122.3798
  1323.8000      7.9843      2.5236      0.0131      7.6592     26.0347    119.9066
  1323.9000      7.9843      2.4830     -0.0341     10.1232     25.5434    112.9594
  1324.0000      7.9810      2.4639     -0.0098     11.2804     25.3336    108.6574
  1324.1000      7.9810      2.4577     -0.0272     11.6538     25.4174    106.7889
  1324.2000      7.9810      2.4569     -0.0313     11.7023     25.5278    108.1976
  1324.3000      7.9772      2.4677      0.0119     11.0494     25.7687    112.0152
  1324.4000      7.9772      2.4985      0.0151      9.1821     26.0308    113.1347
  1324.5000      7.9868      2.5468      0.0870      6.2529     25.7896    111.7716
  1324.6000      7.9868      2.5919      0.1480      3.5203     25.0367    110.5680
  1324.7000      7.9868      2.6151      0.1918      2.1126     24.3470    110.8953
  1324.8000      8.0135      2.6247      0.2006      1.5356     23.9590    114.7948
  1324.9000      8.0135      2.6391      0.1822      0.6635     23.7099    120.0080
  1325.0000      8.0215      2.6619      0.2159     -0.7213     23.7191    122.2721
  1325.1000      8.0215      2.6794      0.2075     -1.7818     24.0536    121.0706
  1325.2000      8.0215      2.6782      0.1590     -1.7088     24.4223    117.5809
  1325.3000      7.9867      2.6599      0.0937     -0.5987     24.6992    113.5041
  1325.4000      7.9867      2.6273      0.0784      1.3782     24.9913    111.7707
  1325.5000      7.9556      2.5804      0.0544      4.2164     25.3195    114.5410
  1325.6000      7.9556      2.5251      0.0126      7.5678     25.6685    119.3453
  1325.7000      7.9556      2.4738     -0.0406     10.6766     25.9524    118.9629
  1325.8000      7.9480      2.4469     -0.0611     12.3067     26.1241    111.4718
  1325.9000      7.9480      2.4547     -0.0501     11.8392     26.4750    104.1061
  1326.0000      7.9515      2.4812     -0.0160     10.2317     27.0676    101.9598
  1326.1000      7.9515      2.4955     -0.0048      9.3649     27.6276    104.6294
  1326.2000      7.9515      2.4692      0.0369     10.9576     28.3750    111.6611
  1326.3000      7.9682      2.3900      0.0392     15.7589     29.5557    119.8736
  1326.4000      7.9682      2.2743      0.0225     22.7709     30.6733    122.6414
  1326.5000      8.0301      2.1650     -0.0267     29.3920     31.4833    122.8712
  1326.6000      8.0301      2.0847      0.0166     34.2630     32.2674    125.7626
  1326.7000      8.0301      1.9999      0.0502     39.4006     32.9211    125.8189
  1326.8000      8.1798      1.8799     -0.0109     46.6755     33.2144    120.6595
  1326.9000      8.1798      1.7574     -0.1131     54.0958     33.5297    115.3019
  1327.0000      8.4607      1.6846     -0.0951     58.5107     34.2968    111.0093
  1327.1000      8.4607      1.6663     -0.0083     59.6162     35.1740    108.3421
  1327.2000      8.4607      1.6800      0.0632     58.7893     35.9425    109.2049
  1327.3000      8.9550      1.7115      0.1393     56.8791     36.9279    110.7838
  1327.4000      8.9550      1.7438      0.2084     54.9188     37.9624    108.5558
  1327.5000      9.7575      1.7486      0.2218     54.6273     38.3460    101.4541
  1327.6000      9.7575      1.7030      0.2126     57.3919     38.0183     93.2431
  1327.7000      9.7575      1.6118      0.1704     62.9216     37.7812     89.0524
  1327.8000     10.8082      1.5083      0.1281     69.1958     37.9305     87.6195
  1327.9000     10.8082      1.4178      0.1153     74.6785     38.0231     83.5017
  1328.0000     11.8421      1.3405      0.1132     79.3656     37.9542     77.5804
  1328.1000     11.8421      1.2766      0.0815     83.2353     38.0085     74.1646
  1328.2000     11.8421      1.2416      0.0589     85.3564     38.1785     73.5434
  1328.3000     12.6509      1.2483      0.0719     84.9515     38.0529     74.4134
  1328.4000     12.6509      1.2905      0.0936     82.3953     37.2727     74.6184
  1328.5000     13.1740      1.3460      0.1310     79.0315     36.2215     73.9014
  1328.6000     13.1740      1.3984      0.1333     75.8530     35.7461     76.1488
  1328.7000     13.1740      1.4580      0.1264     72.2437     35.6435     81.8507
  1328.8000     13.5399      1.5488      0.1339     66.7376     35.1230     87.0587
  1328.9000     13.5399      1.6776      0.1872     58.9344     34.3640     90.7772
  1329.0000     13.3636      1.8280      0.2388     49.8169     33.8481     95.0152
  1329.1000     13.3636      1.9838      0.2561     40.3763     33.3650     99.1800
  1329.2000     13.3636      2.1327      0.3300     31.3536     32.4783    102.4893
  1329.3000     11.8683      2.2548      0.3709     23.9506     31.3766    107.3890
  1329.4000     11.8683      2.3383      0.3283     18.8916     30.7603    110.1333
  1329.5000      9.6861      2.3978      0.2946     15.2844     30.6235    105.6584
  1329.6000      9.6861      2.4522      0.2928     11.9862     30.3934    104.1331
  1329.7000      9.6861      2.5032      0.2451      8.8992     29.8138    109.8043
  1329.8000      8.4301      2.5492      0.1909      6.1111     28.8677    112.1739
  1329.9000      8.4301      2.5915      0.2006      3.5453     28.0482    108.6693
  1330.0000      8.1300      2.6336      0.1884      0.9927     27.8229    104.2386
  1330.1000      8.1300      2.6892      0.1492     -2.3747     27.5612    100.9223
  1330.2000      8.1300      2.7583      0.1815     -6.5636     26.6461     96.1886
  1330.3000      8.0974      2.8168      0.2081    -10.1087     25.3779     89.7847
  1330.4000      8.0974      2.8558      0.1726    -12.4753     24.1144     85.7277
  1330.5000      8.0945      2.8816      0.1876    -14.0377     23.3036     83.9622
