~Version Information
VERS.                      2.0: CWLS Log ASCII Standard - VERSION 2.0
WRAP.                       NO: One line per depth step
~Well Information Block
STRT.FT               651.5000: 
STOP.FT              2190.5000: 
STEP.FT                 0.2500: 
NULL.                -999.2500: 
COMP.          Pioneer Natural Resources: COMPANY
WELL.               King 22-13: WELL
FLD.           Purgatoire River: FIELD
LOC.           2419' FNL & 1806' FWL----: LOCATION
PROV.                 Colorado: PROVINCE
CNTY.               Las Animas: COUNTRY
SRVC.                Patterson: SERVICE COMPANY
DATE.          Thu Mar 31 14:33:28 2005: LOG DATE
UWI.           05 071 08318 00: UNIQUE WELL ID
~Curve Information Block
DEPT.FT            0 000 00 00: Depth
SN.Ohm-m                      : IEL Short Normal
SP.mV                         : IEL Spontaneous Potential
DIR.Ohm-m                     : IEL Induction Resistivity
GR.GAPI                       : Gamma Ray
~Parameter Information Block
~A  Depth        SN          SP         DIR          GR     
# ...
  1656.5000      9.8796     67.0319      9.3662    118.9208
  1656.7500      9.8535     66.3546      9.4630    123.5731
  1657.0000      9.8831     65.6761      9.5921    128.1324
  1657.2500     10.0097     64.9696      9.7496    129.1378
  1657.5000     10.2439     64.2400      9.9286    127.8737
  1657.7500     10.5613     63.5252     10.1200    125.6673
  1658.0000     10.9183     62.8710     10.3147    121.4556
  1658.2500     11.2691     62.2964     10.5055    118.7621
  1658.5000     11.5788     61.7760     10.6876    116.1500
  1658.7500     11.8239     61.2526     10.8581    116.1428
  1659.0000     11.9763     60.6779     11.0144    119.5055
  1659.2500     11.9989     60.0499     11.1535    123.4549
  1659.5000     11.8724     59.4143     11.2732    129.3061
  1659.7500     11.6169     58.8330     11.3736    131.6487
  1660.0000     11.2915     58.3462     11.4573    132.1593
  1660.2500     10.9958     57.9568     11.5283    131.1878
  1660.5000     10.8476     57.6459     11.5904    129.3013
  1660.7500     10.9176     57.4023     11.6463    128.2673
  1661.0000     11.1879     57.2416     11.6979    127.2409
  1661.2500     11.5637     57.1959     11.7480    126.7307
  1661.5000     11.9046     57.2853     11.8008    125.2243
  1661.7500     12.0885     57.4911     11.8599    122.8907
  1662.0000     12.0899     57.7562     11.9247    116.8872
  1662.2500     11.9889     58.0148     11.9889    112.0729
  1662.5000     11.9031     58.2290     12.0431    106.5484
  1662.7500     11.9146     58.3978     12.0798    105.4305
  1663.0000     12.0278     58.5347     12.0977    107.6378
  1663.2500     12.1661     58.6385     12.1009    110.3196
  1663.5000     12.2292     58.6848     12.0939    113.6254
  1663.7500     12.1822     58.6421     12.0774    114.7984
  1664.0000     12.0792     58.4918     12.0482    114.9287
  1664.2500     11.9925     58.2309     12.0034    113.6259
  1664.5000     11.9289     57.8597     11.9454    109.3735
  1664.7500     11.8258     57.3736     11.8815    105.9809
  1665.0000     11.6249     56.7736     11.8189    102.9024
  1665.2500     11.3449     56.0838     11.7594    103.1139
  1665.5000     11.0719     55.3512     11.6977    106.0079
  1665.7500     10.8855     54.6198     11.6243    108.5220
  1666.0000     10.8154     53.9073     11.5311    111.6800
  1666.2500     10.8391     53.2056     11.4160    112.9036
  1666.5000     10.8855     52.4945     11.2841    113.3100
  1666.7500     10.8697     51.7453     11.1450    113.2153
  1667.0000     10.7615     50.9163     11.0086    114.4392
  1667.2500     10.6156     49.9596     10.8830    117.0473
  1667.5000     10.5187     48.8471     10.7733    123.4106
  1667.7500     10.5148     47.5977     10.6828    128.0814
  1668.0000     10.5926     46.2863     10.6127    133.1786
  1668.2500     10.7192     45.0229     10.5624    134.5452
  1668.5000     10.8533     43.9114     10.5305    134.2158
  1668.7500     10.9469     43.0087     10.5162    133.3939
  1669.0000     10.9704     42.3080     10.5206    132.7603
  1669.2500     10.9355     41.7580     10.5463    133.3305
  1669.5000     10.8868     41.3027     10.5971    135.8397
  1669.7500     10.8726     40.9137     10.6765    137.8497
  1670.0000     10.9223     40.5956     10.7885    139.1505
  1670.2500     11.0432     40.3674     10.9378    137.9964
  1670.5000     11.2278     40.2390     11.1299    133.2146
  1670.7500     11.4603     40.2022     11.3698    128.5684
  1671.0000     11.7350     40.2406     11.6598    120.9888
  1671.2500     12.0639     40.3455     11.9988    116.7551
  1671.5000     12.4473     40.5191     12.3826    113.4745
  1671.7500     12.8521     40.7632     12.8068    113.5320
  1672.0000     13.2425     41.0659     13.2700    115.3140
  1672.2500     13.6370     41.4000     13.7749    116.0853
  1672.5000     14.1152     41.7305     14.3265    114.7783
  1672.7500     14.7537     42.0276     14.9285    112.2759
  1673.0000     15.5648     42.2809     15.5813    107.7813
  1673.2500     16.4961     42.5088     16.2831    105.5771
  1673.5000     17.4614     42.7490     17.0309    104.6876
  1673.7500     18.3770     43.0354     17.8214    105.5630
  1674.0000     19.2071     43.3764     18.6505    107.8434
  1674.2500     19.9936     43.7522     19.5151    109.1081
  1674.5000     20.8267     44.1274     20.4149    109.6789
  1674.7500     21.7576     44.4660     21.3508    109.4768
  1675.0000     22.7234     44.7444     22.3184    110.0275
  1675.2500     23.6040     44.9585     23.3032    111.6434
  1675.5000     24.3742     45.1259     24.2792    114.7921
  1675.7500     25.1433     45.2776     25.2139    115.7553
  1676.0000     26.0403     45.4435     26.0723    113.7943
  1676.2500     27.1010     45.6414     26.8186    110.6942
  1676.5000     28.2568     45.8789     27.4139    105.2856
  1676.7500     29.4090     46.1631     27.8157    101.7470
  1677.0000     30.5130     46.5057     27.9824     96.4401
  1677.2500     31.5610     46.9203     27.8839     92.9552
  1677.5000     32.4600     47.4200     27.5141     88.5092
  1677.7500     32.9615     48.0190     26.8936     86.2952
  1678.0000     32.7745     48.7335     26.0614     83.2281
  1678.2500     31.7821     49.5740     25.0622     80.3010
  1678.5000     30.1359     50.5277     23.9404     73.6779
  1678.7500     28.1313     51.5476     22.7410     68.7000
  1679.0000     26.0185     52.5625     21.5095     64.0815
  1679.2500     23.9273     53.5046     20.2872     64.9129
  1679.5000     21.8929     54.3306     19.1054     72.9203
  1679.7500     19.9324     55.0214     17.9825     81.6033
  1680.0000     18.1282     55.5682     16.9276     96.1765
  1680.2500     16.5959     55.9643     15.9466    104.9098
  1680.5000     15.3549     56.2076     15.0468    114.0440
  1680.7500     14.2894     56.3073     14.2366    117.1155
  1681.0000     13.2527     56.2900     13.5224    119.2975
  1681.2500     12.2077     56.2006     12.9052    121.3964
  1681.5000     11.2587     56.0926     12.3813    127.9734
  1681.7500     10.5445     56.0070     11.9441    134.1664
  1682.0000     10.1229     55.9524     11.5865    143.4408
  1682.2500      9.9479     55.9018     11.3012    148.3286
  1682.5000      9.9172     55.8121     11.0799    153.0721
  1682.7500      9.9377     55.6502     10.9124    154.6974
  1683.0000      9.9631     55.4038     10.7873    155.2417
  1683.2500      9.9873     55.0761     10.6941    154.4005
  1683.5000     10.0234     54.6806     10.6262    151.5399
  1683.7500     10.0828     54.2436     10.5821    149.2580
  1684.0000     10.1532     53.8024     10.5646    147.2314
  1684.2500     10.2065     53.3946     10.5773    147.5027
  1684.5000     10.2365     53.0467     10.6212    149.5843
  1684.7500     10.2801     52.7753     10.6932    150.8784
  1685.0000     10.3862     52.5902     10.7882    150.7533
  1685.2500     10.5688     52.4951     10.9020    148.7703
  1685.5000     10.8010     52.4911     11.0330    143.4170
  1685.7500     11.0385     52.5877     11.1823    139.2178
  1686.0000     11.2435     52.8092     11.3511    133.8169
  1686.2500     11.4046     53.1843     11.5387    131.3458
  1686.5000     11.5382     53.7260     11.7422    129.0443
  1686.7500     11.6714     54.4239     11.9580    128.0577
  1687.0000     11.8237     55.2586     12.1837    126.8038
  1687.2500     11.9937     56.2131     12.4179    125.5782
  1687.5000     12.1633     57.2622     12.6606    122.1849
  1687.7500     12.3214     58.3558     12.9119    119.0996
  1688.0000     12.4814     59.4268     13.1719    115.4941
  1688.2500     12.6662     60.4201     13.4406    115.2094
  1688.5000     12.8823     61.3086     13.7176    118.2952
  1688.7500     13.1236     62.0837     14.0028    121.3435
  1689.0000     13.3857     62.7369     14.2972    124.1384
  1689.2500     13.6767     63.2567     14.6034    123.6544
  1689.5000     14.0199     63.6400     14.9238    119.9228
  1689.7500     14.4274     63.9012     15.2585    116.7904
