~Version Information
VERS.                      2.0: CWLS Log ASCII Standard - VERSION 2.0
WRAP.                       NO: One line per depth step
~Well Information Block
STRT.FT               -12.2500: 
STOP.FT              2183.0000: 
STEP.FT                 0.2500: 
NULL.                -999.2500: 
COMP.          Petrogulf Corporation: COMPANY
WELL.            Montoya 6-14R: WELL
FLD.           Purgatorie River: FIELD
LOC.           867' FSL & 751' FWL: LOCATION
CNTY.               Las Animas: COUNTY
SRVC.                         : SERVICE COMPANY
DATE.          Mon Nov 22 13:07:31 2004: LOG DATE
UWI.           05-071-08242-00: UNIQUE WELL ID
STAT.                 Colorado: STATE
~Curve Information Block
DEPT.FT            0 000 00 00: Depth
TT3.usec                      : CBL 3' Travel Time
AMP3.mV                       : CBL 3' Amplitude
GR.GAPI                       : Gamma Ray
CCL.                          : Casing Collar Locator
~Parameter Information Block
~A  Depth       TT3         AMP3         GR         CCL     
# ...
   858.7500    283.6805     82.8557     60.1457      0.0000
   859.0000    283.6568     82.9174     54.9252      0.0000
   859.2500    283.6208     83.0328     51.4071      0.0000
   859.5000    283.5805     83.1087     49.2937      0.0000
   859.7500    283.5482     83.0937     48.6620      0.0000
   860.0000    283.5367     82.9684     49.5204      0.0000
   860.2500    283.5507     82.7415     51.6454      0.0000
   860.5000    283.5826     82.4453     55.1653      0.0000
   860.7500    283.6175     82.1177     61.2590      0.0000
   861.0000    283.6426     81.7879     71.7594      0.0000
   861.2500    283.6524     81.4788     87.6896      0.0000
   861.5000    283.6487     81.2081    108.1103      0.0000
   861.7500    283.6381     80.9857    130.2739      0.0000
   862.0000    283.6275     80.8167    150.8295      0.0000
   862.2500    283.6204     80.7031    167.2387      0.0000
   862.5000    283.6166     80.6379    178.5556      0.0000
   862.7500    283.6144     80.6053    185.3203      0.0000
   863.0000    283.6136     80.5957    189.1300      0.0000
   863.2500    283.6143     80.6123    192.0821      0.0000
   863.5000    283.6159     80.6559    195.7015      0.0000
   863.7500    283.6169     80.7128    199.9448      0.0000
   864.0000    283.6178     80.7597    203.3928      0.0000
   864.2500    283.6219     80.7716    204.2485      0.0000
   864.5000    283.6332     80.7257    201.1092      0.0000
   864.7500    283.6512     80.6101    193.5706      0.0000
   865.0000    283.6698     80.4394    182.8794      0.0000
   865.2500    283.6817     80.2504    171.6935      0.0000
   865.5000    283.6823     80.0735    162.5195      0.0000
   865.7500    283.6712     79.9159    156.3214      0.0000
   866.0000    283.6518     79.7877    152.8665      0.0000
   866.2500    283.6303     79.7265    152.1695      0.0000
   866.5000    283.6137     79.7715    155.1189      0.0000
   866.7500    283.6062     79.9164    162.5109      0.0000
   867.0000    283.6068     80.1147    173.5247      0.0000
   867.2500    283.6104     80.3300    185.3997      0.0000
   867.5000    283.6133     80.5631    194.9620      0.0000
   867.7500    283.6164     80.8257    200.5712      0.0000
   868.0000    283.6234     81.1061    202.4650      0.0000
   868.2500    283.6352     81.3757    201.5278      0.0000
   868.5000    283.6488     81.6246    198.3879      0.0000
   868.7500    283.6605     81.8767    193.7175      0.0000
   869.0000    283.6695     82.1660    188.6197      0.0000
   869.2500    283.6760     82.5019    184.2090      0.0000
   869.5000    283.6784     82.8538    180.9222      0.0000
   869.7500    283.6752     83.1668    178.3104      0.0000
   870.0000    283.6685     83.3970    175.4264      0.0000
   870.2500    283.6634     83.5462    171.4708      0.0000
   870.5000    283.6637     83.6696    166.3610      0.0000
   870.7500    283.6681     83.8438    160.9996      0.0000
   871.0000    283.6722     84.1070    157.0362      0.0000
   871.2500    283.6745     84.4178    156.0859      0.0000
   871.5000    283.6786     84.6741    158.6914      0.0000
   871.7500    283.6881     84.7786    163.5915      0.0000
   872.0000    283.7012     84.6959    168.1102      0.0000
   872.2500    283.7131     84.4580    170.0204      0.0000
   872.5000    283.7251     84.1228    169.4098      0.0000
   872.7500    283.7554     83.7128    168.3679      0.0000
   873.0000    283.8523     83.1486    168.7481      0.0000
   873.2500    284.1100     82.2185    170.5757      0.0000
   873.5000    284.6647     80.6075    172.5763      0.0000
   873.7500    285.6343     77.9824    173.7684      0.0000
   874.0000    287.0045     74.2002    174.1671      0.0000
   874.2500    288.5592     69.6472    174.0486      0.0000
   874.5000    289.9649     65.3439    172.9752      0.0000
   874.7500    290.9715     62.3777    170.0606      0.0000
   875.0000    291.5460     61.0453    165.3483      0.0000
   875.2500    291.8289     60.6598    160.5737      0.0000
   875.5000    291.9976     60.2084    158.0326      3.2272
   875.7500    292.1701     59.1107    158.5289      0.0000
   876.0000    292.3838     57.4639    160.7088      0.0000
   876.2500    292.5988     55.8751    162.4784      0.0000
   876.5000    292.6852     55.2041    162.7106      0.0000
   876.7500    292.4235     56.2614    161.5379      0.0000
   877.0000    291.5995     59.3399    159.5155      0.0000
   877.2500    290.1853     63.8636    156.9863      0.0000
   877.5000    288.4353     68.6557    154.3113      0.0000
   877.7500    286.7641     72.6664    152.2870      0.0000
   878.0000    285.5051     75.4098    151.7040      0.0000
   878.2500    284.7632     76.8627    152.3285      0.0000
   878.5000    284.4449     77.2144    152.6547      0.0000
   878.7500    284.3813     76.7581    150.8104      0.0000
   879.0000    284.4251     75.8670    145.6087      0.0000
   879.2500    284.4869     74.9197    137.1484      0.0000
   879.5000    284.5304     74.1740    126.9227      0.0000
   879.7500    284.5524     73.7001    117.2285      0.0000
   880.0000    284.5623     73.4272    110.1201      0.0000
   880.2500    284.5673     73.2512    106.8095      0.0000
   880.5000    284.5678     73.1110    107.9012      0.0000
   880.7500    284.5605     73.0076    113.6702      0.0000
   881.0000    284.5438     72.9728    123.5484      0.0000
   881.2500    284.5220     73.0238    135.3889      0.0000
   881.5000    284.5030     73.1411    146.0310      0.0000
   881.7500    284.4918     73.2820    153.3669      0.0000
   882.0000    284.4887     73.4047    157.8284      0.0000
   882.2500    284.4918     73.4835    161.4558      0.0000
   882.5000    284.5010     73.5091    165.7244      0.0000
   882.7500    284.5179     73.4802    170.6367      0.0000
   883.0000    284.5424     73.3979    175.4375      0.0000
   883.2500    284.5693     73.2758    179.3111      0.0000
   883.5000    284.5880     73.1524    181.4663      0.0000
   883.7500    284.5884     73.0798    181.3638      0.0000
   884.0000    284.5691     73.0848    179.1747      0.0000
   884.2500    284.5396     73.1517    175.6443      0.0000
   884.5000    284.5139     73.2484    171.2505      0.0000
   884.7500    284.5003     73.3587    165.7970      0.0000
   885.0000    284.4982     73.4771    159.1456      0.0000
   885.2500    284.5012     73.5850    151.9729      0.0000
   885.5000    284.5045     73.6499    145.3063      0.0000
   885.7500    284.5082     73.6441    139.5018      0.0000
   886.0000    284.5142     73.5562    134.1558      0.0000
   886.2500    284.5210     73.3941    128.9129      0.0000
   886.5000    284.5233     73.1841    123.9671      0.0000
   886.7500    284.5169     72.9630    119.6769      0.0000
   887.0000    284.5026     72.7626    116.0010      0.0000
   887.2500    284.4854     72.6012    112.7619      0.0000
   887.5000    284.4707     72.4836    110.5559      0.0000
   887.7500    284.4607     72.4002    110.8211      0.0000
   888.0000    284.4553     72.3267    114.5511      0.0000
   888.2500    284.4535     72.2366    121.1904      0.0000
   888.5000    284.4547     72.1189    128.9945      0.0000
   888.7500    284.4592     71.9809    136.1127      0.0000
   889.0000    284.4680     71.8336    141.3796      0.0000
   889.2500    284.4812     71.6791    144.7800      0.0000
   889.5000    284.4953     71.5157    147.3466      0.0000
   889.7500    284.5037     71.3511    150.1169      0.0000
   890.0000    284.5013     71.2046    153.0979      0.0000
   890.2500    284.4892     71.0976    155.4341      0.0000
   890.5000    284.4750     71.0411    156.3661      0.0000
   890.7500    284.4660     71.0310    155.7039      0.0000
   891.0000    284.4648     71.0500    153.5844      0.0000
   891.2500    284.4691     71.0747    150.3185      0.0000
   891.5000    284.4760     71.0869    146.9337      0.0000
   891.7500    284.4857     71.0808    145.7352      0.0000
   892.0000    284.5001     71.0602    149.2593      0.0000
