~Version Information
VERS.                      2.0: CWLS Log ASCII Standard - VERSION 2.0
WRAP.                       NO: One line per depth step
~Well Information Block
STRT.FT               800.0000: 
STOP.FT              1933.5000: 
STEP.FT                 0.2500: 
NULL.                -999.2500: 
COMP.          Pioneer Natural Resources: COMPANY
WELL.            Nova 11-14 Tr: WELL
FLD.           Purgatoire River: FIELD
LOC.           706' FNL & 1109' FWL: LOCATION
PROV.                 Colorado: PROVINCE
CNTY.               Las Animas: COUNTRY
SRVC.                Patterson: SERVICE COMPANY
DATE.          Wed Jul 20 23:28:11 2005: LOG DATE
UWI.           05 071 08434 00: UNIQUE WELL ID
~Curve Information Block
DEPT.FT            0 000 00 00: Depth
SN.Ohm-m                      : IEL Short Normal
SP.mV                         : IEL Spontaneous Potential
DIR.Ohm-m                     : IEL Induction Resistivity
GR.GAPI                       : Gamma Ray
~Parameter Information Block
~A  Depth        SN          SP         DIR          GR     
# ...
  1168.5000     18.8398    -40.1881     17.7211    135.3883
  1168.7500     17.7795    -38.2927     17.5296    138.3961
  1169.0000     17.3143    -36.6344     17.3788    142.3829
  1169.2500     17.1071    -35.2912     17.2696    144.6317
  1169.5000     16.9092    -34.3114     17.1955    147.1576
  1169.7500     16.7246    -33.7017     17.1464    148.0164
  1170.0000     16.6395    -33.4013     17.1188    147.7926
  1170.2500     16.7193    -33.2871     17.1209    146.7489
  1170.5000     16.9876    -33.2371     17.1672    144.3574
  1170.7500     17.3885    -33.2003     17.2711    142.4654
  1171.0000     17.8269    -33.2029     17.4413    139.3565
  1171.2500     18.2143    -33.2895     17.6840    137.1953
  1171.5000     18.5196    -33.4700     18.0029    134.1467
  1171.7500     18.8190    -33.7114     18.3978    132.4851
  1172.0000     19.1940    -33.9602     18.8587    131.0030
  1172.2500     19.6212    -34.1672     19.3633    130.8643
  1172.5000     20.0116    -34.3057     19.8812    131.6558
  1172.7500     20.3004    -34.3834     20.3850    132.3846
  1173.0000     20.5016    -34.4370     20.8607    133.0832
  1173.2500     20.6893    -34.5079     21.3041    133.0534
  1173.5000     20.9393    -34.6160     21.7071    131.7072
  1173.7500     21.2821    -34.7484     22.0521    129.5500
  1174.0000     21.6596    -34.8672     22.3270    124.5193
  1174.2500     22.0193    -34.9333     22.5493    120.6538
  1174.5000     22.4436    -34.9277     22.7752    115.4087
  1174.7500     22.9753    -34.8576     23.0822    112.6470
  1175.0000     23.4610    -34.7497     23.5413    109.8607
  1175.2500     23.7845    -34.6409     24.1967    109.2677
  1175.5000     24.0619    -34.5720     25.0621    110.9841
  1175.7500     24.5160    -34.5839     26.1280    113.6062
  1176.0000     25.3145    -34.7183     27.3655    117.3317
  1176.2500     26.5313    -35.0114     28.7201    117.6516
  1176.5000     28.0932    -35.4745     30.0982    112.6721
  1176.7500     29.7671    -36.0772     31.3690    106.0787
  1177.0000     31.3637    -36.7546     32.4029     94.2745
  1177.2500     32.9160    -37.4380     33.1395     87.0892
  1177.5000     34.5985    -38.0848     33.6426     79.1750
  1177.7500     36.5654    -38.6924     34.0931     75.8114
  1178.0000     38.8016    -39.2875     34.7102     72.6736
  1178.2500     41.0566    -39.9002     35.6445     71.2246
  1178.5000     43.0096    -40.5450     36.8973     69.2721
  1178.7500     44.4768    -41.2247     38.3050     68.0374
  1179.0000     45.4025    -41.9495     39.6153     67.0423
  1179.2500     45.7933    -42.7449     40.6324     67.7381
  1179.5000     45.7377    -43.6338     41.3249     71.6550
  1179.7500     45.3945    -44.6135     41.8031     75.9380
  1180.0000     44.9407    -45.6526     42.2040     83.6570
  1180.2500     44.5164    -46.7073     42.5977     88.9795
  1180.5000     44.1477    -47.7381     42.9684     96.2408
  1180.7500     43.7577    -48.7187     43.2417    100.0042
  1181.0000     43.3098    -49.6441     43.3120    103.4119
  1181.2500     42.9051    -50.5354     43.0639    104.4628
  1181.5000     42.7132    -51.4307     42.4151    105.5387
  1181.7500     42.8360    -52.3611     41.3779    106.5038
  1182.0000     43.2412    -53.3321     40.0786    108.0472
  1182.2500     43.8076    -54.3263     38.6992    108.4852
  1182.5000     44.4083    -55.3182     37.3809    107.4805
  1182.7500     44.9799    -56.2836     36.1510    105.7571
  1183.0000     45.5434    -57.1986     34.9020    102.0065
  1183.2500     46.0928    -58.0398     33.4300     98.7175
  1183.5000     46.4979    -58.7897     31.5345     92.2108
  1183.7500     46.6071    -59.4464     29.1523     87.0089
  1184.0000     46.3612    -60.0286     26.4340     79.8748
  1184.2500     45.7645    -60.5682     23.6893     77.2605
  1184.5000     44.8348    -61.0905     21.2470     78.4452
  1184.7500     43.5790    -61.5962     19.3514     82.5916
  1185.0000     41.9907    -62.0616     18.1566     92.3633
  1185.2500     40.1094    -62.4472     17.7928     99.9741
  1185.5000     38.0419    -62.7084     18.4759    110.3648
  1185.7500     35.8696    -62.8134     20.6911    115.1196
  1186.0000     33.6003    -62.7709     25.6549    117.9427
  1186.2500     31.2390    -62.6416     37.0023    117.5592
  1186.5000     28.8132    -62.5152     70.8232    115.7174
  1186.7500     26.3338    -62.4678    424.3298    114.7003
  1187.0000     23.8789    -62.5303 100000.0000    114.3060
  1187.2500     21.6939    -62.6846 100000.0000    114.8068
  1187.5000     20.0159    -62.8826 100000.0000    116.2980
  1187.7500     18.8341    -63.0751    570.3214    117.4241
  1188.0000     17.9471    -63.2398     67.3344    118.7897
  1188.2500     17.1736    -63.3978     33.7176    119.4824
  1188.5000     16.4424    -63.6086     23.0775    121.0013
  1188.7500     15.7533    -63.9465     18.4710    123.0942
  1189.0000     15.1247    -64.4787     16.1984    128.5686
  1189.2500     14.5852    -65.2625     15.0543    133.2617
  1189.5000     14.1395    -66.3557     14.7212    139.6381
  1189.7500     13.7644    -67.8249     15.5517    142.2655
  1190.0000     13.4817    -69.7407     19.3554    143.3707
  1190.2500     13.3007    -72.1745     39.5522    142.8246
  1190.5000     13.0930    -75.2151 100000.0000    141.2393
  1190.7500     12.7175    -79.0064 100000.0000    139.8753
  1191.0000     12.1850    -83.7731 100000.0000    136.9811
  1191.2500     11.5274    -89.8052 100000.0000    134.4104
  1191.5000     10.7028    -97.4136 100000.0000    130.8842
  1191.7500      9.7336   -106.8824 100000.0000    130.1584
  1192.0000      8.7708   -118.4125 100000.0000    132.9363
  1192.2500      8.0058   -132.0366 100000.0000    136.7834
  1192.5000      7.5436   -147.5244     98.1779    143.1667
  1192.7500      7.2985   -164.3412      3.1330    146.8538
  1193.0000      7.0477   -181.7223      1.3507    151.2578
  1193.2500      6.6365   -198.8575      0.8266    153.4934
  1193.5000      6.0424   -215.0793      0.6185    155.2845
  1193.7500      5.2731   -229.9280      0.5527    155.0346
  1194.0000      4.3678   -243.0663      0.5940    152.6857
  1194.2500      3.4601   -254.1503      0.7744    150.3531
  1194.5000      2.6886   -262.7599      1.2525    145.6529
  1194.7500      2.0847   -268.3783      2.7931    140.5125
  1195.0000      1.6085   -270.3434     17.6101    127.3001
  1195.2500      1.2689   -267.8288 100000.0000    114.6916
  1195.5000      1.1512   -260.0405 100000.0000     93.0112
  1195.7500      1.2606   -246.6644 100000.0000     79.2428
  1196.0000      1.4137   -228.2852 100000.0000     62.9236
  1196.2500      1.4447   -206.4510    158.1443     55.7621
  1196.5000      1.4038   -183.3249     36.6997     50.6436
  1196.7500      1.3655   -161.1199    371.5844     50.6426
  1197.0000      1.2458   -141.5733 100000.0000     55.0575
  1197.2500      0.9803   -125.6366 100000.0000     60.5589
  1197.5000      0.7433   -113.4468 100000.0000     71.6803
  1197.7500      0.9772   -104.5300     18.6277     79.8981
  1198.0000      2.3483    -98.1134      2.5527     90.6385
  1198.2500      5.6074    -93.4203      0.9951     95.2909
  1198.5000     11.0687    -89.8557      0.5236     97.6364
  1198.7500     18.0282    -87.0442      0.3324     96.5053
  1199.0000     25.1060    -84.7561      0.2568     91.9660
  1199.2500     31.2630    -82.8045      0.2490     87.7558
  1199.5000     36.2292    -80.9946      0.3008     81.2261
  1199.7500     40.1291    -79.1461      0.4340     77.8814
  1200.0000     42.9902    -77.1599      0.7266     75.8267
  1200.2500     44.6266    -75.0746      1.4914     76.5235
  1200.5000     44.8480    -73.0604      5.2819     80.0313
  1200.7500     43.5760    -71.3406 100000.0000     83.8140
  1201.0000     40.8496    -70.0840 100000.0000     91.8495
  1201.2500     36.9504    -69.3381 100000.0000     98.7747
  1201.5000     32.4645    -69.0304 100000.0000    110.6733
  1201.7500     28.0911    -69.0203 100000.0000    118.6431
