~Version Information
VERS.                      2.0: CWLS Log ASCII Standard - VERSION 2.0
WRAP.                       NO: One line per depth step
~Well Information Block
STRT.FT               236.5000: 
STOP.FT              2818.2500: 
STEP.FT                 0.2500: 
NULL.                -999.2500: 
COMP.          Pioneer Natural Resources: COMPANY
WELL.            Sebring 42-29: WELL
FLD.           Purgatorie River: FIELD
LOC.           1751' FNL & 584' FEL--: LOCATION
PROV.                       CO: PROVINCE
CNTY.               Las Animas: COUNTRY
SRVC.          Patterson Wireline: SERVICE COMPANY
DATE.          Fri Aug 26 09:14:13 2005: LOG DATE
UWI.           05 071 08293 00: UNIQUE WELL ID
~Curve Information Block
DEPT.FT            0 000 00 00: Depth
CCL.                          : Casing Collar Locator
TT3.usec                      : CBL 3' Travel Time
AMP3.mV                       : CBL 3' Amplitude
GR.GAPI                       : Gamma Ray
~Parameter Information Block
~A  Depth       CCL         TT3         AMP3         GR     
# ...
  1074.0000      0.0000    713.2539      8.9205    124.0747
  1074.2500      0.0000    700.3592      8.8708    127.7424
  1074.5000      0.0000    691.0965      8.8367    132.3505
  1074.7500      0.0000    684.0468      8.8086    138.8369
  1075.0000      0.0000    678.8340      8.7770    146.2125
  1075.2500      0.0000    675.5554      8.7421    151.2199
  1075.5000      0.0000    673.9075      8.7108    150.4858
  1075.7500      0.0000    673.2504      8.6876    143.0551
  1076.0000      0.0000    672.8875      8.6738    130.6593
  1076.2500      0.0000    672.1000      8.6748    115.8311
  1076.5000      0.0000    670.2575      8.6987    100.2931
  1076.7500      0.0000    667.7870      8.7334     85.1477
  1077.0000      0.0000    668.1353      8.7199     71.7780
  1077.2500      0.0000    678.8614      8.5649     61.7630
  1077.5000      0.0000    708.5221      8.2175     55.8459
  1077.7500      0.0000    758.9277      7.7425     53.3349
  1078.0000      0.0000    819.1983      7.2951     52.6769
  1078.2500      0.0000    869.8846      7.0052     52.5646
  1078.5000      0.0000    895.9150      6.8952     52.5268
  1078.7500     -2.0000    895.5067      6.9074     52.7548
  1079.0000     -2.0000    875.6100      6.9865     53.6619
  1079.2500      0.0000    840.8536      7.1423     55.5582
  1079.5000      0.0000    790.7449      7.4596     58.3586
  1079.7500      0.0000    728.0209      8.0266     61.2586
  1080.0000      0.0000    665.4720      8.7934     62.9034
  1080.2500      0.0000    620.0775      9.5061     62.3566
  1080.5000      0.0000    600.2243      9.8621     60.0280
  1080.7500      0.0000    601.3796      9.7659     57.5736
  1081.0000      0.0000    613.6637      9.3841     56.7579
  1081.2500      0.0000    629.6766      8.9574     58.1554
  1081.5000      0.0000    645.1257      8.6207     60.7181
  1081.7500      0.0000    656.8871      8.3922     62.5335
  1082.0000      0.0000    663.1627      8.2491     62.0748
  1082.2500      0.0000    664.2167      8.1744     59.0024
  1082.5000      0.0000    661.9820      8.1600     54.2564
  1082.7500      0.0000    659.1075      8.1992     49.7129
  1083.0000      0.0000    657.9684      8.2833     47.3773
  1083.2500      0.0000    659.5996      8.3975     48.2486
  1083.5000      0.0000    663.2836      8.5187     51.8183
  1083.7500      0.0000    667.3427      8.6206     56.9343
  1084.0000      0.0000    670.4368      8.6860     63.0513
  1084.2500      0.0000    672.2143      8.7165     70.3352
  1084.5000      0.0000    673.0200      8.7286     78.7619
  1084.7500      0.0000    673.3193      8.7411     87.6287
  1085.0000      0.0000    673.4035      8.7620     95.8222
  1085.2500      0.0000    673.3695      8.7889    102.2122
  1085.5000      0.0000    673.1429      8.8162    105.9073
  1085.7500      0.0000    672.4346      8.8405    106.4966
  1086.0000      0.0000    670.7646      8.8613    104.2546
  1086.2500      0.0000    667.7804      8.8809    100.2309
  1086.5000      0.0000    663.8480      8.9021     96.2588
  1086.7500      0.0000    660.3411      8.9251     94.5403
  1087.0000      0.0000    658.9765      8.9454     96.3420
  1087.2500      0.0000    660.5148      8.9590    100.7245
  1087.5000      0.0000    664.1048      8.9677    105.1080
  1087.7500      0.0000    668.0082      8.9792    107.4391
  1088.0000      0.0000    670.9095      9.0003    107.5818
  1088.2500      0.0000    672.5257      9.0277    106.7611
  1088.5000      0.0000    673.2585      9.0476    106.1552
  1088.7500      0.0000    673.5887      9.0477    105.9873
  1089.0000      0.0000    673.7872      9.0282    105.5607
  1089.2500      0.0000    673.9371      9.0002    104.2042
  1089.5000      0.0000    674.0429      8.9756    102.1638
  1089.7500      0.0000    674.0973      8.9599    100.1135
  1090.0000      0.0000    674.1046      8.9541     97.9581
  1090.2500      0.0000    674.0813      8.9577     94.9222
  1090.5000      0.0000    674.0493      8.9702     90.6869
  1090.7500      0.0000    674.0258      8.9923     85.6575
  1091.0000      0.0000    674.0176      9.0246     80.5123
  1091.2500      0.0000    674.0217      9.0652     76.1466
  1091.5000      0.0000    674.0288      9.1089     73.3493
  1091.7500      0.0000    674.0316      9.1513     71.8753
  1092.0000      0.0000    674.0317      9.1940     70.5529
  1092.2500      0.0000    674.0413      9.2489     68.8469
  1092.5000      0.0000    674.0714      9.3317     67.7561
  1092.7500      0.0000    674.1168      9.4488     68.7508
  1093.0000      0.0000    674.1531      9.5894     72.1260
  1093.2500      0.0000    674.1564      9.7291     76.5979
  1093.5000      0.0000    674.1237      9.8434     80.2539
  1093.7500      0.0000    674.0733      9.9166     81.8941
  1094.0000      0.0000    674.0308      9.9431     81.7702
  1094.2500      0.0000    674.0220      9.9270     81.1798
  1094.5000      0.0000    674.0696      9.8806     81.4830
  1094.7500      0.0000    674.1785      9.8239     83.6075
  1095.0000      0.0000    674.3169      9.7799     88.1836
  1095.2500      0.0000    674.4199      9.7641     95.4577
  1095.5000      0.0000    674.4272      9.7750    104.8715
  1095.7500      0.0000    674.3303      9.7959    114.9750
  1096.0000      0.0000    674.1808      9.8081    124.0234
  1096.2500      0.0000    674.0420      9.8019    130.7721
  1096.5000      0.0000    673.8685      9.7757    134.7651
  1096.7500      0.0000    673.3698      9.7311    136.1737
  1097.0000      0.0000    671.7411      9.6743    135.7313
  1097.2500      0.0000    667.1893      9.6230    134.5990
  1097.5000      0.0000    656.3525      9.6053    133.5877
  1097.7500      0.0000    634.4229      9.6477    132.3220
  1098.0000      0.0000    597.3787      9.7595    129.5625
  1098.2500      0.0000    546.3566      9.9261    124.6316
  1098.5000      0.0000    490.5023     10.1166    118.4212
  1098.7500      0.0000    443.9732     10.3013    112.6762
  1099.0000      0.0000    418.7562     10.4656    108.3521
  1099.2500      0.0000    419.7442     10.6096    105.0479
  1099.5000      0.0000    444.0507     10.7341    101.9430
  1099.7500      0.0000    482.2140     10.8302     98.6565
  1100.0000      0.0000    521.9243     10.8823     95.1474
  1100.2500      0.0000    555.0724     10.8797     91.3078
  1100.5000      0.0000    581.6441     10.8247     86.9813
  1100.7500      0.0000    604.7274     10.7337     82.3427
  1101.0000      0.0000    623.4496     10.6321     78.0170
  1101.2500      0.0000    633.5701     10.5419     74.5437
  1101.5000      0.0000    633.0093     10.4702     71.7270
  1101.7500      0.0000    623.5729     10.4081     68.8463
  1102.0000      0.0000    608.4538     10.3421     65.5181
  1102.2500      0.0000    590.7129     10.2650     62.0866
  1102.5000      0.0000    574.1434     10.1788     59.3394
  1102.7500      0.0000    563.8029     10.0898     58.2425
  1103.0000      0.0000    564.6266     10.0036     59.7960
  1103.2500      0.0000    578.7565      9.9254     64.3953
  1103.5000      0.0000    603.0729      9.8618     70.8325
  1103.7500      0.0000    629.7784      9.8191     76.2355
  1104.0000      0.0000    651.0791      9.7995     77.7874
  1104.2500      0.0000    663.8253      9.7977     74.9106
  1104.5000      0.0000    669.5583      9.8017     69.6231
  1104.7500      0.0000    671.0574      9.7992     64.6975
  1105.0000      0.0000    669.2166      9.7857     61.6616
  1105.2500      0.0000    661.5977      9.7693     60.4643
  1105.5000      0.0000    642.7206      9.7682     60.4617
  1105.7500      0.0000    607.1446      9.7993     61.2759
  1106.0000      0.0000    555.1865      9.8666     62.8042
  1106.2500      0.0000    496.1483      9.9581     64.7851
  1106.5000      0.0000    443.8788     10.0559     66.7743
  1106.7500      0.0000    407.7798     10.1494     68.7116
  1107.0000      0.0000    388.3499     10.2345     71.0792
  1107.2500      0.0000    380.6075     10.3028     73.9819
