~Version Information
VERS.                      2.0: CWLS Log ASCII Standard - VERSION 2.0
WRAP.                       NO: One line per depth step
~Well Information Block
STRT.FT               830.0000: 
STOP.FT              3122.7500: 
STEP.FT                 0.2500: 
NULL.                -999.2500: 
COMP.          Pioneer Natural Resources: COMPANY
WELL.              Stones 24-8: WELL
FLD.           Purgatoire River: FIELD
LOC.           648' FSL & 2264' FWL: LOCATION
PROV.                 Colorado: PROVINCE
CNTY.               Las Animas: COUNTRY
SRVC.                Patterson: SERVICE COMPANY
DATE.          Wed Jan 19 12:44:32 2005: LOG DATE
UWI.           05 071 07945 00: UNIQUE WELL ID
~Curve Information Block
DEPT.FT            0 000 00 00: Depth
SN.Ohm-m                      : IEL Short Normal
SP.mV                         : IEL Spontaneous Potential
DIR.Ohm-m                     : IEL Induction Resistivity
GR.GAPI                       : Gamma Ray
~Parameter Information Block
~A  Depth        SN          SP         DIR          GR     
# ...
  2170.0000      8.5957   -263.3472      8.2434    112.7520
  2170.2500      8.5300   -263.4951      8.3992    107.1406
  2170.5000      8.6330   -263.6578      8.6082     99.0527
  2170.7500      8.9577   -263.8256      8.8648     95.1014
  2171.0000      9.5056   -263.9883      9.1578     92.1822
  2171.2500     10.2045   -264.1360      9.4720     92.0104
  2171.5000     10.9305   -264.2606      9.7896     93.6713
  2171.7500     11.5638   -264.3560     10.0900     95.8346
  2172.0000     12.0353   -264.4182     10.3502    100.6556
  2172.2500     12.3327   -264.4437     10.5497    104.9018
  2172.5000     12.4778   -264.4277     10.6763    112.4919
  2172.7500     12.5050   -264.3645     10.7283    117.9351
  2173.0000     12.4515   -264.2502     10.7113    125.4258
  2173.2500     12.3521   -264.0877     10.6342    129.0896
  2173.5000     12.2342   -263.8914     10.5097    131.6953
  2173.7500     12.1187   -263.6868     10.3572    131.8113
  2174.0000     12.0233   -263.5056     10.2035    131.4309
  2174.2500     11.9622   -263.3760     10.0787    132.0551
  2174.5000     11.9394   -263.3153     10.0086    135.1674
  2174.7500     11.9448   -263.3268     10.0107    138.1145
  2175.0000     11.9580   -263.4022     10.0920    141.9576
  2175.2500     11.9600   -263.5272     10.2500    143.3849
  2175.5000     11.9451   -263.6855     10.4746    143.6274
  2175.7500     11.9260   -263.8607     10.7501    142.6171
  2176.0000     11.9313   -264.0374     11.0575    139.2489
  2176.2500     12.0018   -264.2026     11.3780    135.6587
  2176.5000     12.1925   -264.3491     11.6963    128.3184
  2176.7500     12.5724   -264.4781     12.0050    122.5361
  2177.0000     13.2101   -264.6007     12.3085    114.5509
  2177.2500     14.1444   -264.7349     12.6241    111.5747
  2177.5000     15.3523   -264.9014     12.9801    113.1609
  2177.7500     16.7381   -265.1178     13.4087    118.0096
  2178.0000     18.1529   -265.3939     13.9367    127.1621
  2178.2500     19.4378   -265.7276     14.5768    131.3793
  2178.5000     20.4786   -266.1030     15.3192    130.7383
  2178.7500     21.2479   -266.4902     16.1296    125.1153
  2179.0000     21.8177   -266.8483     16.9539    111.4948
  2179.2500     22.3339   -267.1339     17.7344    101.6298
  2179.5000     22.9633   -267.3123     18.4335     89.6601
  2179.7500     23.8304   -267.3696     19.0506     84.7989
  2180.0000     24.9653   -267.3190     19.6212     82.7590
  2180.2500     26.2898   -267.1995     20.1972     84.8474
  2180.5000     27.6547   -267.0660     20.8209     92.4841
  2180.7500     28.9056   -266.9741     21.5031     99.4150
  2181.0000     29.9271   -266.9657     22.2132    108.9393
  2181.2500     30.6569   -267.0609     22.8872    112.3396
  2181.5000     31.0955   -267.2552     23.4572    110.6036
  2181.7500     31.3317   -267.5227     23.8861    104.9372
  2182.0000     31.5567   -267.8220     24.1824     91.5499
  2182.2500     32.0257   -268.1030     24.3855     80.9378
  2182.5000     32.9538   -268.3145     24.5458     65.4423
  2182.7500     34.3826   -268.4121     24.7282     56.9913
  2183.0000     36.1117   -268.3669     25.0304     48.8956
  2183.2500     37.7797   -268.1706     25.5816     46.8381
  2183.5000     39.0614   -267.8362     26.4950     48.5287
  2183.7500     39.8274   -267.3940     27.7876     52.6369
  2184.0000     40.1402   -266.8828     29.3038     62.6803
  2184.2500     40.1182   -266.3412     30.7035     71.0784
  2184.5000     39.8041   -265.8008     31.5827     83.5942
  2184.7500     39.1457   -265.2839     31.6902     90.2856
  2185.0000     38.0924   -264.8053     31.0619     96.6766
  2185.2500     36.7075   -264.3756     29.9518     99.0585
  2185.5000     35.1848   -264.0042     28.6659    101.6217
  2185.7500     33.7573   -263.7000     27.4490    103.2574
  2186.0000     32.5900   -263.4701     26.4574    105.3532
  2186.2500     31.7346   -263.3153     25.7740    106.1189
  2186.5000     31.1497   -263.2284     25.4253    106.1422
  2186.7500     30.7472   -263.1922     25.3864    105.5621
  2187.0000     30.4306   -263.1825     25.5770    103.9168
  2187.2500     30.1135   -263.1725     25.8674    102.1938
  2187.5000     29.7295   -263.1379     26.1067     98.6610
  2187.7500     29.2433   -263.0615     26.1720     96.0247
  2188.0000     28.6629   -262.9342     26.0101     92.7723
  2188.2500     28.0352   -262.7554     25.6428     91.7368
  2188.5000     27.4244   -262.5307     25.1386     92.5571
  2188.7500     26.8836   -262.2707     24.5783     94.7518
  2189.0000     26.4373   -261.9895     24.0329    100.1426
  2189.2500     26.0811   -261.7035     23.5524    104.6800
  2189.5000     25.7937   -261.4308     23.1597    111.9045
  2189.7500     25.5514   -261.1902     22.8490    116.4396
  2190.0000     25.3362   -260.9996     22.5941    121.8750
  2190.2500     25.1401   -260.8739     22.3666    123.9213
  2190.5000     24.9682   -260.8212     22.1596    123.4253
  2190.7500     24.8386   -260.8393     22.0013    120.3468
  2191.0000     24.7742   -260.9135     21.9439    112.2133
  2191.2500     24.7897   -261.0181     22.0311    105.5894
  2191.5000     24.8829   -261.1215     22.2638     96.4980
  2191.7500     25.0324   -261.1938     22.5924     92.2635
  2192.0000     25.2003   -261.2144     22.9409     89.2597
  2192.2500     25.3376   -261.1752     23.2414     88.9702
  2192.5000     25.3960   -261.0810     23.4455     89.9449
  2192.7500     25.3439   -260.9464     23.5075     91.3042
  2193.0000     25.1755   -260.7921     23.3732     94.7891
  2193.2500     24.9060   -260.6411     23.0031     98.3810
  2193.5000     24.5559   -260.5150     22.4158    105.7561
  2193.7500     24.1376   -260.4303     21.7026    111.4843
  2194.0000     23.6552   -260.3940     20.9915    119.2279
  2194.2500     23.1143   -260.3994     20.3875    122.5597
  2194.5000     22.5304   -260.4242     19.9319    124.4550
  2194.7500     21.9274   -260.4337     19.6017    124.5999
  2195.0000     21.3281   -260.3888     19.3437    124.7854
  2195.2500     20.7463   -260.2572     19.1158    125.0475
  2195.5000     20.1868   -260.0249     18.9091    125.2081
  2195.7500     19.6532   -259.7029     18.7377    125.2801
  2196.0000     19.1556   -259.3246     18.6128    126.4783
  2196.2500     18.7119   -258.9355     18.5242    128.6332
  2196.5000     18.3432   -258.5790     18.4397    133.6382
  2196.7500     18.0661   -258.2839     18.3201    137.1539
  2197.0000     17.8879   -258.0624     18.1403    140.6620
  2197.2500     17.8038   -257.9164     17.9030    141.1656
  2197.5000     17.8005   -257.8481     17.6366    139.3878
  2197.7500     17.8651   -257.8644     17.3820    137.2228
  2198.0000     17.9938   -257.9731     17.1783    134.0386
  2198.2500     18.1865   -258.1722     17.0544    132.6675
  2198.5000     18.4321   -258.4428     17.0239    132.2181
  2198.7500     18.7019   -258.7502     17.0832    132.8530
  2199.0000     18.9594   -259.0546     17.2141    134.4387
  2199.2500     19.1756   -259.3226     17.3916    135.2491
  2199.5000     19.3393   -259.5350     17.5942    135.0804
  2199.7500     19.4560   -259.6868     17.8078    133.9757
  2200.0000     19.5427   -259.7833     18.0232    131.9588
  2200.2500     19.6203   -259.8348     18.2290    131.3895
  2200.5000     19.7030   -259.8530     18.4102    132.8163
  2200.7500     19.7848   -259.8489     18.5515    135.0978
  2201.0000     19.8347   -259.8319     18.6405    138.8413
  2201.2500     19.8096   -259.8085     18.6657    140.3278
  2201.5000     19.6816   -259.7819     18.6127    139.8533
  2201.7500     19.4647   -259.7518     18.4685    138.0278
  2202.0000     19.2218   -259.7158     18.2394    134.9771
  2202.2500     19.0420   -259.6713     17.9696    134.0311
  2202.5000     18.9917   -259.6180     17.7379    135.2509
  2202.7500     19.0756   -259.5595     17.6262    137.2599
  2203.0000     19.2395   -259.5030     17.6783    139.5495
  2203.2500     19.4136   -259.4565     17.8768    139.0224
