~Version Information
VERS.                      2.0: CWLS Log ASCII Standard - VERSION 2.0
WRAP.                       NO: One line per depth step
~Well Information Block
STRT.FT               -14.0000: 
STOP.FT              2531.7500: 
STEP.FT                 0.2500: 
NULL.                -999.2500: 
COMP.          Petrogulf Corporation: COMPANY
WELL.            Lavedure 7-44: WELL
FLD.           Purgatorie River: FIELD
LOC.           969' FSL & 501' FEL--: LOCATION
PROV.                       CO: PROVINCE
CNTY.               Las Animas: COUNTRY
SRVC.          Patterson Wireline: SERVICE COMPANY
DATE.          Wed Dec 10 09:23:08 2003: LOG DATE
UWI.                          : UNIQUE WELL ID
~Curve Information Block
DEPT.FT            0 000 00 00: Depth
CCL.                          : Casing Collar Locator
TT3.usec                      : CBL 3' Travel Time
AMP3.mV                       : CBL 3' Amplitude
GR.GAPI                       : Gamma Ray
~Parameter Information Block
~A  Depth       CCL         TT3         AMP3         GR     
# ...
   321.0000      0.0000    271.1576     60.5466    130.4980
   321.2500      0.0000    275.5121     55.0230    132.2483
   321.5000      0.0000    280.9110     48.9727    132.0679
   321.7500      0.0000    286.2651     43.6425    130.0451
   322.0000      0.0000    290.7626     39.8678    126.9980
   322.2500      0.0000    294.0448     37.7272    124.5503
   322.5000      0.0000    295.6794     36.7757    124.4271
   322.7500      2.0000    295.3442     36.4775    127.1095
   323.0000      2.0000    293.8051     36.4775    131.2870
   323.2500      0.0000    292.7325     36.6907    135.0995
   323.5000      0.0000    292.8506     37.2981    137.9252
   323.7500      0.0000    292.8078     38.6226    140.5121
   324.0000      0.0000    290.5447     40.9292    143.4254
   324.2500      0.0000    285.5643     44.2990    146.1382
   324.5000      0.0000    279.3726     48.6183    147.9228
   324.7500      0.0000    273.9366     53.5291    148.8717
   325.0000      0.0000    270.2412     58.3666    149.4400
   325.2500      0.0000    268.1868     62.3458    149.5071
   325.5000      0.0000    267.2285     64.9826    148.5834
   325.7500      0.0000    266.8607     66.3215    146.6792
   326.0000      0.0000    266.7535     66.7675    144.4258
   326.2500      0.0000    266.7341     66.7810    142.5160
   326.5000      0.0000    266.7332     66.6986    141.4354
   326.7500      0.0000    266.7363     66.6830    141.5635
   327.0000      0.0000    266.7496     66.7370    143.0341
   327.2500      0.0000    266.7770     66.7709    145.3516
   327.5000      0.0000    266.8125     66.7084    147.4104
   327.7500      0.0000    266.8441     66.5612    148.0695
   328.0000      0.0000    266.8657     66.4170    146.7001
   328.2500      0.0000    266.8849     66.3558    143.3662
   328.5000      0.0000    266.9142     66.3857    138.9064
   328.7500      0.0000    266.9533     66.4590    134.7060
   329.0000      0.0000    266.9861     66.5358    131.8554
   329.2500      0.0000    266.9954     66.6199    130.5513
   329.5000      0.0000    266.9779     66.7374    130.4542
   329.7500      0.0000    266.9444     66.8904    131.1671
   330.0000      0.0000    266.9103     67.0359    132.2329
   330.2500      0.0000    266.8868     67.1088    133.4170
   330.5000      0.0000    266.8742     67.0719    135.2775
   330.7500      0.0000    266.8617     66.9514    138.8422
   331.0000      0.0000    266.8355     66.8295    144.2796
   331.2500      0.0000    266.7921     66.7960    150.2046
   331.5000      0.0000    266.7435     66.8881    154.5427
   331.7500      0.0000    266.7093     67.0573    155.9637
   332.0000      0.0000    266.7020     67.1935    154.4050
   332.2500      0.0000    266.7187     67.1930    150.6715
   332.5000      0.0000    266.7419     67.0241    146.0294
   332.7500      0.0000    266.7494     66.7462    142.0927
   333.0000      0.0000    266.7285     66.4759    140.3515
   333.2500      0.0000    266.6862     66.3272    141.1477
   333.5000      0.0000    266.6459     66.3588    143.1143
   333.7500      0.0000    266.6303     66.5452    144.0479
   334.0000      0.0000    266.6445     66.7880    142.5907
   334.2500      0.0000    266.6724     66.9777    139.1335
   334.5000      0.0000    266.6896     67.0709    135.2343
   334.7500      0.0000    266.6791     67.1163    132.4237
   335.0000      0.0000    266.6396     67.1992    131.4284
   335.2500      0.0000    266.5827     67.3601    131.9933
   335.5000      0.0000    266.5273     67.5680    133.0154
   335.7500      0.0000    266.4917     67.7599    133.0816
   336.0000      0.0000    266.4862     67.8873    131.2756
   336.2500      0.0000    266.5089     67.9199    127.5714
   336.5000      0.0000    266.5470     67.8274    122.5445
   336.7500      0.0000    266.5823     67.5938    117.0548
   337.0000      0.0000    266.6001     67.2583    112.2116
   337.2500      0.0000    266.5993     66.9232    109.2533
   337.5000      0.0000    266.5947     66.7046    108.9760
   337.7500      0.0000    266.6065     66.6653    110.9512
   338.0000      0.0000    266.6432     66.7831    113.4867
   338.2500      0.0000    266.6942     66.9684    114.8200
   338.5000      0.0000    266.7378     67.1259    114.4848
   338.7500      0.0000    266.7535     67.2205    113.4400
   339.0000      0.0000    266.7294     67.2938    112.9893
   339.2500      0.0000    266.6669     67.4124    113.5832
   339.5000      0.0000    266.5838     67.5981    114.4695
   339.7500      0.0000    266.5085     67.8105    114.5588
   340.0000      0.0000    266.4646     67.9851    113.6067
   340.2500      0.0000    266.4581     68.0678    112.2129
   340.5000      0.0000    266.4763     68.0169    110.7745
   340.7500      0.0000    266.4968     67.8077    109.0060
   341.0000      0.0000    266.4990     67.4743    106.5510
   341.2500      0.0000    266.4744     67.1397    103.7281
   341.5000      0.0000    266.4310     66.9638    101.5731
   341.7500      0.0000    266.3902     67.0208    101.0425
   342.0000      0.0000    266.3795     67.2190    102.0170
   342.2500      0.0000    266.4265     67.3371    103.2933
   342.5000      0.0000    266.5950     67.1174    103.8647
   342.7500      0.0000    267.0724     66.3017    103.9398
   343.0000      0.0000    268.2870     64.6115    104.3608
   343.2500      0.0000    270.8371     61.8660    105.3581
   343.5000      0.0000    275.0338     58.2645    106.3998
   343.7500      0.0000    280.2914     54.4308    107.1818
   344.0000      0.0000    285.0906     50.9406    108.1495
   344.2500      0.0000    287.8246     47.8867    109.7140
   344.5000      0.0000    287.8310     45.1210    111.2818
   344.7500      0.0000    285.7235     42.7353    111.5455
   345.0000      0.0000    282.8572     41.0080    109.7864
   345.2500      0.0000    280.4644     40.0096    106.7855
   345.5000     -2.0000    279.1587     39.5150    104.5328
   345.7500      0.0000    279.0908     39.2528    104.9858
   346.0000      0.0000    280.2841     39.1660    108.7118
   346.2500      0.0000    282.5728     39.5194    114.3811
   346.5000      0.0000    285.2143     40.8123    119.6499
   346.7500      0.0000    286.8477     43.4637    122.9539
   347.0000      0.0000    286.1991     47.4558    124.7631
   347.2500      0.0000    282.9857     52.2791    127.0249
   347.5000      0.0000    278.1852     57.1747    131.2554
   347.7500      0.0000    273.4040     61.4201    137.2484
   348.0000      0.0000    269.8748     64.5480    143.4766
   348.2500      0.0000    267.8997     66.4699    148.5019
   348.5000      0.0000    267.0656     67.4154    152.0584
   348.7500      0.0000    266.8015     67.7390    154.9039
   349.0000      0.0000    266.7253     67.7645    157.7045
   349.2500      0.0000    266.6746     67.7287    160.2135
   349.5000      0.0000    266.6084     67.7768    161.5868
   349.7500      0.0000    266.5356     67.9527    161.3447
   350.0000      0.0000    266.4757     68.2043    159.9216
   350.2500      0.0000    266.4454     68.4229    158.2649
   350.5000      0.0000    266.4469     68.5111    156.9509
   350.7500      0.0000    266.4660     68.4308    155.8785
   351.0000      0.0000    266.4794     68.2146    154.8746
   351.2500      0.0000    266.4694     67.9595    154.4783
   351.5000      0.0000    266.4367     67.7924    155.9684
   351.7500      0.0000    266.4001     67.7880    160.1927
   352.0000      0.0000    266.3813     67.8962    166.0735
   352.2500      0.0000    266.3896     67.9703    170.7641
   352.5000      0.0000    266.4160     67.8918    171.8842
   352.7500      0.0000    266.4408     67.6703    169.3992
   353.0000      0.0000    266.4478     67.4328    165.1359
   353.2500      0.0000    266.4367     67.3199    160.9556
   353.5000      0.0000    266.4221     67.3752    157.7293
   353.7500      0.0000    266.4199     67.5123    155.5764
   354.0000      0.0000    266.4318     67.5905    154.3627
   354.2500      0.0000    266.4442     67.5391    153.7419
