~Version Information
VERS.                      2.0: CWLS Log ASCII Standard - VERSION 2.0
WRAP.                       NO: One line per depth step
~Well Information Block
STRT.FT                15.0000: 
STOP.FT              1891.7500: 
STEP.FT                 0.2500: 
NULL.                -999.2500: 
COMP.          Pioneer Natural Resources: COMPANY
WELL.          Oink Oink 14-36 Tr: WELL
FLD.           Purgatoire River: FIELD
LOC.           236' FSL & 164' FWL: LOCATION
PROV.                 Colorado: PROVINCE
CNTY.               Las Animas: COUNTRY
SRVC.                Patterson: SERVICE COMPANY
DATE.          Wed Jun 22 11:40:13 2005: LOG DATE
UWI.           05 071 08393 00: UNIQUE WELL ID
~Curve Information Block
DEPT.FT            0 000 00 00: Depth
GR.GAPI                       : Gamma Ray
CCL.                          : Casing Collar Locator
TT3.usec                      : CBL 3' Travel Time
AMP3.mV                       : CBL 3' Amplitude
~Parameter Information Block
~A  Depth        GR         CCL         TT3         AMP3    
# ...
  1489.0000     92.5804      0.0000    689.2908      3.9234
  1489.2500     91.6911      0.0000    685.1843      3.9426
  1489.5000     92.9420      0.0000    674.3811      3.9697
  1489.7500     95.2110      0.0000    659.4279      4.0250
  1490.0000     98.2153      0.0000    644.4943      4.1420
  1490.2500    102.2391      0.0000    632.1226      4.3557
  1490.5000    107.1509      0.0000    620.6843      4.6813
  1490.7500    111.8314      0.0000    605.4803      5.0968
  1491.0000    114.7247      0.0000    583.1724      5.5483
  1491.2500    115.0811      0.0000    555.7130      5.9761
  1491.5000    113.6608      0.0000    529.5847      6.3336
  1491.7500    112.2121      0.0000    511.0543      6.5926
  1492.0000    112.3951      0.0000    502.7100      6.7440
  1492.2500    115.1871      0.0000    504.0140      6.7976
  1492.5000    120.7854      0.0000    513.1432      6.7779
  1492.7500    128.5367      0.0000    527.3560      6.7166
  1493.0000    137.0388      0.0000    542.8919      6.6456
  1493.2500    144.6925      0.0000    556.1321      6.5905
  1493.5000    150.3072      0.0000    565.0615      6.5685
  1493.7500    153.4161      0.0000    569.4243      6.5888
  1494.0000    154.4548      0.0000    570.0945      6.6524
  1494.2500    154.6221      0.0000    568.5420      6.7512
  1494.5000    155.1670      0.0000    566.1586      6.8685
  1494.7500    156.6341      0.0000    563.4445      6.9781
  1495.0000    158.7775      0.0000    559.9043      7.0477
  1495.2500    160.9375      0.0000    555.0421      7.0524
  1495.5000    162.2543      0.0000    549.7502      6.9933
  1495.7500    161.8389      0.0000    546.6523      6.8969
  1496.0000    159.2904      0.0000    548.6434      6.7947
  1496.2500    155.2031      0.0000    556.8526      6.6991
  1496.5000    150.9415      0.0000    570.0665      6.5970
  1496.7500    147.7249      0.0000    585.7593      6.4653
  1497.0000    145.8111      0.0000    601.3683      6.2947
  1497.2500    144.4505      0.0000    615.4191      6.1009
  1497.5000    142.6143      0.0000    628.4727      5.9149
  1497.7500    139.8650      0.0000    642.8614      5.7635
  1498.0000    136.6071      0.0000    660.5591      5.6568
  1498.2500    133.4738      0.0000    680.8962      5.5869
  1498.5000    130.4729      0.0000    700.5784      5.5357
  1498.7500    126.9052      0.0000    716.0233      5.4868
  1499.0000    122.1750      0.0000    725.4782      5.4312
  1499.2500    116.4676      0.0000    729.1238      5.3653
  1499.5000    110.6778      0.0000    727.9564      5.2935
  1499.7500    105.9560      0.0000    722.8305      5.2321
  1500.0000    103.3147      0.0000    713.8918      5.2071
  1500.2500    103.4011      0.0000    700.2175      5.2384
  1500.5000    106.2938      0.0000    679.9882      5.3236
  1500.7500    111.2895      0.0000    651.6546      5.4383
  1501.0000    117.0498      0.0000    616.1579      5.5552
  1501.2500    122.2822      0.0000    578.8408      5.6606
  1501.5000    126.3293      0.0000    548.6550      5.7535
  1501.7500    129.1132      0.0000    534.2537      5.8360
  1502.0000    130.8223      0.0000    539.4305      5.9071
  1502.2500    131.7876      0.0000    560.7758      5.9638
  1502.5000    132.3024      0.0000    589.0567      6.0050
  1502.7500    132.3129      0.0000    613.9052      6.0373
  1503.0000    131.4793      0.0000    628.7431      6.0722
  1503.2500    129.5724      0.0000    632.1439      6.1160
  1503.5000    126.5975      0.0000    625.2542      6.1633
  1503.7500    122.7026      0.0000    609.0631      6.2028
  1504.0000    118.2605      0.0000    585.0093      6.2286
  1504.2500    113.9222      0.0000    557.3868      6.2431
  1504.5000    110.4106      0.0000    532.9370      6.2499
  1504.7500    108.2501      0.0000    516.6594      6.2451
  1505.0000    107.5148      0.0000    508.4506      6.2203
  1505.2500    107.6782      0.0000    504.5286      6.1760
  1505.5000    107.8613      0.0000    501.8067      6.1286
  1505.7500    107.4461      0.0000    500.2794      6.1028
  1506.0000    106.4458      0.0000    501.4601      6.1157
  1506.2500    105.2704      0.0000    505.5388      6.1694
  1506.5000    104.3349      0.0000    510.7487      6.2543
  1506.7500    103.8140      0.0000    515.0168      6.3602
  1507.0000    103.4043      0.0000    517.3589      6.4824
  1507.2500    102.3494      0.0000    517.6194      6.6132
  1507.5000    100.1008      0.0000    515.5742      6.7318
  1507.7500     97.0193      0.0000    510.7984      6.8094
  1508.0000     94.2002      0.0000    503.4344      6.8277
  1508.2500     92.6086      0.0000    494.8043      6.7890
  1508.5000     92.4944      0.0000    486.9547      6.7124
  1508.7500     93.5061      0.0000    481.5537      6.6246
  1509.0000     95.1003      0.0000    479.3673      6.5525
  1509.2500     96.6943      0.0000    480.5883      6.5189
  1509.5000     97.5046      0.0000    485.0310      6.5378
  1509.7500     96.6124      0.0000    491.7203      6.6082
  1510.0000     93.5960      0.0000    498.8341      6.7146
  1510.2500     89.2137      0.0000    504.7779      6.8345
  1510.5000     85.3199      0.0000    509.2725      6.9452
  1510.7500     83.8085      0.0000    512.9517      7.0274
  1511.0000     85.3034      0.0000    516.1520      7.0685
  1511.2500     88.7327      0.0000    518.5763      7.0674
  1511.5000     92.1679      0.0000    519.8280      7.0356
  1511.7500     94.0955      0.0000    519.6420      6.9927
  1512.0000     94.1004      0.0000    517.6377      6.9568
  1512.2500     92.7477      0.0000    513.3774      6.9359
  1512.5000     90.9714      0.0000    507.0171      6.9251
  1512.7500     89.3769      0.0000    499.7956      6.9147
  1513.0000     88.0370      0.0000    493.5388      6.9024
  1513.2500     86.9109      0.0000    489.5148      6.8940
  1513.5000     86.1911      0.0000    487.7829      6.8920
  1513.7500     86.2154      0.0000    487.5298      6.8898
  1514.0000     87.3852      0.0000    487.8185      6.8781
  1514.2500     90.0478      0.0000    488.0905      6.8569
  1514.5000     93.8844      0.0000    488.2662      6.8375
  1514.7500     97.4473      0.0000    488.6160      6.8353
  1515.0000     98.9085      0.0000    489.6552      6.8588
  1515.2500     97.4004      0.0000    492.1088      6.9017
  1515.5000     93.4271      0.0000    496.6527      6.9464
  1515.7500     88.2735      0.0000    503.2654      6.9759
  1516.0000     83.3241      0.0000    510.7921      6.9869
  1516.2500     79.5232      0.0000    517.6541      6.9927
  1516.5000     76.9326      0.0000    523.4688      7.0159
  1516.7500     74.8827      0.0000    530.2791      7.0766
  1517.0000     72.7688      0.0000    541.9509      7.1802
  1517.2500     70.4701      0.0000    560.9445      7.3125
  1517.5000     67.9416      0.0000    583.5203      7.4452
  1517.7500     64.8915      0.0000    598.0850      7.5489
  1518.0000     61.2167      0.0000    591.5084      7.6033
  1518.2500     57.5870      0.0000    560.4446      7.6012
  1518.5000     55.3127      0.0000    516.7631      7.5511
  1518.7500     55.4987      0.0000    480.5214      7.4747
  1519.0000     58.2456      0.0000    466.1650      7.3943
  1519.2500     62.6171      0.0000    473.2708      7.3149
  1519.5000     67.3696      0.0000    488.3945      7.2161
  1519.7500     71.6750      0.0000    496.9244      7.0621
  1520.0000     75.1556      0.0000    495.8279      6.8279
  1520.2500     77.4609      0.0000    494.5068      6.5345
  1520.5000     78.1890      0.0000    501.7444      6.2662
  1520.7500     77.3066      0.0000    513.7809      6.1317
  1521.0000     75.3403      0.0000    517.6330      6.1921
  1521.2500     72.9166      0.0000    504.8538      6.4319
  1521.5000     70.3137      0.0000    479.3982      6.7818
  1521.7500     67.7038      0.0000    452.5943      7.1420
  1522.0000     65.6162      0.0000    433.2605      7.4018
  1522.2500     64.6744     -3.0000    423.4619      7.4750
