~Version Information
VERS.                      2.0: CWLS Log ASCII Standard - VERSION 2.0
WRAP.                       NO: One line per depth step
~Well Information Block
STRT.FT                -8.2500: 
STOP.FT               836.2500: 
STEP.FT                 0.2500: 
NULL.                -999.2500: 
COMP.          Pioneer Natural Res.: COMPANY
WELL.            Hustler 12-17: WELL
FLD.           Purgatorie River: FIELD
LOC.           2150' FNL & 450' FWL----------: LOCATION
PROV.                       CO: PROVINCE
CNTY.               Las Animas: COUNTRY
SRVC.                Patterson: SERVICE COMPANY
DATE.          Wed Dec 29 13:37:10 2004: LOG DATE
UWI.           05 071 08236 00: UNIQUE WELL ID
~Curve Information Block
DEPT.FT            0 000 00 00: Depth
AMP3.mV                       : CBL 3' Amplitude
CCL.                          : Casing Collar Locator
GR.GAPI                       : Gamma Ray
TT3.usec                      : CBL 3' Travel Time
~Parameter Information Block
~A  Depth       AMP3        CCL          GR         TT3     
# ...
   628.2500      7.5758      0.0000     62.7292    833.9196
   628.5000      7.6328      0.0000     61.4377    833.1290
   628.7500      7.8273      0.0000     62.3529    831.3478
   629.0000      8.1133      0.0000     66.3696    827.7820
   629.2500      8.3728      0.0000     72.5496    822.3066
   629.5000      8.4912      0.0000     78.5154    816.3400
   629.7500      8.4284      0.0000     82.4213    812.2827
   630.0000      8.2361      0.0000     84.3877    811.5263
   630.2500      8.0270      0.0000     85.8879    813.3489
   630.5000      7.9196      0.0000     87.7569    815.9877
   630.7500      7.9682      0.0000     89.0758    818.2373
   631.0000      8.1184      0.0000     88.2788    819.7611
   631.2500      8.2364      0.0000     85.0970    820.2694
   631.5000      8.1994      0.0000     81.0984    818.3819
   631.7500      7.9800      0.0000     78.6597    811.7567
   632.0000      7.6679      0.0000     79.5968    799.9039
   632.2500      7.4138      0.0000     83.9968    787.3900
   632.5000      7.3248      0.0000     89.7578    782.1140
   632.7500      7.3820      0.0000     93.7531    788.3599
   633.0000      7.4490      0.0000     94.0888    802.5684
   633.2500      7.3817      0.0000     91.2671    817.2433
   633.5000      7.1488      0.0000     87.1593    827.6185
   633.7500      6.8584      0.0000     83.2504    833.4543
   634.0000      6.6700      0.0000     80.0598    836.0812
   634.2500      6.6720      0.0000     77.8002    835.7116
   634.5000      6.8174      0.0000     76.9509    831.8684
   634.7500      6.9630      0.0000     77.9795    825.5013
   635.0000      6.9819      0.0000     80.8564    819.2211
   635.2500      6.8646      0.0000     85.1468    814.7277
   635.5000      6.7210      0.0000     90.3778    810.5668
   635.7500      6.6720      0.0000     96.1384    803.3414
   636.0000      6.7304      0.0000    101.9463    791.2878
   636.2500      6.7947      0.0000    107.2232    776.4962
   636.5000      6.7516      0.0000    111.5241    762.8083
   636.7500      6.5730      0.0000    114.6039    751.2024
   637.0000      6.3308      0.0000    115.9449    739.2919
   637.2500      6.1487      0.0000    114.4860    726.6487
   637.5000      6.1349      0.0000    109.5596    718.2974
   637.7500      6.3172      0.0000    102.2329    721.2216
   638.0000      6.6250      0.0000     95.1791    738.5136
   638.2500      6.9578      0.0000     90.9460    766.8013
   638.5000      7.2853      0.0000     90.4100    797.7728
   638.7500      7.6646      0.0000     92.6386    822.4145
   639.0000      8.1493      0.0000     95.8221    834.8193
   639.2500      8.6957      0.0000     98.4398    831.7253
   639.5000      9.1695      0.0000    100.0936    809.4857
   639.7500      9.4381      0.0000    101.4664    765.7734
   640.0000      9.4476      0.0000    103.3656    707.0722
   640.2500      9.2280      0.0000    105.7962    650.9669
   640.5000      8.8585      0.0000    107.9311    614.6479
   640.7500      8.4397      0.0000    108.7917    600.9211
   641.0000      8.0657      0.0000    108.0206    600.0814
   641.2500      7.7878      0.0000    106.2725    604.1176
   641.5000      7.5994      0.0000    104.8099    613.0093
   641.7500      7.4560      2.0000    104.3826    628.2186
   642.0000      7.2981      2.0000    104.4626    646.9539
   642.2500      7.0716      0.0000    103.8095    664.9791
   642.5000      6.7809      0.0000    101.7833    682.1721
   642.7500      6.5464      0.0000     99.0377    703.2133
   643.0000      6.5500      0.0000     97.1477    732.2010
   643.2500      6.8483      0.0000     97.5246    766.9288
   643.5000      7.2573      0.0000    100.2874    799.9156
   643.7500      7.4922      0.0000    104.1063    824.9298
   644.0000      7.4213      0.0000    107.2628    840.8016
   644.2500      7.1500      0.0000    108.5732    849.7237
   644.5000      6.8866      0.0000    107.2679    854.6321
   644.7500      6.7702      0.0000    102.7661    858.3489
   645.0000      6.8156      0.0000     95.3232    862.7159
   645.2500      6.9704      0.0000     86.7681    867.5153
   645.5000      7.1949      0.0000     80.0727    871.1377
   645.7500      7.4859      0.0000     77.8177    872.5048
   646.0000      7.8369      0.0000     80.7584    871.5970
   646.2500      8.1967      0.0000     87.5218    868.4016
   646.5000      8.4945      0.0000     95.5218    862.3807
   646.7500      8.7180      0.0000    102.2779    853.3074
   647.0000      8.9476      0.0000    106.2593    842.1219
   647.2500      9.2908      0.0000    107.1330    830.7027
   647.5000      9.7806      0.0000    105.7765    821.1116
   647.7500     10.3478      0.0000    104.2017    814.9939
   648.0000     10.8901      0.0000    104.8483    812.8544
   648.2500     11.3635      0.0000    109.0582    813.5146
   648.5000     11.8001      0.0000    115.9475    814.7529
   648.7500     12.2459      0.0000    122.9296    814.6309
   649.0000     12.7065      0.0000    127.3274    811.9723
   649.2500     13.1584      0.0000    127.7213    806.3311
   649.5000     13.5789      0.0000    124.4328    798.6318
   649.7500     13.9351      0.0000    119.0508    791.5942
   650.0000     14.1676      0.0000    113.3717    788.3889
   650.2500     14.2241      0.0000    108.6322    790.1631
   650.5000     14.1125      0.0000    105.4510    794.8570
   650.7500     13.8954      0.0000    104.0484    798.6157
   651.0000     13.6276      0.0000    104.3082    798.5653
   651.2500     13.3156      0.0000    105.7339    794.3206
   651.5000     12.9408      0.0000    107.4819    787.1586
   651.7500     12.5085      0.0000    108.6816    778.5760
   652.0000     12.0570      0.0000    108.8613    770.0865
   652.2500     11.6258      0.0000    107.9423    763.8715
   652.5000     11.2353      0.0000    105.7319    762.7646
   652.7500     10.9079      0.0000    101.8617    768.8636
   653.0000     10.6917      0.0000     96.6072    781.4418
   653.2500     10.6362      0.0000     91.4635    795.9713
   653.5000     10.7382      0.0000     88.4652    805.8748
   653.7500     10.9298      0.0000     88.9823    806.4291
   654.0000     11.1336      0.0000     93.1622    798.1390
   654.2500     11.3241      0.0000    100.0176    786.7742
   654.5000     11.5285      0.0000    107.6630    779.6702
   654.7500     11.7922      0.0000    113.7071    781.1011
   655.0000     12.1574      0.0000    115.9902    790.5716
   655.2500     12.6464      0.0000    113.4657    804.6769
   655.5000     13.2246      0.0000    106.6453    819.8181
   655.7500     13.7834      0.0000     97.2694    833.6019
   656.0000     14.1883      0.0000     87.4491    844.7623
   656.2500     14.3603      0.0000     78.9394    852.3187
   656.5000     14.3170      0.0000     72.8451    855.2072
   656.7500     14.1436      0.0000     69.4111    853.1672
   657.0000     13.9337      0.0000     67.7205    847.6800
   657.2500     13.7308      0.0000     66.0283    841.2679
   657.5000     13.4930      0.0000     63.2238    835.6329
   657.7500     13.1170      0.0000     60.0921    830.5485
   658.0000     12.5325      0.0000     58.7061    824.5056
   658.2500     11.7868      0.0000     60.5681    816.6460
   658.5000     11.0178      0.0000     65.5220    808.6288
   658.7500     10.3475      0.0000     71.9716    804.2894
   659.0000      9.8150      0.0000     77.6065    806.2966
   659.2500      9.3923      0.0000     80.4237    813.0021
   659.5000      9.0321      0.0000     80.0400    819.4506
   659.7500      8.7089      0.0000     78.2818    821.5520
   660.0000      8.4497      0.0000     78.0764    818.8953
   660.2500      8.3256      0.0000     81.3316    814.2554
   660.5000      8.3958      0.0000     87.5506    810.9834
   660.7500      8.6691      0.0000     94.2098    810.2416
   661.0000      9.1207      0.0000     98.4818    810.3658
   661.2500      9.7152      0.0000     99.0055    809.0243
   661.5000     10.4025      0.0000     96.4317    805.4042
