~Version Information
 VERS.                                  2.0 : CWLS LAS VERSION
 WRAP.                                   NO : WRAPING MODE
 SWARE .                 MController 2.5.0J : SOFTWARE VERSION
~Well Information
 WELL.                        McLeod 09-42R : WELL
 COMP.                Petrogulf Corporation : COMPANY
 FLD.                      Purgatoire River : FIELD
 LOC.                SE/NE Sec 09 T33S R67W : LOCATION
 DATE.                          08/13-14/05 : DATE(S) LOGGED
 SRVC.       BLANCO Geological Services LLC : SERVICE COMPANY
 STAT.                                   CO : STATE
 CNTY.                           Las Animas : COUNTY
 CTRY.                                  USA : COUNTRY
 API.                       05 071 08092 00 : API NUMBER
 STRT.FT                               6.00 : START DEPTH
 STOP.FT                            1775.00 : STOP DEPTH
 STEP.FT                               1.00 : DEPTH INCREMENT
 NULL.                                -9999 : NULL VALUE
~Curve information
 DEPTH.FT                                   :
 ROP.MIN/FT                                 :
 GAS.UNITS                                  :
~ASCII Log data
# ...
      1606.0         0.23         11.1 
      1607.0         0.37         16.3 
      1608.0         0.30         15.9 
      1609.0         0.20         13.2 
      1610.0         0.20         12.5 
      1611.0         0.17         11.8 
      1612.0         0.17         10.4 
      1613.0         0.20          9.5 
      1614.0         0.17          8.2 
      1615.0         0.18          7.2 
      1616.0         0.17          6.6 
      1617.0         0.17          7.3 
      1618.0         0.20         10.3 
      1619.0         0.27         15.2 
      1620.0         1.53         57.3 
      1621.0         0.37         44.0 
      1622.0         0.38         28.7 
      1623.0         0.40         20.4 
      1624.0         0.30         16.1 
      1625.0         0.30         14.7 
      1626.0         0.33         14.4 
      1627.0         0.47         13.4 
      1628.0         0.33         21.2 
      1629.0         0.33         21.1 
      1630.0         0.32         18.7 
      1631.0         0.27         15.9 
      1632.0         0.17         15.0 
      1633.0         0.20         14.6 
      1634.0         0.23         13.7 
      1635.0         0.23         14.4 
      1636.0         0.20         13.5 
      1637.0         0.20         12.6 
      1638.0         0.23         12.7 
      1639.0         0.17         12.3 
      1640.0         0.17         12.7 
      1641.0         0.17         13.0 
      1642.0         0.23         13.9 
      1643.0         0.33         13.8 
      1644.0         0.35         12.8 
      1645.0         0.40         10.6 
      1646.0         0.17          9.1 
      1647.0         0.30          8.3 
      1648.0         0.27          7.5 
      1649.0         0.27         11.6 
      1650.0         2.15         62.5 
      1651.0         0.37         32.1 
      1652.0         0.27         22.9 
      1653.0         0.30         20.5 
      1654.0         0.27         17.9 
      1655.0         0.23         16.0 
      1656.0         0.20         15.1 
      1657.0         0.23         15.1 
      1658.0         0.25         15.0 
      1659.0         0.27         15.4 
      1660.0         0.23         14.4 
      1661.0         0.23         12.7 
      1662.0         0.23          9.8 
      1663.0         0.23          8.7 
      1664.0         0.23          7.5 
      1665.0         0.23          7.9 
      1666.0         0.67         16.3 
      1667.0         0.53         16.5 
      1668.0         0.28         15.2 
      1669.0         0.27         13.7 
      1670.0         0.27         13.6 
      1671.0         0.47         13.0 
      1672.0         0.50         15.3 
      1673.0         0.53         18.4 
      1674.0         0.37         19.7 
      1675.0         0.27         16.9 
      1676.0         0.25         14.4 
      1677.0         0.23         12.0 
      1678.0         0.23         11.1 
      1679.0         0.30         15.6 
      1680.0         1.73        192.6 
      1681.0         0.47        187.9 
      1682.0         0.45         97.9 
      1683.0         0.37         50.1 
      1684.0         0.37         34.4 
      1685.0         0.20         27.7 
      1686.0         0.20         26.6 
      1687.0         0.23         25.3 
      1688.0         0.23         24.4 
      1689.0         0.23         21.9 
      1690.0         0.30         20.4 
      1691.0         0.27         19.2 
      1692.0         0.23         20.0 
      1693.0         0.20         21.4 
      1694.0         0.22         21.1 
      1695.0         0.23         20.8 
      1696.0         0.20         19.7 
      1697.0         0.20         18.4 
      1698.0         0.20         17.3 
      1699.0         0.23         17.5 
      1700.0         0.20         17.3 
      1701.0         0.20         17.2 
      1702.0         0.23         16.4 
      1703.0         0.23         15.7 
      1704.0         0.23         14.9 
      1705.0         0.20         13.5 
      1706.0         0.20         12.4 
      1707.0         0.20          9.9 
      1708.0         0.25         11.2 
      1709.0         0.23         16.6 
      1710.0         2.00         81.7 
      1711.0         0.50         48.8 
      1712.0         0.45         31.5 
      1713.0         0.33         22.9 
      1714.0         0.30         19.6 
      1715.0         0.30         16.7 
      1716.0         0.27         15.7 
      1717.0         0.23         13.9 
      1718.0         0.20         13.1 
      1719.0         0.23         13.1 
      1720.0         0.27         12.8 
      1721.0         0.23         12.6 
      1722.0         0.27         12.6 
      1723.0         0.28         12.4 
      1724.0         0.27         11.6 
      1725.0         0.27         12.2 
      1726.0         0.27         11.8 
      1727.0         0.23         12.3 
      1728.0         0.30         12.3 
      1729.0         0.30         12.2 
      1730.0         0.27         12.1 
      1731.0         0.27         12.3 
      1732.0         0.33         12.5 
      1733.0         0.23         12.5 
      1734.0         0.23         12.3 
      1735.0         0.22         12.1 
      1736.0         0.23         10.8 
      1737.0         0.23          9.6 
      1738.0         0.27         10.2 
      1739.0         0.27         16.0 
      1740.0         5.77         76.8 
      1741.0         0.40         20.8 
      1742.0         0.43         20.2 
      1743.0         0.47         19.3 
      1744.0         0.43         17.2 
      1745.0         0.43         15.4 
      1746.0         0.33         12.6 
      1747.0         0.35         11.8 
      1748.0         0.37         11.9 
      1749.0         0.33         11.6 
      1750.0         0.43         16.6 
      1751.0         0.37         22.6 
      1752.0         0.37         23.7 
      1753.0         0.33         24.1 
      1754.0         0.33         23.3 
      1755.0         0.40         22.1 
      1756.0         0.27         20.6 
      1757.0         0.28         20.5 
      1758.0         0.27         20.2 
      1759.0         0.33         19.9 
      1760.0         0.33         19.8 
      1761.0         0.30         19.3 
      1762.0         0.37         21.0 
      1763.0         0.33         21.3 
      1764.0         0.30         20.7 
      1765.0         0.27         19.5 
      1766.0         0.40         16.8 
      1767.0         0.28         10.2 
      1768.0         0.30          7.5 
      1769.0         0.30          8.3 
      1770.0         4.38         93.1 
      1771.0         0.33         30.4 
      1772.0         0.30         28.3 
      1773.0         0.33         22.1 
      1774.0         0.30         16.6 
      1775.0         0.32         15.4 
