~Version Information
VERS.                      2.0: CWLS Log ASCII Standard - VERSION 2.0
WRAP.                       NO: One line per depth step
~Well Information Block
STRT.FT               456.0000: 
STOP.FT              1703.0000: 
STEP.FT                 0.2500: 
NULL.                -999.2500: 
COMP.          Pioneer Natural Resources: COMPANY
WELL.                Mead 11-9: WELL
FLD.           Purgatoire River: FIELD
LOC.           1127' FNL & 668' FWL: LOCATION
PROV.                 Colorado: PROVINCE
CNTY.               Las Animas: COUNTRY
SRVC.                Patterson: SERVICE COMPANY
DATE.          Fri Feb 18 16:14:34 2005: LOG DATE
UWI.           05 071 08160 00: UNIQUE WELL ID
~Curve Information Block
DEPT.FT            0 000 00 00: Depth
SN.Ohm-m                      : IEL Short Normal
SP.mV                         : IEL Spontaneous Potential
DIR.Ohm-m                     : IEL Induction Resistivity
GR.GAPI                       : Gamma Ray
~Parameter Information Block
~A  Depth        SN          SP         DIR          GR     
# ...
   791.0000   2000.0000   2000.0000     13.6891    111.5067
   791.2500   2000.0000   2000.0000     13.6424    105.5870
   791.5000   2000.0000   2000.0000     13.5951     97.5338
   791.7500   2000.0000   2000.0000     13.5639     94.0239
   792.0000   2000.0000   2000.0000     13.5607     93.1874
   792.2500   2000.0000   2000.0000     13.5930     95.8840
   792.5000   2000.0000   2000.0000     13.6611    104.0473
   792.7500   2000.0000   2000.0000     13.7495    111.1164
   793.0000   2000.0000   2000.0000     13.8211    121.4520
   793.2500   2000.0000   2000.0000     13.8204    126.4656
   793.5000   2000.0000   2000.0000     13.6899    128.9899
   793.7500   2000.0000   2000.0000     13.3915    126.9389
   794.0000   2000.0000   2000.0000     12.9217    119.0680
   794.2500   2000.0000   2000.0000     12.3115    111.6080
   794.5000   2000.0000   2000.0000     11.6146     99.2310
   794.7500   2000.0000   2000.0000     10.8930     91.6728
   795.0000   2000.0000   2000.0000     10.2032     84.0290
   795.2500   2000.0000   2000.0000      9.5857     82.5445
   795.5000   2000.0000   2000.0000      9.0588     86.1897
   795.7500   2000.0000   2000.0000      8.6194     91.7978
   796.0000   2000.0000   2000.0000      8.2490    102.5199
   796.2500   2000.0000   2000.0000      7.9236    109.6365
   796.5000   2000.0000   2000.0000      7.6226    118.3930
   796.7500   2000.0000   2000.0000      7.3341    122.5352
   797.0000   2000.0000   2000.0000      7.0549    126.0611
   797.2500   2000.0000   2000.0000      6.7861    126.5688
   797.5000   2000.0000   2000.0000      6.5300    124.9691
   797.7500   2000.0000   2000.0000      6.2891    123.1759
   798.0000   2000.0000   2000.0000      6.0675    121.2785
   798.2500   2000.0000   2000.0000      5.8706    121.1456
   798.5000   2000.0000   2000.0000      5.7044    122.3611
   798.7500   2000.0000   2000.0000      5.5727    123.5688
   799.0000   2000.0000   2000.0000      5.4756    125.0291
   799.2500   2000.0000   2000.0000      5.4098    125.3425
   799.5000   2000.0000   2000.0000      5.3702    124.8636
   799.7500   2000.0000   2000.0000      5.3517    124.6265
   800.0000   2000.0000   2000.0000      5.3507    125.9842
   800.2500   2000.0000   2000.0000      5.3653    128.3797
   800.5000   2000.0000   2000.0000      5.3950    133.4712
   800.7500   2000.0000   2000.0000      5.4390    137.0880
   801.0000   2000.0000   2000.0000      5.4959    141.5577
   801.2500   2000.0000   2000.0000      5.5631    143.2692
   801.5000   2000.0000   2000.0000      5.6374    143.3679
   801.7500   2000.0000   2000.0000      5.7150    141.9147
   802.0000   2000.0000   2000.0000      5.7918    138.1512
   802.2500   2000.0000   2000.0000      5.8626    134.9633
   802.5000   2000.0000   2000.0000      5.9222    129.6474
   802.7500   2000.0000   2000.0000      5.9670    126.0819
   803.0000   2000.0000   2000.0000      5.9975    121.4130
   803.2500   2000.0000   2000.0000      6.0181    119.1555
   803.5000   2000.0000   2000.0000      6.0346    117.7093
   803.7500   2000.0000   2000.0000      6.0508    118.3425
   804.0000   2000.0000   2000.0000      6.0670    121.4534
   804.2500   2000.0000   2000.0000      6.0793    124.1177
   804.5000   2000.0000   2000.0000      6.0826    126.9827
   804.7500   2000.0000   2000.0000      6.0715    127.5062
   805.0000   2000.0000   2000.0000      6.0432    126.9298
   805.2500   2000.0000   2000.0000      5.9979    126.6213
   805.5000   2000.0000   2000.0000      5.9406    127.2541
   805.7500   2000.0000   2000.0000      5.8810    128.1958
   806.0000   2000.0000   2000.0000      5.8320    129.3754
   806.2500   2000.0000   2000.0000      5.8072    129.5119
   806.5000   2000.0000   2000.0000      5.8165    128.3349
   806.7500   2000.0000   2000.0000      5.8629    126.6906
   807.0000   2000.0000   2000.0000      5.9410    123.6687
   807.2500   2000.0000   2000.0000      6.0377    121.9104
   807.5000   2000.0000   2000.0000      6.1364    120.3088
   807.7500   2000.0000   2000.0000      6.2220    119.8138
   808.0000   2000.0000   2000.0000      6.2863    119.0263
   808.2500   2000.0000   2000.0000      6.3296    117.8274
   808.5000   2000.0000   2000.0000      6.3582    114.4346
   808.7500   2000.0000   2000.0000      6.3814    111.3523
   809.0000   2000.0000   2000.0000      6.4085    106.7223
   809.2500   2000.0000   2000.0000      6.4484    104.4371
   809.5000   2000.0000   2000.0000      6.5094    103.2365
   809.7500   2000.0000   2000.0000      6.5987    104.1645
   810.0000   2000.0000   2000.0000      6.7208    107.7487
   810.2500   2000.0000   2000.0000      6.8781    110.9700
   810.5000   2000.0000   2000.0000      7.0701    115.9415
   810.7500   2000.0000   2000.0000      7.2950    118.9193
   811.0000   2000.0000   2000.0000      7.5490    122.3129
   811.2500   2000.0000   2000.0000      7.8262    123.4971
   811.5000   2000.0000   2000.0000      8.1188    123.1416
   811.7500   2000.0000   2000.0000      8.4160    121.2892
   812.0000   2000.0000   2000.0000      8.7054    115.7816
   812.2500   2000.0000   2000.0000      8.9745    110.2639
   812.5000   2000.0000   2000.0000      9.2122    100.0678
   812.7500   2000.0000   2000.0000      9.4109     93.0170
   813.0000   2000.0000   2000.0000      9.5656     83.9313
   813.2500   2000.0000   2000.0000      9.6747     79.6766
   813.5000   2000.0000   2000.0000      9.7409     76.7960
   813.7500   2000.0000   2000.0000      9.7745     77.3379
   814.0000   2000.0000   2000.0000      9.7928     81.5137
   814.2500   2000.0000   2000.0000      9.8125     86.1597
   814.5000   2000.0000   2000.0000      9.8389     95.1614
   814.7500   2000.0000   2000.0000      9.8597    101.9734
   815.0000   2000.0000   2000.0000      9.8490    112.1867
   815.2500   2000.0000   2000.0000      9.7809    118.1803
   815.5000   2000.0000   2000.0000      9.6405    124.7027
   815.7500   2000.0000   2000.0000      9.4246    126.9381
   816.0000   2000.0000   2000.0000      9.1364    126.8823
   816.2500   2000.0000   2000.0000      8.7848    124.6665
   816.5000   2000.0000   2000.0000      8.3906    118.4390
   816.7500   2000.0000   2000.0000      7.9877    112.8141
   817.0000   2000.0000   2000.0000      7.6147    103.9691
   817.2500   2000.0000   2000.0000      7.3024     99.3598
   817.5000   2000.0000   2000.0000      7.0663     96.5577
   817.7500   2000.0000   2000.0000      6.9068     97.6155
   818.0000   2000.0000   2000.0000      6.8141    101.9915
   818.2500   2000.0000   2000.0000      6.7728    105.4760
   818.5000   2000.0000   2000.0000      6.7650    110.1820
   818.7500   2000.0000   2000.0000      6.7710    112.8716
   819.0000   2000.0000   2000.0000      6.7717    116.5610
   819.2500   2000.0000   2000.0000      6.7514    118.7988
   819.5000   2000.0000   2000.0000      6.7037    121.3077
   819.7500   2000.0000   2000.0000      6.6333    122.0407
   820.0000   2000.0000   2000.0000      6.5538    121.5524
   820.2500   2000.0000   2000.0000      6.4807    120.5035
   820.5000   2000.0000   2000.0000      6.4249    118.9443
   820.7500   2000.0000   2000.0000      6.3892    118.5065
   821.0000   2000.0000   2000.0000      6.3706    119.0804
   821.2500   2000.0000   2000.0000      6.3626    119.9967
   821.5000   2000.0000   2000.0000      6.3586    121.2155
   821.7500   2000.0000   2000.0000      6.3530    121.4610
   822.0000   2000.0000   2000.0000      6.3420    120.8980
   822.2500   2000.0000   2000.0000      6.3245    120.2193
   822.5000   2000.0000   2000.0000      6.3013    119.3754
   822.7500   2000.0000   2000.0000      6.2726    119.1791
   823.0000   2000.0000   2000.0000      6.2355    119.6562
   823.2500   2000.0000   2000.0000      6.1850    120.4823
   823.5000   2000.0000   2000.0000      6.1175    122.2457
   823.7500   2000.0000   2000.0000      6.0345    123.6303
   824.0000   2000.0000   2000.0000      5.9430    125.8672
   824.2500   2000.0000   2000.0000      5.8516    127.2698
