~Version Information
VERS.                      2.0: CWLS Log ASCII Standard - VERSION 2.0
WRAP.                       NO: One line per depth step
~Well Information Block
STRT.FT               555.6000: 
STOP.FT              2132.0000: 
STEP.FT                 0.1000: 
NULL.                -999.2500: 
COMP.          Petrogulf Corporation: COMPANY
WELL.           Montoya 12-41R: WELL
FLD.           Purgatorie River: FIELD
LOC.           1086' FNL & 610' FEL: LOCATION
CNTY.               Las Animas: COUNTY
SRVC.                         : SERVICE COMPANY
DATE.          Thu Nov 18 08:45:51 2004: LOG DATE
UWI.           05 071 08241 00: UNIQUE WELL ID
STAT.                 Colorado: STATE
~Curve Information Block
DEPT.FT            0 000 00 00: Depth
DCAL.in                       : CDL Caliper
RHOB.g/cc                     : CDL Bulk Density
RHOC.g/cc                     : CDL Density Correction
DPOR.pu                       : CDL Density Porosity
GR.GAPI                       : Gamma Ray
NPOR.pu                       : Neutron Porosity
~Parameter Information Block
~A  Depth       DCAL        RHOB        RHOC        DPOR         GR         NPOR    
# ...
  1918.8000      7.9010      2.6190      0.0828      1.8795     68.7377     24.2998
  1918.9000      7.9010      2.6136      0.0344      2.2055     71.2542     24.2359
  1919.0000      7.9104      2.6091      0.0311      2.4788     76.6409     24.0532
  1919.1000      7.9104      2.6092      0.0418      2.4749     84.3328     23.7860
  1919.2000      7.9104      2.6031      0.0429      2.8408     92.9170     23.5366
  1919.3000      7.9177      2.5821      0.0346      4.1169    104.3630     24.0174
  1919.4000      7.9177      2.5528     -0.0123      5.8891    118.1014     25.0817
  1919.5000      7.9283      2.5367     -0.0202      6.8688    127.7904     26.1794
  1919.6000      7.9283      2.5315      0.0411      7.1798    130.2636     27.0642
  1919.7000      7.9283      2.5030      0.0535      8.9114    129.2404     27.2370
  1919.8000      7.9417      2.4339      0.0048     13.0974    126.7114     26.4646
  1919.9000      7.9417      2.3452     -0.0094     18.4748    125.0624     25.7768
  1920.0000      7.9736      2.2657     -0.0356     23.2891    130.1654     26.1123
  1920.1000      7.9736      2.2155     -0.0274     26.3319    143.8309     27.1520
  1920.2000      7.9736      2.2065     -0.0303     26.8759    158.8465     28.0657
  1920.3000      8.0227      2.2457     -0.0192     24.5018    164.2835     28.3328
  1920.4000      8.0227      2.3282      0.0357     19.5005    162.5503     28.3901
  1920.5000      8.0416      2.4246      0.1784     13.6578    161.0599     29.2879
  1920.6000      8.0416      2.4927      0.3154      9.5322    156.4539     30.6195
  1920.7000      8.0416      2.5161      0.3209      8.1148    149.0994     31.2044
  1920.8000      8.0794      2.5126      0.3466      8.3298    144.4859     31.1682
  1920.9000      8.0794      2.4992      0.3711      9.1403    141.2753     30.7213
  1921.0000      8.1372      2.4838      0.3075     10.0728    139.5276     29.8140
  1921.1000      8.1372      2.4841      0.2425     10.0571    143.7989     28.8734
  1921.2000      8.1372      2.5123      0.2230      8.3445    149.6837     28.1166
  1921.3000      8.0886      2.5566      0.2514      5.6601    148.5146     27.5940
  1921.4000      8.0886      2.5955      0.3324      3.3015    142.3442     27.6195
  1921.5000      7.9848      2.6119      0.3377      2.3105    138.5471     28.0326
  1921.6000      7.9848      2.6061      0.2872      2.6587    140.1368     28.3190
  1921.7000      7.9848      2.5954      0.2424      3.3061    145.7260     28.2391
  1921.8000      7.9372      2.5876      0.2343      3.7824    152.9232     28.2572
  1921.9000      7.9372      2.5787      0.2276      4.3220    156.3009     28.9416
  1922.0000      7.9296      2.5647      0.2110      5.1698    153.0685     29.2571
  1922.1000      7.9296      2.5436      0.1631      6.4467    145.9001     28.5269
  1922.2000      7.9296      2.5259      0.1065      7.5241    137.2602     27.7800
  1922.3000      7.9210      2.5264      0.0881      7.4910    131.0127     27.6109
  1922.4000      7.9210      2.5387      0.1451      6.7474    130.5269     27.9101
  1922.5000      7.9172      2.5398      0.1448      6.6771    133.8522     28.3818
  1922.6000      7.9172      2.5254      0.0862      7.5486    138.3843     28.4983
  1922.7000      7.9172      2.5085      0.1002      8.5757    145.3617     28.1617
  1922.8000      7.9312      2.4960      0.0865      9.3349    153.6613     27.7873
  1922.9000      7.9312      2.4935      0.0756      9.4876    159.2667     27.5233
  1923.0000      7.9417      2.5075      0.0648      8.6355    159.9851     27.1831
  1923.1000      7.9417      2.5332      0.0838      7.0788    153.6970     26.7244
  1923.2000      7.9417      2.5573      0.0908      5.6162    141.7161     26.2101
  1923.3000      7.9342      2.5722      0.1296      4.7130    132.0716     25.8440
  1923.4000      7.9342      2.5769      0.1233      4.4290    128.5725     25.8362
  1923.5000      7.9296      2.5754      0.1469      4.5233    125.9004     25.9439
  1923.6000      7.9296      2.5718      0.0787      4.7378    121.2375     26.0384
  1923.7000      7.9296      2.5686      0.0394      4.9328    119.3109     26.0968
  1923.8000      7.9299      2.5676      0.0674      4.9918    122.8437     25.6119
  1923.9000      7.9299      2.5694      0.0572      4.8836    126.7630     24.6526
  1924.0000      7.9287      2.5695      0.0812      4.8801    128.5914     24.1119
  1924.1000      7.9287      2.5623      0.0456      5.3155    131.7138     23.8879
  1924.2000      7.9287      2.5533      0.0290      5.8588    133.5559     23.1239
  1924.3000      7.9242      2.5533      0.0202      5.8585    129.5567     21.8538
  1924.4000      7.9242      2.5602      0.0623      5.4395    125.1249     21.1280
  1924.5000      7.9240      2.5587      0.0469      5.5350    125.4787     21.4601
  1924.6000      7.9240      2.5463      0.0219      6.2836    127.0717     22.2943
  1924.7000      7.9240      2.5322      0.0223      7.1372    127.5753     23.3398
  1924.8000      7.9288      2.5181     -0.0013      7.9924    127.1050     24.4875
  1924.9000      7.9288      2.5064     -0.0001      8.7033    123.9562     24.9637
  1925.0000      7.9277      2.5033      0.0249      8.8914    122.1660     24.4844
  1925.1000      7.9277      2.5115      0.0188      8.3922    124.3178     23.8649
  1925.2000      7.9277      2.5268      0.0568      7.4639    126.4411     23.3540
  1925.3000      7.9238      2.5356      0.0888      6.9347    127.7690     23.0362
  1925.4000      7.9238      2.5275      0.0525      7.4224    129.7676     23.4818
  1925.5000      7.9261      2.5137      0.0196      8.2605    132.1440     24.3640
  1925.6000      7.9261      2.5090      0.0450      8.5452    133.7017     24.9105
  1925.7000      7.9261      2.5130      0.0238      8.3059    133.4787     25.0513
  1925.8000      7.9344      2.5189      0.0379      7.9474    130.9046     25.1124
  1925.9000      7.9344      2.5202      0.0398      7.8668    126.2743     25.3622
  1926.0000      7.9426      2.5147      0.0275      8.2012    122.5374     25.6920
  1926.1000      7.9426      2.5077      0.0193      8.6213    123.0463     25.8147
  1926.2000      7.9426      2.5078      0.0195      8.6174    126.5445     25.7129
  1926.3000      7.9426      2.5177      0.0064      8.0156    129.3323     25.4118
  1926.4000      7.9426      2.5316      0.0377      7.1762    130.2380     24.8790
  1926.5000      7.9368      2.5426      0.0345      6.5116    131.7972     24.3555
  1926.6000      7.9368      2.5427      0.0832      6.5023    133.3530     24.2582
  1926.7000      7.9368      2.5268      0.0472      7.4638    130.4684     24.4582
  1926.8000      7.9364      2.5058      0.0036      8.7423    126.8520     24.6210
  1926.9000      7.9364      2.4906      0.0209      9.6621    128.4904     25.0583
  1927.0000      7.9365      2.4844     -0.0001     10.0378    133.2543     25.7207
  1927.1000      7.9365      2.4947      0.0072      9.4104    136.8470     25.6938
  1927.2000      7.9365      2.5204      0.0276      7.8537    138.5313     24.8203
  1927.3000      7.9376      2.5456      0.0720      6.3263    138.3264     24.2527
  1927.4000      7.9376      2.5606      0.0823      5.4204    135.6278     24.7405
  1927.5000      7.9421      2.5674      0.0747      5.0058    132.9993     25.6148
  1927.6000      7.9421      2.5698      0.0684      4.8618    132.7042     26.1972
  1927.7000      7.9421      2.5685      0.0812      4.9370    132.8421     26.4439
  1927.8000      7.9511      2.5621      0.0741      5.3292    132.1749     26.0662
  1927.9000      7.9511      2.5483      0.0695      6.1630    132.1544     25.1099
  1928.0000      7.9687      2.5278      0.0522      7.4073    131.8304     24.3776
  1928.1000      7.9687      2.5064      0.0509      8.7036    129.6802     24.0958
  1928.2000      7.9687      2.4943      0.0224      9.4390    128.9321     23.6985
  1928.3000      7.9840      2.4954      0.0456      9.3690    130.3354     23.2617
