~Version Information
VERS.                      2.0: CWLS Log ASCII Standard - VERSION 2.0
WRAP.                       NO: One line per depth step
~Well Information Block
STRT.FT               -13.5000: 
STOP.FT              2474.2500: 
STEP.FT                 0.2500: 
NULL.                -999.2500: 
COMP.          Pioneer Natural Resources: COMPANY
WELL.              Tiaga 23-14: WELL
FLD.           Purgatorie River: FIELD
LOC.           2168' FSL & 2030' FWL--: LOCATION
PROV.                       CO: PROVINCE
CNTY.               Las Animas: COUNTRY
SRVC.                         : SERVICE COMPANY
DATE.          Thu May 12 17:01:37 2005: LOG DATE
UWI.                          : UNIQUE WELL ID
~Curve Information Block
DEPT.FT            0 000 00 00: Depth
TT3.usec                      : CBL 3' Travel Time
AMP3.mV                       : CBL 3' Amplitude
GR.GAPI                       : Gamma Ray
CCL.                          : Casing Collar Locator
~Parameter Information Block
~A  Depth       TT3         AMP3         GR         CCL     
# ...
  1795.5000    545.8120      9.6771     52.3308      0.0000
  1795.7500    514.9446      9.7294     51.7079      0.0000
  1796.0000    467.9057      9.8629     51.6077      0.0000
  1796.2500    425.9761     10.0474     52.6055      0.0000
  1796.5000    405.2897     10.1962     55.3670      0.0000
  1796.7500    407.3057     10.2261     60.6359      0.0000
  1797.0000    427.8625     10.1051     68.7316      0.0000
  1797.2500    456.1537      9.8685     79.2191      0.0000
  1797.5000    475.4478      9.5890     91.1296      0.0000
  1797.7500    486.7358      9.3153    103.2718      0.0000
  1798.0000    512.6201      9.0444    114.4510      0.0000
  1798.2500    559.2666      8.7560    123.6392      0.0000
  1798.5000    604.3000      8.4361    129.7341      0.0000
  1798.7500    627.8010      8.1270    131.2014      0.0000
  1799.0000    627.1744      8.0361    126.6761      0.0000
  1799.2500    606.8674      8.3315    116.3503      0.0000
  1799.5000    575.3306      8.7402    102.4613      0.0000
  1799.7500    550.1000      8.8523     88.1119      0.0000
  1800.0000    551.2960      8.7227     75.6993      0.0000
  1800.2500    583.9958      8.6527     66.4557      0.0000
  1800.5000    628.5780      8.7201     60.9292      0.0000
  1800.7500    658.4524      8.8391     59.2969      2.0000
  1801.0000    668.1996      8.9654     61.1858     -2.0000
  1801.2500    672.3735      9.1060     65.5801     -2.0000
  1801.5000    678.5965      9.3088     71.0833      2.0000
  1801.7500    673.4232      9.7147     76.3107      0.0000
  1802.0000    643.5364     10.3266     80.3483      0.0000
  1802.2500    602.3851     10.7075     83.1294      0.0000
  1802.5000    576.1317     10.5105     85.2570      0.0000
  1802.7500    569.1458     10.0643     87.2782      0.0000
  1803.0000    567.2819      9.8142     89.1453      0.0000
  1803.2500    564.9024      9.7624     90.4216      0.0000
  1803.5000    567.8261      9.7330     90.9327      0.0000
  1803.7500    580.2407      9.6755     91.0520      0.0000
  1804.0000    599.0260      9.6425     91.2503      0.0000
  1804.2500    616.0397      9.6762     91.5163      0.0000
  1804.5000    624.4882      9.7540     91.4615      0.0000
  1804.7500    625.8601      9.8186     90.9367      0.0000
  1805.0000    624.0235      9.8348     90.2769      0.0000
  1805.2500    610.8314      9.8194     89.9630      0.0000
  1805.5000    574.5164      9.8179     90.2485      0.0000
  1805.7500    523.2599      9.8395     91.0863      0.0000
  1806.0000    483.7889      9.8196     92.2775      0.0000
  1806.2500    475.1956      9.6780     93.6451      0.0000
  1806.5000    493.3660      9.4323     94.9708      0.0000
  1806.7500    518.2803      9.1980     95.7127      0.0000
  1807.0000    535.3858      9.0510     95.0587      0.0000
  1807.2500    547.7537      8.9661     92.5603      0.0000
  1807.5000    563.2722      8.9032     88.6736      0.0000
  1807.7500    578.7202      8.8778     84.5101      0.0000
  1808.0000    577.1304      8.9252     81.0576      0.0000
  1808.2500    545.3155      9.0417     78.7299      0.0000
  1808.5000    498.6927      9.1859     77.5401      0.0000
  1808.7500    466.8716      9.3106     77.3984      0.0000
  1809.0000    457.3696      9.3798     78.1505      0.0000
  1809.2500    463.6244      9.3812     79.5235      0.0000
  1809.5000    487.0768      9.3337     81.1986      0.0000
  1809.7500    521.5358      9.2747     82.9454      0.0000
  1810.0000    548.3696      9.2350     84.6008      0.0000
  1810.2500    560.9051      9.2431     85.8741      0.0000
  1810.5000    567.5584      9.3426     86.2489      0.0000
  1810.7500    577.5482      9.5535     85.2412      0.0000
  1811.0000    592.5194      9.8197     82.9234      0.0000
  1811.2500    600.1133     10.0521     80.2107      0.0000
  1811.5000    586.3294     10.2058     78.3678      0.0000
  1811.7500    563.2783     10.2752     77.9204      0.0000
  1812.0000    559.6701     10.2579     78.1883      0.0000
  1812.2500    580.6530     10.1708     78.1660      0.0000
  1812.5000    605.6946     10.0661     77.5957      0.0000
  1812.7500    620.0975      9.9913     76.8767      0.0000
  1813.0000    625.4579      9.9495     76.2595      0.0000
  1813.2500    628.4475      9.9204     75.5460      0.0000
  1813.5000    633.9031      9.8988     74.4257      0.0000
  1813.7500    643.6810      9.8807     72.8584      0.0000
  1814.0000    654.5745      9.8245     71.1635      0.0000
  1814.2500    659.1799      9.6720     69.7721      0.0000
  1814.5000    651.9667      9.4214     68.6577      0.0000
  1814.7500    633.0808      9.1622     67.0762      0.0000
  1815.0000    607.1802      9.0264     64.3920      0.0000
  1815.2500    582.8173      9.0918     61.2772      0.0000
  1815.5000    571.5421      9.3205     59.6041      0.0000
  1815.7500    580.5526      9.5841     60.8501      0.0000
  1816.0000    603.4258      9.7390     64.8839      0.0000
  1816.2500    624.7684      9.7021     70.6191      0.0000
  1816.5000    638.8160      9.5077     77.6778      0.0000
  1816.7500    652.5220      9.2789     86.7908      0.0000
  1817.0000    667.2037      9.1193     98.2768      0.0000
  1817.2500    671.7094      9.0397    110.6887      0.0000
  1817.5000    653.3873      8.9903    121.4990      0.0000
  1817.7500    609.0715      8.9399    128.6964      0.0000
  1818.0000    554.1924      8.9081    131.2726      0.0000
  1818.2500    518.7707      8.9383    128.9913      0.0000
  1818.5000    523.9531      9.0492    122.6169      0.0000
  1818.7500    564.3249      9.2083    114.0901      0.0000
  1819.0000    610.7782      9.3602    105.8799      0.0000
  1819.2500    634.6204      9.4821    100.0603      0.0000
  1819.5000    634.6046      9.5956     97.7283      0.0000
  1819.7500    630.5861      9.7140     98.7627      0.0000
  1820.0000    636.9945      9.7992    102.1099      0.0000
  1820.2500    654.5435      9.8145    106.6401      0.0000
  1820.5000    674.7991      9.7891    111.7774      0.0000
  1820.7500    686.5596      9.7762    117.0718      0.0000
  1821.0000    686.4645      9.7921    121.3252      0.0000
  1821.2500    681.1929      9.8241    122.7875      0.0000
  1821.5000    677.4772      9.8536    120.7503      0.0000
  1821.7500    676.3137      9.8580    116.7631      0.0000
  1822.0000    675.9943      9.8199    113.7001      0.0000
  1822.2500    675.5032      9.7454    113.4054      0.0000
  1822.5000    675.1432      9.6653    115.3617      0.0000
  1822.7500    676.3154      9.6057    117.6107      0.0000
  1823.0000    681.1222      9.5650    118.8004      0.0000
  1823.2500    690.4264      9.5236    119.2266      0.0000
  1823.5000    701.0476      9.4635    119.9021      0.0000
  1823.7500    706.1133      9.3796    120.8406      0.0000
  1824.0000    699.9152      9.2771    120.6078      0.0000
  1824.2500    685.1748      9.1667    117.6086      0.0000
  1824.5000    674.1381      9.0735    111.5067      0.0000
  1824.7500    675.7445      9.0293    103.3182      0.0000
  1825.0000    685.0767      9.0375     94.6908      0.0000
  1825.2500    690.2726      9.0628     87.3909      0.0000
  1825.5000    683.1541      9.0518     82.7513      0.0000
  1825.7500    663.4004      8.9460     80.8397      0.0000
  1826.0000    639.2815      8.7085     80.3202      0.0000
  1826.2500    621.1523      8.3858     79.4427      0.0000
  1826.5000    611.8547      8.1115     77.0987      0.0000
  1826.7500    602.6758      8.0213     73.2539      0.0000
  1827.0000    577.9731      8.1820     69.0466      0.0000
  1827.2500    536.1684      8.5473     66.5049      0.0000
  1827.5000    503.3817      8.9219     67.5760      0.0000
  1827.7500    508.4295      9.0592     73.0071      0.0000
  1828.0000    552.0083      8.8924     82.0181      0.0000
  1828.2500    612.3094      8.6057     92.9614      0.0000
  1828.5000    667.2088      8.4223    104.2918      0.0000
  1828.7500    701.6993      8.3900    114.9869      0.0000
