~Version Information
VERS.                      2.0: CWLS Log ASCII Standard - VERSION 2.0
WRAP.                       NO: One line per depth step
~Well Information Block
STRT.FT               647.0000: 
STOP.FT              1166.0000: 
STEP.FT                 0.1000: 
NULL.                -999.2500: 
COMP.          Pioneer Natural Resources: COMPANY
WELL.             Linda T 32-3: WELL
FLD.           Purgatoire River: FIELD
LOC.           1350' FNL & 2290' FEL: LOCATION
PROV.                 Colorado: PROVINCE
CNTY.               Las Animas: COUNTRY
SRVC.                Patterson: SERVICE COMPANY
DATE.          Sat Feb 05 08:06:50 2005: LOG DATE
UWI.           05 071 08215 00: UNIQUE WELL ID
~Curve Information Block
DEPT.FT            0 000 00 00: Depth
DCAL.in                       : CDL Caliper
RHOB.g/cc                     : CDL Bulk Density
RHOC.g/cc                     : CDL Density Correction
DPOR.pu                       : CDL Density Porosity
GR.GAPI                       : Gamma Ray
NPOR.pu                       : Neutron Porosity
~Parameter Information Block
~A  Depth       DCAL        RHOB        RHOC        DPOR         GR         NPOR    
# ...
   714.2000      8.1831      2.4518      0.0814     12.0137     51.5574     23.3849
   714.3000      8.1789      2.4492      0.1088     12.1675     51.4160     22.8983
   714.4000      8.1789      2.4459      0.0871     12.3696     56.4184     22.9243
   714.5000      8.1364      2.4456      0.1071     12.3889     67.7369     23.5059
   714.6000      8.1364      2.4569      0.0765     11.7011     82.3584     23.9566
   714.7000      8.1364      2.4792      0.1085     10.3518     96.1484     23.9755
   714.8000      8.1320      2.5013      0.0815      9.0114    108.1647     23.8377
   714.9000      8.1320      2.5248      0.1003      7.5905    119.0903     24.3136
   715.0000      8.1115      2.5571      0.1068      5.6317    129.1171     25.5878
   715.1000      8.1115      2.5898      0.1740      3.6474    139.5088     26.7366
   715.2000      8.1115      2.6057      0.1637      2.6859    147.4997     27.1326
   715.3000      8.1035      2.6012      0.1146      2.9550    149.0841     26.8065
   715.4000      8.1035      2.5897      0.0806      3.6521    148.5704     26.4045
   715.5000      8.1078      2.5804      0.0899      4.2159    151.1858     26.5592
   715.6000      8.1078      2.5683      0.0855      4.9488    155.9636     27.0440
   715.7000      8.1078      2.5525      0.0536      5.9120    158.3726     27.6104
   715.8000      8.1783      2.5420      0.0871      6.5426    156.9038     28.1485
   715.9000      8.1783      2.5416      0.0500      6.5702    155.3315     28.3308
   716.0000      8.1903      2.5472      0.0747      6.2300    156.3688     27.9929
   716.1000      8.1903      2.5524      0.0840      5.9177    155.9151     27.5038
   716.2000      8.1903      2.5538      0.0794      5.8305    153.8475     27.2673
   716.3000      8.1846      2.5492      0.0751      6.1115    152.9371     27.2901
   716.4000      8.1846      2.5401      0.0364      6.6597    150.7869     27.5669
   716.5000      8.1658      2.5352      0.0649      6.9587    150.0421     27.8054
   716.6000      8.1658      2.5431      0.0238      6.4793    154.1423     27.5969
   716.7000      8.1658      2.5652      0.0841      5.1388    157.1614     27.1786
   716.8000      8.1647      2.5876      0.0797      3.7799    151.5736     27.4576
   716.9000      8.1647      2.5951      0.0861      3.3302    140.5525     28.4291
   717.0000      8.1650      2.5833      0.0745      4.0421    133.7148     28.9487
   717.1000      8.1650      2.5625      0.0396      5.3008    135.1247     28.9006
   717.2000      8.1650      2.5515      0.0453      5.9698    140.1078     28.8772
   717.3000      8.1602      2.5549      0.0931      5.7647    142.5244     28.7884
   717.4000      8.1602      2.5574      0.0773      5.6095    143.1906     28.5476
   717.5000      8.1708      2.5473      0.0694      6.2229    146.6054     28.4678
   717.6000      8.1708      2.5310      0.0310      7.2103    153.9489     28.7522
   717.7000      8.1708      2.5189      0.0404      7.9455    158.9982     28.9049
   717.8000      8.1695      2.5125      0.0192      8.3354    156.6921     28.3647
   717.9000      8.1695      2.5126      0.0361      8.3245    150.1237     27.6082
   718.0000      8.1866      2.5296      0.0151      7.2993    143.3168     27.5567
   718.1000      8.1866      2.5631      0.0793      5.2668    141.7325     28.0981
   718.2000      8.1866      2.5838      0.1279      4.0133    147.7769     28.2427
   718.3000      8.1937      2.5748      0.0923      4.5594    152.4986     27.9737
   718.4000      8.1937      2.5618      0.0372      5.3483    149.3219     28.0236
   718.5000      8.1962      2.5651      0.0649      5.1439    143.2771     28.0982
   718.6000      8.1962      2.5716      0.0637      4.7530    139.6473     27.6619
   718.7000      8.1962      2.5718      0.0637      4.7414    139.1046     27.0973
   718.8000      8.1976      2.5737      0.0410      4.6261    141.0641     26.7415
   718.9000      8.1976      2.5764      0.0668      4.4589    145.0703     26.4253
   719.0000      8.1982      2.5719      0.0926      4.7352    150.2164     25.9446
   719.1000      8.1982      2.5590      0.0568      5.5164    155.9890     25.2932
   719.2000      8.1982      2.5405      0.0618      6.6387    160.6067     24.9560
   719.3000      8.1880      2.5231      0.0385      7.6879    161.0308     25.2741
   719.4000      8.1880      2.5154      0.0523      8.1596    157.5683     25.9461
   719.5000      8.1762      2.5101      0.0357      8.4780    154.0571     26.6646
   719.6000      8.1762      2.4932      0.0196      9.5044    152.3155     27.1480
   719.7000      8.1762      2.4704      0.0105     10.8848    155.2112     27.2325
   719.8000      8.1823      2.4567      0.0173     11.7181    163.3364     27.1139
   719.9000      8.1823      2.4495      0.0361     12.1536    168.6970     26.9855
   720.0000      8.2008      2.4344      0.0142     13.0647    166.6423     26.9645
   720.1000      8.2008      2.4054     -0.0013     14.8245    159.9269     27.0179
   720.2000      8.2008      2.3749     -0.0294     16.6702    151.6814     27.2204
   720.3000      8.1907      2.3588     -0.0154     17.6463    143.8895     28.1738
   720.4000      8.1907      2.3520      0.0626     18.0582    137.9095     29.7561
   720.5000      8.1792      2.3411      0.0475     18.7192    133.4550     30.7667
   720.6000      8.1792      2.3258      0.0289     19.6502    131.1486     30.8464
   720.7000      8.1792      2.3093      0.0713     20.6463    131.9809     30.8041
   720.8000      8.1702      2.2992      0.0123     21.2592    130.9613     30.7938
   720.9000      8.1702      2.3086      0.0688     20.6894    126.8105     30.0704
   721.0000      8.1700      2.3315      0.0966     19.3054    125.6822     28.6663
   721.1000      8.1700      2.3526      0.0996     18.0251    127.3672     27.7511
   721.2000      8.1700      2.3756      0.0999     16.6301    126.9725     28.0027
   721.3000      8.1686      2.4103      0.1136     14.5280    122.2908     28.6695
   721.4000      8.1686      2.4498      0.1559     12.1339    116.1120     28.9950
   721.5000      8.1655      2.4750      0.1373     10.6077    115.0707     28.9325
   721.6000      8.1655      2.4741      0.1159     10.6577    120.4306     28.6929
   721.7000      8.1655      2.4509      0.0743     12.0665    125.8255     28.8350
   721.8000      8.1709      2.4239      0.0463     13.7044    126.7814     29.8421
   721.9000      8.1709      2.4120      0.0280     14.4266    125.2301     31.1258
   722.0000      8.1796      2.4200      0.0043     13.9424    125.8483     31.2901
   722.1000      8.1796      2.4402      0.0610     12.7176    126.6001     29.9414
   722.2000      8.1796      2.4602      0.0580     11.5014    122.9376     28.1630
   722.3000      8.1715      2.4758      0.0805     10.5571    118.2225     27.2022
   722.4000      8.1715      2.4916      0.1107      9.5976    116.3052     27.2920
   722.5000      8.1609      2.5127      0.1258      8.3205    114.8071     27.7385
   722.6000      8.1609      2.5374      0.1347      6.8252    110.4588     27.9593
   722.7000      8.1609      2.5535      0.1790      5.8488    104.9200     27.9317
   722.8000      8.1463      2.5507      0.1160      6.0176    103.2439     27.7945
   722.9000      8.1463      2.5392      0.0644      6.7176    107.8492     27.5683
   723.0000      8.1323      2.5352      0.0852      6.9567    112.2178     27.2479
   723.1000      8.1323      2.5421      0.0757      6.5378    107.3857     27.0780
   723.2000      8.1323      2.5514      0.1364      5.9743     96.0422     27.1061
   723.3000      8.1293      2.5528      0.0820      5.8892     87.6315     27.0443
   723.4000      8.1293      2.5405      0.0961      6.6391     86.1972     26.6952
   723.5000      8.1620      2.5114      0.0758      8.3980     89.6084     26.0627
   723.6000      8.1620      2.4802      0.0366     10.2898     91.5510     25.3706
   723.7000      8.1620      2.4673      0.0612     11.0752     87.7901     24.8294
