~Version Information
VERS.                      2.0: CWLS Log ASCII Standard - VERSION 2.0
WRAP.                       NO: One line per depth step
~Well Information Block
STRT.FT               875.6000: 
STOP.FT              2510.0000: 
STEP.FT                 0.1000: 
NULL.                -999.2500: 
COMP.          Petrogulf Corporation: COMPANY
WELL.          Collister 17-31 V: WELL
FLD.           Purgatoire River: FIELD
LOC.           910' FNL & 1594' FEL: LOCATION
PROV.                 Colorado: PROVINCE
CNTY.               Las Animas: COUNTRY
SRVC.                Patterson: SERVICE COMPANY
DATE.          Fri Dec 12 13:49:30 2003: LOG DATE
UWI.                          : UNIQUE WELL ID
~Curve Information Block
DEPT.FT            0 000 00 00: Depth
DCAL.in                       : CDL Caliper
DPOR.pu                       : CDL Density Porosity
NPOR.pu                       : Neutron Porosity
RHOB.g/cc                     : CDL Bulk Density
RHOC.g/cc                     : CDL Density Correction
GR.GAPI                       : Gamma Ray
~Parameter Information Block
~A  Depth       DCAL        DPOR        NPOR        RHOB        RHOC         GR     
# ...
  1854.8000      8.2188      6.1563     24.3573      2.5484      0.0077    120.5870
  1854.9000      8.2188      5.4352     24.1864      2.5603      0.0595    128.8815
  1855.0000      8.2130      5.8991     24.6413      2.5527      0.0678    137.4214
  1855.1000      8.2130      7.2315     25.3167      2.5307      0.0164    137.2291
  1855.2000      8.2130      7.7255     25.7469      2.5225      0.0337    131.2188
  1855.3000      8.2425      7.0155     26.0492      2.5342      0.0466    125.7543
  1855.4000      8.2425      6.0221     26.1458      2.5506      0.0514    122.6489
  1855.5000      8.2183      5.2707     25.9720      2.5630      0.0445    123.0167
  1855.6000      8.2183      5.1311     25.6925      2.5653      0.0531    124.3339
  1855.7000      8.2183      5.4554     25.2522      2.5600     -0.0249    123.8850
  1855.8000      8.2237      4.7512     24.6765      2.5716      0.0529    124.1085
  1855.9000      8.2237      3.2464     24.1152      2.5964      0.1249    125.7426
  1856.0000      8.2460      3.3559     23.7293      2.5946      0.1371    123.8034
  1856.1000      8.2460      5.4910     23.6006      2.5594      0.0372    118.1859
  1856.2000      8.2460      7.0586     23.5771      2.5335     -0.0262    116.1721
  1856.3000      8.2291      6.7340     23.6906      2.5389      0.0011    117.7815
  1856.4000      8.2291      6.6140     23.8707      2.5409      0.1010    119.1645
  1856.5000      8.2434      7.8972     23.6248      2.5197     -0.0073    123.1610
  1856.6000      8.2434      8.6732     23.0185      2.5069     -0.0195    131.5471
  1856.7000      8.2434      7.7635     22.8834      2.5219      0.0188    140.1673
  1856.8000      8.2351      6.4016     23.1466      2.5444      0.0099    144.6154
  1856.9000      8.2351      5.9144     23.1612      2.5524      0.0307    145.3797
  1857.0000      8.2539      6.2832     23.0187      2.5463      0.0563    144.2406
  1857.1000      8.2539      7.3387     23.1228      2.5289      0.1037    141.9254
  1857.2000      8.2539      9.1531     23.4370      2.4990     -0.0296    139.0066
  1857.3000      8.2439     10.5599     23.3940      2.4758     -0.0699    137.2026
  1857.4000      8.2439     10.8487     22.7819      2.4710     -0.0013    141.2431
  1857.5000      8.2628     11.1579     22.2553      2.4659      0.0641    149.9173
  1857.6000      8.2628     11.5289     22.2504      2.4598     -0.0506    154.1232
  1857.7000      8.2628     10.6613     22.6581      2.4741      0.0454    153.7621
  1857.8000      8.3242      9.0732     23.4940      2.5003      0.0925    155.0603
  1857.9000      8.3242      7.9896     24.6082      2.5182      0.0669    155.0325
  1858.0000      8.3450      7.6636     25.4621      2.5236      0.1157    152.9554
  1858.1000      8.3450      7.8750     25.8005      2.5201      0.1044    150.5241
  1858.2000      8.3450      7.9699     25.8012      2.5185      0.0218    147.1724
  1858.3000      8.3379      8.1152     25.5624      2.5161      0.0904    146.2599
  1858.4000      8.3379      9.0096     25.3581      2.5013      0.0472    149.0559
  1858.5000      8.3243      9.6978     25.8771      2.4900      0.0046    151.8148
  1858.6000      8.3243      8.9105     26.7144      2.5030      0.0428    152.5348
  1858.7000      8.3243      6.8696     26.4348      2.5367      0.0261    152.5702
  1858.8000      8.3340      5.0745     25.2458      2.5663      0.1193    152.3005
  1858.9000      8.3340      5.0263     24.7490      2.5671      0.0821    151.9992
  1859.0000      8.2964      6.5954     25.2182      2.5412      0.0963    151.5222
  1859.1000      8.2964      8.4074     25.8317      2.5113      0.0035    147.8760
  1859.2000      8.2964      9.2527     26.3151      2.4973     -0.0112    139.2054
  1859.3000      8.2116      8.9791     26.5644      2.5018     -0.0119    128.7355
  1859.4000      8.2116      8.1401     26.2756      2.5157      0.0084    123.6423
  1859.5000      8.1977      7.7823     25.8245      2.5216      0.0424    124.2303
  1859.6000      8.1977      8.4636     25.8447      2.5104      0.0116    125.5189
  1859.7000      8.1977      9.2634     26.3301      2.4972     -0.0291    125.7629
  1859.8000      8.2032      9.6388     26.7702      2.4910      0.0116    123.4544
  1859.9000      8.2032      9.9925     26.7587      2.4851     -0.0322    119.6534
  1860.0000      8.1705     10.5994     26.1369      2.4751      0.0248    118.2222
  1860.1000      8.1705     11.3450     25.1152      2.4628      0.0062    121.8568
  1860.2000      8.1705     11.2762     24.3002      2.4639     -0.0619    129.1192
  1860.3000      8.1559      9.9384     23.8344      2.4860      0.0871    133.2937
  1860.4000      8.1559      8.1849     23.2099      2.5149      0.0389    131.0538
  1860.5000      8.1750      6.5673     22.2917      2.5416      0.0630    125.7352
  1860.6000      8.1750      5.9936     21.8147      2.5511      0.1346    124.0309
  1860.7000      8.1750      7.6826     22.1778      2.5232      0.0604    125.9232
  1860.8000      8.1757     10.5382     22.5767      2.4761     -0.0236    126.4363
  1860.9000      8.1757     11.8701     22.2057      2.4541     -0.0617    129.7309
  1861.0000      8.1665     11.8163     21.3791      2.4550      0.0995    138.4646
  1861.1000      8.1665     12.4640     20.8714      2.4443      0.0062    144.5953
  1861.2000      8.1665     13.2809     20.7825      2.4309      0.0298    144.3557
  1861.3000      8.1607     13.6114     20.9285      2.4254      0.1019    142.1219
  1861.4000      8.1607     14.2732     21.4267      2.4145      0.0825    140.1827
  1861.5000      8.1419     14.7856     22.0761      2.4060      0.0601    137.3153
  1861.6000      8.1419     14.3029     22.5912      2.4140      0.0725    134.4211
  1861.7000      8.1419     13.4757     22.7603      2.4277      0.1108    135.1367
  1861.8000      8.1144     13.1247     22.2359      2.4334      0.0576    140.9511
  1861.9000      8.1144     12.7602     21.3165      2.4395      0.1286    145.2972
  1862.0000      8.1184     11.7433     20.8293      2.4562      0.1340    140.9638
  1862.1000      8.1184     10.8763     20.8453      2.4705      0.1821    133.0176
  1862.2000      8.1184     10.7345     20.1279      2.4729      0.0669    131.2074
  1862.3000      8.1408     10.5478     17.3788      2.4760      0.1236    131.9041
  1862.4000      8.1408     10.5939     13.6313      2.4752      0.1439    125.7548
  1862.5000      8.1783     11.1180     11.1220      2.4666      0.0177    116.2118
  1862.6000      8.1783     10.7268     10.0200      2.4730      0.0448    110.6807
  1862.7000      8.1783      9.2132      9.0525      2.4980      0.1362    111.7195
  1862.8000      8.1637      8.4542      8.0321      2.5105      0.1029    114.5311
  1862.9000      8.1637     10.3028      7.6363      2.4800      0.1640    114.7138
  1863.0000      8.1324     15.3323      7.9461      2.3970      0.1204    117.2393
  1863.1000      8.1324     23.1345      8.9157      2.2683      0.0837    123.8798
  1863.2000      8.1324     32.5747     10.4835      2.1125     -0.0283    127.3643
  1863.3000      8.0784     41.2997     12.2615      1.9686     -0.0545    122.9275
  1863.4000      8.0784     47.2050     14.1515      1.8711     -0.1167    112.9326
  1863.5000      8.0499     50.5975     16.3153      1.8151     -0.0566    103.8916
  1863.6000      8.0499     53.5047     18.4040      1.7672     -0.0559     98.8505
  1863.7000      8.0499     56.3558     19.8334      1.7201     -0.0818     95.9778
  1863.8000      8.0953     57.5016     20.7554      1.7012      0.0516     95.3358
  1863.9000      8.0953     55.8684     21.7264      1.7282      0.1007     97.4090
  1864.0000      8.1436     51.5146     22.7542      1.8000      0.2224     99.9335
  1864.1000      8.1436     45.0700     23.6307      1.9063      0.2544    103.3953
  1864.2000      8.1436     37.7750     24.6239      2.0267      0.3186    112.8886
  1864.3000      8.1733     31.5675     25.6350      2.1291      0.2838    129.6331
