~Version Information
 VERS.                                  2.0 : CWLS LAS VERSION
 WRAP.                                   NO : WRAPING MODE
 SWARE .                 MController 2.5.0J : SOFTWARE VERSION
~Well Information
 WELL.                  Great Plains 22-22R : WELL
 COMP.                Petrogulf Corporation : COMPANY
 FLD.                      Purgatoire River : FIELD
 LOC.                SE/NW Sec 22 T33S R67W : LOCATION
 DATE.                        09/08-09/2005 : DATE(S) LOGGED
 SRVC.       BLANCO Geological Services LLC : SERVICE COMPANY
 STAT.                                   CO : STATE
 CNTY.                           Las Animas : COUNTY
 CTRY.                                  USA : COUNTRY
 API.                       05-071-08028-00 : API NUMBER
 STRT.FT                              23.00 : START DEPTH
 STOP.FT                            1400.00 : STOP DEPTH
 STEP.FT                               1.00 : DEPTH INCREMENT
 NULL.                                -9999 : NULL VALUE
~Curve information
 DEPTH.FT                                   :
 ROP.MIN/FT                                 :
 GAS.UNITS                                  :
~ASCII Log data
# ...
       823.0         0.23         33.3 
       824.0         0.30         35.3 
       825.0         0.20         36.0 
       826.0         0.13         36.1 
       827.0         0.17         35.9 
       828.0         0.17         34.8 
       829.0         0.20         33.1 
       830.0         0.20         31.1 
       831.0         0.17         27.8 
       832.0         0.20         25.5 
       833.0         0.23         21.9 
       834.0         0.17         18.7 
       835.0         0.17         17.1 
       836.0         0.20         16.6 
       837.0         0.20         20.1 
       838.0         1.25         49.7 
       839.0         0.27         50.0 
       840.0         0.30         49.5 
       841.0         0.23         47.9 
       842.0         0.33         44.4 
       843.0         0.27         41.3 
       844.0         0.20         38.3 
       845.0         0.13         35.7 
       846.0         0.18         34.8 
       847.0         0.17         32.0 
       848.0         0.17         31.7 
       849.0         0.13         30.3 
       850.0         0.17         29.0 
       851.0         0.13         27.9 
       852.0         0.17         27.3 
       853.0         0.17         26.5 
       854.0         0.27         26.1 
       855.0         0.30         26.3 
       856.0         0.20         26.4 
       857.0         0.17         26.3 
       858.0         0.20         27.1 
       859.0         0.20         27.0 
       860.0         0.17         26.8 
       861.0         0.20         25.7 
       862.0         0.17         23.9 
       863.0         0.20         22.0 
       864.0         0.18         20.9 
       865.0         0.20         27.5 
       866.0         0.20         40.0 
       867.0         0.30         63.4 
       868.0         0.87         93.1 
       869.0         0.30         91.8 
       870.0         0.37         84.0 
       871.0         0.23         71.1 
       872.0         0.23         63.5 
       873.0         0.23         57.6 
       874.0         0.22         53.6 
       875.0         0.20         50.2 
       876.0         0.17         48.1 
       877.0         0.20         46.4 
       878.0         0.20         44.7 
       879.0         0.17         44.3 
       880.0         0.17         44.7 
       881.0         0.17         45.6 
       882.0         0.13         46.0 
       883.0         0.13         47.3 
       884.0         0.23         48.9 
       885.0         0.30         49.5 
       886.0         0.30         49.7 
       887.0         0.30         50.4 
       888.0         0.33         48.4 
       889.0         0.28         42.3 
       890.0         0.10         34.8 
       891.0         0.23         31.1 
       892.0         0.10         26.8 
       893.0         0.13         25.7 
       894.0         0.23         32.2 
       895.0         0.20         49.3 
       896.0         0.10         61.5 
       897.0         0.30         97.6 
       898.0         1.17        124.6 
       899.0         0.30        103.3 
       900.0         0.30         89.7 
       901.0         0.22         78.0 
       902.0         0.17         71.4 
       903.0         0.13         68.1 
       904.0         0.20         65.0 
       905.0         0.20         61.4 
       906.0         0.20         58.0 
       907.0         0.20         55.8 
       908.0         0.17         54.8 
       909.0         0.20         55.1 
       910.0         0.17         55.4 
       911.0         0.37         56.7 
       912.0         0.13         56.5 
       913.0         0.17         56.0 
       914.0         0.13         53.6 
       915.0         0.17         51.0 
       916.0         0.13         46.7 
       917.0         0.13         42.5 
       918.0         0.13         38.2 
       919.0         0.18         33.0 
       920.0         0.17         27.1 
       921.0         0.13         24.6 
       922.0         0.10         23.3 
       923.0         0.13         27.1 
       924.0         0.20         39.6 
       925.0         0.10         46.8 
       926.0         0.23         65.5 
       927.0         0.30         87.3 
       928.0         1.00         98.8 
       929.0         0.30         83.2 
       930.0         0.20         74.2 
       931.0         0.27         69.6 
       932.0         0.18         65.8 
       933.0         0.27         63.8 
       934.0         0.23         62.2 
       935.0         0.13         60.3 
       936.0         0.23         59.1 
       937.0         0.10         57.5 
       938.0         0.17         57.0 
       939.0         0.23         56.6 
       940.0         0.17         56.6 
       941.0         0.13         56.8 
       942.0         0.23         56.8 
       943.0         0.17         56.8 
       944.0         0.13         56.6 
       945.0         0.20         56.8 
       946.0         0.17         56.8 
       947.0         0.17         56.8 
       948.0         0.17         55.3 
       949.0         0.20         53.1 
       950.0         0.18         47.8 
       951.0         0.20         41.1 
       952.0         0.17         35.9 
       953.0         0.17         30.6 
       954.0         0.17         30.0 
       955.0         0.13         32.1 
       956.0         0.17         39.0 
       957.0         0.20         54.0 
       958.0         1.00        143.7 
       959.0         0.20        143.8 
       960.0         0.30        141.0 
       961.0         0.20        126.8 
       962.0         0.42        114.7 
       963.0         0.23         92.0 
       964.0         0.20         83.7 
       965.0         0.20         77.1 
       966.0         0.20         73.5 
       967.0         0.20         72.4 
       968.0         0.17         72.7 
       969.0         0.20         73.3 
       970.0         0.13         73.5 
       971.0         0.17         73.4 
       972.0         0.17         73.0 
       973.0         0.13         71.9 
       974.0         0.23         70.3 
       975.0         0.20         66.3 
       976.0         0.17         63.3 
       977.0         0.13         60.7 
       978.0         0.20         58.7 
       979.0         0.17         54.3 
       980.0         0.18         49.3 
       981.0         0.17         44.1 
       982.0         0.13         37.7 
       983.0         0.17         32.1 
       984.0         0.17         28.1 
       985.0         0.17         31.6 
       986.0         0.17         44.6 
       987.0         0.23         71.8 
       988.0         1.33        132.6 
       989.0         0.40        101.1 
       990.0         0.32         79.6 
       991.0         0.27         68.3 
       992.0         0.27         61.3 
       993.0         0.27         56.8 
       994.0         0.23         53.6 
       995.0         0.30         51.6 
       996.0         0.27         49.5 
       997.0         0.33         48.3 
       998.0         0.27         46.9 
       999.0         0.20         47.2 
      1000.0         0.17         47.3 
      1001.0         0.18         47.7 
      1002.0         0.17         47.0 
      1003.0         0.23         47.2 
      1004.0         0.27         47.7 
      1005.0         0.27         47.0 
      1006.0         0.10         43.6 
      1007.0         0.13         41.7 
      1008.0         0.13         37.9 
      1009.0         0.13         34.1 
      1010.0         0.17         29.8 
      1011.0         0.23         26.1 
      1012.0         0.17         21.7 
      1013.0         0.17         24.9 
      1014.0         0.10         30.3 
      1015.0         0.18         40.0 
      1016.0         0.07         44.8 
      1017.0         0.10         51.8 
      1018.0         1.82         94.2 
      1019.0         0.20         63.6 
      1020.0         0.20         58.3 
      1021.0         0.20         54.6 
      1022.0         0.23         51.8 
