~Version Information
 VERS.                                  2.0 : CWLS LAS VERSION
 WRAP.                                   NO : WRAPING MODE
 SWARE .                 MController 2.5.0H : SOFTWARE VERSION
~Well Information
 WELL.                        TAMI J. 23-18 : WELL
 COMP.            PIONEER NATURAL RESOURCES : COMPANY
 FLD.                      PURGATOIRE RIVER : FIELD
 LOC.                 NE/SW Sec18 T33S R65W : LOCATION
 DATE.                             12/12/04 : DATE(S) LOGGED
 SRVC.        BLANCO GEOLOGICAL SEVICES LLC : SERVICE COMPANY
 STAT.                                   CO : STATE
 CNTY.                           LAS ANIMAS : COUNTY
 CTRY.                                  USA : COUNTRY
 API.                          05-071-08073 : API NUMBER
 STRT.FT                             263.00 : START DEPTH
 STOP.FT                            1765.00 : STOP DEPTH
 STEP.FT                               1.00 : DEPTH INCREMENT
 NULL.                                -9999 : NULL VALUE
~Curve information
 DEPTH.FT                                   :
 ROP.MIN/FT                                 :
 GAS.UNITS                                  :
~ASCII Log data
      263.00    -9999.000          1.2 
      264.00        0.233          1.0 
      265.00        0.200          1.1 
      266.00        0.100          1.2 
      267.00        0.100          1.2 
      268.00        0.100          1.2 
      269.00        0.167          0.9 
      270.00        0.233          0.8 
      271.00        0.200          1.3 
      272.00        0.133          1.0 
      273.00        0.233          0.9 
      274.00        0.233          1.2 
      275.00        0.217          1.1 
      276.00        0.233          1.1 
      277.00        0.167          1.1 
      278.00        0.167          1.2 
      279.00        0.167          1.5 
      280.00        0.167          1.0 
      281.00        0.133          1.0 
      282.00        0.133          0.9 
      283.00        0.133          0.9 
      284.00        0.100          1.3 
      285.00        0.100          1.3 
      286.00        0.167          1.7 
      287.00        0.200          1.3 
      288.00        0.200          1.5 
      289.00        0.467          1.6 
      290.00        0.717          1.3 
      291.00        0.300          1.3 
      292.00        0.100          1.3 
      293.00        0.067          1.3 
      294.00        0.233          1.2 
      295.00        0.233          1.2 
      296.00        0.167          1.0 
      297.00        0.167          1.5 
      298.00        0.200          1.1 
      299.00        0.100          1.1 
      300.00        0.133          1.1 
      301.00        0.133          1.1 
      302.00        0.133          1.0 
      303.00        0.133          1.0 
      304.00        0.133          0.9 
      305.00        0.100          0.9 
      306.00        0.067          0.8 
      307.00        0.100          0.8 
      308.00        0.133          0.4 
      309.00        0.167          0.6 
      310.00        0.100          0.6 
      311.00        0.167          0.4 
      312.00        0.167          0.6 
      313.00        0.150          0.4 
      314.00        0.167          0.1 
      315.00        0.200          0.3 
      316.00        0.167          0.2 
      317.00        0.200          0.2 
      318.00        0.200          1.0 
      319.00        0.167          1.1 
      320.00        0.133          1.2 
      321.00        0.200          0.7 
      322.00        0.267          0.9 
      323.00        0.300          0.9 
      324.00        0.700          1.3 
      325.00        0.133          0.9 
      326.00        0.133          0.9 
      327.00        0.167          0.7 
      328.00        0.100          0.9 
      329.00        0.317          0.8 
      330.00        0.267          0.6 
      331.00        0.233          0.6 
      332.00        0.233          0.8 
      333.00        0.267          0.6 
      334.00        0.200          0.4 
      335.00        0.133          0.7 
      336.00        0.167          0.8 
      337.00        0.133          0.6 
      338.00        0.200          0.6 
      339.00        0.200          0.7 
      340.00        0.167          0.7 
      341.00        0.233          0.8 
      342.00        0.200          0.7 
      343.00        0.167          0.8 
      344.00        0.167          0.9 
      345.00        0.150          0.5 
      346.00        0.133          0.6 
      347.00        0.167          0.6 
      348.00        0.133          0.4 
      349.00        0.167          0.3 
      350.00        0.167          0.3 
      351.00        0.200          0.3 
      352.00        0.200          0.4 
      353.00        0.167          0.3 
      354.00        0.200          0.4 
      355.00        0.167          0.1 
      356.00        1.717          0.7 
      357.00        0.333          0.8 
      358.00        0.300          0.5 
      359.00        0.233          0.4 
      360.00        0.233          0.6 
      361.00        0.200          0.7 
      362.00        0.233          0.4 
      363.00        0.133          0.6 
      364.00        0.167          0.6 
      365.00        0.200          0.5 
      366.00        0.167          0.2 
      367.00        0.167          0.3 
      368.00        0.167          0.3 
      369.00        0.200          0.5 
      370.00        0.133          0.1 
      371.00        0.200          0.9 
      372.00        0.183          0.3 
      373.00        0.200          0.4 
      374.00        0.267          0.6 
      375.00        0.300          0.1 
      376.00        0.300          0.5 
      377.00        0.267          0.2 
      378.00        0.167          0.3 
      379.00        0.200          0.3 
      380.00        0.200          0.3 
      381.00        0.200          0.3 
      382.00        0.167          0.5 
      383.00        0.200          0.5 
      384.00        0.200          0.3 
      385.00        0.267          0.3 
      386.00        1.383          0.3 
      387.00        0.433          0.2 
      388.00        0.267          0.0 
      389.00        0.200          0.2 
      390.00        0.267          0.2 
      391.00        0.267          0.3 
      392.00        0.167          1.8 
      393.00        0.167          1.7 
      394.00        0.167          1.5 
      395.00        0.167          1.5 
      396.00        0.167          1.6 
      397.00        0.150          1.6 
      398.00        0.167          1.5 
      399.00        0.200          1.4 
      400.00        0.200          1.5 
      401.00        0.167          1.4 
      402.00        0.167          1.4 
      403.00        0.133          1.4 
      404.00        0.100          1.9 
      405.00        0.167          1.6 
      406.00        0.233          1.6 
      407.00        0.167          1.2 
      408.00        0.200          1.3 
      409.00        0.167          1.3 
      410.00        0.200          1.4 
      411.00        0.167          1.4 
      412.00        0.200          1.5 
      413.00        0.167          1.5 
      414.00        0.167          1.7 
      415.00        0.200          1.9 
      416.00        1.917          3.1 
      417.00        0.267          3.7 
      418.00        0.300          3.1 
      419.00        0.300          3.1 
      420.00        0.200          3.3 
      421.00        0.167          3.4 
      422.00        0.200          3.1 
      423.00        0.183          3.0 
      424.00        0.200          3.1 
      425.00        0.167          3.3 
      426.00        0.133          3.4 
      427.00        0.200          3.0 
      428.00        0.133          3.1 
      429.00        0.167          3.1 
      430.00        0.133          3.1 
      431.00        0.133          2.9 
      432.00        0.167          3.8 
      433.00        0.200          3.1 
      434.00        0.133          3.3 
      435.00        0.200          3.3 
      436.00        0.167          3.3 
      437.00        0.200          3.1 
      438.00        0.167          3.0 
      439.00        0.167          3.0 
      440.00        0.133          3.3 
      441.00        0.233          3.3 
      442.00        0.167          3.3 
      443.00        0.183          3.0 
      444.00        0.233          3.0 
      445.00        0.200          3.0 
      446.00        1.467          3.3 
      447.00        0.500          3.3 
      448.00        0.267          3.0 
      449.00        0.233          3.0 
      450.00        0.200          3.0 
      451.00        0.250          6.2 
      452.00        0.233         16.5 
      453.00        0.267         22.6 
      454.00        0.233         23.6 
      455.00        0.167         20.0 
      456.00        0.233         19.2 
      457.00        0.167         14.7 
      458.00        0.200         14.1 
      459.00        0.200          9.2 
      460.00        0.200          7.8 
      461.00        0.133          8.0 
      462.00        0.200          5.9 
