~Version Information
 VERS.                                  2.0 : CWLS LAS VERSION
 WRAP.                                   NO : WRAPING MODE
 SWARE .                 MController 2.5.0J : SOFTWARE VERSION
~Well Information
 WELL.                      Bucksnort 41-35 : WELL
 COMP.   Pioneer Natural Resources USA Inc. : COMPANY
 FLD.                      Purgatoire River : FIELD
 LOC.                NE/NE Sec 35 T32S R66W : LOCATION
 DATE.                              7/22/05 : DATE(S) LOGGED
 SRVC.       BLANCO Geological Services LLC : SERVICE COMPANY
 STAT.                             Colorado : STATE
 CNTY.                           Las Animas : COUNTY
 CTRY.                               U.S.A. : COUNTRY
 API.                                   N/A : API NUMBER
 STRT.FT                             581.00 : START DEPTH
 STOP.FT                            2010.00 : STOP DEPTH
 STEP.FT                               1.00 : DEPTH INCREMENT
 NULL.                                -9999 : NULL VALUE
~Curve information
 DEPTH.FT                                   :
 ROP.MIN/FT                                 :
 GAS.UNITS                                  :
~ASCII Log data
       581.0     -9999.00          3.2 
       582.0         0.03          3.0 
       583.0         0.03          2.8 
       584.0         0.07          2.4 
       585.0         0.03          2.6 
       586.0         0.07          2.6 
       587.0         0.03          2.2 
       588.0         0.17          2.5 
       589.0         0.17          2.3 
       590.0         0.13          2.4 
       591.0         0.10          2.8 
       592.0         0.03          2.2 
       593.0         0.07          2.0 
       594.0         0.17          2.1 
       595.0         0.22          2.3 
       596.0         0.27          2.7 
       597.0         0.17          2.9 
       598.0         0.23          2.5 
       599.0         0.33          3.0 
       600.0         0.37          2.7 
       601.0         3.95          3.6 
       602.0         0.20          2.3 
       603.0         0.20          2.4 
       604.0         0.30          2.9 
       605.0         0.27          2.5 
       606.0         0.25          2.5 
       607.0         0.33          2.7 
       608.0         0.23          3.4 
       609.0         0.27          3.5 
       610.0         0.13          3.0 
       611.0         0.23          3.0 
       612.0         0.17          3.2 
       613.0         0.23          3.1 
       614.0         0.30          3.6 
       615.0         0.23          3.6 
       616.0         0.20          3.6 
       617.0         0.23          3.8 
       618.0         0.30          3.4 
       619.0         0.23          4.0 
       620.0         0.22          3.2 
       621.0         0.23          3.3 
       622.0         0.13          3.0 
       623.0         0.13          2.9 
       624.0         0.10          2.7 
       625.0         0.13          3.3 
       626.0         0.13          3.1 
       627.0         0.13          3.5 
       628.0         0.27          2.9 
       629.0         0.33          2.7 
       630.0         0.30          3.0 
       631.0         4.02          3.7 
       632.0         0.23          3.1 
       633.0         0.27          3.2 
       634.0         0.32          3.4 
       635.0         0.20          3.1 
       636.0         0.13          3.1 
       637.0         0.23          3.2 
       638.0         0.30          2.7 
       639.0         0.30          2.9 
       640.0         0.27          2.4 
       641.0         0.47          2.6 
       642.0         0.37          3.4 
       643.0         0.33          3.9 
       644.0         0.53          6.9 
       645.0         0.58          9.8 
       646.0         0.43         11.6 
       647.0         0.30         11.6 
       648.0         0.17         11.7 
       649.0         0.10         11.0 
       650.0         0.17         12.2 
       651.0         0.13         12.2 
       652.0         0.43         11.8 
       653.0         0.20         12.2 
       654.0         0.10         12.0 
       655.0         0.20         12.4 
       656.0         0.40         12.4 
       657.0         0.58         12.5 
       658.0         0.17         12.6 
       659.0         0.13         12.9 
       660.0         0.17         11.9 
       661.0         3.65         13.3 
       662.0         0.10         12.9 
       663.0         0.17         13.5 
       664.0         0.17         14.0 
       665.0         0.17         14.0 
       666.0         0.27         14.2 
       667.0         0.27         14.1 
       668.0         0.17         12.1 
       669.0         0.20         11.0 
       670.0         0.37         12.2 
       671.0         0.37         11.9 
       672.0         0.32         12.2 
       673.0         0.23         11.8 
       674.0         0.23         12.0 
       675.0         0.17         12.4 
       676.0         0.20         12.1 
       677.0         0.23         12.2 
       678.0         0.23          3.8 
       679.0         0.20          3.7 
       680.0         0.27          1.8 
       681.0         0.23          0.6 
       682.0         0.23          2.5 
       683.0         0.20          3.1 
       684.0         0.17          3.3 
       685.0         0.17          3.7 
       686.0         0.20          3.6 
       687.0         0.18          4.0 
       688.0         0.23          3.7 
       689.0         0.23          4.0 
       690.0         0.23          4.2 
       691.0         4.32          5.1 
       692.0         0.33          4.2 
       693.0         0.37          4.8 
       694.0         0.33          4.0 
       695.0         0.27        109.4 
       696.0         0.28        169.6 
       697.0         0.30        148.1 
       698.0         0.33         74.0 
       699.0         0.17         29.0 
       700.0         0.23         18.8 
       701.0         0.20          8.5 
       702.0         0.23          5.6 
       703.0         0.20          3.2 
       704.0         0.23          2.1 
       705.0         0.27          1.6 
       706.0         0.30          1.8 
       707.0         0.40          2.1 
       708.0         0.33          2.0 
       709.0         0.38          2.6 
       710.0         0.30          2.9 
       711.0         0.33          3.0 
       712.0         0.33          2.4 
       713.0         0.47          2.9 
       714.0         0.40          2.8 
       715.0         0.33          3.1 
       716.0         0.27          2.9 
       717.0         0.37          2.9 
       718.0         0.38          2.9 
       719.0         0.40          3.7 
       720.0         0.30          3.2 
       721.0         5.25          5.1 
       722.0         0.20          4.2 
       723.0         0.30          3.8 
       724.0         0.38          4.9 
       725.0         0.33          4.7 
       726.0         0.30          4.2 
       727.0         0.27          4.2 
       728.0         0.17          4.1 
       729.0         0.20          4.7 
       730.0         0.27          5.0 
       731.0         0.33          5.3 
       732.0         0.40          5.6 
       733.0         0.33          4.2 
       734.0         0.30          4.3 
       735.0         0.38          4.6 
       736.0         0.37          5.5 
       737.0         0.30          5.1 
       738.0         0.33          5.1 
       739.0         0.30          5.0 
       740.0         0.33          5.0 
       741.0         0.37          4.8 
       742.0         0.37          5.1 
       743.0         0.30          4.3 
       744.0         0.30          4.7 
       745.0         0.32          5.4 
       746.0         0.27          5.5 
       747.0         0.30          5.8 
       748.0         0.30          4.9 
       749.0         0.30          5.2 
       750.0         0.30          5.2 
       751.0         4.98          7.1 
       752.0         0.32          6.7 
       753.0         0.27          6.4 
       754.0         0.27          6.6 
       755.0         0.27          6.7 
       756.0         0.33          6.5 
       757.0         0.30          6.6 
       758.0         0.33          6.7 
       759.0         0.30          5.9 
       760.0         0.17          6.4 
       761.0         0.10          6.2 
       762.0         0.10          6.3 
       763.0         0.10          6.5 
       764.0         0.13          7.4 
       765.0         0.10          7.3 
       766.0         0.17          8.9 
       767.0         0.25         10.1 
       768.0         0.27         10.6 
       769.0         0.17          8.6 
       770.0         0.20          7.6 
       771.0         0.13          6.4 
       772.0         0.13          6.1 
       773.0         0.17          6.2 
       774.0         0.17          6.2 
       775.0         0.17          5.7 
       776.0         0.20          6.0 
       777.0         0.20          6.7 
       778.0         0.17          6.3 
       779.0         0.20          6.0 
       780.0         0.13          5.6 
