~Version Information
 VERS.                                  2.0 : CWLS LAS VERSION
 WRAP.                                   NO : WRAPING MODE
 SWARE .                 MController 2.5.0N : SOFTWARE VERSION
~Well Information
 WELL.                       Guajardo 24-18 : WELL
 COMP.    Pioneer Natural Resources USA Inc : COMPANY
 FLD.                      Purgatoire River : FIELD
 LOC.                SE/SW Sec 18 T32S R65W : LOCATION
 DATE.                           8/4-5/2005 : DATE(S) LOGGED
 SRVC.       BLANCO Geological Services LLC : SERVICE COMPANY
 STAT.                                   CO : STATE
 CNTY.                           Las Animas : COUNTY
 CTRY.                                  USA : COUNTRY
 API.                       05-071-08377-00 : API NUMBER
 STRT.FT                             541.00 : START DEPTH
 STOP.FT                            1855.00 : STOP DEPTH
 STEP.FT                               1.00 : DEPTH INCREMENT
 NULL.                                -9999 : NULL VALUE
~Curve information
 DEPTH.FT                                   :
 ROP.MIN/FT                                 :
 GAS.UNITS                                  :
~ASCII Log data
# ...
      1741.0         0.40        143.1 
      1742.0         0.32        142.5 
      1743.0         0.40        140.8 
      1744.0         0.40        140.4 
      1745.0         0.30        142.3 
      1746.0         0.30        146.1 
      1747.0         0.30        150.2 
      1748.0         0.30        155.7 
      1749.0         0.13        157.7 
      1750.0         0.30        160.2 
      1751.0         0.47        174.7 
      1752.0         0.42        186.3 
      1753.0         0.10        184.4 
      1754.0         0.40        172.5 
      1755.0         0.50        163.9 
      1756.0         0.43        154.6 
      1757.0         0.10        153.2 
      1758.0         0.30        151.1 
      1759.0         0.40        152.0 
      1760.0         0.20        155.0 
      1761.0         0.40        169.2 
      1762.0         0.40        155.2 
      1763.0         0.12        151.9 
      1764.0         0.40        146.7 
      1765.0         0.20        149.0 
      1766.0         0.30        151.6 
      1767.0         0.40        152.6 
      1768.0         0.10        152.2 
      1769.0         0.20        151.6 
      1770.0         0.20        151.6 
      1771.0         0.40        153.1 
      1772.0         0.10        152.8 
      1773.0         0.10        152.6 
      1774.0         0.40        161.1 
      1775.0         0.20        166.9 
      1776.0         0.20        169.3 
      1777.0         0.42        168.2 
      1778.0         0.10        167.7 
      1779.0         0.40        158.3 
      1780.0         0.10        152.9 
      1781.0         0.23        139.6 
      1782.0         0.20        132.3 
      1783.0         0.40        133.2 
      1784.0         0.10        135.2 
      1785.0         0.40        141.7 
      1786.0         0.10        143.1 
      1787.0         0.20        146.2 
      1788.0         0.30        151.6 
      1789.0         0.45        159.0 
      1790.0         0.20        161.4 
      1791.0         0.67        151.0 
      1792.0         0.27        130.2 
      1793.0         0.40        118.5 
      1794.0         0.50        137.6 
      1795.0         0.30        142.3 
      1796.0         0.70        134.8 
      1797.0         0.22        136.3 
      1798.0         0.67        150.4 
      1799.0         0.50        157.6 
      1800.0         0.30        157.5 
      1801.0         0.30        161.1 
      1802.0         0.70        168.9 
      1803.0         0.20        170.3 
      1804.0         0.30        166.2 
      1805.0         0.42        225.1 
      1806.0         0.20        220.7 
      1807.0         0.33        160.7 
      1808.0         0.53        121.0 
      1809.0         0.20        154.0 
      1810.0         0.57        163.9 
      1811.0         0.20        138.4 
      1812.0         0.80        170.0 
      1813.0         0.45        126.8 
      1814.0         0.70        123.8 
      1815.0         0.30        125.8 
      1816.0         0.63        142.9 
      1817.0         0.20        140.0 
      1818.0         0.50        138.7 
      1819.0         0.90        148.4 
      1820.0         0.42        158.5 
      1821.0         0.70        166.8 
      1822.0         0.93        145.0 
      1823.0         0.47        124.2 
      1824.0         0.50        135.3 
      1825.0         0.62        135.2 
      1826.0         0.73        141.9 
      1827.0         0.50        146.7 
      1828.0         0.30        149.3 
      1829.0         0.70        153.6 
      1830.0         0.30        153.4 
      1831.0         0.68        155.1 
      1832.0         0.40        151.8 
      1833.0         1.10        148.4 
      1834.0         0.57        173.8 
      1835.0         0.67        227.2 
      1836.0         0.43        139.5 
      1837.0         0.85        100.0 
      1838.0         0.40        146.4 
      1839.0         0.80        135.3 
      1840.0         1.10        173.3 
      1841.0         0.62        159.9 
      1842.0         0.90        158.8 
      1843.0         0.33        184.8 
      1844.0         0.90        129.3 
      1845.0         0.95        160.5 
      1846.0         0.80        148.7 
      1847.0         1.13        124.7 
      1848.0         0.63        165.2 
      1849.0         0.53        126.6 
      1850.0         0.92        121.7 
      1851.0         1.00        125.0 
      1852.0         0.90        125.4 
      1853.0         0.40        126.5 
      1854.0         0.92        129.3 
      1855.0         1.10        135.6 
