~Version Information
VERS.                      2.0: CWLS Log ASCII Standard - VERSION 2.0
WRAP.                       NO: One line per depth step
~Well Information Block
STRT.FT                 0.0000: 
STOP.FT              2430.7500: 
STEP.FT                 0.2500: 
NULL.                -999.2500: 
COMP.          Petrogulf Corporation: COMPANY
WELL.             Leier 17-42V: WELL
FLD.           Purgatorie River: FIELD
LOC.           2309' FNL & 1062' FEL: LOCATION
PROV.                 Colorado: PROVINCE
CNTY.               Las Animas: COUNTRY
SRVC.                Patterson: SERVICE COMPANY
DATE.          Thu Oct 06 10:18:00 2005: LOG DATE
UWI.                          : UNIQUE WELL ID
~Curve Information Block
DEPT.FT            0 000 00 00: Depth
CCL.                          : Casing Collar Locator
TT3.usec                      : CBL 3' Travel Time
AMP3.mV                       : CBL 3' Amplitude
GR.GAPI                       : Gamma Ray
~Parameter Information Block
~A  Depth       CCL         TT3         AMP3         GR     
     0.0000   -999.2500   1371.0000      1.6261     59.2298
     0.2500   -999.2500   1371.0000      1.6169     61.5638
     0.5000      0.0000   1371.0000      1.6081     62.9960
     0.7500      0.0000   1371.0000      1.6017     64.1960
     1.0000      0.0000   1371.0000      1.5950     64.9874
     1.2500      0.0000   1371.0000      1.5826     67.1866
     1.5000      0.0000   1371.0000      1.5630     71.2794
     1.7500      0.0000   1371.0000      1.5340     76.2617
     2.0000      0.0000   1371.0000      1.5031     80.1310
     2.2500      0.0000   1371.0000      1.4850     81.4443
     2.5000      0.0000   1371.0000      1.4847     80.1233
     2.7500      0.0000   1371.0000      1.4949     76.9747
     3.0000      0.0000   1371.0000      1.5073     73.0365
     3.2500      0.0000   1371.0000      1.5200     69.3867
     3.5000      0.0000   1371.0000      1.5336     67.0203
     3.7500      0.0000   1371.0000      1.5425     66.6015
     4.0000      0.0000   1371.0000      1.5362     68.1921
     4.2500      0.0000   1371.0000      1.5163     70.9846
     4.5000      0.0000   1371.0000      1.5029     73.4047
     4.7500      0.0000   1371.0000      1.5159     74.0753
     5.0000      0.0000   1371.0000      1.5505     73.1051
     5.2500      0.0000   1371.0000      1.5813     72.1533
     5.5000      0.0000   1371.0000      1.5885     72.8444
     5.7500     -2.0000   1371.0000      1.5728     75.2462
     6.0000      0.0000   1371.0000      1.5486     78.0877
     6.2500     -2.0000   1371.0000      1.5274     80.1216
     6.5000      0.0000   1371.0000      1.5109     80.8870
     6.7500      0.0000   1371.0000      1.5011     80.4197
     7.0000      0.0000   1371.0000      1.5021     78.7759
     7.2500      0.0000   1371.0000      1.5100     76.0985
     7.5000      0.0000   1371.0000      1.5139     73.1599
     7.7500      0.0000   1371.0000      1.5038     71.5488
     8.0000      0.0000   1371.0000      1.4808     72.7777
     8.2500      0.0000   1371.0000      1.4598     76.8157
     8.5000      0.0000   1371.0000      1.4515     81.5094
     8.7500      0.0000   1371.0000      1.4488     83.8195
     9.0000      0.0000   1371.0000      1.4465     82.1061
     9.2500      0.0000   1371.0000      1.4572     77.4708
     9.5000      0.0000   1371.0000      1.4875     72.8274
     9.7500      0.0000   1371.0000      1.5209     70.5769
    10.0000      0.0000   1371.0000      1.5416     70.9952
    10.2500      0.0000   1371.0000      1.5476     72.5304
    10.5000      0.0000   1371.0000      1.5446     73.4244
    10.7500      0.0000   1371.0000      1.5422     73.1202
    11.0000      0.0000   1371.0000      1.5429     72.3962
    11.2500      0.0000   1371.0000      1.5374     72.4484
    11.5000      0.0000   1370.9012      1.5327     73.8279
    11.7500      0.0000   1369.7659      1.6049     76.0569
    12.0000      0.0000   1361.3903      2.1509     78.1845
    12.2500      0.0000   1321.8057      4.6216     79.6230
    12.5000      0.0000   1202.0177     11.9160     80.2934
    12.7500      0.0000    970.0972     25.8723     80.0906
    13.0000      0.0000    683.1787     43.0737     78.5988
    13.2500      0.0000    456.8212     56.6834     75.5659
    13.5000      0.0000    343.3203     63.5882     71.5775
    13.7500      0.0000    307.3582     65.8421     68.1793
    14.0000      0.0000    300.2407     66.3202     67.1193
    14.2500      0.0000    299.3839     66.3863     69.0992
    14.5000      0.0000    299.3183     66.3945     73.0549
    14.7500      0.0000    299.3078     66.4112     76.8552
    15.0000      0.0000    299.2971     66.4478     79.0847
    15.2500      0.0000    299.2952     66.4778     80.1701
    15.5000      0.0000    299.2953     66.4758     81.4184
    15.7500      0.0000    299.2900     66.4652     83.0682
    16.0000      0.0000    299.2810     66.4762     83.9690
    16.2500      0.0000    299.2763     66.4913     83.1866
    16.5000      0.0000    299.2571     66.4684     81.1140
    16.7500      0.0000    299.0220     66.3912     78.8953
    17.0000      0.0000    297.7795     66.3040     77.4761
    17.2500      0.0000    293.9195     66.3050     77.3441
    17.5000      0.0000    286.3673     66.4699     78.4860
    17.7500      0.0000    276.9239     66.7751     80.1705
    18.0000      0.0000    269.3487     67.1131     81.1563
    18.2500      0.0000    265.4399     67.3887     80.7148
    18.5000      0.0000    264.1329     67.5759     79.5505
    18.7500      0.0000    263.8430     67.6837     79.3820
    19.0000      0.0000    263.7986     67.7323     81.4156
    19.2500      0.0000    263.7946     67.7525     85.1756
    19.5000      0.0000    263.7956     67.7613     88.5956
    19.7500      0.0000    263.7967     67.7607     89.1805
    20.0000      0.0000    263.7965     67.7598     85.5507
    20.2500      0.0000    263.7955     67.7632     78.3990
    20.5000      0.0000    263.7938     67.7771     70.0733
    20.7500      0.0000    263.7844     67.8351     63.0577
    21.0000      0.0000    263.7668     67.9358     58.5665
    21.2500      0.0000    263.7538     68.0097     56.3696
    21.5000      0.0000    263.7480     68.0425     55.8345
    21.7500      0.0000    263.7364     68.1028     57.0179
    22.0000      0.0000    263.7174     68.2018     60.6814
    22.2500      0.0000    263.7023     68.2854     67.2737
    22.5000      0.0000    263.6935     68.3414     76.0912
    22.7500      0.0000    263.6870     68.3897     85.5897
    23.0000      0.0000    263.6816     68.4321     94.3026
    23.2500      0.0000    263.6774     68.4654    101.2019
    23.5000      0.0000    263.6733     68.4955    105.4997
    23.7500      0.0000    263.6659     68.5377    106.7151
    24.0000      0.0000    263.6524     68.6023    105.0614
    24.2500      0.0000    263.6358     68.6761    101.5965
    24.5000      0.0000    263.6194     68.7497     97.8930
    24.7500      0.0000    263.6030     68.8292     95.3862
    25.0000      0.0000    263.5882     68.9106     94.7383
    25.2500      0.0000    263.5780     68.9778     95.6823
    25.5000      0.0000    263.5753     69.0099     97.4391
    25.7500      0.0000    263.5827     68.9902     99.2838
    26.0000      0.0000    263.5945     68.9440    100.7917
    26.2500      0.0000    263.6002     68.9249    101.6358
    26.5000      0.0000    263.5994     68.9299    101.3529
    26.7500      0.0000    263.6053     68.8941     99.6398
    27.0000      0.0000    263.6254     68.7865     96.8683
    27.2500      0.0000    263.6537     68.6424     93.7620
    27.5000      0.0000    263.6793     68.5107     90.3473
    27.7500      0.0000    263.6944     68.4239     85.7358
    28.0000      0.0000    263.6974     68.3921     79.2632
    28.2500      0.0000    263.6941     68.3943     71.5349
    28.5000      0.0000    263.6942     68.3903     64.1074
    28.7500      0.0000    263.7019     68.3555     58.3141
    29.0000      0.0000    263.7130     68.3036     54.5323
    29.2500      0.0000    263.7236     68.2519     52.4260
    29.5000      0.0000    263.7357     68.1886     51.5606
    29.7500      0.0000    263.7467     68.1229     51.6197
    30.0000      0.0000    263.7458     68.1123     52.1882
    30.2500      0.0000    263.7300     68.1779     52.5851
    30.5000      0.0000    263.7093     68.2738     52.1407
    30.7500      0.0000    263.6927     68.3560     50.8331
    31.0000      0.0000    263.6852     68.3972     49.5135
    31.2500      0.0000    263.6878     68.3883     49.1447
    31.5000      0.0000    263.6925     68.3657     49.8062
    31.7500      0.0000    263.6888     68.3819     50.7832
    32.0000      0.0000    263.6736     68.4573     51.5952
    32.2500      0.0000    263.6517     68.5713     52.4192
    32.5000      0.0000    263.6315     68.6857     53.3929
    32.7500      0.0000    263.6169     68.7769     54.0714
    33.0000      0.0000    263.6082     68.8347     53.9401
    33.2500      0.0000    263.6084     68.8403     53.2166
