~Version Information
VERS.                      2.0: CWLS Log ASCII Standard - VERSION 2.0
WRAP.                       NO: One line per depth step
~Well Information Block
STRT.FT               294.0000: 
STOP.FT              1961.5000: 
STEP.FT                 0.2500: 
NULL.                -999.2500: 
COMP.          Pioneer Natural Resources: COMPANY
WELL.          Commander 43-26 Tr: WELL
FLD.           Purgatoire River: FIELD
LOC.           2439' FSL & 446' FEL: LOCATION
PROV.                 Colorado: PROVINCE
CNTY.               Las Animas: COUNTRY
SRVC.                Patterson: SERVICE COMPANY
DATE.          Thu Apr 14 18:26:07 2005: LOG DATE
UWI.           05 071 08341 00: UNIQUE WELL ID
~Curve Information Block
DEPT.FT            0 000 00 00: Depth
SN.Ohm-m                      : IEL Short Normal
SP.mV                         : IEL Spontaneous Potential
DIR.Ohm-m                     : IEL Induction Resistivity
GR.GAPI                       : Gamma Ray
~Parameter Information Block
~A  Depth        SN          SP         DIR          GR     
# ...
  1701.0000     19.3487     11.7568     19.5944     63.3700
  1701.2500     19.5338     11.9089     19.6396     64.1885
  1701.5000     19.7275     12.1700     19.7278     65.5434
  1701.7500     19.9076     12.4704     19.8195     66.0840
  1702.0000     20.1126     12.7332     19.8867     65.9509
  1702.2500     20.3231     12.9051     19.9255     65.2764
  1702.5000     20.5100     12.9749     19.9539     63.7291
  1702.7500     20.7027     12.9725     19.9990     62.5840
  1703.0000     20.9076     12.9511     20.0870     61.0814
  1703.2500     21.0697     12.9649     20.2372     60.3907
  1703.5000     21.1582     13.0550     20.4550     59.8846
  1703.7500     21.1742     13.2429     20.7214     59.7256
  1704.0000     21.1354     13.5273     20.9877     59.2527
  1704.2500     21.1049     13.8820     21.1915     58.6449
  1704.5000     21.2021     14.2650     21.2913     57.6215
  1704.7500     21.5244     14.6324     21.2942     57.2089
  1705.0000     21.9681     14.9529     21.2498     57.3178
  1705.2500     22.2822     15.2142     21.2172     57.8294
  1705.5000     22.3774     15.4233     21.2371     58.9605
  1705.7500     22.3579     15.5993     21.3274     59.7509
  1706.0000     22.3186     15.7620     21.4919     60.7053
  1706.2500     22.3423     15.9213     21.7267     61.1615
  1706.5000     22.5259     16.0745     22.0212     61.9128
  1706.7500     22.8359     16.2109     22.3587     62.8182
  1707.0000     23.1396     16.3185     22.7180     65.4922
  1707.2500     23.4111     16.3833     23.0767     68.5334
  1707.5000     23.6851     16.3838     23.4143     75.1357
  1707.7500     23.9190     16.2967     23.7179     80.3269
  1708.0000     24.1218     16.1159     23.9873     87.1382
  1708.2500     24.4365     15.8675     24.2337     89.6658
  1708.5000     24.9347     15.5999     24.4727     89.3408
  1708.7500     25.5281     15.3612     24.7144     86.7282
  1709.0000     26.1611     15.1836     24.9538     80.8519
  1709.2500     26.8651     15.0777     25.1637     76.6344
  1709.5000     27.6227     15.0294     25.3011     71.0619
  1709.7500     28.3694     15.0074     25.3261     68.2148
  1710.0000     29.0426     14.9818     25.2200     65.4000
  1710.2500     29.5830     14.9397     24.9832     64.2996
  1710.5000     30.0215     14.8830     24.6157     63.0169
  1710.7500     30.4399     14.8181     24.1051     61.8925
  1711.0000     30.7558     14.7535     23.4400     59.5158
  1711.2500     30.7409     14.7049     22.6336     57.9071
  1711.5000     30.2391     14.6927     21.7286     57.1571
  1711.7500     29.2219     14.7253     20.7728     59.0046
  1712.0000     27.7126     14.7816     19.7923     66.9473
  1712.2500     25.7966     14.8118     18.7877     75.7886
  1712.5000     23.6712     14.7621     17.7540     92.3691
  1712.7500     21.5454     14.6083     16.7020    103.4700
  1713.0000     19.5124     14.3748     15.6624    116.4942
  1713.2500     17.6225     14.1240     14.6736    121.6369
  1713.5000     15.9827     13.9255     13.7686    124.7659
  1713.7500     14.7159     13.8241     12.9691    125.4275
  1714.0000     13.8867     13.8239     12.2839    127.4426
  1714.2500     13.4231     13.8969     11.7093    130.5992
  1714.5000     13.1170     14.0037     11.2299    138.1690
  1714.7500     12.7991     14.1130     10.8216    144.3453
  1715.0000     12.4654     14.2096     10.4575    153.1531
  1715.2500     12.1702     14.2892     10.1134    157.2699
  1715.5000     11.9076     14.3462      9.7738    159.1240
  1715.7500     11.6579     14.3635      9.4345    157.6401
  1716.0000     11.4082     14.3183      9.1015    153.4688
  1716.2500     11.0990     14.2015      8.7858    150.9291
  1716.5000     10.6836     14.0356      8.4997    149.4314
  1716.7500     10.2375     13.8735      8.2539    150.6471
  1717.0000      9.9036     13.7732      8.0575    156.1817
  1717.2500      9.7351     13.7635      7.9155    161.8272
  1717.5000      9.6771     13.8287      7.8272    170.8722
  1717.7500      9.6891     13.9237      7.7840    175.7431
  1718.0000      9.7697     14.0004      7.7714    180.1237
  1718.2500      9.8791     14.0253      7.7723    181.3813
  1718.5000      9.9736     13.9902      7.7728    181.6585
  1718.7500     10.0764     13.9199      7.7654    180.9823
  1719.0000     10.2030     13.8656      7.7502    178.6162
  1719.2500     10.2960     13.8769      7.7325    176.0816
  1719.5000     10.3226     13.9734      7.7202    170.9346
  1719.7500     10.3365     14.1383      7.7217    166.8702
  1720.0000     10.4046     14.3355      7.7457    160.8324
  1720.2500     10.5383     14.5287      7.8002    157.6120
  1720.5000     10.6601     14.6923      7.8935    154.8162
  1720.7500     10.6816     14.8149      8.0323    154.3013
  1721.0000     10.6291     14.9009      8.2206    155.2963
  1721.2500     10.6014     14.9671      8.4578    157.0579
  1721.5000     10.6525     15.0325      8.7401    160.2930
  1721.7500     10.7625     15.1094      9.0624    161.1826
  1722.0000     10.8888     15.1987      9.4205    157.4865
  1722.2500     11.0358     15.2943      9.8107    151.2288
  1722.5000     11.2395     15.3893     10.2277    138.3878
  1722.7500     11.4986     15.4777     10.6648    129.3670
  1723.0000     11.8563     15.5492     11.1154    117.2628
  1723.2500     12.5083     15.5821     11.5760    110.7609
  1723.5000     13.6047     15.5487     12.0449    103.9061
  1723.7500     15.0320     15.4305     12.5160    101.2271
  1724.0000     16.5434     15.2329     12.9727     99.0781
  1724.2500     17.9326     14.9853     13.3867     97.9688
  1724.5000     19.0153     14.7311     13.7254     95.4677
  1724.7500     19.6033     14.5133     13.9629     93.1078
  1725.0000     19.5810     14.3623     14.0871     89.7030
  1725.2500     19.0163     14.2877     14.0972     88.7193
  1725.5000     18.1409     14.2782     13.9974     91.0094
  1725.7500     17.1841     14.3082     13.7937     95.4456
  1726.0000     16.2778     14.3463     13.4978    105.5970
  1726.2500     15.4917     14.3646     13.1309    113.5082
  1726.5000     14.8539     14.3493     12.7233    124.8638
  1726.7500     14.3112     14.3096     12.3053    131.1621
  1727.0000     13.7624     14.2756     11.8976    138.1824
  1727.2500     13.1844     14.2849     11.5090    141.6454
  1727.5000     12.6527     14.3661     11.1414    146.3600
  1727.7500     12.2461     14.5260     10.7981    149.5794
  1728.0000     11.9780     14.7449     10.4852    153.6297
  1728.2500     11.7920     14.9780     10.2074    154.9428
  1728.5000     11.6292     15.1675      9.9634    154.6009
  1728.7500     11.4970     15.2673      9.7476    153.5576
  1729.0000     11.4425     15.2698      9.5553    152.0248
  1729.2500     11.4729     15.2139      9.3877    151.1817
  1729.5000     11.5470     15.1625      9.2515    149.8896
  1729.7500     11.6001     15.1666      9.1539    149.0131
  1730.0000     11.5390     15.2408      9.0981    148.1366
  1730.2500     11.3592     15.3627      9.0813    148.0398
  1730.5000     11.2311     15.4923      9.0963    148.3383
  1730.7500     11.2749     15.5946      9.1348    148.4394
  1731.0000     11.3831     15.6522      9.1901    148.1424
  1731.2500     11.4253     15.6653      9.2578    147.8972
  1731.5000     11.4516     15.6401      9.3347    148.0188
  1731.7500     11.5281     15.5776      9.4156    148.3479
  1732.0000     11.5480     15.4744      9.4922    148.5276
  1732.2500     11.3921     15.3367      9.5532    148.2257
  1732.5000     11.1458     15.1946      9.5886    147.4351
  1732.7500     10.9608     15.0963      9.5928    146.9847
  1733.0000     10.8298     15.0839      9.5659    146.9193
  1733.2500     10.6572     15.1663      9.5105    147.6238
  1733.5000     10.4411     15.3137      9.4290    150.0675
  1733.7500     10.2935     15.4722      9.3231    152.1166
  1734.0000     10.3025     15.5899      9.1964    153.9063
  1734.2500     10.4669     15.6405      9.0550    153.3938
