~Version Information
VERS.                      2.0: CWLS Log ASCII Standard - VERSION 2.0
WRAP.                       NO: One line per depth step
~Well Information Block
STRT.FT               -10.0000: 
STOP.FT              2544.2500: 
STEP.FT                 0.2500: 
NULL.                -999.2500: 
COMP.          Pioneer Natural Resources: COMPANY
WELL.            Cortina 23-25: WELL
FLD.           Purgatorie River: FIELD
LOC.           2344' FWL  & 2526' FSL------: LOCATION
PROV.                       CO: PROVINCE
CNTY.               Las Animas: COUNTRY
SRVC.          Patterson Wireline: SERVICE COMPANY
DATE.          Fri Apr 01 11:50:55 2005: LOG DATE
UWI.           05 071 08340 00: UNIQUE WELL ID
~Curve Information Block
DEPT.FT            0 000 00 00: Depth
CCL.                          : Casing Collar Locator
TT3.usec                      : CBL 3' Travel Time
AMP3.mV                       : CBL 3' Amplitude
GR.GAPI                       : Gamma Ray
~Parameter Information Block
~A  Depth       CCL         TT3         AMP3         GR     
# ...
   995.0000      0.0000    772.2157      8.0313     95.5363
   995.2500      0.0000    773.6243      7.9248     98.7251
   995.5000      0.0000    776.3943      7.8113    107.1062
   995.7500      0.0000    779.2495      7.6952    117.2420
   996.0000      0.0000    779.6060      7.5906    125.2966
   996.2500      0.0000    775.2737      7.5049    129.6471
   996.5000      0.0000    766.7786      7.4313    131.3726
   996.7500      0.0000    757.8209      7.3687    132.5199
   997.0000      0.0000    752.9649      7.3342    134.0163
   997.2500      0.0000    754.4720      7.3444    134.9502
   997.5000      0.0000    761.1895      7.3901    133.6527
   997.7500      0.0000    770.7091      7.4435    129.7067
   998.0000      0.0000    782.4959      7.4842    124.9495
   998.2500      0.0000    797.8748      7.5022    122.1363
   998.5000      0.0000    816.3110      7.4824    122.4154
   998.7500      0.0000    832.9922      7.4101    124.3813
   999.0000      0.0000    841.6416      7.2953    125.6696
   999.2500      0.0000    840.0204      7.1740    125.0079
   999.5000      0.0000    832.2039      7.0780    122.4863
   999.7500      0.0000    825.3149      7.0097    118.6743
  1000.0000      0.0000    824.4758      6.9549    114.4242
  1000.2500      0.0000    830.8831      6.9062    111.3905
  1000.5000      0.0000    843.0427      6.8618    111.8478
  1000.7500      0.0000    857.9415      6.8104    117.1664
  1001.0000      0.0000    871.1863      6.7420    126.1168
  1001.2500      0.0000    878.0515      6.6726    135.0390
  1001.5000      0.0000    875.9443      6.6372    140.3425
  1001.7500      0.0000    865.7794      6.6529    141.0885
  1002.0000      0.0000    850.6580      6.7065    139.2238
  1002.2500      0.0000    834.0557      6.7790    137.8422
  1002.5000      0.0000    819.6794      6.8630    139.3093
  1002.7500      0.0000    811.4882      6.9522    144.0073
  1003.0000      0.0000    811.7746      7.0317    149.9367
  1003.2500      0.0000    819.1893      7.0867    153.9079
  1003.5000      0.0000    829.6585      7.1155    153.8389
  1003.7500      0.0000    839.3700      7.1309    149.9399
  1004.0000      0.0000    846.6259      7.1547    143.7233
  1004.2500      0.0000    851.5303      7.2082    136.4221
  1004.5000      0.0000    854.8150      7.2965    128.5873
  1004.7500      0.0000    856.9733      7.4034    120.7234
  1005.0000      0.0000    858.0056      7.5063    113.7413
  1005.2500      0.0000    857.7625      7.5941    108.6793
  1005.5000      0.0000    856.5690      7.6658    106.0388
  1005.7500      0.0000    855.3694      7.7172    105.3935
  1006.0000      0.0000    855.0163      7.7389    105.7941
  1006.2500      0.0000    855.5624      7.7263    106.5735
  1006.5000      0.0000    856.4135      7.6855    107.5005
  1006.7500      0.0000    856.9216      7.6297    108.1748
  1007.0000      0.0000    856.5575      7.5702    107.5929
  1007.2500      0.0000    854.7046      7.5135    104.5887
  1007.5000      0.0000    850.6750      7.4679     99.0063
  1007.7500      0.0000    844.0249      7.4497     92.5536
  1008.0000      0.0000    834.7299      7.4667     88.0624
  1008.2500      0.0000    822.9413      7.4978     87.4358
  1008.5000      0.0000    808.9600      7.5056     90.4197
  1008.7500      0.0000    794.0015      7.4669     95.5032
  1009.0000      0.0000    780.7346      7.3803    101.6640
  1009.2500      0.0000    772.1583      7.2569    108.8600
  1009.5000      0.0000    769.7975      7.1178    117.0628
  1009.7500      0.0000    773.4835      6.9931    125.4113
  1010.0000      0.0000    782.2226      6.9099    132.5090
  1010.2500      0.0000    794.0770      6.8802    137.2116
  1010.5000      0.0000    805.8953      6.8964    139.0139
  1010.7500      0.0000    814.7540      6.9391    137.9760
  1011.0000      0.0000    819.7515      6.9894    134.4592
  1011.2500      0.0000    821.9122      7.0347    128.8608
  1011.5000      0.0000    822.7194      7.0630    121.6610
  1011.7500      0.0000    823.0843      7.0636    113.9429
  1012.0000      0.0000    823.2825      7.0361    107.6935
  1012.2500      0.0000    823.2361      6.9906    104.9159
  1012.5000      0.0000    822.7202      6.9404    106.0691
  1012.7500      0.0000    821.5340      6.8981    109.6422
  1013.0000      0.0000    819.8166      6.8764    113.5828
  1013.2500      0.0000    818.3141      6.8797    117.0720
  1013.5000      0.0000    818.0518      6.8961    120.5912
  1013.7500      0.0000    819.4437      6.9029    124.1874
  1014.0000      0.0000    821.8233      6.8847    126.2937
  1014.2500      0.0000    824.0336      6.8468    124.9097
  1014.5000      0.0000    825.3523      6.8084    119.7686
  1014.7500      0.0000    825.7694      6.7856    112.7729
  1015.0000      0.0000    825.6461      6.7771    106.3697
  1015.2500      0.0000    825.3363      6.7640    102.0176
  1015.5000      0.0000    825.0455      6.7287    100.0774
  1015.7500      0.0000    824.8549      6.6759    100.3002
  1016.0000      0.0000    824.7873      6.6293    101.9854
  1016.2500      0.0000    824.8463      6.6085    104.1250
  1016.5000      0.0000    825.0075      6.6107    106.0009
  1016.7500      0.0000    825.2145      6.6187    107.8203
  1017.0000      0.0000    825.4069      6.6293    110.6019
  1017.2500      0.0000    825.5528      6.6668    115.2754
  1017.5000      0.0000    825.6438      6.7600    121.8061
  1017.7500      0.0000    825.6646      6.9065    128.9741
  1018.0000      0.0000    825.5616      7.0693    134.6110
  1018.2500      0.0000    825.2133      7.2039    136.1317
  1018.5000      0.0000    824.3954      7.2813    131.7525
  1018.7500      0.0000    822.8607      7.2924    122.1729
  1019.0000      0.0000    820.6703      7.2488    111.0784
  1019.2500      0.0000    818.5396      7.1807    103.2680
  1019.5000      0.0000    817.5844      7.1202    101.6137
  1019.7500      0.0000    818.3995      7.0817    105.5874
  1020.0000      0.0000    820.4707      7.0573    112.5512
  1020.2500      0.0000    822.6702      7.0291    119.9399
  1020.5000      0.0000    824.1467      6.9786    125.8873
  1020.7500      0.0000    824.5652      6.8872    128.7201
  1021.0000      0.0000    823.6561      6.7347    127.4478
  1021.2500      0.0000    820.7043      6.5030    123.0329
  1021.5000      0.0000    814.5629      6.1945    118.0707
  1021.7500      0.0000    804.4098      5.8635    114.6430
  1022.0000      0.0000    791.0676      5.6136    112.8244
  1022.2500      0.0000    778.0110      5.5216    111.2167
  1022.5000      0.0000    770.4578      5.5610    108.4210
  1022.7500      0.0000    771.7271      5.6361    104.2132
  1023.0000      0.0000    779.3389      5.6839     99.9117
  1023.2500      0.0000    785.6999      5.7099     97.7304
  1023.5000     -2.0000    784.1806      5.7430     99.4039
  1023.7500     -2.0000    774.8276      5.7968    104.9665
  1024.0000     -2.0000    763.8677      5.8700    112.5034
  1024.2500      0.0000    758.0676      5.9659    119.1337
  1024.5000      0.0000    759.8008      6.1062    122.6148
  1024.7500      0.0000    766.4211      6.3154    122.3568
  1025.0000      0.0000    772.7299      6.5771    119.2837
  1025.2500      0.0000    774.1915      6.8169    114.9387
  1025.5000      0.0000    769.5688      6.9562    110.6123
  1025.7500      0.0000    761.3165      6.9788    107.0908
  1026.0000      0.0000    753.0102      6.9285    104.9435
  1026.2500      0.0000    746.3237      6.8616    104.6804
  1026.5000      0.0000    740.5875      6.8149    106.6804
  1026.7500      0.0000    734.5757      6.7951    111.2693
  1027.0000      0.0000    727.9725      6.7818    118.6736
  1027.2500      0.0000    721.3151      6.7552    128.3969
  1027.5000      0.0000    715.2956      6.7217    138.5891
  1027.7500      0.0000    710.4856      6.7020    146.3276
  1028.0000      0.0000    707.2506      6.7021    149.0393
  1028.2500      0.0000    705.4274      6.7101    146.3286
