~Version Information
VERS.                      2.0: CWLS Log ASCII Standard - VERSION 2.0
WRAP.                       NO: One line per depth step
~Well Information Block
STRT.FT                -8.2500: 
STOP.FT              2356.2500: 
STEP.FT                 0.2500: 
NULL.                -999.2500: 
COMP.          Petrogulf Corporation: COMPANY
WELL.             State 16-12V: WELL
FLD.           Purgatorie River: FIELD
LOC.           1992' FNL & 1237' FWL: LOCATION
PROV.                 Colorado: PROVINCE
CNTY.               Las Animas: COUNTRY
SRVC.                Patterson: SERVICE COMPANY
DATE.          Thu Aug 11 14:44:06 2005: LOG DATE
UWI.                          : UNIQUE WELL ID
~Curve Information Block
DEPT.FT            0 000 00 00: Depth
GR.GAPI                       : Gamma Ray
CCL.                          : Casing Collar Locator
TT3.usec                      : CBL 3' Travel Time
AMP3.mV                       : CBL 3' Amplitude
~Parameter Information Block
~A  Depth        GR         CCL         TT3         AMP3    
# ...
   762.2500     70.1765      0.0000    792.0653     12.6774
   762.5000     70.6806      0.0000    802.3887     13.5159
   762.7500     70.9899      0.0000    811.7592     14.3193
   763.0000     70.7818      0.0000    807.9359     15.1658
   763.2500     69.8256      0.0000    794.3842     15.9901
   763.5000     68.7835      0.0000    778.0825     16.6149
   763.7500     69.1816      0.0000    763.0378     16.8495
   764.0000     71.9414      0.0000    752.4045     16.5993
   764.2500     76.3235      0.0000    747.4797     15.9714
   764.5000     80.6063      0.0000    746.7153     15.2199
   764.7500     83.4044      0.0000    747.3650     14.5300
   765.0000     84.2944      0.0000    745.1746     13.9284
   765.2500     83.7157      0.0000    737.5638     13.3722
   765.5000     82.3790      0.0000    734.3058     12.8464
   765.7500     80.6111      0.0000    752.5641     12.3861
   766.0000     78.5007      0.0000    786.2678     12.0305
   766.2500     76.5997      0.0000    801.7278     11.7622
   766.5000     75.8640      0.0000    784.2361     11.5214
   766.7500     76.7194      0.0000    757.5472     11.2679
   767.0000     78.6069      0.0000    744.1235     11.0119
   767.2500     80.5201      0.0000    744.2424     10.8471
   767.5000     81.7339      0.0000    747.9722     10.9382
   767.7500     82.1461      0.0000    742.9459     11.4234
   768.0000     82.1691      0.0000    726.6490     12.3783
   768.2500     82.1979      0.0000    713.1188     13.8273
   768.5000     82.1390      0.0000    715.0451     15.7313
   768.7500     81.7506      0.0000    727.5458     18.0571
   769.0000     81.4469      0.0000    737.8701     20.8671
   769.2500     82.3597      0.0000    737.7231     24.2549
   769.5000     85.3604      0.0000    717.0831     28.1900
   769.7500     90.1549      0.0000    668.1646     32.4246
   770.0000     95.4586      0.0000    605.8926     36.5540
   770.2500    100.0078      0.0000    551.6839     40.2662
   770.5000    103.4359      0.0000    495.9363     43.5599
   770.7500    106.3762      0.0000    423.7319     46.5410
   771.0000    109.7606      0.0000    355.0335     48.9763
   771.2500    113.8479      0.0000    314.7605     50.2704
   771.5000    117.9299      0.0000    301.1311     49.9151
   771.7500    121.0388      0.0000    304.0330     47.8636
   772.0000    122.8480      0.0000    328.6098     44.5922
   772.2500    123.8954      0.0000    395.2115     40.8943
   772.5000    125.1497      0.0000    512.5339     37.5014
   772.7500    127.4456      0.0000    647.3975     34.6698
   773.0000    131.0380      0.0000    745.5766     32.0729
   773.2500    135.3314      0.0000    786.4210     29.2957
   773.5000    139.0648      0.0000    790.2422     26.4088
   773.7500    141.1291      0.0000    783.3932     23.8670
   774.0000    141.3663      0.0000    779.2764     22.0285
   774.2500    140.6468      0.0000    782.3884     20.9863
   774.5000    140.3379      0.0000    793.4579     20.6406
   774.7500    141.4922      0.0000    806.4927     20.7657
   775.0000    143.9786      0.0000    808.4481     21.1370
   775.2500    146.4209      0.0000    791.4237     21.6150
   775.5000    147.5131      0.0000    764.5770     22.0531
   775.7500    147.4390      0.0000    748.1967     22.2310
   776.0000    147.5735      0.0000    756.5146     22.0329
   776.2500    148.7324      0.0000    786.6517     21.6276
   776.5000    150.0307      0.0000    822.3463     21.2869
   776.7500    149.6399      0.0000    847.1844     21.0588
   777.0000    146.6833      0.0000    854.5074     20.8025
   777.2500    142.3437      0.0000    848.6817     20.4682
   777.5000    138.9127      0.0000    837.6108     20.1321
   777.7500    137.6942      0.0000    823.2660     19.8285
   778.0000    138.1794      0.0000    803.7218     19.4850
   778.2500    139.2602      0.0000    784.4464     18.9547
   778.5000    140.4556      0.0000    779.1434     18.1085
   778.7500    141.6156      0.0000    794.2828     16.9974
   779.0000    142.1488      0.0000    817.9517     15.8959
   779.2500    141.0680      0.0000    833.2407     15.1066
   779.5000    137.5872      0.0000    840.6021     14.7070
   779.7500    131.5776      0.0000    852.6218     14.4776
   780.0000    123.6881      0.0000    869.6539     14.1494
   780.2500    115.2258      0.0000    879.6449     13.7237
   780.5000    107.8553      0.0000    879.3881     13.4093
   780.7500    102.9996      0.0000    878.9576     13.2911
   781.0000    101.0619      0.0000    891.0546     13.2768
   781.2500    101.3454      0.0000    913.8094     13.3085
   781.5000    103.0064      0.0000    915.5062     13.3632
   781.7500    105.7561      0.0000    869.1210     13.3603
   782.0000    109.2274      0.0000    797.7648     13.3334
   782.2500    112.1566      0.0000    750.2968     13.3670
   782.5000    112.9533      0.0000    751.8548     13.3843
   782.7500    111.1608      0.0000    792.0563     13.5126
   783.0000    108.0942      0.0000    837.0297     14.0910
   783.2500    106.0469      0.0000    854.6740     14.9787
   783.5000    106.8682      0.0000    838.1247     15.5922
   783.7500    110.8443      0.0000    800.6146     15.6165
   784.0000    116.4658      2.0000    764.3317     15.2201
   784.2500    121.3421      2.0000    747.9275     14.7112
   784.5000    123.6553      0.0000    746.7319     14.2336
   784.7500    123.0174      0.0000    745.9715     13.9093
   785.0000    120.4923      0.0000    746.1310     13.9931
   785.2500    118.1658      0.0000    754.4478     14.4183
   785.5000    117.9506      0.0000    770.6927     14.7334
   785.7500    119.8903      0.0000    789.4240     14.7008
   786.0000    121.7307      0.0000    807.6199     14.2980
   786.2500    120.6540      0.0000    826.0994     13.5715
   786.5000    115.4916      0.0000    837.8824     12.7829
   786.7500    107.2846      0.0000    836.6377     12.2909
   787.0000     98.0801      0.0000    829.8829     12.2877
   787.2500     89.6340      0.0000    817.3068     12.6882
   787.5000     83.1062      0.0000    795.2591     13.2638
   787.7500     79.1231      0.0000    783.7758     13.8997
   788.0000     77.5588      0.0000    796.5984     14.6244
   788.2500     77.6255      0.0000    806.5806     15.4283
   788.5000     78.6784      0.0000    784.8699     16.2214
   788.7500     80.6906      0.0000    744.0660     16.9812
   789.0000     83.6782      0.0000    714.1207     17.8246
   789.2500     86.9772      0.0000    709.2518     18.8740
   789.5000     89.2942      0.0000    728.6406     20.1356
   789.7500     89.3577      0.0000    760.3672     21.4993
   790.0000     86.6380      0.0000    783.8188     22.7992
   790.2500     81.8287      0.0000    787.0850     23.9247
   790.5000     76.7316      0.0000    776.1534     24.8767
   790.7500     73.3788      0.0000    758.3655     25.6996
   791.0000     72.9574      0.0000    738.2936     26.4303
   791.2500     75.3740      0.0000    727.4015     27.2060
   791.5000     79.5727      0.0000    732.3579     28.2258
   791.7500     84.0929      0.0000    745.7109     29.5633
   792.0000     87.6460      0.0000    753.0649     31.1852
   792.2500     89.6836      0.0000    742.7138     32.9695
   792.5000     90.5612      0.0000    720.4620     34.6730
   792.7500     90.9679      0.0000    707.6718     36.0950
   793.0000     91.2173      0.0000    713.4901     37.2110
   793.2500     91.2717      0.0000    716.7448     38.1544
   793.5000     91.3282      0.0000    682.3084     39.2110
   793.7500     91.9193      0.0000    601.3925     40.7343
   794.0000     93.1024      0.0000    509.6703     42.7926
   794.2500     93.7675      0.0000    449.2559     45.1056
   794.5000     92.2682      0.0000    423.7494     47.4390
   794.7500     87.9298      0.0000    408.0917     49.6233
   795.0000     81.7449      0.0000    384.5916     51.4110
   795.2500     75.5311      0.0000    356.1274     52.6676
   795.5000     70.5995      0.0000    333.3044     53.4888
