~Version Information
VERS.                      2.0: CWLS Log ASCII Standard - VERSION 2.0
WRAP.                       NO: One line per depth step
~Well Information Block
STRT.FT               801.5000: 
STOP.FT              2513.0000: 
STEP.FT                 0.2500: 
NULL.                -999.2500: 
COMP.          Petrogulf Corporation: COMPANY
WELL.               YWAM 7-32V: WELL
FLD.           Purgatoire River: FIELD
LOC.           2423' FNL & 2412' FEL: LOCATION
PROV.                 Colorado: PROVINCE
CNTY.               Las Animas: COUNTRY
SRVC.                Patterson: SERVICE COMPANY
DATE.          Sun Dec 14 06:58:17 2003: LOG DATE
UWI.                          : UNIQUE WELL ID
~Curve Information Block
DEPT.FT            0 000 00 00: Depth
SP.mV                         : DIL Spontaneous Potential
RILD.Ohm-m                    : DIL Deep Resistivity
RILM.Ohm-m                    : DIL Medium Resistivity
RLL3.Ohm-m                    : DIL Shallow Resistivity
GR.GAPI                       : Gamma Ray
~Parameter Information Block
~A  Depth        SP         RILD        RILM        RLL3         GR     
# ...
  1165.5000   -623.2159     17.2400     16.3497     22.7135    150.1648
  1165.7500   -623.2058     18.1792     15.9112     21.5600    147.2077
  1166.0000   -623.0429     19.4568     15.5848     20.7945    143.4113
  1166.2500   -622.8174     20.9273     15.3862     20.5036    142.4994
  1166.5000   -622.5668     22.4340     15.3095     20.6212    144.5160
  1166.7500   -622.2605     23.8232     15.3384     21.0187    147.3845
  1167.0000   -621.8178     24.9536     15.4539     21.7915    151.0609
  1167.2500   -621.1487     25.7458     15.6352     23.7371    151.3570
  1167.5000   -620.2019     26.2600     15.8555     28.8550    146.6421
  1167.7500   -619.0089     26.7054     16.0847     40.4956    139.5725
  1168.0000   -617.7061     27.3492     16.3211     62.8068    123.2621
  1168.2500   -616.4991     28.4121     16.6443     99.5951    109.3898
  1168.5000   -615.5748     30.0232     17.2464    153.1711     86.5518
  1168.7500   -615.0213     32.2231     18.4166    223.3927     71.7131
  1169.0000   -614.8141     34.9854     20.5084    306.5975     52.6542
  1169.2500   -614.8469     38.2414     23.9182    394.9326     42.9657
  1169.5000   -614.9736     41.9165     29.0357    477.5440     32.9871
  1169.7500   -615.0508     45.9745     36.0682    543.3436     28.7185
  1170.0000   -614.9693     50.4403     44.6631    582.6486     24.5134
  1170.2500   -614.6684     55.3694     53.4307    586.9542     22.6143
  1170.5000   -614.1377     60.8126     59.9027    550.3034     20.8566
  1170.7500   -613.4080     66.8315     61.8182    474.3149     20.6492
  1171.0000   -612.5195     73.5666     59.2256    372.6263     22.4741
  1171.2500   -611.4970     81.2205     54.4738    269.1030     25.2181
  1171.5000   -610.3546     89.7977     49.9763    190.3016     30.5002
  1171.7500   -609.1160     98.6602     46.9288    157.5943     33.4720
  1172.0000   -607.8183    106.3859     45.5529    182.3450     34.9573
  1172.2500   -606.4976    111.5383     45.6275    263.2736     33.5346
  1172.5000   -605.1740    113.9515     46.7662    385.4945     28.7126
  1172.7500   -603.8647    114.9759     48.5277    523.9614     24.7164
  1173.0000   -602.6354    116.4376     50.4996    652.6133     19.0276
  1173.2500   -601.6304    119.6041     52.3982    754.1399     15.9400
  1173.5000   -601.0081    124.8590     54.1336    823.4808     12.7041
  1173.7500   -600.8095    131.8139     55.7711    864.7938     11.4562
  1174.0000   -600.8979    139.8333     57.4111    887.2477     10.6310
  1174.2500   -601.0401    148.9510     59.1138    902.4022     10.4969
  1174.5000   -601.0457    160.5939     60.9116    921.1472     10.4400
  1174.7500   -600.8444    176.8804     62.8671    949.0516     10.2992
  1175.0000   -600.4783    197.7102     65.0746    983.1440      9.7856
  1175.2500   -600.0590    215.5426     67.5419   1013.7458      9.2625
  1175.5000   -599.7243    215.0693     70.0360   1030.5669      8.4055
  1175.7500   -599.5921    190.4183     72.0262   1027.6244      7.9906
  1176.0000   -599.7102    155.1617     72.7953   1002.5549      8.0498
  1176.2500   -600.0209    123.1114     71.6715    952.7547      8.8171
  1176.5000   -600.3755     98.0781     68.2626    875.0648     11.4545
  1176.7500   -600.6034     79.0033     62.6390    770.3303     14.3208
  1177.0000   -600.5938     64.3714     55.4131    646.4749     20.2259
  1177.2500   -600.3318     53.2206     47.5862    515.6697     25.1547
  1177.5000   -599.8803     44.8862     40.1588    389.2536     34.2343
  1177.7500   -599.3362     38.7614     33.7813    275.7088     41.7623
  1178.0000   -598.7970     34.2766     28.6741    181.3815     55.6461
  1178.2500   -598.3409     30.9425     24.7604    110.4630     66.3765
  1178.5000   -598.0097     28.3661     21.8353     63.4926     83.7498
  1178.7500   -597.7906     26.2364     19.6767     36.7526     95.7362
  1179.0000   -597.6190     24.3202     18.0926     23.9732    113.4786
  1179.2500   -597.4127     22.4832     16.9309     19.0253    124.1973
  1179.5000   -597.1209     20.7076     16.0737     17.6243    136.5091
  1179.7500   -596.7595     19.0612     15.4302     17.5084    141.4298
  1180.0000   -596.4129     17.6286     14.9317     17.7866    144.1656
  1180.2500   -596.1968     16.4593     14.5314     18.2103    143.8927
  1180.5000   -596.1965     15.5587     14.2021     18.6974    142.4449
  1180.7500   -596.4225     14.9053     13.9312     19.1471    141.5074
  1181.0000   -596.8186     14.4676     13.7142     19.4381    140.0897
  1181.2500   -597.3046     14.2126     13.5491     19.4835    139.0423
  1181.5000   -597.8191     14.1074     13.4360     19.2806    138.1074
  1181.7500   -598.3433     14.1192     13.3777     18.9364    138.3607
  1182.0000   -598.8995     14.2170     13.3794     18.6400    139.3050
  1182.2500   -599.5227     14.3722     13.4441     18.5617    139.4035
  1182.5000   -600.2184     14.5599     13.5668     18.7308    138.4479
  1182.7500   -600.9414     14.7627     13.7305     19.0093    137.7178
  1183.0000   -601.6147     14.9756     13.9096     19.2093    137.2636
  1183.2500   -602.1750     15.2065     14.0840     19.2592    137.1064
  1183.5000   -602.6151     15.4689     14.2545     19.2642    136.0804
  1183.7500   -603.0009     15.7723     14.4474     19.4277    134.5549
  1184.0000   -603.4528     16.1197     14.7017     19.9527    131.2476
  1184.2500   -604.0997     16.5126     15.0506     21.0355    128.7439
  1184.5000   -605.0255     16.9574     15.5108     22.8687    124.9169
  1184.7500   -606.2311     17.4665     16.0823     25.4657    122.1638
  1185.0000   -607.6292     18.0530     16.7512     28.3716    117.3679
  1185.2500   -609.0731     18.7249     17.4900     30.6781    113.9825
  1185.5000   -610.4084     19.4809     18.2615     31.5850    109.8933
  1185.7500   -611.5247     20.3094     19.0327     31.0746    108.4732
  1186.0000   -612.3805     21.1889     19.7948     30.0141    108.3694
  1186.2500   -612.9974     22.0897     20.5706     29.6148    109.1334
  1186.5000   -613.4319     22.9748     21.3968     30.7809    110.3586
  1186.7500   -613.7474     23.8026     22.2922     33.7342    110.7324
  1187.0000   -613.9971     24.5291     23.2348     37.8834    110.4542
  1187.2500   -614.2225     25.1109     24.1574     41.9588    109.9447
  1187.5000   -614.4581     25.5065     24.9597     44.5827    109.2490
  1187.7500   -614.7232     25.6773     25.5315     45.0788    109.0896
  1188.0000   -614.9977     25.5846     25.7812     43.8396    109.7143
  1188.2500   -615.2115     25.1911     25.6659     41.8448    110.9499
  1188.5000   -615.2643     24.4743     25.2088     39.7914    114.1745
  1188.7500   -615.0592     23.4495     24.4848     37.6919    116.9881
  1189.0000   -614.5248     22.1827     23.5789     35.2418    121.3880
  1189.2500   -613.6278     20.7784     22.5475     32.4256    124.0776
  1189.5000   -612.3804     19.3502     21.4075     29.6832    127.6742
  1189.7500   -610.8362     17.9922     20.1589     27.5387    129.8356
  1190.0000   -609.0712     16.7619     18.8168     26.1118    132.4312
  1190.2500   -607.1686     15.6778     17.4286     24.9414    133.4660
  1190.5000   -605.2264     14.7304     16.0653     23.2988    133.9811
  1190.7500   -603.3757     13.8993     14.7985     20.8023    133.9013
  1191.0000   -601.7719     13.1666     13.6803     17.7801    133.6740
  1191.2500   -600.5450     12.5206     12.7363     14.9883    133.7607
  1191.5000   -599.7466     11.9526     11.9666     12.9967    134.5961
  1191.7500   -599.3314     11.4520     11.3525     11.8831    135.3729
  1192.0000   -599.1813     11.0059     10.8636     11.4009    135.5815
  1192.2500   -599.1512     10.6026     10.4660     11.2687    134.3647
  1192.5000   -599.1121     10.2355     10.1307     11.2962    130.3787
  1192.7500   -598.9760      9.9074      9.8407     11.3705    126.8848
  1193.0000   -598.7051      9.6289      9.5916     11.4236    121.7471
  1193.2500   -598.3148      9.4128      9.3876     11.4206    118.8892
