~Version Information
 VERS.                                  2.0 : CWLS LAS VERSION
 WRAP.                                   NO : WRAPING MODE
 SWARE .                 MController 2.5.0N : SOFTWARE VERSION
~Well Information
 WELL.                   Casablanca 11-28TR : WELL
 COMP.    Pioneer Natural Resources USA Inc : COMPANY
 FLD.                      Purgatoire River : FIELD
 LOC.                NW/NW Sec 28 T32S R67W : LOCATION
 DATE.                         3/05-06/2005 : DATE(S) LOGGED
 SRVC.       Blanco Geological Services LLC : SERVICE COMPANY
 STAT.                                   CO : STATE
 CNTY.                           Las Animas : COUNTY
 CTRY.                                  USA : COUNTRY
 API.                       05-071-08314-00 : API NUMBER
 STRT.FT                             818.00 : START DEPTH
 STOP.FT                            2250.00 : STOP DEPTH
 STEP.FT                               1.00 : DEPTH INCREMENT
 NULL.                                -9999 : NULL VALUE
~Curve information
 DEPTH.FT                                   :
 ROP.MIN/FT                                 :
 GAS.UNITS                                  :
~ASCII Log data
       788.0     -9999.00         15.2 
       789.0         0.42         14.6 
       790.0         0.42         15.3 
       791.0         0.43         14.6 
       792.0         0.40         14.8 
       793.0         0.43         14.9 
       794.0         0.47         14.8 
       795.0         0.42         14.7 
       796.0         0.43         14.7 
       797.0         0.40         14.6 
       798.0         0.43          7.8 
       799.0         0.47          4.0 
       800.0         0.85          5.4 
       801.0         0.90          4.4 
       802.0         0.58          4.7 
       803.0         0.53          4.9 
       804.0         0.53          4.6 
       805.0         0.53          4.6 
       806.0         0.52          4.7 
       807.0         0.53          4.1 
       808.0         0.47          4.4 
       809.0         0.47          4.8 
       810.0         0.43          4.6 
       811.0         0.45          4.7 
       812.0         0.42          4.6 
       813.0         0.30          4.7 
       814.0         0.72          4.1 
       815.0         0.62          4.2 
       816.0         0.60          4.4 
       817.0         0.67        109.4 
       818.0         0.50         14.7 
       819.0         0.42         15.0 
       820.0         0.42         15.1 
       821.0         0.43         14.9 
       822.0         0.40         15.0 
       823.0         0.43          7.8 
       824.0         0.47          5.9 
       825.0         0.42          5.9 
       826.0         0.43          5.7 
       827.0         0.40          5.3 
       828.0         0.43          5.1 
       829.0         0.47          5.1 
       830.0         0.85          5.3 
       831.0         0.90          5.0 
       832.0         0.58          5.1 
       833.0         0.53          5.0 
       834.0         0.53          5.0 
       835.0         0.53          5.0 
       836.0         0.52          5.1 
       837.0         0.53          5.1 
       838.0         0.47          4.8 
       839.0         0.47          4.9 
       840.0         0.43          4.4 
       841.0         0.45          4.6 
       842.0         0.42         32.5 
       843.0         0.30         92.7 
       844.0         0.72        155.7 
       845.0         0.62        158.3 
       846.0         0.60        150.8 
       847.0         0.67        141.3 
       848.0         0.72        143.0 
       849.0         0.77        138.3 
       850.0         0.83        133.1 
       851.0         0.77        125.2 
       852.0         0.72        125.0 
       853.0         0.70        113.4 
       854.0         0.67        116.8 
       855.0         0.70        115.4 
       856.0         0.70        114.7 
       857.0         0.72        109.1 
       858.0         0.70        105.3 
       859.0         0.70        104.5 
       860.0         0.67        104.5 
       861.0         0.72        101.3 
       862.0         0.67         95.8 
       863.0         0.67         96.4 
       864.0         0.63         95.7 
       865.0         0.73        101.6 
       866.0         0.67         97.4 
       867.0         0.72         94.0 
       868.0         0.67         91.0 
       869.0         0.67         83.3 
       870.0         0.63         85.6 
       871.0         0.72         88.2 
       872.0         0.67         88.0 
       873.0         0.68         87.1 
       874.0         0.72         87.1 
       875.0         0.72         87.9 
       876.0         0.70         88.8 
       877.0         0.68         87.7 
       878.0         0.68         80.7 
       879.0         0.70         72.9 
       880.0         0.72         86.1 
       881.0         0.72         87.4 
       882.0         0.77         73.9 
       883.0         0.78         75.3 
       884.0         0.60         75.3 
       885.0         0.63         69.6 
       886.0         0.62         49.4 
       887.0         0.60         47.9 
       888.0         0.60         47.8 
       889.0         0.62         48.1 
       890.0         0.63         47.9 
       891.0         0.60         46.0 
       892.0         0.63         45.1 
       893.0         0.57         43.5 
       894.0         0.60         45.2 
       895.0         0.58         43.9 
       896.0         0.63         43.6 
       897.0         0.67         42.2 
       898.0         0.63         41.4 
       899.0         0.60         40.6 
       900.0         0.63         40.2 
       901.0         0.62         40.5 
       902.0         0.63         39.2 
       903.0         0.67         37.5 
       904.0         0.60         37.8 
       905.0         0.63         37.4 
       906.0         0.58         41.3 
       907.0         0.60         49.0 
       908.0         0.70         53.1 
       909.0         0.70         54.6 
       910.0         0.90         58.9 
       911.0         0.93         38.6 
       912.0         0.88         36.4 
       913.0         0.70         36.7 
       914.0         0.70         36.6 
       915.0         0.82         35.3 
       916.0         0.80         33.7 
       917.0         0.70         34.1 
       918.0         0.67         34.9 
       919.0         0.70         35.0 
       920.0         0.68         36.1 
       921.0         0.67         34.0 
       922.0         0.67         34.1 
       923.0         0.63         31.9 
       924.0         0.73         33.2 
       925.0         0.67         32.7 
       926.0         0.75         36.1 
       927.0         0.70         38.1 
       928.0         0.70         45.5 
       929.0         0.82         43.4 
       930.0         0.93         39.0 
       931.0         1.05         36.7 
       932.0         0.85         37.6 
       933.0         0.75         38.7 
       934.0         0.67         38.9 
       935.0         0.63         38.0 
       936.0         0.67         37.6 
       937.0         0.63         36.5 
       938.0         0.68         36.0 
       939.0         0.63         37.0 
       940.0         0.63         36.7 
       941.0         0.63         33.2 
       942.0         0.63         33.1 
       943.0         0.65         32.6 
       944.0         0.65         32.3 
       945.0         0.67         31.9 
       946.0         0.68         32.8 
       947.0         0.62         32.8 
       948.0         0.67         34.1 
       949.0         0.63         37.7 
       950.0         0.67         40.3 
       951.0         0.77         39.7 
       952.0         0.77         31.5 
       953.0         0.78         30.5 
       954.0         0.63         30.3 
       955.0         0.70         29.6 
       956.0         0.70         30.0 
       957.0         0.67         30.1 
       958.0         0.63         28.7 
       959.0         0.65         28.9 
       960.0         0.65         29.8 
       961.0         0.68         29.0 
       962.0         0.62         28.0 
       963.0         0.63         27.3 
       964.0         0.60         27.2 
       965.0         0.60         27.7 
       966.0         0.60         28.2 
       967.0         0.60         28.3 
       968.0         0.58         28.3 
       969.0         0.55         30.9 
       970.0         0.58         32.0 
       971.0         0.50         31.3 
       972.0         0.50         31.4 
       973.0         0.47         31.4 
       974.0         0.47         37.6 
       975.0         0.40         37.6 
       976.0         0.37         38.3 
       977.0         0.33         39.7 
       978.0         0.35         39.6 
       979.0         0.33         44.7 
       980.0         0.33         45.3 
       981.0         0.33         38.7 
       982.0         0.33         37.0 
       983.0         0.38         35.2 
       984.0         0.33         41.0 
       985.0         0.70         40.5 
       986.0         0.50         35.6 
       987.0         0.43         37.1 
