~Version Information
VERS.                      2.0: CWLS Log ASCII Standard - VERSION 2.0
WRAP.                       NO: One line per depth step
~Well Information Block
STRT.FT               250.0000: 
STOP.FT               894.7500: 
STEP.FT                 0.2500: 
NULL.                -999.2500: 
COMP.          Pioneer Natural Resources: COMPANY
WELL.          Santisteven 13-22: WELL
FLD.           Purgatoire River: FIELD
LOC.           1861' FSL & 992' FWL----: LOCATION
PROV.                 Colorado: PROVINCE
CNTY.               Las Animas: COUNTRY
SRVC.                Patterson: SERVICE COMPANY
DATE.          Sat Apr 02 14:49:07 2005: LOG DATE
UWI.           05 071 08337 00: UNIQUE WELL ID
~Curve Information Block
DEPT.FT            0 000 00 00: Depth
SN.Ohm-m                      : IEL Short Normal
SP.mV                         : IEL Spontaneous Potential
DIR.Ohm-m                     : IEL Induction Resistivity
GR.GAPI                       : Gamma Ray
~Parameter Information Block
~A  Depth        SN          SP         DIR          GR     
# ...
   518.0000    652.7505     26.2230     18.0621    138.0566
   518.2500    652.7505     26.2315     17.9172    136.5736
   518.5000    652.7505     26.2410     17.9065    131.0531
   518.7500    652.7505     26.2505     18.0524    125.7518
   519.0000    652.7505     26.2591     18.3645    115.6105
   519.2500    652.7505     26.2658     18.8245    107.9024
   519.5000    652.7505     26.2704     19.3751     97.2751
   519.7500    652.7505     26.2727     19.9191     92.4361
   520.0000    652.7505     26.2728     20.3328     89.8992
   520.2500    652.7505     26.2713     20.4968     90.9992
   520.5000    652.7505     26.2685     20.3343     95.4711
   520.7500    652.7505     26.2652     19.8411    100.0124
   521.0000    652.7505     26.2616     19.0854    109.8333
   521.2500    652.7505     26.2580     18.1780    118.7652
   521.5000    652.7505     26.2545     17.2294    134.6957
   521.7500    652.7505     26.2512     16.3213    145.2582
   522.0000    652.7505     26.2481     15.5001    157.4764
   522.2500    652.7505     26.2453     14.7841    161.8605
   522.5000    652.7505     26.2430     14.1760    162.8158
   522.7500    652.7505     26.2412     13.6729    160.8995
   523.0000    652.7505     26.2401     13.2726    156.7544
   523.2500    652.7505     26.2396     12.9767    154.1028
   523.5000    652.7505     26.2395     12.7911    150.5329
   523.7500    652.7505     26.2396     12.7234    148.1586
   524.0000    652.7505     26.2396     12.7807    144.4868
   524.2500    652.7505     26.2392     12.9655    142.2810
   524.5000    652.7505     26.2383     13.2732    139.9746
   524.7500    652.7505     26.2369     13.6894    139.1066
   525.0000    652.7505     26.2350     14.1862    137.9925
   525.2500    652.7505     26.2328     14.7200    136.7595
   525.5000    652.7505     26.2306     15.2315    133.4443
   525.7500    652.7505     26.2287     15.6517    130.0506
   526.0000    652.7505     26.2275     15.9132    123.3853
   526.2500    652.7505     26.2273     15.9672    118.6740
   526.5000    652.7505     26.2284     15.7986    113.7959
   526.7500    652.7505     26.2307     15.4300    113.5480
   527.0000    652.7505     26.2341     14.9113    118.5527
   527.2500    652.7505     26.2380     14.2989    124.5007
   527.5000    652.7505     26.2417     13.6408    134.1458
   527.7500    652.7505     26.2448     12.9731    139.3908
   528.0000    652.7505     26.2466     12.3246    144.3795
   528.2500    652.7505     26.2472     11.7202    146.1024
   528.5000    652.7505     26.2466     11.1803    147.4038
   528.7500    652.7505     26.2453     10.7194    147.9153
   529.0000    652.7505     26.2440     10.3450    148.4080
   529.2500    652.7505     26.2431     10.0592    148.4367
   529.5000    652.7505     26.2429      9.8601    147.8253
   529.7500    652.7505     26.2437      9.7428    147.0036
   530.0000    652.7505     26.2453      9.6991    145.2863
   530.2500    652.7505     26.2475      9.7182    143.8364
   530.5000    652.7505     26.2502      9.7867    141.2438
   530.7500    652.7505     26.2533      9.8894    139.3588
   531.0000    652.7505     26.2567     10.0114    136.5428
   531.2500    652.7505     26.2603     10.1426    134.7042
   531.5000    652.7505     26.2642     10.2808    131.9457
   531.7500    652.7505     26.2682     10.4313    130.2166
   532.0000    652.7505     26.2721     10.6022    128.1750
   532.2500    652.7505     26.2757     10.8003    127.1575
   532.5000    652.7505     26.2786     11.0286    125.3800
   532.7500    652.7505     26.2804     11.2888    123.5839
   533.0000    652.7505     26.2808     11.5841    120.3192
   533.2500    652.7505     26.2799     11.9230    118.7010
   533.5000    652.7505     26.2778     12.3203    118.8456
   533.7500    652.7505     26.2749     12.7950    120.8916
   534.0000    652.7505     26.2721     13.3644    125.3620
   534.2500    652.7505     26.2699     14.0382    127.7722
   534.5000    652.7505     26.2693     14.8138    128.3510
   534.7500    652.7505     26.2705     15.6738    126.1089
   535.0000    652.7505     26.2737     16.5859    119.1601
   535.2500    652.7505     26.2785     17.5096    113.1366
   535.5000    652.7505     26.2839     18.4095    104.3790
   535.7500    652.7505     26.2891     19.2693     99.7708
   536.0000    652.7505     26.2929     20.0918     95.1739
   536.2500    652.7505     26.2948     20.8808     93.4226
   536.5000    652.7505     26.2944     21.6178     92.3379
   536.7500    652.7505     26.2922     22.2538     92.4310
   537.0000    652.7505     26.2886     22.7259     93.0883
   537.2500    652.7505     26.2843     22.9887     93.3119
   537.5000    652.7505     26.2800     23.0396     92.9196
   537.7500    652.7505     26.2759     22.9190     92.4361
   538.0000    652.7505     26.2721     22.6930     91.7899
   538.2500    652.7505     26.2684     22.4324     91.1459
   538.5000    652.7505     26.2646     22.1966     89.1366
   538.7500    652.7505     26.2606     22.0239     87.2454
   539.0000    652.7505     26.2564     21.9240     84.8033
   539.2500    652.7505     26.2519     21.8760     83.9479
   539.5000    652.7505     26.2472     21.8307     83.3859
   539.7500    652.7505     26.2424     21.7174     82.8566
   540.0000    652.7505     26.2372     21.4543     81.5919
   540.2500    652.7505     26.2317     20.9673     81.1507
   540.5000    652.7505     26.2257     20.2188     83.0005
   540.7500    652.7505     26.2193     19.2310     86.6456
   541.0000    652.7505     26.2129     18.0867     95.6231
   541.2500    652.7505     26.2068     16.8983    103.2953
   541.5000    652.7505     26.2014     15.7666    115.8496
   541.7500    652.7505     26.1970     14.7541    123.9734
   542.0000    652.7505     26.1938     13.8821    134.3590
   542.2500    652.7505     26.1918     13.1456    139.7011
   542.5000    652.7505     26.1908     12.5308    145.6069
   542.7500    652.7505     26.1907     12.0280    148.4350
   543.0000    652.7505     26.1916     11.6347    150.9505
   543.2500    652.7505     26.1936     11.3532    151.1239
   543.5000    652.7505     26.1968     11.1865    148.8796
   543.7500    652.7505     26.2013     11.1364    146.2754
   544.0000    652.7505     26.2069     11.2021    142.6390
   544.2500    652.7505     26.2134     11.3778    141.2380
   544.5000    652.7505     26.2202     11.6518    140.3796
   544.7500    652.7505     26.2267     12.0061    139.7717
   545.0000    652.7505     26.2326     12.4196    137.7927
   545.2500    652.7505     26.2374     12.8728    135.8384
   545.5000    652.7505     26.2412     13.3505    132.7022
   545.7500    652.7505     26.2438     13.8405    130.9058
   546.0000    652.7464     26.2455     14.3309    128.9348
   546.2500    652.7238     26.2466     14.8096    127.8049
   546.5000    652.6151     26.2475     15.2689    125.4154
   546.7500    652.2150     26.2485     15.7105    123.0632
   547.0000    651.1009     26.2499     16.1445    118.8108
   547.2500    648.7933     26.2520     16.5803    115.9825
   547.5000    645.3575     26.2545     17.0159    112.5421
   547.7500    641.9938     26.2572     17.4354    111.1533
   548.0000    640.5616     26.2597     17.8157    110.5796
   548.2500    641.9938     26.2616     18.1386    110.7848
   548.5000    645.3575     26.2626     18.3967    110.7696
   548.7500    648.7933     26.2626     18.5901    110.1159
   549.0000    651.1009     26.2615     18.7204    108.3896
   549.2500    652.2150     26.2595     18.7911    107.1449
   549.5000    652.6151     26.2567     18.8126    105.6429
   549.7500    652.7238     26.2531     18.8041    105.0079
   550.0000    652.7464     26.2492     18.7866    104.5398
   550.2500    652.7505     26.2452     18.7740    104.2996
   550.5000    652.7399     26.2417     18.7704    103.5433
   550.7500    652.6796     26.2394     18.7750    102.7721
   551.0000    652.3566     26.2387     18.7890    101.7978
   551.2500    651.0698     26.2399     18.8163    101.5896
