~Version Information
VERS.                      2.0: CWLS Log ASCII Standard - VERSION 2.0
WRAP.                       NO: One line per depth step
~Well Information Block
STRT.FT               430.0000: 
STOP.FT              2827.0000: 
STEP.FT                 0.1000: 
NULL.                -999.2500: 
COMP.          Pioneer Natural Resources: COMPANY
WELL.           Ei-ei-oh 31-24: WELL
FLD.           Purgatoire River: FIELD
LOC.           235' FNL & 2001' FEL--: LOCATION
PROV.                 Colorado: PROVINCE
CNTY.               Las Animas: COUNTRY
SRVC.                Patterson: SERVICE COMPANY
DATE.          Thu Jun 16 07:14:41 2005: LOG DATE
UWI.           05 071 08403 00: UNIQUE WELL ID
~Curve Information Block
DEPT.FT            0 000 00 00: Depth
DCAL.in                       : CDL Caliper
DPOR.pu                       : CDL Density Porosity
NPOR.pu                       : Neutron Porosity
RHOB.g/cc                     : CDL Bulk Density
RHOC.g/cc                     : CDL Density Correction
GR.GAPI                       : Gamma Ray
~Parameter Information Block
~A  Depth       DCAL        DPOR        NPOR        RHOB        RHOC         GR     
# ...
   737.2000      9.6433     29.9737     28.8485      2.1554      0.2239    131.0214
   737.3000      9.1703     29.9365     29.1074      2.1560      0.2149    129.0430
   737.4000      9.1703     23.4382     29.0072      2.2633      0.2239    128.6907
   737.5000      8.6475     12.7405     28.6126      2.4398      0.3414    130.2758
   737.6000      8.6475      1.5077     28.1677      2.6251      0.4363    129.6011
   737.7000      8.6475     -7.3271     27.7300      2.7709      0.5244    124.5123
   737.8000      8.2913    -12.1029     27.4026      2.8497      0.6120    121.4546
   737.9000      8.2913    -12.3730     27.4594      2.8542      0.5664    124.9966
   738.0000      8.1516     -9.5821     27.6714      2.8081      0.4502    126.8906
   738.1000      8.1516     -6.2185     27.5649      2.7526      0.3238    120.0810
   738.2000      8.1516     -3.6864     27.3258      2.7108      0.2645    111.2662
   738.3000      8.1240     -1.5260     27.3156      2.6752      0.2035    108.9660
   738.4000      8.1240      1.1765     27.3075      2.6306      0.1538    110.6910
   738.5000      8.1223      4.0752     27.0388      2.5828      0.0778    111.8417
   738.6000      8.1223      5.7965     26.6271      2.5544      0.0219    113.9836
   738.7000      8.1223      5.7290     26.3353      2.5555     -0.0079    115.0720
   738.8000      8.1232      4.6568     26.3545      2.5732     -0.0025    110.9879
   738.9000      8.1232      3.8785     26.6039      2.5860      0.0307    103.9922
   739.0000      8.1230      4.0540     27.0379      2.5831      0.0367     97.2835
   739.1000      8.1230      4.6969     27.7840      2.5725      0.0398     92.5497
   739.2000      8.1230      4.9791     28.5704      2.5678     -0.0267     90.7445
   739.3000      8.1221      4.9602     28.9499      2.5682      0.0499     93.5867
   739.4000      8.1221      5.4374     28.8491      2.5603      0.0118     99.9886
   739.5000      8.1203      6.0415     28.5896      2.5503     -0.0356    104.2277
   739.6000      8.1203      5.8636     28.4756      2.5533      0.0213    105.5496
   739.7000      8.1203      5.2970     28.5970      2.5626      0.0184    107.8071
   739.8000      8.1203      4.8257     28.9493      2.5704      0.0219    110.1720
   739.9000      8.1203      4.2424     29.3026      2.5800      0.0060    110.5523
   740.0000      8.1226      3.5789     29.4517      2.5909      0.0534    110.2290
   740.1000      8.1226      3.4409     29.4572      2.5932      0.0181    110.0121
   740.2000      8.1226      4.4291     29.3591      2.5769      0.0644    111.4489
   740.3000      8.1241      6.1484     29.2747      2.5486     -0.0319    117.0323
   740.4000      8.1241      7.0193     29.4117      2.5342     -0.0147    125.7100
   740.5000      8.1242      6.5499     29.6922      2.5419      0.0001    132.7247
   740.6000      8.1242      5.7990     29.6356      2.5543      0.0031    132.5919
   740.7000      8.1242      5.3017     29.1817      2.5625     -0.0056    125.9033
   740.8000      8.1235      4.9350     29.0440      2.5686      0.0220    119.1506
   740.9000      8.1235      4.5088     29.5221      2.5756     -0.0139    116.2267
   741.0000      8.1219      3.5397     30.0607      2.5916      0.0183    117.1068
   741.1000      8.1219      2.4118     30.0939      2.6102      0.0447    119.3219
   741.2000      8.1219      2.4727     29.9549      2.6092      0.0298    120.5795
   741.3000      8.1214      3.9472     30.1249      2.5849      0.0087    121.4758
   741.4000      8.1214      5.5186     30.4272      2.5589     -0.0023    120.4087
   741.5000      8.1212      6.0840     30.8321      2.5496      0.0088    118.2221
   741.6000      8.1212      5.5003     31.2594      2.5592     -0.0072    119.4422
   741.7000      8.1212      4.1410     31.2903      2.5817      0.0133    123.0579
   741.8000      8.1197      2.9938     30.8788      2.6006      0.0634    125.9759
   741.9000      8.1197      2.9483     30.1450      2.6014      0.0419    126.5306
   742.0000      8.1198      3.8599     29.3090      2.5863      0.0282    124.6090
   742.1000      8.1198      4.8977     28.9021      2.5692     -0.0113    124.0766
   742.2000      8.1198      5.2837     29.0043      2.5628      0.0205    126.8116
   742.3000      8.1226      5.1452     29.1340      2.5651      0.0474    128.5111
   742.4000      8.1226      5.3246     29.0756      2.5621      0.0845    127.1810
   742.5000      8.1243      5.7895     29.0144      2.5545     -0.0034    126.5147
   742.6000      8.1243      5.8776     29.1210      2.5530      0.0507    127.7696
   742.7000      8.1243      5.6756     29.4978      2.5564      0.0047    127.8889
   742.8000      8.1245      5.0395     30.0360      2.5668      0.0154    125.8019
   742.9000      8.1245      3.9040     29.8496      2.5856      0.0507    123.0027
   743.0000      8.1246      3.0354     28.3828      2.5999      0.0499    119.6693
   743.1000      8.1246      2.4821     26.8338      2.6090      0.0406    116.1469
   743.2000      8.1246      1.3897     26.5720      2.6271      0.0525    113.6609
   743.3000      8.1235     -0.0230     27.0490      2.6504      0.1143    113.0906
   743.4000      8.1235     -0.1236     26.9972      2.6520      0.1108    115.2816
   743.5000      8.1221      1.5695     26.3716      2.6241      0.0556    118.0803
   743.6000      8.1221      3.3643     25.9598      2.5945      0.0462    116.4473
   743.7000      8.1221      3.8618     26.3702      2.5863      0.0380    114.5784
   743.8000      8.1224      3.8913     27.3355      2.5858      0.0712    118.8517
   743.9000      8.1224      4.9653     28.1115      2.5681      0.0413    123.3094
   744.0000      8.1230      6.6471     28.5700      2.5403     -0.0003    120.2077
   744.1000      8.1230      7.0626     28.7037      2.5335     -0.0393    114.6346
   744.2000      8.1230      5.5074     28.6185      2.5591      0.0115    117.1182
   744.3000      8.1224      3.4579     28.7322      2.5929      0.0723    127.1832
   744.4000      8.1224      2.6824     29.1481      2.6057      0.0287    134.6041
   744.5000      8.1209      3.2629     29.5027      2.5962      0.0291    136.3389
   744.6000      8.1209      3.9606     29.4590      2.5847      0.0047    136.9499
   744.7000      8.1209      3.6327     29.2837      2.5901      0.0403    136.3368
   744.8000      8.1184      2.9511     29.3673      2.6013      0.0738    134.6677
   744.9000      8.1184      3.5767     29.3603      2.5910      0.0813    136.2960
   745.0000      8.1183      5.2694     28.8527      2.5631      0.0315    140.4702
   745.1000      8.1183      6.2062     28.0842      2.5476      0.0140    140.5636
   745.2000      8.1183      5.9563     27.4949      2.5517      0.0514    134.0765
   745.3000      8.1217      5.9912     27.3241      2.5511      0.0767    126.8039
   745.4000      8.1217      7.1087     27.4488      2.5327      0.0514    123.0933
   745.5000      8.1237      8.0067     27.4929      2.5179      0.0157    126.3298
   745.6000      8.1237      7.3430     27.1598      2.5288      0.0334    137.5482
   745.7000      8.1237      5.4581     26.4216      2.5599      0.0344    145.4945
   745.8000      8.1229      3.3872     25.5123      2.5941      0.0296    140.3729
   745.9000      8.1229      2.2511     24.7540      2.6129      0.1019    127.6760
   746.0000      8.1221      2.5150     24.3683      2.6085      0.0756    117.3517
   746.1000      8.1221      3.5784     24.0687      2.5910      0.1051    112.2315
   746.2000      8.1221      4.8967     23.6780      2.5692      0.0526    111.1689
   746.3000      8.1221      6.1272     23.6322      2.5489      0.0571    111.3679
   746.4000      8.1221      7.2804     23.8735      2.5299      0.0084    111.6179
   746.5000      8.1220      8.6812     23.7491      2.5068      0.0309    112.8696
   746.6000      8.1220     10.0166     23.1839      2.4847     -0.0228    113.1418
   746.7000      8.1220     10.8069     22.4914      2.4717     -0.0013    112.0322
