~Version Information
 VERS.                                  2.0 : CWLS LAS VERSION
 WRAP.                                   NO : WRAPING MODE
 SWARE .                 MController 2.5.0J : SOFTWARE VERSION
~Well Information
 WELL.            Rabbit Bush Federal 44-19 : WELL
 COMP.  Pioneer Natural Resources USA, Inc. : COMPANY
 FLD.                      Purgatoire River : FIELD
 LOC.              SE/SE  Sec 19 T32S  R66W : LOCATION
 DATE.                      8/24/06-8/25/06 : DATE(S) LOGGED
 SRVC.       BLANCO Geological Services LLC : SERVICE COMPANY
 STAT.                                   CO : STATE
 CNTY.                            Las Animas: COUNTY
 CTRY.                               U.S.A. : COUNTRY
 API.                       05-071-08149-00 : API NUMBER
 STRT.FT                             539.00 : START DEPTH
 STOP.FT                            2785.00 : STOP DEPTH
 STEP.FT                               1.00 : DEPTH INCREMENT
 NULL.                                -9999 : NULL VALUE
~Curve information
 DEPTH.FT                                   :
 ROP.MIN/FT                                 :
 GAS.UNITS                                  :
~ASCII Log data
# ...
      2339.0         0.57         58.5 
      2340.0         0.57         54.0 
      2341.0         0.47         51.2 
      2342.0         0.53         49.5 
      2343.0         0.55         47.8 
      2344.0         0.50         46.1 
      2345.0         0.50         44.8 
      2346.0         0.47         43.2 
      2347.0         0.43         41.7 
      2348.0         0.40         41.1 
      2349.0         0.40         40.4 
      2350.0         0.40         39.8 
      2351.0         0.45         39.9 
      2352.0         0.43         39.9 
      2353.0         0.50         40.0 
      2354.0         0.43         44.5 
      2355.0         0.47         58.0 
      2356.0         0.43         57.7 
      2357.0         0.47         45.5 
      2358.0         0.45         36.8 
      2359.0         0.43         32.9 
      2360.0         0.40         31.1 
      2361.0         0.40         29.7 
      2362.0         0.43         31.4 
      2363.0         0.57         31.5 
      2364.0         0.33         34.0 
      2365.0         0.30         37.1 
      2366.0         1.85         63.0 
      2367.0         1.30         72.0 
      2368.0         0.20         71.6 
      2369.0         0.27         70.0 
      2370.0         0.35         70.3 
      2371.0         0.27         69.4 
      2372.0         0.27         68.9 
      2373.0         0.23         67.1 
      2374.0         0.27         64.0 
      2375.0         0.30         61.6 
      2376.0         0.27         59.7 
      2377.0         0.23         57.2 
      2378.0         0.20         55.2 
      2379.0         0.30         54.1 
      2380.0         0.43         69.3 
      2381.0         0.42         70.1 
      2382.0         0.27         58.1 
      2383.0         0.27         48.2 
      2384.0         0.30         42.3 
      2385.0         0.27         39.0 
      2386.0         0.33         35.3 
      2387.0         0.17         34.1 
      2388.0         0.20         34.0 
      2389.0         0.23         33.3 
      2390.0         0.20         33.2 
      2391.0         0.17         33.2 
      2392.0         0.23         34.1 
      2393.0         0.23         35.1 
      2394.0         0.20         34.7 
      2395.0         0.20         34.6 
      2396.0         4.53         64.1 
      2397.0         0.43         61.8 
      2398.0         0.40         59.5 
      2399.0         0.37         57.0 
      2400.0         0.37         55.1 
      2401.0         0.40         52.6 
      2402.0         0.45         50.5 
      2403.0         0.43         49.0 
      2404.0         0.43         47.9 
      2405.0         0.40         46.8 
      2406.0         0.40         45.5 
      2407.0         0.37         44.0 
      2408.0         0.37         52.7 
      2409.0         0.30         60.4 
      2410.0         0.33         59.9 
      2411.0         0.32         53.2 
      2412.0         0.30         42.7 
      2413.0         0.33         37.0 
      2414.0         0.23         33.1 
      2415.0         0.23         31.1 
      2416.0         0.30         29.6 
      2417.0         0.27         28.2 
      2418.0         0.27         27.3 
      2419.0         0.20         27.1 
      2420.0         0.17         26.4 
      2421.0         0.13         25.8 
      2422.0         0.20         26.2 
      2423.0         0.20         27.0 
      2424.0         0.27         29.3 
      2425.0         0.25         30.6 
      2426.0         4.75         76.5 
      2427.0         0.53         59.8 
      2428.0         0.43         56.5 
      2429.0         0.50         52.8 
      2430.0         0.45         49.6 
      2431.0         0.47         47.6 
      2432.0         0.47         46.9 
      2433.0         0.43         46.2 
      2434.0         0.40         46.0 
      2435.0         0.30         45.5 
      2436.0         0.33         44.7 
      2437.0         0.27         43.5 
      2438.0         0.33         43.3 
      2439.0         0.32         42.3 
      2440.0         0.30         41.9 
      2441.0         0.30         44.1 
      2442.0         0.33         52.3 
      2443.0         0.37         52.6 
      2444.0         0.30         47.1 
      2445.0         0.30         37.7 
      2446.0         0.33         34.2 
      2447.0         0.30         31.2 
      2448.0         0.27         29.8 
      2449.0         0.30         29.2 
      2450.0         0.28         29.0 
      2451.0         0.37         29.0 
      2452.0         0.27         29.4 
      2453.0         0.33         28.0 
      2454.0         0.40         27.0 
      2455.0         0.30         27.4 
      2456.0         3.45         50.4 
      2457.0         0.53         52.7 
      2458.0         0.50         53.3 
      2459.0         0.42         52.9 
      2460.0         0.37         51.4 
      2461.0         0.43         50.4 
      2462.0         0.43         50.3 
      2463.0         0.47         49.7 
      2464.0         0.13         48.7 
      2465.0         0.30         48.2 
      2466.0         0.37         48.1 
      2467.0         0.37         46.9 
      2468.0         0.30         45.6 
      2469.0         0.32         45.8 
      2470.0         0.27         49.1 
      2471.0         0.27         65.3 
      2472.0         0.33         69.3 
      2473.0         0.27         67.2 
      2474.0         0.27         60.6 
      2475.0         0.27         52.9 
      2476.0         0.27         47.8 
      2477.0         0.17         44.8 
      2478.0         0.17         42.7 
      2479.0         0.23         42.3 
      2480.0         0.33         41.5 
      2481.0         0.30         39.8 
      2482.0         0.35         38.7 
      2483.0         0.33         37.8 
      2484.0         0.37         36.8 
      2485.0         0.37         36.8 
      2486.0         6.10        167.0 
      2487.0         0.63        139.8 
      2488.0         0.43        124.5 
      2489.0         0.33        113.3 
      2490.0         0.37        102.5 
      2491.0         0.50         91.2 
      2492.0         0.52         80.6 
      2493.0         0.43         73.7 
      2494.0         0.30         68.2 
      2495.0         0.33         65.3 
      2496.0         0.37         61.6 
      2497.0         0.37         59.1 
      2498.0         0.33         56.2 
      2499.0         0.40         54.8 
      2500.0         0.33         52.9 
      2501.0         0.27         51.6 
      2502.0         0.35         54.5 
      2503.0         0.33         69.3 
      2504.0         0.33         74.3 
      2505.0         0.30         70.6 
      2506.0         0.30         62.6 
      2507.0         0.37         52.5 
      2508.0         0.40         43.9 
      2509.0         0.30         39.0 
      2510.0         0.37         37.1 
      2511.0         0.45         36.2 
      2512.0         0.43         35.6 
      2513.0         0.30         35.7 
      2514.0         0.30         34.3 
      2515.0         0.30         34.8 
      2516.0         4.22         77.4 
      2517.0         0.57         76.4 
      2518.0         0.37         69.4 
      2519.0         0.35         68.2 
      2520.0         0.37         68.3 
      2521.0         0.30         67.2 
      2522.0         0.23         65.4 
      2523.0         0.23         63.1 
      2524.0         0.23         61.8 
      2525.0         0.57         60.3 
      2526.0         0.40         59.4 
      2527.0         0.30         58.8 
      2528.0         0.27         57.7 
      2529.0         0.25         58.0 
      2530.0         0.23         61.4 
      2531.0         0.30         70.4 
      2532.0         0.30         69.9 
      2533.0         0.30         62.1 
      2534.0         0.27         53.4 
      2535.0         0.30         48.1 
      2536.0         0.27         44.9 
      2537.0         0.27         42.2 
      2538.0         0.30         40.9 
