~Version Information
VERS.                      2.0: CWLS Log ASCII Standard - VERSION 2.0
WRAP.                       NO: One line per depth step
~Well Information Block
STRT.FT               743.8000: 
STOP.FT              1975.8000: 
STEP.FT                 0.1000: 
NULL.                -999.2500: 
COMP.          Petrogulf Corporation: COMPANY
WELL.            Montoya 6-14V: WELL
FLD.           Purgatorie River: FIELD
LOC.           318' FSL & 882' FWL: LOCATION
CNTY.               Las Animas: COUNTY
SRVC.                         : SERVICE COMPANY
DATE.          Sat Aug 14 09:19:43 2004: LOG DATE
UWI.           05 071 08020 00: UNIQUE WELL ID
STAT.                 Colorado: STATE
~Curve Information Block
DEPT.FT            0 000 00 00: Depth
DCAL.in                       : CDL Caliper
RHOB.g/cc                     : CDL Bulk Density
RHOC.g/cc                     : CDL Density Correction
DPOR.pu                       : CDL Density Porosity
GR.GAPI                       : Gamma Ray
NPOR.pu                       : Neutron Porosity
~Parameter Information Block
~A  Depth       DCAL        RHOB        RHOC        DPOR         GR         NPOR    
# ...
  1502.2000      7.8731      2.5077      0.0607      8.6272    136.1969     25.2654
  1502.3000      7.8757      2.4866      0.0540      9.9040    146.5675     25.4303
  1502.4000      7.8757      2.4638      0.0321     11.2857    153.2931     26.0349
  1502.5000      7.8925      2.4300      0.0261     13.3362    149.7905     26.4279
  1502.6000      7.8925      2.3944      0.0193     15.4911    144.7400     26.6989
  1502.7000      7.8925      2.3824     -0.0129     16.2165    148.3102     26.9799
  1502.8000      7.8796      2.4082      0.0472     14.6569    156.6132     27.0830
  1502.9000      7.8796      2.4581      0.0943     11.6333    159.4679     27.3059
  1503.0000      7.9531      2.5073      0.1056      8.6510    154.4489     27.8088
  1503.1000      7.9531      2.5383      0.1629      6.7700    147.0175     28.0157
  1503.2000      7.9531      2.5492      0.1364      6.1114    144.1531     27.5587
  1503.3000      8.1807      2.5533      0.1479      5.8632    144.1451     26.8901
  1503.4000      8.1807      2.5596      0.2074      5.4773    140.1604     26.7784
  1503.5000      8.1212      2.5644      0.2257      5.1851    134.2457     27.2527
  1503.6000      8.1212      2.5664      0.1666      5.0656    131.1901     27.6826
  1503.7000      8.1212      2.5617      0.1393      5.3515    130.7827     27.9664
  1503.8000      8.0276      2.5380      0.1242      6.7862    134.1078     28.1132
  1503.9000      8.0276      2.4999      0.0297      9.0961    141.2678     27.7048
  1504.0000      7.9457      2.4680     -0.0004     11.0290    148.1687     27.2884
  1504.1000      7.9457      2.4468      0.0176     12.3153    149.5066     27.2470
  1504.2000      7.9457      2.4270      0.0121     13.5165    142.2345     26.6544
  1504.3000      7.9696      2.4109     -0.0188     14.4922    133.3467     25.6047
  1504.4000      7.9696      2.4143     -0.0380     14.2856    132.3202     25.2873
  1504.5000      7.9717      2.4428      0.0078     12.5584    139.0522     25.6696
  1504.6000      7.9717      2.4806      0.0034     10.2667    146.5488     25.9335
  1504.7000      7.9717      2.5120      0.0350      8.3651    148.6146     25.7439
  1504.8000      7.9674      2.5401      0.0242      6.6613    147.0906     25.3759
  1504.9000      7.9674      2.5771      0.0283      4.4182    148.7859     25.3470
  1505.0000      7.9570      2.6231      0.0592      1.6285    149.9165     25.4873
  1505.1000      7.9570      2.6706      0.0941     -1.2486    141.5503     25.6697
  1505.2000      7.9570      2.7217      0.0621     -4.3451    127.7887     26.4593
  1505.3000      7.9405      2.7789      0.0325     -7.8102    118.4216     27.3911
  1505.4000      7.9405      2.8269      0.0671    -10.7194    114.4542     27.4528
  1505.5000      7.9306      2.8529      0.0091    -12.2962    110.8271     26.7874
  1505.6000      7.9306      2.8605      0.0483    -12.7574    107.2148     25.7147
  1505.7000      7.9306      2.8501      0.0137    -12.1269    105.5840     24.6737
  1505.8000      7.9592      2.8231      0.0123    -10.4936    107.2472     24.3500
  1505.9000      7.9592      2.7907     -0.0093     -8.5259    112.8924     24.8138
  1506.0000      7.9435      2.7608     -0.0392     -6.7147    119.7997     25.8076
  1506.1000      7.9435      2.7259     -0.0625     -4.6024    125.0753     26.2319
  1506.2000      7.9435      2.6821     -0.0828     -1.9462    129.9583     25.2865
  1506.3000      7.9556      2.6454     -0.0566      0.2761    137.2481     24.3564
  1506.4000      7.9556      2.6338     -0.0616      0.9808    144.1395     24.8102
  1506.5000      7.9594      2.6497     -0.0315      0.0185    143.3154     26.0722
  1506.6000      7.9594      2.6750      0.0303     -1.5132    134.5868     27.0990
  1506.7000      7.9594      2.6915      0.0138     -2.5171    124.2008     27.5354
  1506.8000      8.0073      2.6941      0.0456     -2.6739    115.8222     27.7858
  1506.9000      8.0073      2.6733      0.0707     -1.4126    112.1050     28.4003
  1507.0000      8.2449      2.6219      0.0723      1.7031    116.3591     29.0920
  1507.1000      8.2449      2.5571      0.0211      5.6288    125.1952     29.3450
  1507.2000      8.2449      2.5117     -0.0560      8.3815    131.1056     28.8802
  1507.3000      8.2263      2.5001     -0.0677      9.0847    131.7696     27.7627
  1507.4000      8.2263      2.5032     -0.0374      8.8954    132.1371     26.8804
  1507.5000      8.2112      2.5077     -0.0845      8.6212    140.2352     27.0346
  1507.6000      8.2112      2.5310      0.0053      7.2119    152.0837     27.5451
  1507.7000      8.2112      2.5691      0.1831      4.9055    154.0713     27.5906
  1507.8000      8.1531      2.5718      0.2627      4.7390    145.2094     27.4428
  1507.9000      8.1531      2.5013      0.2111      9.0124    135.8216     27.5220
  1508.0000      8.2483      2.3760      0.1576     16.6080    131.1869     28.0048
  1508.1000      8.2483      2.2476      0.0367     24.3878    129.3275     28.5719
  1508.2000      8.2483      2.1559     -0.0522     29.9453    128.5037     28.8757
  1508.3000      8.1715      2.1014     -0.0235     33.2489    129.4901     29.2517
  1508.4000      8.1715      2.0751     -0.0645     34.8434    128.5822     30.2224
  1508.5000      8.1268      2.0941      0.0033     33.6933    123.8063     31.2830
  1508.6000      8.1268      2.1712      0.1023     29.0173    119.4674     31.3354
  1508.7000      8.1268      2.2827      0.3007     22.2598    117.4821     30.5543
  1508.8000      8.2228      2.3808      0.3968     16.3121    115.0064     29.9212
  1508.9000      8.2228      2.4250      0.4431     13.6390    113.4170     29.7490
  1509.0000      8.2865      2.3971      0.4229     15.3254    117.4979     30.1166
  1509.1000      8.2865      2.3114      0.3062     20.5202    126.2130     30.9633
  1509.2000      8.2865      2.2035      0.1837     27.0599    133.1480     31.5305
  1509.3000      8.5198      2.0925      0.1605     33.7894    135.2931     31.5138
  1509.4000      8.5198      1.9746      0.0874     40.9348    134.0328     31.3357
  1509.5000      8.4886      1.8571     -0.0233     48.0523    129.1041     30.9681
  1509.6000      8.4886      1.7567     -0.0629     54.1375    126.2433     30.2817
  1509.7000      8.4886      1.6826     -0.0589     58.6326    132.4414     29.8903
  1509.8000      8.1332      1.6547     -0.0647     60.3197    138.0085     30.2420
  1509.9000      8.1332      1.6884      0.0834     58.2791    132.1135     30.9698
  1510.0000      8.4400      1.7591      0.2121     53.9950    123.3749     31.4181
  1510.1000      8.4400      1.8418      0.2411     48.9805    121.9255     30.9580
  1510.2000      8.4400      1.9409      0.2910     42.9763    124.9409     30.3367
  1510.3000      9.1043      2.0473      0.3088     36.5252    128.6146     30.5318
  1510.4000      9.1043      2.1251      0.3318     31.8122    130.1923     30.7754
  1510.5000      9.6404      2.1580      0.3410     29.8169    127.7050     30.3218
  1510.6000      9.6404      2.1662      0.2848     29.3230    126.7360     29.7838
  1510.7000      9.6404      2.1612      0.3472     29.6225    128.2090     30.0116
  1510.8000      9.5453      2.1325      0.3033     31.3633    126.7851     30.8078
  1510.9000      9.5453      2.0858      0.2196     34.1970    123.6795     31.4342
  1511.0000      8.4822      2.0359      0.1892     37.2194    123.0268     31.6651
  1511.1000      8.4822      1.9774      0.1464     40.7661    124.2896     31.6993
  1511.2000      8.4822      1.9027      0.1216     45.2931    124.8644     31.6636
  1511.3000      8.4586      1.8277      0.0891     49.8366    127.4121     31.5529
  1511.4000      8.4586      1.7814      0.1087     52.6439    131.9753     31.1834
  1511.5000      8.9519      1.7823      0.1067     52.5874    136.7237     30.3998
  1511.6000      8.9519      1.8275      0.1788     49.8455    143.1649     29.8163
  1511.7000      8.9519      1.8924      0.2311     45.9148    150.6323     30.3462
