~Version Information
 VERS.                                  2.0 : CWLS LAS VERSION
 WRAP.                                   NO : WRAPING MODE
 SWARE .                 MController 2.5.0J : SOFTWARE VERSION
~Well Information
 WELL.                           Furu 6-23R : WELL
 COMP.                Petrogulf Corporation : COMPANY
 FLD.                       Purgatory River : FIELD
 LOC.                  NE/SW Sec6 T33S R67W : LOCATION
 DATE.                    6/19/06 - 6/21/06 : DATE(S) LOGGED
 SRVC.      Blanco Geological Services, LLC : SERVICE COMPANY
 STAT.                             Colorado : STATE
 CNTY.                           Las Animas : COUNTY
 CTRY.                                  USA : COUNTRY
 API.                       05-071-08266-00 : API NUMBER
 STRT.FT                             566.00 : START DEPTH
 STOP.FT                            2205.00 : STOP DEPTH
 STEP.FT                               1.00 : DEPTH INCREMENT
 NULL.                                -9999 : NULL VALUE
~Curve information
 DEPTH.FT                                   :
 ROP.MIN/FT                                 :
 GAS.UNITS                                  :
~ASCII Log data
# ...
      1366.0         0.60         27.6 
      1367.0         0.62         25.7 
      1368.0         0.63         23.2 
      1369.0         0.60         21.5 
      1370.0         0.47         21.0 
      1371.0         0.40         20.9 
      1372.0         0.40         22.5 
      1373.0         0.42         25.7 
      1374.0         0.40         26.8 
      1375.0         0.27         28.2 
      1376.0         3.75       5128.7 
      1377.0         0.63       1290.9 
      1378.0         0.60        790.4 
      1379.0         1.02        440.0 
      1380.0         1.43         35.2 
      1381.0         0.73         23.0 
      1382.0         0.33         22.0 
      1383.0         0.20         20.6 
      1384.0         0.23         20.4 
      1385.0         0.27         20.5 
      1386.0         0.42         21.2 
      1387.0         1.47         31.6 
      1388.0         2.08         52.1 
      1389.0         1.27         54.9 
      1390.0         0.70        103.7 
      1391.0         1.18       1505.5 
      1392.0         2.53       1558.8 
      1393.0         1.18         40.8 
      1394.0         0.67         24.4 
      1395.0         0.63         22.3 
      1396.0         0.67         20.6 
      1397.0         0.53         20.0 
      1398.0         0.58         20.0 
      1399.0         0.53         19.6 
      1400.0         0.53         19.5 
      1401.0         0.57         19.6 
      1402.0         0.57         19.3 
      1403.0         0.57         19.2 
      1404.0         0.62         19.5 
      1405.0         0.60         19.4 
      1406.0         6.77       2264.7 
      1407.0         1.67         20.7 
      1408.0         1.48         22.1 
      1409.0         1.87         22.0 
      1410.0         1.82         18.2 
      1411.0         1.07         18.2 
      1412.0         2.08         18.7 
      1413.0         1.37         18.2 
      1414.0         1.52         19.5 
      1415.0         1.67         31.4 
      1416.0         1.05         47.4 
      1417.0         1.27         27.5 
      1418.0         1.20         65.0 
      1419.0         1.52         33.1 
      1420.0         1.40         54.0 
      1421.0         0.53         22.4 
      1422.0         1.68         32.1 
      1423.0         0.87         31.4 
      1424.0         3.28         55.1 
      1425.0         0.63         28.0 
      1426.0         0.73         28.8 
      1427.0         0.75         28.8 
      1428.0         0.87         28.5 
      1429.0         1.50         28.8 
      1430.0         1.32         30.0 
      1431.0         2.58         30.6 
      1432.0         2.47         31.3 
      1433.0         2.75         31.5 
      1434.0         1.68         31.9 
      1435.0         2.10         33.0 
      1436.0       379.38       1863.5 
      1437.0        24.78       3873.8 
      1438.0         0.67       1102.4 
      1439.0         0.75        712.4 
      1440.0         0.93        503.8 
      1441.0         0.90        186.8 
      1442.0         0.83        111.6 
      1443.0         0.62         73.9 
      1444.0         0.50         53.5 
      1445.0         0.53         41.2 
      1446.0         0.57         32.0 
      1447.0         0.50         25.6 
      1448.0         0.33         20.9 
      1449.0         0.23         19.0 
      1450.0         1.22         17.4 
      1451.0         1.27         12.0 
      1452.0         0.47          9.9 
      1453.0        10.12       3128.6 
      1454.0         0.40       3203.5 
      1455.0         0.88       3360.0 
      1456.0         4.68       4377.2 
      1457.0         0.70       3854.1 
      1458.0         0.85       3510.1 
      1459.0         0.13       2819.5 
      1460.0         0.13       2625.9 
      1461.0         0.13       2592.5 
      1462.0         0.53       2403.1 
      1463.0         0.27       1969.2 
      1464.0         0.33       1721.3 
      1465.0         0.23       1538.2 
      1466.0         0.27       1400.8 
      1467.0         0.23       1403.6 
      1468.0         0.23       1344.0 
      1469.0         0.23       1245.9 
      1470.0         0.23        939.0 
      1471.0         0.28        730.5 
      1472.0         0.40        440.0 
      1473.0         0.33        126.6 
      1474.0         0.60        101.9 
      1475.0         0.50         70.0 
      1476.0         0.50         55.0 
      1477.0         0.30         42.0 
      1478.0         0.40         36.3 
      1479.0         0.62         31.0 
      1480.0         0.97         25.5 
      1481.0         0.90         18.8 
      1482.0         0.83         15.1 
      1483.0         1.02         12.1 
      1484.0         0.60         10.7 
      1485.0         0.70         10.6 
      1486.0        16.48         10.6 
      1487.0         0.37          6.0 
      1488.0         1.03          8.1 
      1489.0         0.98        226.8 
      1490.0         0.70        833.0 
      1491.0         2.12        758.7 
      1492.0         3.03        134.1 
      1493.0         0.58         23.7 
      1494.0         0.27         17.4 
      1495.0         0.47         14.6 
      1496.0         0.77         13.0 
      1497.0         0.73          9.8 
      1498.0         1.05          7.3 
      1499.0         0.90          7.2 
      1500.0         1.27          6.4 
      1501.0         1.08          6.4 
      1502.0         0.93          6.1 
      1503.0         0.90          5.8 
      1504.0         0.90          5.6 
      1505.0         0.85          5.3 
      1506.0         0.87          5.9 
      1507.0         0.47          5.8 
      1508.0         0.63          5.5 
      1509.0         0.92          5.4 
      1510.0         0.93          5.5 
      1511.0         1.37          5.6 
      1512.0         1.85          5.4 
      1513.0         1.87          5.4 
      1514.0         1.52          5.0 
      1515.0         1.80          5.3 
      1516.0         4.03          5.3 
      1517.0         0.80          4.5 
      1518.0         0.60         13.2 
      1519.0         0.73        158.9 
      1520.0         2.12        242.4 
      1521.0         3.48         56.7 
      1522.0         2.62          8.7 
      1523.0         2.67          5.0 
      1524.0         2.85          4.0 
      1525.0         3.12          3.7 
      1526.0         4.05          3.5 
      1527.0         2.75          3.4 
      1528.0         2.35          3.7 
      1529.0         2.82          3.7 
      1530.0         0.93          3.7 
      1531.0         2.45          3.7 
      1532.0         2.62          4.6 
      1533.0         1.43          3.9 
      1534.0         1.07          3.6 
      1535.0         0.68          3.5 
      1536.0         0.57          2.9 
      1537.0         1.03          3.9 
      1538.0         0.90          3.5 
      1539.0         0.92          3.6 
      1540.0         0.87          3.2 
      1541.0         0.83          2.8 
      1542.0         0.77          2.4 
      1543.0         0.78          2.5 
      1544.0         2.67          2.5 
      1545.0         1.05          1.9 
      1546.0         8.13        100.8 
      1547.0         0.63         19.3 
      1548.0         0.78          9.9 
      1549.0         0.87          6.5 
      1550.0         0.80          3.6 
      1551.0         0.83          3.0 
      1552.0         0.70          3.1 
      1553.0         1.02          2.9 
      1554.0         1.23          2.9 
      1555.0         1.48          2.6 
      1556.0         0.60          2.3 
      1557.0         0.13          1.8 
      1558.0         0.17          2.0 
      1559.0         0.20          2.4 
      1560.0         0.53          2.3 
      1561.0         0.53          2.3 
      1562.0         0.53          2.2 
      1563.0         0.68          2.1 
      1564.0         0.60          2.3 
      1565.0         0.60          2.3 
