~Version Information
VERS.                      2.0: CWLS Log ASCII Standard - VERSION 2.0
WRAP.                       NO: One line per depth step
~Well Information Block
STRT.FT               510.0000: 
STOP.FT              1845.5000: 
STEP.FT                 0.1000: 
NULL.                -999.2500: 
COMP.          Pioneer Natural Resources: COMPANY
WELL.           Stampede 42-18: WELL
FLD.           Purgatoire River: FIELD
LOC.           2479' FNL & 160' FEL--: LOCATION
CNTY.               Las Animas: COUNTY
SRVC.          Superior Well Services: SERVICE COMPANY
DATE.          Sat Jun 09 02:39:23 2007: LOG DATE
UWI.           05 071 08237 00: UNIQUE WELL ID
STAT.                 Colorado: STATE
~Curve Information Block
DEPT.FT            0 000 00 00: Depth
DCAL.in                       : CDL Caliper
RHOB.g/cc                     : CDL Bulk Density
RHOC.g/cc                     : CDL Density Correction
DPOR.pu                       : CDL Density Porosity
GR.GAPI                       : Gamma Ray
~Parameter Information Block
~A  Depth       DCAL        RHOB        RHOC        DPOR         GR     
# ...
   599.6000      7.8492      2.5012     -0.0030      9.0183    141.3050
   599.7000      7.8492      2.5210      0.0148      7.8203    139.0770
   599.8000      7.8473      2.5342      0.0278      7.0180    135.4929
   599.9000      7.8473      2.5428      0.0686      6.4944    130.8801
   600.0000      7.8434      2.5452      0.0351      6.3491    125.5709
   600.1000      7.8434      2.5376      0.0658      6.8134    121.7413
   600.2000      7.8434      2.5265      0.0193      7.4875    120.6561
   600.3000      7.8384      2.5202      0.0566      7.8652    122.2456
   600.4000      7.8384      2.5130      0.0183      8.3035    124.3583
   600.5000      7.8342      2.5065     -0.0239      8.6970    121.9165
   600.6000      7.8342      2.5113     -0.0006      8.4060    113.4824
   600.7000      7.8342      2.5298      0.0241      7.2858    102.5152
   600.8000      7.8302      2.5613      0.0192      5.3768     94.2216
   600.9000      7.8302      2.5978      0.0814      3.1654     90.9160
   601.0000      7.8256      2.6214      0.0862      1.7357     91.6054
   601.1000      7.8256      2.6282      0.0790      1.3225     92.8763
   601.2000      7.8256      2.6348      0.0543      0.9190     91.1839
   601.3000      7.8216      2.6522      0.0662     -0.1328     86.6919
   601.4000      7.8216      2.6669      0.0862     -1.0213     81.9777
   601.5000      7.8180      2.6667      0.0597     -1.0138     79.0993
   601.6000      7.8180      2.6638      0.0501     -0.8342     78.1387
   601.7000      7.8180      2.6721      0.0322     -1.3401     79.8849
   601.8000      7.8148      2.6889      0.0677     -2.3574     85.9954
   601.9000      7.8148      2.7013      0.0303     -3.1105     92.1516
   602.0000      7.8137      2.7037      0.0390     -3.2554     91.5244
   602.1000      7.8137      2.7024      0.0502     -3.1752     86.3447
   602.2000      7.8137      2.7014      0.0744     -3.1178     82.4277
   602.3000      7.8156      2.6919      0.0913     -2.5414     80.4178
   602.4000      7.8156      2.6675      0.0330     -1.0600     80.7145
   602.5000      7.8222      2.6401      0.0061      0.6019     84.5979
   602.6000      7.8222      2.6218      0.0220      1.7113     89.3102
   602.7000      7.8222      2.6077      0.0197      2.5611     90.3195
   602.8000      7.8344      2.5913      0.0156      3.5552     86.9997
   602.9000      7.8344      2.5770      0.0196      4.4233     84.2486
   603.0000      7.8459      2.5663      0.0449      5.0727     86.9759
   603.1000      7.8459      2.5563      0.0313      5.6796     91.9770
   603.2000      7.8459      2.5522      0.0165      5.9303     92.4650
   603.3000      7.8513      2.5530      0.0493      5.8792     89.9925
   603.4000      7.8513      2.5532     -0.0071      5.8661     88.4864
   603.5000      7.8517      2.5559      0.0429      5.7012     87.1090
   603.6000      7.8517      2.5582      0.0408      5.5664     86.3510
   603.7000      7.8517      2.5558      0.0240      5.7091     85.5200
   603.8000      7.8504      2.5522      0.0273      5.9301     84.0296
   603.9000      7.8504      2.5458      0.0317      6.3138     82.6930
   604.0000      7.8514      2.5332      0.0386      7.0796     79.9367
   604.1000      7.8514      2.5175      0.0126      8.0292     77.9957
   604.2000      7.8514      2.5029      0.0037      8.9132     80.4138
   604.3000      7.8552      2.4896     -0.0201      9.7220     82.1502
   604.4000      7.8552      2.4783     -0.0111     10.4052     78.9142
   604.5000      7.8564      2.4701     -0.0236     10.9034     77.3385
   604.6000      7.8564      2.4670     -0.0135     11.0903     82.5092
   604.7000      7.8564      2.4701     -0.0253     10.9013     88.3114
   604.8000      7.8529      2.4739      0.0033     10.6709     87.9731
   604.9000      7.8529      2.4763      0.0104     10.5270     83.0611
   605.0000      7.8474      2.4880     -0.0028      9.8194     79.7058
   605.1000      7.8474      2.5105      0.0247      8.4559     80.3038
   605.2000      7.8474      2.5266      0.0389      7.4780     82.3611
   605.3000      7.8431      2.5268      0.0297      7.4684     84.1305
   605.4000      7.8431      2.5211      0.0450      7.8136     84.8200
   605.5000      7.8425      2.5206      0.0146      7.8441     82.4829
   605.6000      7.8425      2.5277      0.0497      7.4116     78.4545
   605.7000      7.8425      2.5396      0.0704      6.6890     76.6961
   605.8000      7.8439      2.5521      0.0611      5.9334     79.4485
   605.9000      7.8439      2.5565      0.0658      5.6681     85.5044
   606.0000      7.8455      2.5464      0.0222      6.2813     90.6820
   606.1000      7.8455      2.5315      0.0387      7.1791     94.0429
   606.2000      7.8455      2.5232      0.0259      7.6828     99.4169
   606.3000      7.8471      2.5188      0.0348      7.9532    104.2809
   606.4000      7.8471      2.5156      0.0200      8.1442    102.6982
   606.5000      7.8478      2.5227      0.0221      7.7122     97.1789
   606.6000      7.8478      2.5395      0.0634      6.6970     93.8924
   606.7000      7.8478      2.5538      0.0327      5.8330     94.2680
   606.8000      7.8475      2.5668      0.0432      5.0407     95.9762
   606.9000      7.8475      2.5841      0.0828      3.9950     96.6452
   607.0000      7.8478      2.6026      0.0754      2.8750     96.3864
   607.1000      7.8478      2.6140      0.0956      2.1798     95.9751
   607.2000      7.8478      2.6107      0.0916      2.3816     95.3431
   607.3000      7.8501      2.6011      0.0507      2.9651     96.4645
   607.4000      7.8501      2.5975      0.0525      3.1800     99.6611
   607.5000      7.8576      2.5935      0.0400      3.4263    102.0995
   607.6000      7.8576      2.5813      0.0454      4.1643    103.6309
   607.7000      7.8576      2.5695      0.0092      4.8792    104.3956
   607.8000      7.8702      2.5676     -0.0037      4.9923    103.3239
   607.9000      7.8702      2.5699      0.0377      4.8567    101.3693
   608.0000      7.8808      2.5677     -0.0090      4.9903    100.0793
   608.1000      7.8808      2.5667     -0.0023      5.0480     97.7568
   608.2000      7.8808      2.5714      0.0275      4.7630     92.5634
   608.3000      7.8860      2.5800      0.0187      4.2412     87.4760
   608.4000      7.8860      2.5921      0.0292      3.5097     85.3474
   608.5000      7.8871      2.5997      0.0646      3.0485     86.3893
   608.6000      7.8871      2.5978      0.0222      3.1631     92.4398
   608.7000      7.8871      2.5933      0.0464      3.4343    101.8719
   608.8000      7.8881      2.5907      0.0185      3.5960    105.7574
   608.9000      7.8881      2.5886      0.0308      3.7209    101.5425
   609.0000      7.8881      2.5839      0.0027      4.0088     97.2682
   609.1000      7.8881      2.5754      0.0193      4.5217     96.1389
   609.2000      7.8881      2.5644      0.0462      5.1877     95.9088
   609.3000      7.8837      2.5512      0.0002      5.9904     98.0163
   609.4000      7.8837      2.5445     -0.0254      6.3955    103.6023
   609.5000      7.8786      2.5592     -0.0190      5.5060    110.3870
   609.6000      7.8786      2.5886      0.0268      3.7226    116.6372
   609.7000      7.8786      2.6050      0.0339      2.7297    120.9647
   609.8000      7.8753      2.5958      0.0556      3.2819    119.8992
   609.9000      7.8753      2.5767     -0.0066      4.4448    112.8712
   610.0000      7.8720      2.5669      0.0203      5.0377    102.7592
   610.1000      7.8720      2.5761      0.0012      4.4785     95.1156
   610.2000      7.8720      2.6070      0.0063      2.6085     95.8224
   610.3000      7.8719      2.6445      0.0509      0.3361    102.6073
   610.4000      7.8719      2.6654      0.0512     -0.9357    107.5172
   610.5000      7.8748      2.6682      0.0345     -1.1003    109.4201
   610.6000      7.8748      2.6715      0.0174     -1.3033    111.2711
   610.7000      7.8748      2.6818      0.0609     -1.9245    110.6058
