~Version Information
VERS.                      2.0: CWLS Log ASCII Standard - VERSION 2.0
WRAP.                       NO: One line per depth step
~Well Information Block
STRT.FT               260.0000: 
STOP.FT              1200.5000: 
STEP.FT                 0.2500: 
NULL.                -999.2500: 
COMP.          Evergreen Operating Corporation: COMPANY
WELL.             Justin 32-10: WELL
FLD.           Purgatorie River: FIELD
LOC.           2994' FNL & 1449' FEL: LOCATION
PROV.                 Colorado: PROVINCE
CNTY.               Las Animas: COUNTRY
SRVC.                         : SERVICE COMPANY
DATE.          Sun Aug 29 20:47:20 2004: LOG DATE
UWI.           05 071 08053 00: UNIQUE WELL ID
~Curve Information Block
DEPT.FT            0 000 00 00: Depth
LTEN.lb                       : Surface Line Tension
SN.Ohm-m                      : IEL Short Normal
SP.mV                         : IEL Spontaneous Potential
DIR.Ohm-m                     : IEL Induction Resistivity
GR.GAPI                       : Gamma Ray
~Parameter Information Block
~A  Depth       LTEN         SN          SP         DIR          GR     
   260.0000    556.7465   2000.0000   2000.0000     10.8322    114.1560
   260.2500    558.3970   2000.0000   2000.0000     11.8164    115.5732
   260.5000    560.5175   2000.0000   2000.0000     13.0544    114.1895
   260.7500    562.0010   2000.0000   2000.0000     14.2587    111.6757
   261.0000    561.9708   2000.0000   2000.0000     14.9073    107.0738
   261.2500    560.6822   2000.0000   2000.0000     14.6263    104.3801
   261.5000    559.5403   2000.0000   2000.0000     13.5865    102.1283
   261.7500    559.9077   2000.0000   2000.0000     12.2900    102.0124
   262.0000    561.6358   2000.0000   2000.0000     11.1167    103.4147
   262.2500    562.8724   2000.0000   2000.0000     10.2030    105.0191
   262.5000    561.4830   2000.0000   2000.0000      9.5461    107.9008
   262.7500    556.8745   2000.0000   2000.0000      9.1040    109.6958
   263.0000    550.6808   2000.0000   2000.0000      8.8363    111.3563
   263.2500    545.6922   2000.0000   2000.0000      8.7069    111.8720
   263.5000    543.7004   2000.0000   2000.0000      8.6770    113.3225
   263.7500    544.0172   2000.0000   2000.0000      8.7039    115.4966
   264.0000    544.2024   2000.0000   2000.0000      8.7493    119.5192
   264.2500    542.5005   2000.0000   2000.0000      8.7875    121.0605
   264.5000    539.5137   2000.0000   2000.0000      8.8061    119.9299
   264.7500    537.4778   2000.0000   2000.0000      8.7998    117.4014
   265.0000    538.1913   2000.0000   2000.0000      8.7649    113.2432
   265.2500    541.6063   2000.0000   2000.0000      8.7011    111.2979
   265.5000    545.9260   2000.0000   2000.0000      8.6177    110.1976
   265.7500    548.7106   2000.0000   2000.0000      8.5358    110.3835
   266.0000    548.1848   2000.0000   2000.0000      8.4809    111.0055
   266.2500    544.2606   2000.0000   2000.0000      8.4700    111.1800
   266.5000    538.8357   2000.0000   2000.0000      8.5028    111.1769
   266.7500    534.8495   2000.0000   2000.0000      8.5626    111.4794
   267.0000    534.3896   2000.0000   2000.0000      8.6244    112.9672
   267.2500    537.2518   2000.0000   2000.0000      8.6672    114.3454
   267.5000    541.2059   2000.0000   2000.0000      8.6836    115.5228
   267.7500    543.7875   2000.0000   2000.0000      8.6807    114.8934
   268.0000    543.9183   2000.0000   2000.0000      8.6733    111.2277
   268.2500    542.0214   2000.0000   2000.0000      8.6745    107.0403
   268.5000    539.2634   2000.0000   2000.0000      8.6921     98.9785
   268.7500    537.1407   2000.0000   2000.0000      8.7301     93.4616
   269.0000    537.0991   2000.0000   2000.0000      8.7886     87.0505
   269.2500    539.5117   2000.0000   2000.0000      8.8592     84.6436
   269.5000    543.1356   2000.0000   2000.0000      8.9215     83.6080
   269.7500    546.2463   2000.0000   2000.0000      8.9487     84.2322
   270.0000    548.2306   2000.0000   2000.0000      8.9224     86.5213
   270.2500    549.7305   2000.0000   2000.0000      8.8457     88.5219
   270.5000    551.6829   2000.0000   2000.0000      8.7428     91.5234
   270.7500    554.8440   2000.0000   2000.0000      8.6480     93.3910
   271.0000    559.8571   2000.0000   2000.0000      8.5910     96.1542
   271.2500    566.7632   2000.0000   2000.0000      8.5867     97.9207
   271.5000    574.0859   2000.0000   2000.0000      8.6303     99.8765
   271.7500    579.0589   2000.0000   2000.0000      8.6988    100.4933
   272.0000    579.5768   2000.0000   2000.0000      8.7589    100.9644
   272.2500    576.0634   2000.0000   2000.0000      8.7807    101.6479
   272.5000    571.2233   2000.0000   2000.0000      8.7490    103.7349
   272.7500    568.1080   2000.0000   2000.0000      8.6652    105.5488
   273.0000    568.3738   2000.0000   2000.0000      8.5413    108.3932
   273.2500    571.5610   2000.0000   2000.0000      8.3939    110.5344
   273.5000    575.2731   2000.0000   2000.0000      8.2428    114.6897
   273.7500    576.4565   2000.0000   2000.0000      8.1107    117.9819
   274.0000    573.4794   2000.0000   2000.0000      8.0204    122.5644
   274.2500    567.4943   2000.0000   2000.0000      7.9888    124.6767
   274.5000    561.5526   2000.0000   2000.0000      8.0211    125.9464
   274.7500    558.0192   2000.0000   2000.0000      8.1056    125.5789
   275.0000    556.8882   2000.0000   2000.0000      8.2120    123.3564
   275.2500    556.4998   2000.0000   2000.0000      8.2982    120.9357
   275.5000    555.2682   2000.0000   2000.0000      8.3302    116.8970
   275.7500    552.5731   2000.0000   2000.0000      8.3016    114.8949
   276.0000    548.6636   2000.0000   2000.0000      8.2361    114.2907
   276.2500    544.2882   2000.0000   2000.0000      8.1702    115.6321
   276.5000    540.3923   2000.0000   2000.0000      8.1412    119.4059
   276.7500    537.8309   2000.0000   2000.0000      8.1867    122.2539
   277.0000    537.1479   2000.0000   2000.0000      8.3480    125.3508
   277.2500    538.4650   2000.0000   2000.0000      8.6600    125.6827
   277.5000    541.3087   2000.0000   2000.0000      9.1220    122.7445
   277.7500    544.4582   2000.0000   2000.0000      9.6599    118.8691
   278.0000    546.4088   2000.0000   2000.0000     10.1144    112.0742
   278.2500    546.5351   2000.0000   2000.0000     10.3097    108.0650
   278.5000    545.5707   2000.0000   2000.0000     10.1860    103.7442
   278.7500    544.5605   2000.0000   2000.0000      9.8480    101.6056
   279.0000    543.7554   2000.0000   2000.0000      9.4760     97.6964
   279.2500    542.9482   2000.0000   2000.0000      9.2312     93.5988
   279.5000    542.2649   2000.0000   2000.0000      9.2525     85.1217
   279.7500    542.0102   2000.0000   2000.0000      9.7263     79.2024
   280.0000    542.2378   2000.0000   2000.0000     11.0029     73.3562
   280.2500    543.0660   2000.0000   2000.0000     13.8208     73.0295
   280.5000    544.9846   2000.0000   2000.0000     19.7324     78.1236
   280.7500    548.2064   2000.0000   2000.0000     30.5499     84.0076
   281.0000    551.7637   2000.0000   2000.0000     38.3794     93.7717
   281.2500    553.8567   2000.0000   2000.0000     28.6797     99.8661
   281.5000    553.5804   2000.0000   2000.0000     17.4234    108.0400
   281.7500    552.0229   2000.0000   2000.0000     11.6656    113.0130
   282.0000    551.1812   2000.0000   2000.0000      9.1381    119.6286
   282.2500    552.0992   2000.0000   2000.0000      8.2529    123.0276
   282.5000    554.4791   2000.0000   2000.0000      8.3362    126.0311
   282.7500    557.5198   2000.0000   2000.0000      9.0355    127.0178
   283.0000    560.2339   2000.0000   2000.0000      9.8302    128.9193
   283.2500    561.4259   2000.0000   2000.0000      9.7134    131.6219
   283.5000    560.6224   2000.0000   2000.0000      8.1091    138.3077
   283.7500    559.1257   2000.0000   2000.0000      5.9826    143.8742
   284.0000    559.1686   2000.0000   2000.0000      4.3657    152.5307
   284.2500    561.7674   2000.0000   2000.0000      3.4287    147.5515
   284.5000    565.8797   2000.0000   2000.0000      3.0172    154.4752
   284.7500    569.6686   2000.0000   2000.0000      3.0141    157.9572
   285.0000    572.1104   2000.0000   2000.0000      3.4136    160.7467
   285.2500    573.3347   2000.0000   2000.0000      4.3456    161.0008
   285.5000    573.8951   2000.0000   2000.0000      6.1696    159.2295
   285.7500    574.2011   2000.0000   2000.0000      9.8548    156.6492
   286.0000    574.4472   2000.0000   2000.0000     18.9978    151.1512
   286.2500    574.4810   2000.0000   2000.0000     64.5737    136.7745
   286.5000    573.8646   2000.0000   2000.0000 100000.0000    132.9832
   286.7500    572.7253   2000.0000   2000.0000 100000.0000    132.0235
   287.0000    572.1129   2000.0000   2000.0000 100000.0000    132.0047
   287.2500    572.6163   2000.0000   2000.0000 100000.0000    131.7326
   287.5000    573.1392   2000.0000   2000.0000    176.1301    129.3222
   287.7500    571.9847   2000.0000   2000.0000     40.2730    126.1992
