~Version Information
VERS.                      2.0: CWLS Log ASCII Standard - VERSION 2.0
WRAP.                       NO: One line per depth step
~Well Information Block
STRT.FT               830.0000: 
STOP.FT              3122.7500: 
STEP.FT                 0.2500: 
NULL.                -999.2500: 
COMP.          Pioneer Natural Resources: COMPANY
WELL.              Stones 24-8: WELL
FLD.           Purgatoire River: FIELD
LOC.           648' FSL & 2264' FWL: LOCATION
PROV.                 Colorado: PROVINCE
CNTY.               Las Animas: COUNTRY
SRVC.                Patterson: SERVICE COMPANY
DATE.          Wed Jan 19 12:44:32 2005: LOG DATE
UWI.           05 071 07945 00: UNIQUE WELL ID
~Curve Information Block
DEPT.FT            0 000 00 00: Depth
SN.Ohm-m                      : IEL Short Normal
SP.mV                         : IEL Spontaneous Potential
DIR.Ohm-m                     : IEL Induction Resistivity
GR.GAPI                       : Gamma Ray
~Parameter Information Block
~A  Depth        SN          SP         DIR          GR     
# ...
  1567.0000   2000.0000   2000.0000     22.6508     72.9667
  1567.2500   2000.0000   2000.0000     22.0576     77.0444
  1567.5000   2000.0000   2000.0000     21.3763     84.7581
  1567.7500   2000.0000   2000.0000     20.6150     90.5899
  1568.0000   2000.0000   2000.0000     19.8167     99.3507
  1568.2500   2000.0000   2000.0000     19.0316    104.3674
  1568.5000   2000.0000   2000.0000     18.2914    109.1617
  1568.7500   2000.0000   2000.0000     17.6005    110.1606
  1569.0000   2000.0000   2000.0000     16.9455    109.2271
  1569.2500   2000.0000   2000.0000     16.3186    108.0419
  1569.5000   2000.0000   2000.0000     15.7387    106.9330
  1569.7500   2000.0000   2000.0000     15.2482    106.9454
  1570.0000   2000.0000   2000.0000     14.8862    107.5822
  1570.2500   2000.0000   2000.0000     14.6571    107.7836
  1570.5000   2000.0000   2000.0000     14.5209    107.0588
  1570.7500   2000.0000   2000.0000     14.4099    106.1719
  1571.0000   2000.0000   2000.0000     14.2617    105.7178
  1571.2500   2000.0000   2000.0000     14.0472    106.8753
  1571.5000   2000.0000   2000.0000     13.7708    111.2627
  1571.7500   2000.0000   2000.0000     13.4533    115.3804
  1572.0000   2000.0000   2000.0000     13.1155    121.4021
  1572.2500   2000.0000   2000.0000     12.7773    124.3115
  1572.5000   2000.0000   2000.0000     12.4613    126.6712
  1572.7500   2000.0000   2000.0000     12.1905    127.4673
  1573.0000   2000.0000   2000.0000     11.9799    128.5248
  1573.2500   2000.0000   2000.0000     11.8328    129.2366
  1573.5000   2000.0000   2000.0000     11.7457    129.8133
  1573.7500   2000.0000   2000.0000     11.7164    129.5836
  1574.0000   2000.0000   2000.0000     11.7477    128.0512
  1574.2500   2000.0000   2000.0000     11.8434    126.1305
  1574.5000   2000.0000   2000.0000     12.0032    121.8774
  1574.7500   2000.0000   2000.0000     12.2210    118.2477
  1575.0000   2000.0000   2000.0000     12.4892    111.7911
  1575.2500   2000.0000   2000.0000     12.8046    106.8328
  1575.5000   2000.0000   2000.0000     13.1714     98.7115
  1575.7500   2000.0000   2000.0000     13.5965     93.3850
  1576.0000   2000.0000   2000.0000     14.0817     86.7559
  1576.2500   2000.0000   2000.0000     14.6162     83.7300
  1576.5000   2000.0000   2000.0000     15.1769     81.4267
  1576.7500   2000.0000   2000.0000     15.7361     81.2384
  1577.0000   2000.0000   2000.0000     16.2709     82.5952
  1577.2500   2000.0000   2000.0000     16.7664     84.2009
  1577.5000   2000.0000   2000.0000     17.2117     86.6245
  1577.7500   2000.0000   2000.0000     17.5960     87.6964
  1578.0000   2000.0000   2000.0000     17.9107     88.2500
  1578.2500   2000.0000   2000.0000     18.1548     88.2138
  1578.5000   2000.0000   2000.0000     18.3352     88.2961
  1578.7500   2000.0000   2000.0000     18.4598     88.7425
  1579.0000   2000.0000   2000.0000     18.5318     90.0793
  1579.2500   2000.0000   2000.0000     18.5488     91.2654
  1579.5000   2000.0000   2000.0000     18.5083     93.2509
  1579.7500   2000.0000   2000.0000     18.4125     94.7303
  1580.0000   2000.0000   2000.0000     18.2715     97.3887
  1580.2500   2000.0000   2000.0000     18.1057     99.4900
  1580.5000   2000.0000   2000.0000     17.9453    102.8070
  1580.7500   2000.0000   2000.0000     17.8236    104.6867
  1581.0000   2000.0000   2000.0000     17.7650    106.0404
  1581.2500   2000.0000   2000.0000     17.7739    105.5167
  1581.5000   2000.0000   2000.0000     17.8325    102.4285
  1581.7500   2000.0000   2000.0000     17.9077     99.1313
  1582.0000   2000.0000   2000.0000     17.9683     93.3565
  1582.2500   2000.0000   2000.0000     18.0014     89.7849
  1582.5000   2000.0000   2000.0000     18.0208     86.3729
  1582.7500   2000.0000   2000.0000     18.0581     85.9640
  1583.0000   2000.0000   2000.0000     18.1451     87.8648
  1583.2500   2000.0000   2000.0000     18.2964     89.9085
  1583.5000   2000.0000   2000.0000     18.5007     92.0924
  1583.7500   2000.0000   2000.0000     18.7207     92.0399
  1584.0000   2000.0000   2000.0000     18.9016     89.4315
  1584.2500   2000.0000   2000.0000     18.9841     86.7074
  1584.5000   2000.0000   2000.0000     18.9188     83.1237
  1584.7500   2000.0000   2000.0000     18.6800     82.1053
  1585.0000   2000.0000   2000.0000     18.2728     83.4799
  1585.2500   2000.0000   2000.0000     17.7295     86.1991
  1585.5000   2000.0000   2000.0000     17.0961     92.0014
  1585.7500   2000.0000   2000.0000     16.4170     96.3563
  1586.0000   2000.0000   2000.0000     15.7242    102.8885
  1586.2500   2000.0000   2000.0000     15.0368    107.0288
  1586.5000   2000.0000   2000.0000     14.3652    112.5761
  1586.7500   2000.0000   2000.0000     13.7189    115.6619
  1587.0000   2000.0000   2000.0000     13.1107    119.4408
  1587.2500   2000.0000   2000.0000     12.5563    121.5645
  1587.5000   2000.0000   2000.0000     12.0710    124.2022
  1587.7500   2000.0000   2000.0000     11.6668    125.5067
  1588.0000   2000.0000   2000.0000     11.3515    126.9333
  1588.2500   2000.0000   2000.0000     11.1296    127.7583
  1588.5000   2000.0000   2000.0000     11.0031    128.8458
  1588.7500   2000.0000   2000.0000     10.9713    129.2838
  1589.0000   2000.0000   2000.0000     11.0293    129.4072
  1589.2500   2000.0000   2000.0000     11.1659    129.2262
  1589.5000   2000.0000   2000.0000     11.3649    128.4088
  1589.7500   2000.0000   2000.0000     11.6086    127.0919
  1590.0000   2000.0000   2000.0000     11.8830    123.3183
  1590.2500   2000.0000   2000.0000     12.1785    119.7732
  1590.5000   2000.0000   2000.0000     12.4873    114.3441
  1590.7500   2000.0000   2000.0000     12.7983    111.6296
  1591.0000   2000.0000   2000.0000     13.0954    109.6274
  1591.2500   2000.0000   2000.0000     13.3589    109.4605
  1591.5000   2000.0000   2000.0000     13.5716    110.4990
  1591.7500   2000.0000   2000.0000     13.7262    112.1295
  1592.0000   2000.0000   2000.0000     13.8306    116.2707
  1592.2500   2000.0000   2000.0000     13.9047    119.8381
  1592.5000   2000.0000   2000.0000     13.9687    124.7819
  1592.7500   2000.0000   2000.0000     14.0330    126.8274
  1593.0000   2000.0000   2000.0000     14.0962    127.3426
  1593.2500   2000.0000   2000.0000     14.1538    126.1013
  1593.5000   2000.0000   2000.0000     14.2083    122.2369
  1593.7500   2000.0000   2000.0000     14.2702    118.6219
  1594.0000   2000.0000   2000.0000     14.3522    112.6321
  1594.2500   2000.0000   2000.0000     14.4610    109.0428
  1594.5000   2000.0000   2000.0000     14.5942    105.4129
  1594.7500   2000.0000   2000.0000     14.7419    104.5164
  1595.0000   2000.0000   2000.0000     14.8900    105.2042
  1595.2500   2000.0000   2000.0000     15.0201    106.2989
  1595.5000   2000.0000   2000.0000     15.1075    107.4897
  1595.7500   2000.0000   2000.0000     15.1200    107.8119
  1596.0000   2000.0000   2000.0000     15.0239    108.6321
  1596.2500   2000.0000   2000.0000     14.7977    110.0686
  1596.5000   2000.0000   2000.0000     14.4484    113.6609
  1596.7500   2000.0000   2000.0000     14.0144    116.5780
  1597.0000   2000.0000   2000.0000     13.5507    120.7739
  1597.2500   2000.0000   2000.0000     13.1058    122.9399
  1597.5000   2000.0000   2000.0000     12.7066    124.9511
  1597.7500   2000.0000   2000.0000     12.3572    125.9603
  1598.0000   2000.0000   2000.0000     12.0471    128.4318
  1598.2500   2000.0000   2000.0000     11.7622    131.0886
  1598.5000   2000.0000   2000.0000     11.4928    135.6536
  1598.7500   2000.0000   2000.0000     11.2376    138.1674
  1599.0000   2000.0000   2000.0000     11.0029    140.5581
  1599.2500   2000.0000   2000.0000     10.7967    141.7101
  1599.5000   2000.0000   2000.0000     10.6228    143.8716
  1599.7500   2000.0000   2000.0000     10.4794    145.6427
  1600.0000   2000.0000   2000.0000     10.3640    147.7729
  1600.2500   2000.0000   2000.0000     10.2802    148.2082
