~Version Information
VERS.                      2.0: CWLS Log ASCII Standard - VERSION 2.0
WRAP.                       NO: One line per depth step
~Well Information Block
STRT.FT               741.2000: 
STOP.FT              2461.0000: 
STEP.FT                 0.1000: 
NULL.                -999.2500: 
COMP.          Petrogulf Corporation: COMPANY
WELL.           Montoya 12-44V: WELL
FLD.           Purgatorie River: FIELD
LOC.           698' FSL & 599' FEL: LOCATION
CNTY.               Las Animas: COUNTY
SRVC.                         : SERVICE COMPANY
DATE.          Mon Aug 09 06:09:04 2004: LOG DATE
UWI.           05 071 08094 00: UNIQUE WELL ID
STAT.                 Colorado: STATE
~Curve Information Block
DEPT.FT            0 000 00 00: Depth
DCAL.in                       : CDL Caliper
RHOB.g/cc                     : CDL Bulk Density
RHOC.g/cc                     : CDL Density Correction
DPOR.pu                       : CDL Density Porosity
GR.GAPI                       : Gamma Ray
NPOR.pu                       : Neutron Porosity
~Parameter Information Block
~A  Depth       DCAL        RHOB        RHOC        DPOR         GR         NPOR    
# ...
  1096.4000      8.1669      2.5037      0.0458      8.8644     62.6533     18.2661
  1096.5000      8.1710      2.4961      0.0446      9.3256     56.3447     18.5777
  1096.6000      8.1710      2.4933      0.0392      9.4946     53.2710     18.3574
  1096.7000      8.1710      2.4989      0.0398      9.1602     52.0229     17.9089
  1096.8000      8.1671      2.5088      0.0486      8.5603     51.2196     17.6879
  1096.9000      8.1671      2.5116      0.0618      8.3855     53.4515     17.8179
  1097.0000      8.1662      2.5007      0.0394      9.0480     57.6674     18.2830
  1097.1000      8.1662      2.4841      0.0543     10.0533     62.7134     18.9660
  1097.2000      8.1662      2.4745      0.0457     10.6375     68.6680     19.6085
  1097.3000      8.1665      2.4694      0.0764     10.9467     72.4101     20.1852
  1097.4000      8.1665      2.4627      0.0496     11.3527     72.0137     20.7623
  1097.5000      8.1663      2.4636      0.0347     11.2993     70.7715     20.8587
  1097.6000      8.1663      2.4777      0.0807     10.4413     72.8790     20.1799
  1097.7000      8.1663      2.4925      0.0701      9.5436     77.3705     19.2846
  1097.8000      8.1668      2.4965      0.0843      9.3009     78.7925     18.4831
  1097.9000      8.1668      2.4964      0.0714      9.3069     75.1499     17.7174
  1098.0000      8.1658      2.5022      0.0592      8.9586     71.1944     17.1441
  1098.1000      8.1658      2.5058      0.1053      8.7404     68.1351     16.9621
  1098.2000      8.1658      2.4966      0.0755      9.2951     63.2340     17.1865
  1098.3000      8.1657      2.4808      0.0645     10.2533     59.3531     17.3867
  1098.4000      8.1657      2.4715      0.0585     10.8155     61.2066     17.1339
  1098.5000      8.1665      2.4743      0.0395     10.6510     65.3541     16.7185
  1098.6000      8.1665      2.4846      0.0685     10.0251     65.8288     16.6781
  1098.7000      8.1665      2.4916      0.0675      9.5970     63.1729     16.9664
  1098.8000      8.1672      2.4875      0.0760      9.8466     60.5583     17.2394
  1098.9000      8.1672      2.4766      0.0301     10.5096     58.7077     17.2107
  1099.0000      8.1687      2.4687      0.0628     10.9880     56.1015     16.7728
  1099.1000      8.1687      2.4698      0.0490     10.9212     53.0889     16.4650
  1099.2000      8.1687      2.4831      0.0438     10.1134     50.6351     17.0406
  1099.3000      8.1684      2.5006      0.0970      9.0566     49.0027     18.1070
  1099.4000      8.1684      2.5076      0.0736      8.6310     49.7639     18.5953
  1099.5000      8.1671      2.5022      0.0628      8.9595     53.0522     18.2393
  1099.6000      8.1671      2.4909      0.0242      9.6447     55.7804     17.6180
  1099.7000      8.1671      2.4797      0.0506     10.3192     55.2607     17.5124
  1099.8000      8.1659      2.4757      0.0426     10.5665     53.2516     18.1592
  1099.9000      8.1659      2.4843      0.0372     10.0397     53.3537     19.0286
  1100.0000      8.1669      2.5014      0.0393      9.0036     56.3706     19.4052
  1100.1000      8.1669      2.5128      0.0632      8.3171     58.6902     18.9556
  1100.2000      8.1669      2.5079      0.0360      8.6131     58.4260     18.0606
  1100.3000      8.1666      2.4972      0.0042      9.2630     59.2927     17.6142
  1100.4000      8.1666      2.4963      0.0391      9.3136     61.8939     17.7500
  1100.5000      8.1661      2.5019      0.0330      8.9764     62.8857     17.8911
  1100.6000      8.1661      2.5051      0.0446      8.7798     61.8217     18.1215
  1100.7000      8.1661      2.5069      0.0730      8.6707     60.2819     18.8223
  1100.8000      8.1658      2.5115      0.0538      8.3941     59.7212     19.4448
  1100.9000      8.1658      2.5169      0.0332      8.0671     61.7441     18.9694
  1101.0000      8.1667      2.5192      0.0579      7.9278     66.8376     17.6844
  1101.1000      8.1667      2.5201      0.0376      7.8729     72.5338     17.0865
  1101.2000      8.1667      2.5185      0.0966      7.9725     74.7965     17.5207
  1101.3000      8.1657      2.5008      0.1090      9.0413     72.6121     17.7485
  1101.4000      8.1657      2.4683      0.0759     11.0103     69.3629     17.3657
  1101.5000      8.1653      2.4516      0.0063     12.0241     67.7523     17.2408
  1101.6000      8.1653      2.4704      0.0825     10.8872     68.3829     17.8806
  1101.7000      8.1653      2.5050      0.1010      8.7888     71.9857     19.0280
  1101.8000      8.1654      2.5300      0.0999      7.2705     76.7714     19.6858
  1101.9000      8.1654      2.5387      0.1110      6.7450     79.3861     19.2286
  1102.0000      8.1644      2.5329      0.0867      7.0946     79.4979     18.5109
  1102.1000      8.1644      2.5227      0.0480      7.7156     80.9593     18.6555
  1102.2000      8.1644      2.5236      0.0235      7.6598     83.7297     19.5346
  1102.3000      8.1648      2.5384      0.0391      6.7654     81.0737     20.4207
  1102.4000      8.1648      2.5494      0.0566      6.0957     72.8523     21.1801
  1102.5000      8.1662      2.5433      0.0910      6.4663     67.5326     21.7068
  1102.6000      8.1662      2.5318      0.0191      7.1649     67.5040     21.4254
  1102.7000      8.1662      2.5340      0.0170      7.0274     67.5649     20.3305
  1102.8000      8.1675      2.5395      0.0689      6.6953     66.4090     19.2669
  1102.9000      8.1675      2.5281      0.0104      7.3866     68.3206     18.8591
  1103.0000      8.1664      2.5053      0.0396      8.7680     72.9057     18.8479
  1103.1000      8.1664      2.4880      0.0099      9.8212     74.8657     18.6689
  1103.2000      8.1664      2.4900      0.0083      9.6977     72.9054     18.4900
  1103.3000      8.1696      2.5096      0.0559      8.5074     70.7441     18.7066
  1103.4000      8.1696      2.5286      0.0654      7.3548     68.7515     19.4607
  1103.5000      8.1654      2.5336      0.1020      7.0542     63.0237     20.2886
  1103.6000      8.1654      2.5254      0.0777      7.5501     57.7885     20.5152
  1103.7000      8.1654      2.5131      0.0713      8.2991     60.5914     20.4743
  1103.8000      8.1648      2.5060      0.0678      8.7297     68.8885     20.3484
  1103.9000      8.1648      2.5076      0.0751      8.6285     75.8577     19.7407
  1104.0000      8.1651      2.5110      0.0310      8.4250     79.3851     19.1707
  1104.1000      8.1651      2.5090      0.0377      8.5465     79.7709     19.4104
  1104.2000      8.1651      2.5013      0.0187      9.0135     76.5933     20.1305
  1104.3000      8.1650      2.4956      0.0408      9.3593     71.3065     20.0106
  1104.4000      8.1650      2.4967      0.0599      9.2882     67.4489     18.6004
  1104.5000      8.1662      2.4954      0.0630      9.3721     65.7778     17.3207
  1104.6000      8.1662      2.4850      0.0370     10.0018     64.3771     17.1047
  1104.7000      8.1662      2.4778      0.0449     10.4343     62.7952     17.2585
  1104.8000      8.1652      2.4832      0.0630     10.1072     61.1537     17.0516
  1104.9000      8.1652      2.4894      0.0790      9.7350     60.0319     16.6820
  1105.0000      8.1668      2.4872      0.0578      9.8675     59.8029     16.6065
  1105.1000      8.1668      2.4874      0.0700      9.8530     59.0876     16.6207
  1105.2000      8.1668      2.4965      0.1163      9.3017     60.1196     16.5018
  1105.3000      8.1640      2.5080      0.0856      8.6032     63.7390     16.8986
  1105.4000      8.1640      2.5148      0.1066      8.1970     64.6020     18.2396
  1105.5000      8.1655      2.5094      0.0987      8.5184     62.1173     19.2487
  1105.6000      8.1655      2.4931      0.0910      9.5084     60.7945     18.5993
  1105.7000      8.1655      2.4787      0.0570     10.3809     59.3108     17.5770
  1105.8000      8.1666      2.4806      0.0582     10.2667     55.1489     17.7604
  1105.9000      8.1666      2.5024      0.0626      8.9465     52.1156     18.6624
