~Version Information
VERS.                      2.0: CWLS Log ASCII Standard - VERSION 2.0
WRAP.                       NO: One line per depth step
~Well Information Block
STRT.FT               870.0000: 
STOP.FT              2517.5000: 
STEP.FT                 0.1000: 
NULL.                -999.2500: 
COMP.          Pioneer Natural Resources: COMPANY
WELL.              Tiaga 23-14: WELL
FLD.           Purgatoire River: FIELD
LOC.           2168' FSL & 2030' FWL: LOCATION
PROV.                 Colorado: PROVINCE
CNTY.               Las Animas: COUNTRY
SRVC.                         : SERVICE COMPANY
DATE.          Sat May 07 09:09:05 2005: LOG DATE
UWI.           05 071 08329 00: UNIQUE WELL ID
~Curve Information Block
DEPT.FT            0 000 00 00: Depth
LTEN.lb                       : Surface Line Tension
DCAL.in                       : CDL Caliper
RHOC.g/cc                     : CDL Density Correction
DPOR.pu                       : CDL Density Porosity
GR.GAPI                       : Gamma Ray
NPOR.pu                       : Neutron Porosity
~Parameter Information Block
~A  Depth       LTEN        DCAL        RHOC        DPOR         GR         NPOR    
# ...
  1628.4000   1080.8701      7.9946      0.0820      5.3328    132.1321     28.0667
  1628.5000    997.0464      7.9690      0.1047      3.5789    120.0117     26.3922
  1628.6000    997.0464      7.9690      0.1422      1.3018    113.9733     24.7955
  1628.7000    997.0464      7.9690      0.1756     -0.2514    111.0235     23.8762
  1628.8000   1079.5807      7.9509      0.1187      0.3189    107.3752     23.7129
  1628.9000   1079.5807      7.9509      0.0507      2.6102    104.2544     23.6726
  1629.0000   1022.2967      7.9536     -0.0069      4.7045    103.7564     23.1953
  1629.1000   1022.2967      7.9536      0.0688      5.8998    103.6686     22.4456
  1629.2000   1022.2967      7.9536      0.0060      7.0620     99.6402     21.9462
  1629.3000   1074.4297      7.9774      0.0126      8.3069     93.9554     21.8275
  1629.4000   1074.4297      7.9774      0.0627      9.3533     93.4638     21.2808
  1629.5000    983.5739      7.9890     -0.0060     10.3898     97.5090     20.4306
  1629.6000    983.5739      7.9890      0.0403     11.1682     99.0292     20.5174
  1629.7000    983.5739      7.9890      0.0226     11.1974     98.0298     21.2611
  1629.8000   1047.2543      7.9732      0.0189     10.3277    100.1176     21.6785
  1629.9000   1047.2543      7.9732      0.0663      9.2962    105.1275     21.9477
  1630.0000    999.1255      7.9824      0.0753      9.0747    110.0828     22.3102
  1630.1000    999.1255      7.9824      0.0734      9.3317    113.1205     22.4146
  1630.2000    999.1255      7.9824      0.0406      8.8409    112.4675     22.4289
  1630.3000   1019.0448      7.9693      0.0842      7.6562    108.4080     22.7822
  1630.4000   1019.0448      7.9693      0.1043      7.4738    104.2196     23.3183
  1630.5000    993.1182      7.9824      0.0253      8.7737    103.8715     23.4757
  1630.6000    993.1182      7.9824      0.0377     10.1958    105.4190     23.3136
  1630.7000    993.1182      7.9824      0.0345     11.1703    102.9131     23.1495
  1630.8000    984.1458      7.9698      0.0437     11.7276     96.1500     22.8361
  1630.9000    984.1458      7.9698      0.0023     10.9821     90.5794     22.7553
  1631.0000   1038.0388      7.9618      0.0575      8.5598     90.1425     23.7709
  1631.1000   1038.0388      7.9618      0.1676      6.6358     94.6204     25.2455
  1631.2000   1038.0388      7.9618      0.0496      7.0158    102.1717     25.7143
  1631.3000   1001.4251      7.9857      0.0845      8.3012    108.5419     25.2244
  1631.4000   1001.4251      7.9857      0.0759      9.2757    112.2740     24.3794
  1631.5000   1057.7158      7.9800      0.0236     10.4761    113.1165     23.6619
  1631.6000   1057.7158      7.9800      0.0184     11.9442    108.9668     23.3469
  1631.7000   1057.7158      7.9800      0.0641     12.9726    103.1573     23.0747
  1631.8000    995.5833      7.9843      0.0212     13.2269    100.7169     22.6615
  1631.9000    995.5833      7.9843      0.0390     12.6931     99.7830     22.4162
  1632.0000   1037.8445      7.9453      0.0430     11.4053     98.8126     22.1680
  1632.1000   1037.8445      7.9453      0.0336      9.2239     98.9027     21.6948
  1632.2000   1037.8445      7.9453      0.1066      5.8921     95.9940     21.6131
  1632.3000   1004.4404      7.9128      0.1793      2.3641     88.9382     21.8614
  1632.4000   1004.4404      7.9128      0.2037      0.6728     85.2798     21.2086
  1632.5000   1048.3210      7.8885      0.1850      1.6448     88.7434     19.5637
  1632.6000   1048.3210      7.8885      0.1190      4.0653     93.5142     18.5093
  1632.7000   1048.3210      7.8885      0.0928      6.2231     95.4697     18.8145
  1632.8000    998.6834      7.8883      0.0522      7.8208     96.2434     19.7696
  1632.9000    998.6834      7.8883      0.0093      9.1015     95.7290     20.0542
  1633.0000   1059.9729      7.9820     -0.0100      9.2416     93.1843     19.2753
  1633.1000   1059.9729      7.9820      0.0461      8.0007     90.9990     18.7338
  1633.2000   1059.9729      7.9820      0.0939      7.1844     92.0114     19.4420
  1633.3000   1023.8564      8.0771      0.0453      8.0942     97.2442     20.9186
  1633.4000   1023.8564      8.0771      0.0256      9.8528    103.1125     22.0864
  1633.5000   1095.6667      8.1061     -0.0066     11.3281    104.8512     22.5242
  1633.6000   1095.6667      8.1061     -0.0169     12.4149    102.9936     22.6674
  1633.7000   1095.6667      8.1061      0.0296     12.9164    100.7552     22.9559
  1633.8000    996.5552      8.0775      0.0050     12.2536     98.5001     23.0548
  1633.9000    996.5552      8.0775      0.0675     10.7980     96.2854     22.5659
  1634.0000   1065.6736      8.0542      0.0460      9.8850     95.4556     21.8620
  1634.1000   1065.6736      8.0542      0.0389     10.0927     96.2322     21.7004
  1634.2000   1065.6736      8.0542      0.0489     10.9995     97.5761     22.3103
  1634.3000   1011.7074      8.0362      0.0380     11.6245     97.4034     22.8901
  1634.4000   1011.7074      8.0362      0.0125     10.7603     94.4853     22.7848
  1634.5000   1084.9059      7.9508      0.0927      8.6899     89.1030     22.7025
  1634.6000   1084.9059      7.9508      0.0638      7.3084     83.7173     23.1068
  1634.7000   1084.9059      7.9508      0.0447      7.4625     81.1576     23.1618
  1634.8000   1032.9561      7.9258      0.0737      7.9273     80.0406     22.2567
  1634.9000   1032.9561      7.9258      0.1265      7.2997     77.1906     21.1099
  1635.0000   1084.8997      7.9169      0.1368      5.9838     73.2456     20.3760
  1635.1000   1084.8997      7.9169      0.0961      5.4665     71.4410     19.9152
  1635.2000   1084.8997      7.9169      0.0424      6.0216     73.0601     19.6060
  1635.3000   1045.0908      7.9258      0.1055      6.9836     76.9569     19.7108
  1635.4000   1045.0908      7.9258      0.0874      7.9644     81.1988     20.2410
  1635.5000   1081.5192      7.9605      0.0497      8.0222     83.9180     20.6588
  1635.6000   1081.5192      7.9605      0.1402      7.0824     83.6940     20.6932
  1635.7000   1081.5192      7.9605      0.1293      7.7995     83.3974     21.1180
  1635.8000   1050.5022      7.9724      0.0747     11.3489     87.9215     22.0616
  1635.9000   1050.5022      7.9724      0.0131     14.9716     94.5575     22.3503
  1636.0000   1041.3981      7.9360      0.0666     16.2277     98.4885     21.9753
  1636.1000   1041.3981      7.9360      0.0850     15.6816    100.9505     21.7332
  1636.2000   1041.3981      7.9360      0.0503     14.3980    102.0910     21.7413
  1636.3000   1036.4991      7.8799      0.0360     11.9065     98.2574     21.7737
  1636.4000   1036.4991      7.8799      0.2040      8.3368     91.3744     21.4326
  1636.5000    987.8602      7.8792      0.2310      5.5160     86.9314     20.7550
  1636.6000    987.8602      7.8792      0.2223      4.8103     85.8458     20.6543
  1636.7000    987.8602      7.8792      0.1760      6.0945     86.1089     21.2369
  1636.8000   1029.6406      7.8927      0.1394      8.0436     85.8522     20.9676
  1636.9000   1029.6406      7.8927      0.0434      9.4354     84.9309     19.6277
  1637.0000    989.1587      7.9285      0.0189     10.1102     84.7302     18.8352
  1637.1000    989.1587      7.9285      0.0788     10.3961     84.2588     18.8293
  1637.2000    989.1587      7.9285      0.0241     10.5135     80.9359     18.5573
  1637.3000   1078.7789      7.9682      0.0714     10.5031     74.8429     17.7296
  1637.4000   1078.7789      7.9682      0.0699     10.5835     69.1959     16.8303
  1637.5000    991.9446      7.9508      0.0168     10.5114     68.1896     16.3457
  1637.6000    991.9446      7.9508      0.0676      9.4041     72.0460     16.4896
  1637.7000    991.9446      7.9508      0.0900      7.6102     76.1451     17.0401
  1637.8000   1092.1282      8.0145      0.1247      6.8848     76.2534     17.1039
  1637.9000   1092.1282      8.0145      0.1233      8.0589     72.0955     16.5557
