~Version Information
VERS.                      2.0: CWLS Log ASCII Standard - VERSION 2.0
WRAP.                       NO: One line per depth step
~Well Information Block
STRT.FT               -11.5000: 
STOP.FT              2395.2500: 
STEP.FT                 0.2500: 
NULL.                -999.2500: 
COMP.          Petrogulf Corporation: COMPANY
WELL.            Montoya 7-21V: WELL
FLD.           Purgatorie River: FIELD
LOC.           738' FSL & 2070' FWL--: LOCATION
CNTY.               Las Animas: COUNTY
SRVC.                         : SERVICE COMPANY
DATE.          Mon Aug 30 15:10:00 2004: LOG DATE
UWI.                          : UNIQUE WELL ID
STAT.                       CO: STATE
~Curve Information Block
DEPT.FT            0 000 00 00: Depth
CCL.                          : Casing Collar Locator
TT3.usec                      : CBL 3' Travel Time
AMP3.mV                       : CBL 3' Amplitude
GR.GAPI                       : Gamma Ray
~Parameter Information Block
~A  Depth       CCL         TT3         AMP3         GR     
   -11.5000   -999.2500   -999.2500   -999.2500    166.7830
   -11.2500   -999.2500   -999.2500   -999.2500    168.4828
   -11.0000   -999.2500   -999.2500   -999.2500    170.6502
   -10.7500   -999.2500   -999.2500   -999.2500    173.2188
   -10.5000   -999.2500   -999.2500   -999.2500    176.5679
   -10.2500   -999.2500   -999.2500   -999.2500    179.8035
   -10.0000   -999.2500   -999.2500   -999.2500    180.8766
    -9.7500   -999.2500   -999.2500   -999.2500    178.8635
    -9.5000   -999.2500   -999.2500   -999.2500    175.0280
    -9.2500   -999.2500   -999.2500   -999.2500    171.3655
    -9.0000   -999.2500   -999.2500   -999.2500    168.9470
    -8.7500   -999.2500   -999.2500   -999.2500    167.6515
    -8.5000   -999.2500   -999.2500   -999.2500    166.4359
    -8.2500   -999.2500   -999.2500   -999.2500    163.7155
    -8.0000   -999.2500   -999.2500   -999.2500    158.7776
    -7.7500   -999.2500   -999.2500   -999.2500    153.3271
    -7.5000   -999.2500   -999.2500   -999.2500    150.6934
    -7.2500   -999.2500   -999.2500   -999.2500    152.7895
    -7.0000   -999.2500   -999.2500   -999.2500    158.2625
    -6.7500   -999.2500   -999.2500   -999.2500    164.0032
    -6.5000   -999.2500    798.0000      1.4710    168.0167
    -6.2500   -999.2500    798.0000      1.5275    170.2352
    -6.0000   -999.2500    798.0000      1.5976    170.8069
    -5.7500   -999.2500    798.0000      1.6773    168.7229
    -5.5000   -999.2500    798.0000      1.7700    162.9561
    -5.2500   -999.2500    798.0000      1.8604    154.4673
    -5.0000   -999.2500    798.0000      1.9151    139.3656
    -4.7500   -999.2500    798.0000      1.8566    134.8118
    -4.5000   -999.2500    798.0000      1.7603    131.0146
    -4.2500   -999.2500    798.0000      1.6519    126.3621
    -4.0000   -999.2500    798.0000      1.5519    119.0599
    -3.7500   -999.2500    798.0000      1.4744    107.7940
    -3.5000   -999.2500    798.0000      1.4290     93.0985
    -3.2500   -999.2500    798.0000      1.4182     77.6581
    -3.0000   -999.2500    798.0000      1.4361     64.5073
    -2.7500   -999.2500    798.0000      1.4780     54.9693
    -2.5000   -999.2500    798.0000      1.5391     48.6438
    -2.2500   -999.2500    798.0000      1.6010     44.9044
    -2.0000   -999.2500    798.0000      1.6360     43.6045
    -1.7500   -999.2500    798.0000      1.6372     44.5220
    -1.5000   -999.2500    798.0000      1.6265     46.9266
    -1.2500      0.0000    798.0000      1.6195     49.8753
    -1.0000      0.0000    798.0000      1.5987     52.5653
    -0.7500      0.0000    798.0000      1.5392     54.4316
    -0.5000      0.0000    798.0000      1.4510     55.2238
    -0.2500      0.0000    798.0000      1.3835     55.0174
     0.0000      0.0000    798.0000      1.3879     54.0379
     0.2500      0.0000    798.0000      1.4789     52.5293
     0.5000      0.0000    798.0000      1.6270     50.7552
     0.7500      0.0000    798.0000      1.7802     48.9334
     1.0000     -1.7181    798.0000      1.8950     47.1191
     1.2500      0.0000    798.0000      1.9518     45.2788
     1.5000      0.0000    798.0000      1.9492     43.5316
     1.7500      0.0000    798.0000      1.8973     42.2142
     2.0000      1.9653    798.0000      1.8202     41.7288
     2.2500      0.0000    798.0000      1.7567     42.4115
     2.5000      0.0000    798.0000      1.7407     44.4237
     2.7500      0.0000    798.0000      1.7822     47.5292
     3.0000      0.0000    798.0000      1.8802     50.8180
     3.2500      0.0000    798.0000      2.0496     52.8380
     3.5000      0.0000    798.0000      2.3148     52.5057
     3.7500      0.0000    797.9649      2.6807     50.1577
     4.0000      0.0000    797.7357      3.1497     47.3128
     4.2500      0.0000    796.5714      3.8052     45.0280
     4.5000      0.0000    791.9636      4.8817     42.8818
     4.7500      0.0000    777.7607      6.7555     40.0733
     5.0000      0.0000    743.6589      9.8694     37.0945
     5.2500      0.0000    679.8735     14.5739     35.6095
     5.5000      0.0000    586.9234     20.8471     36.7608
     5.7500      0.0000    481.3809     28.0534     39.9407
     6.0000      0.0000    387.9770     35.0785     43.1950
     6.2500      0.0000    323.5199     40.8820     44.7340
     6.5000      0.0000    288.7998     45.0089     44.1674
     6.7500      0.0000    274.1681     47.6156     42.4750
     7.0000      0.0000    269.3174     49.1076     41.0263
     7.2500      0.0000    268.0368     49.8320     40.7120
     7.5000      0.0000    267.7567     50.0532     41.8097
     7.7500      0.0000    267.6832     50.0522     44.3052
     8.0000      0.0000    267.6213     50.1163     47.9991
     8.2500      0.0000    267.5309     50.4302     52.1897
     8.5000      0.0000    267.4331     51.0322     55.5003
     8.7500      0.0000    267.3456     51.8719     56.4206
     9.0000      0.0000    267.2621     52.8608     54.3348
     9.2500      0.0000    267.1690     53.8710     50.1555
     9.5000      0.0000    267.0730     54.7656     45.8722
     9.7500      0.0000    267.0014     55.4714     43.1327
    10.0000      0.0000    266.9769     55.9937     42.0025
    10.2500      0.0000    267.0016     56.3544     41.1936
    10.5000      0.0000    267.0560     56.5597     39.6530
    10.7500      0.0000    267.1050     56.6355     37.8308
    11.0000      0.0000    267.1090     56.6526     37.2205
    11.2500      0.0000    267.0441     56.6950     38.6925
    11.5000      0.0000    266.9188     56.8256     41.4704
    11.7500      0.0000    266.7724     57.0800     43.8050
    12.0000      0.0000    266.6566     57.4444     44.5916
    12.2500      0.0000    266.6070     57.8218     44.2082
    12.5000      0.0000    266.6194     58.0701     43.8226
    12.7500      0.0000    266.6528     58.1215     44.0491
    13.0000      0.0000    266.6625     58.0602     44.3698
    13.2500      0.0000    266.6343     58.0628     43.7477
    13.5000      0.0000    266.5842     58.2680     41.7849
    13.7500      0.0000    266.5339     58.7057     39.4075
    14.0000      0.0000    266.4926     59.3337     38.3682
    14.2500      0.0000    266.4568     60.1049     39.7562
    14.5000      0.0000    266.4166     60.9772     42.9085
    14.7500      0.0000    266.3616     61.8674     45.9945
    15.0000      0.0000    266.2881     62.6172     47.7719
    15.2500      0.0000    266.2058     63.0474     48.5647
    15.5000      0.0000    266.1327     63.0875     49.4075
    15.7500      0.0000    266.0837     62.8497     50.5775
    16.0000      0.0000    266.0619     62.5401     51.3993
    16.2500      0.0000    266.0551     62.2995     51.2782
    16.5000      0.0000    266.0396     62.1451     50.3735
    16.7500      0.0000    265.9966     62.0263     49.1650
    17.0000      0.0000    265.9331     61.8891     47.8448
    17.2500      0.0000    265.8814     61.7222     46.4037
    17.5000      0.0000    265.8704     61.5945     45.1133
    17.7500      0.0000    265.8975     61.6327     44.5425
    18.0000      0.0000    265.9280     61.9221     44.9879
    18.2500      0.0000    265.9225     62.4304     46.0439
    18.5000      0.0000    265.8688     63.0408     46.9632
    18.7500      0.0000    265.7867     63.6257     47.4217
    19.0000      0.0000    265.7050     64.0656     47.7923
    19.2500      0.0000    265.6399     64.2551     48.6309
    19.5000      0.0000    265.5981     64.1531     50.1788
    19.7500      0.0000    265.5863     63.8192     52.5849
    20.0000      0.0000    265.6049     63.3784     56.1842
    20.2500      0.0000    265.6397     62.9738     60.8851
    20.5000      0.0000    265.6699     62.7502     65.4241
    20.7500      0.0000    265.6856     62.8191     67.9081
    21.0000      0.0000    265.6900     63.1923     67.3651
    21.2500      0.0000    265.6872     63.7695     64.6555
    21.5000      0.0000    265.6735     64.4152     61.8630
    21.7500      0.0000    265.6406     65.0206     60.8195
