~Version Information
VERS.                      2.0: CWLS Log ASCII Standard - VERSION 2.0
WRAP.                       NO: One line per depth step
~Well Information Block
STRT.FT               -19.5000: 
STOP.FT              2456.0000: 
STEP.FT                 0.2500: 
NULL.                -999.2500: 
COMP.          Petrogulf Corporation: COMPANY
WELL.           Montoya 12-44V: WELL
FLD.           Purgatorie River: FIELD
LOC.           698' FSL & 599' FEL: LOCATION
CNTY.               Las Animas: COUNTY
SRVC.                         : SERVICE COMPANY
DATE.          Mon Sep 13 13:44:10 2004: LOG DATE
UWI.           05-071-08094-00: UNIQUE WELL ID
STAT.                 Colorado: STATE
~Curve Information Block
DEPT.FT            0 000 00 00: Depth
TT3.usec                      : CBL 3' Travel Time
AMP3.mV                       : CBL 3' Amplitude
GR.GAPI                       : Gamma Ray
CCL.                          : Casing Collar Locator
~Parameter Information Block
~A  Depth       TT3         AMP3         GR         CCL     
# ...
  1454.5000    721.6219      4.1119    132.8468      2.7679
  1454.7500    697.6761      4.1605    130.7079      0.0000
  1455.0000    688.2483      4.1071    127.7569     -5.0000
  1455.2500    703.7272      3.9957    127.3655      0.0000
  1455.5000    736.5579      3.8475    131.2406      0.0000
  1455.7500    769.2425      3.7194    138.0892      0.0000
  1456.0000    791.2184      3.7318    145.0753      0.0000
  1456.2500    803.0714      3.9250    150.1842      0.0000
  1456.5000    808.4827      4.1328    153.2548      0.0000
  1456.7500    810.1237      4.1716    155.5637      0.0000
  1457.0000    809.9153      4.0871    158.7586      0.0000
  1457.2500    809.3049      4.0362    163.6089      0.0000
  1457.5000    808.8851      4.0815    169.2439      0.0000
  1457.7500    807.7667      4.2080    173.5399      0.0000
  1458.0000    803.8968      4.3910    174.5186      0.0000
  1458.2500    796.4871      4.5933    171.9445      0.0000
  1458.5000    788.6707      4.7731    167.9420      0.0000
  1458.7500    784.0827      4.9126    165.4501      0.0000
  1459.0000    779.4748      5.0110    165.5339      0.0000
  1459.2500    765.0471      5.0663    166.7028      0.0000
  1459.5000    732.0827      5.0788    167.0217      0.0000
  1459.7500    682.5002      5.0505    165.9273      0.0000
  1460.0000    636.6252      4.9970    163.7276      0.0000
  1460.2500    622.4730      4.9583    160.5696      0.0000
  1460.5000    649.2341      4.9553    156.6981      0.0000
  1460.7500    697.9196      4.9539    153.0631      0.0000
  1461.0000    741.6349      4.9044    150.8596      0.0000
  1461.2500    768.4923      4.7926    150.4408      0.0000
  1461.5000    777.5798      4.6458    150.8036      0.0000
  1461.7500    764.0894      4.5077    150.0345      0.0000
  1462.0000    725.6243      4.4211    146.3384      0.0000
  1462.2500    675.3807      4.4092    139.0193      0.0000
  1462.5000    631.4747      4.4709    128.9901      0.0000
  1462.7500    601.4274      4.6014    118.5431      0.0000
  1463.0000    579.3907      4.7857    110.2394      0.0000
  1463.2500    545.5675      4.9785    105.6173      0.0000
  1463.5000    490.0577      5.1321    104.8230      0.0000
  1463.7500    434.3048      5.2383    107.0412      0.0000
  1464.0000    403.3037      5.3248    110.7470      0.0000
  1464.2500    403.9909      5.4122    114.0338      0.0000
  1464.5000    440.2031      5.4763    115.7726      0.0000
  1464.7500    510.8794      5.4586    116.6438      0.0000
  1465.0000    585.4539      5.3222    118.5164      0.0000
  1465.2500    618.7656      5.0924    122.8755      0.0000
  1465.5000    601.9763      4.8342    130.0687      0.0000
  1465.7500    566.5318      4.6065    139.3636      0.0000
  1466.0000    540.4942      4.4380    148.8831      0.0000
  1466.2500    527.4786      4.3222    155.8568      0.0000
  1466.5000    519.0186      4.2308    157.8723      0.0000
  1466.7500    509.5407      4.1428    154.2995      0.0000
  1467.0000    501.6471      4.0643    146.5464      0.0000
  1467.2500    501.1913      4.0168    137.0234      0.0000
  1467.5000    507.7070      4.0016    127.6998      0.0000
  1467.7500    514.2606      3.9915    119.3075      0.0000
  1468.0000    516.2932      3.9650    111.6537      0.0000
  1468.2500    514.6182      3.9358    104.5076      0.0000
  1468.5000    510.6957      3.9332     98.0502      0.0000
  1468.7500    503.2142      3.9608     92.5681      0.0000
  1469.0000    490.5862      3.9917     88.1653      0.0000
  1469.2500    475.5874      3.9903     85.0990      0.0000
  1469.5000    463.8687      3.9343     83.9698      0.0000
  1469.7500    457.7873      3.8346     84.9408      0.0000
  1470.0000    455.3600      3.7321     86.9561      0.0000
  1470.2500    453.9521      3.6626     88.3772      0.0000
  1470.5000    452.0337      3.6332     88.3725      0.0000
  1470.7500    448.2621      3.6374     87.2375      0.0000
  1471.0000    440.5517      3.6684     85.4849      0.0000
  1471.2500    427.7096      3.7059     83.2558      0.0000
  1471.5000    412.8625      3.7185     80.7552      0.0000
  1471.7500    402.7700      3.6955     78.8148      0.0000
  1472.0000    402.6617      3.6478     78.7121      0.0000
  1472.2500    412.8323      3.5823     81.4825      0.0000
  1472.5000    428.1371      3.5112     87.2817      0.0000
  1472.7500    441.2355      3.4721     95.1572      0.0000
  1473.0000    448.4896      3.5042    103.5245      0.0000
  1473.2500    450.9921      3.6179    110.9794      0.0000
  1473.5000    451.0795      3.8044    116.5412      0.0000
  1473.7500    450.3773      4.0426    119.6422      0.0000
  1474.0000    449.7440      4.2843    120.6740      0.0000
  1474.2500    449.4334      4.4701    121.0233      0.0000
  1474.5000    449.2811      4.5877    121.4808      0.0000
  1474.7500    448.8235      4.7019    120.9784      0.0000
  1475.0000    446.7865      4.9059    118.0117      0.0000
  1475.2500    440.2291      5.2451    113.0023      0.0000
  1475.5000    425.9561      5.6808    108.0666      0.0000
  1475.7500    404.6747      6.1150    104.4353      0.0000
  1476.0000    382.5023      6.4563    101.0470      0.0000
  1476.2500    367.6392      6.6628     96.0403      0.0000
  1476.5000    365.0640      6.7352     89.1157      0.0000
  1476.7500    372.0151      6.7104     81.9253      0.0000
  1477.0000    380.5040      6.6567     76.2990      0.0000
  1477.2500    385.1671      6.6445     72.7150      0.0000
  1477.5000    385.1897      6.7090     70.6919      0.0000
  1477.7500    380.3714      6.8375     70.1061      0.0000
  1478.0000    370.3321      6.9961     71.3430      0.0000
  1478.2500    357.6193      7.1657     74.0807      0.0000
  1478.5000    347.2043      7.3439     76.6590      0.0000
  1478.7500    341.6136      7.5199     77.2528      0.0000
  1479.0000    339.5974      7.6654     75.5432      0.0000
  1479.2500    339.0513      7.7618     72.9286      0.0000
  1479.5000    338.8065      7.8295     71.2409      0.0000
  1479.7500    338.4354      7.9226     71.4427      0.0000
  1480.0000    337.8460      8.1037     73.3185      0.0000
  1480.2500    337.1541      8.4020     76.0039      0.0000
  1480.5000    336.5658      8.7832     78.6211      0.0000
  1480.7500    336.2075      9.1710     80.5935      0.0000
  1481.0000    336.0545      9.4894     81.7321      0.0000
  1481.2500    336.0099      9.6950     82.2230      0.0000
  1481.5000    336.0013      9.7971     82.5084      0.0000
  1481.7500    336.0012      9.8495     83.0812      0.0000
  1482.0000    336.0087      9.9049     84.2560      0.0000
  1482.2500    336.0447      9.9576     85.9655      0.0000
  1482.5000    336.1541      9.9454     87.6700      0.0000
  1482.7500    336.3671      9.8215     88.6719      0.0000
  1483.0000    336.6341      9.5961     88.7723      0.0000
  1483.2500    336.8546      9.3171     88.4210      0.0000
  1483.5000    336.9989      9.0494     88.0401      0.0000
  1483.7500    337.1365      8.8422     87.7559      0.0000
  1484.0000    337.3203      8.6977     88.2657      0.0000
  1484.2500    337.4724      8.6024     91.2852      0.0000
  1484.5000    337.4518      8.5545     98.2829      0.0000
  1484.7500    337.2588      8.5328    108.9940      0.0000
  1485.0000    337.0950      8.4828    121.7008      0.0000
  1485.2500    337.1882      8.3632    134.7655      0.0000
  1485.5000    337.5740      8.1988    147.3914      0.0000
  1485.7500    338.0600      8.0584    159.1064      0.0000
  1486.0000    338.3983      7.9860    169.2091      0.0000
  1486.2500    338.4625      7.9788    176.8221      0.0000
  1486.5000    338.3190      8.0091    180.9934      0.0000
  1486.7500    338.1364      8.0506    180.7826      0.0000
  1487.0000    337.9993      8.1034    175.8501      0.0000
  1487.2500    337.8601      8.1830    167.0956      0.0000
  1487.5000    337.7102      8.2825    156.4248      0.0000
  1487.7500    337.9733      8.3647    146.0406      0.0000
