~Version Information
VERS.                      2.0: CWLS Log ASCII Standard - VERSION 2.0
WRAP.                       NO: One line per depth step
~Well Information Block
STRT.FT                10.0000: 
STOP.FT               859.0000: 
STEP.FT                 0.2500: 
NULL.                -999.2500: 
COMP.          Pioneer Natural Resources: COMPANY
WELL.          Prospector 12-19: WELL
FLD.           Purgatoire River: FIELD
LOC.           2262' FNL & 634' FWL: LOCATION
PROV.                 Colorado: PROVINCE
CNTY.               Las Animas: COUNTRY
SRVC.                Patterson: SERVICE COMPANY
DATE.          Tue May 10 11:52:48 2005: LOG DATE
UWI.           05 071 08191 00: UNIQUE WELL ID
~Curve Information Block
DEPT.FT            0 000 00 00: Depth
CCL.                          : Casing Collar Locator
TT3.usec                      : CBL 3' Travel Time
AMP3.mV                       : CBL 3' Amplitude
GR.GAPI                       : Gamma Ray
~Parameter Information Block
~A  Depth       CCL         TT3         AMP3         GR     
# ...
   445.5000      0.0000   1034.4208      5.1499    165.0282
   445.7500      0.0000    956.8170      5.8061    166.3891
   446.0000      0.0000    910.2153      6.2598    169.1589
   446.2500      0.0000    886.9487      6.5314    172.1640
   446.5000      0.0000    876.8367      6.6883    173.0779
   446.7500      0.0000    872.8247      6.7743    170.4397
   447.0000      0.0000    871.4767      6.8026    165.1750
   447.2500      0.0000    871.6177      6.7831    159.8601
   447.5000      0.0000    873.0728      6.7333    156.5031
   447.7500      0.0000    875.6270      6.6714    155.0493
   448.0000      0.0000    878.3511      6.6099    153.8135
   448.2500      0.0000    879.8585      6.5538    151.4929
   448.5000      0.0000    879.5165      6.5085    149.0544
   448.7500      0.0000    878.3120      6.4835    149.2800
   449.0000      0.0000    878.1971      6.4822    153.8731
   449.2500      0.0000    880.4149      6.4946    161.1607
   449.5000      0.0000    884.2784      6.5085    167.3364
   449.7500      0.0000    887.5532      6.5168    169.9088
   450.0000      0.0000    888.4957      6.5041    169.3238
   450.2500      0.0000    887.7737      6.4445    167.4344
   450.5000      0.0000    887.8712      6.3288    165.4753
   450.7500      0.0000    890.1324      6.1809    163.6659
   451.0000      0.0000    892.5460      6.0347    161.6616
   451.2500      0.0000    890.7920      5.9124    158.7043
   451.5000      0.0000    881.6749      5.8303    153.8684
   451.7500      0.0000    865.9010      5.7992    146.9341
   452.0000      0.0000    848.0286      5.8052    139.1465
   452.2500      0.0000    833.8249      5.8147    132.6175
   452.5000      0.0000    827.0033      5.8129    128.6226
   452.7500      0.0000    827.6042      5.8187    126.5438
   453.0000      0.0000    833.1992      5.8516    124.4571
   453.2500      0.0000    841.5720      5.9025    120.6192
   453.5000      0.0000    851.8130      5.9544    114.5819
   453.7500      0.0000    863.1103      6.0132    107.3436
   454.0000      0.0000    874.0662      6.0954    100.7082
   454.2500      0.0000    883.9329      6.1993     96.3548
   454.5000      0.0000    893.3763      6.3093     95.1791
   454.7500      0.0000    903.1035      6.4167     97.1063
   455.0000      0.0000    912.2242      6.5137    101.3276
   455.2500      0.0000    918.3367      6.5817    106.9557
   455.5000      0.0000    918.9775      6.6072    113.7363
   455.7500      0.0000    913.2595      6.5992    121.9318
   456.0000      0.0000    902.7393      6.5751    131.2840
   456.2500      0.0000    890.7681      6.5421    140.3288
   456.5000      0.0000    880.5999      6.5019    146.9494
   456.7500      0.0000    873.7252      6.4614    149.5141
   457.0000      0.0000    869.6599      6.4349    147.5785
   457.2500      0.0000    867.0998      6.4414    141.9245
   457.5000      0.0000    865.4989      6.4965    134.2835
   457.7500      0.0000    865.9465      6.5990    126.9314
   458.0000      0.0000    870.3661      6.7260    122.0906
   458.2500      0.0000    879.3317      6.8442    121.2501
   458.5000      0.0000    890.7234      6.9335    124.6946
   458.7500      0.0000    900.9642      6.9976    131.4168
   459.0000      0.0000    907.4384      7.0441    139.5226
   459.2500      0.0000    909.4913      7.0601    147.1513
   459.5000      0.0000    907.7443      7.0257    153.3779
   459.7500      0.0000    903.2374      6.9457    158.1804
   460.0000      0.0000    897.0681      6.8525    161.6372
   460.2500      0.0000    890.2323      6.7767    163.6241
   460.5000      0.0000    883.6099      6.7288    164.2587
   460.7500      0.0000    878.0247      6.7055    164.0389
   461.0000      0.0000    874.0486      6.6968    163.4129
   461.2500      0.0000    871.7105      6.6822    162.6023
   461.5000      0.0000    870.5795      6.6345    161.9533
   461.7500      0.0000    870.1389      6.5383    162.2373
   462.0000      0.0000    870.0336      6.4037    164.3862
   462.2500      0.0000    870.0720      6.2587    168.6958
   462.5000      0.0000    870.1357      6.1276    174.2398
   462.7500      0.0000    870.1415      6.0171    179.2177
   463.0000      0.0000    870.0529      5.9179    181.8886
   463.2500      0.0000    869.8984      5.8130    181.3503
   463.5000      0.0000    869.7319      5.6882    178.0407
   463.7500      0.0000    869.5739      5.5473    173.5934
   464.0000      0.0000    869.3738      5.4149    169.7355
   464.2500      0.0000    868.9882      5.3202    167.2304
   464.5000      0.0000    868.1472      5.2753    165.9411
   464.7500      0.0000    866.5459      5.2724    165.4488
   465.0000      0.0000    864.2337      5.2967    165.3100
   465.2500      0.0000    862.0147      5.3313    165.1437
   465.5000      0.0000    861.1298      5.3564    164.8252
   465.7500      0.0000    862.1375      5.3583    164.5272
   466.0000      0.0000    864.1660      5.3382    164.6409
   466.2500      0.0000    865.4072      5.3060    165.6330
   466.5000      0.0000    864.1852      5.2717    167.7325
   466.7500      0.0000    859.6813      5.2495    170.6895
   467.0000      0.0000    852.3405      5.2601    173.8143
   467.2500      0.0000    843.9639      5.3160    176.1125
   467.5000      0.0000    837.0468      5.4128    176.5598
   467.7500      0.0000    833.5423      5.5362    174.5718
   468.0000      0.0000    833.9874      5.6723    170.2554
   468.2500      0.0000    837.5239      5.8044    164.2853
   468.5000      0.0000    842.4961      5.9080    157.8855
   468.7500      0.0000    847.1177      5.9617    152.7064
   469.0000      0.0000    849.8940      5.9611    149.7026
   469.2500      0.0000    849.8990      5.9171    147.6422
   469.5000      0.0000    847.0411      5.8451    143.3894
   469.7500      0.0000    842.1005      5.7627    134.3938
   470.0000      0.0000    836.4576      5.6947    120.9845
   470.2500      0.0000    831.6995      5.6647    106.1892
   470.5000      0.0000    829.2095      5.6722     93.6303
   470.7500      0.0000    829.7917      5.6842     85.6737
   471.0000      0.0000    833.2972      5.6580     83.0702
   471.2500      0.0000    838.2228      5.5751     85.6418
   471.5000      0.0000    841.9363      5.4526     93.0454
   471.7500      0.0000    842.1949      5.3294    105.0796
   472.0000      0.0000    838.9059      5.2407    121.2838
   472.2500      0.0000    834.0901      5.2034    139.9840
   472.5000      0.0000    830.0217      5.2152    157.9505
   472.7500      0.0000    827.7271      5.2645    171.5608
   473.0000      0.0000    827.1309      5.3352    178.4505
   473.2500      0.0000    828.0602      5.4058    178.0717
   473.5000      0.0000    830.8077      5.4537    171.5336
   473.7500      0.0000    835.7733      5.4714    161.5536
   474.0000      0.0000    842.5408      5.4771    151.6912
   474.2500      0.0000    849.4575      5.5049    144.5716
   474.5000      0.0000    854.6264      5.5753    140.9244
   474.7500      0.0000    857.5552      5.6774    140.2402
   475.0000      0.0000    859.4545      5.7816    141.5280
   475.2500      0.0000    861.7156      5.8670    143.3676
   475.5000      0.0000    864.5098      5.9329    144.2874
   475.7500      0.0000    867.0686      5.9828    143.6912
   476.0000      0.0000    868.8317      6.0058    142.1375
   476.2500      0.0000    870.0032      5.9808    140.4514
   476.5000      0.0000    871.3541      5.8992    138.5823
   476.7500      0.0000    873.7896      5.7670    135.4748
   477.0000      0.0000    877.7115      5.5780    130.3275
   477.2500      0.0000    882.2402      5.2986    123.8656
   477.5000      0.0000    885.1860      4.8989    117.9023
   477.7500      0.0000    884.5388      4.3960    113.4805
   478.0000      0.0000    880.3145      3.8588    109.8141
   478.2500      0.0000    874.6298      3.3737    105.4626
   478.5000      0.0000    869.8640      3.0091    100.4640
   478.7500      0.0000    867.0162      2.7976     96.8428
