~Version Information
 VERS.                      2.0: CWLS Log ASCII Standard - VERSION 2.0
 WRAP.                       NO: One line per depth step
 ~Well Information Block
 STRT.FT               130.0000: 
 STOP.FT              1766.9000: 
 STEP.FT                 0.1000: 
 NULL.                -999.2500: 
 COMP.          Petrogulf Corporation: COMPANY
 WELL.           Parsons 23-15V: WELL
 FLD.           Purgatorie River: FIELD
 LOC.           2095' FSL & 1817' FWL--API 05 071 07556 00----: LOCATION
 CNTY.               Las Animas: COUNTY
 SRVC.                         : SERVICE COMPANY
 DATE.          Fri Apr 19 17:40:55 2002: LOG DATE
 UWI.                          : UNIQUE WELL ID
 STAT.                       CO: STATE
 PROV.                         :Province
 ~Curve Information Block
 DEPT.FT            0 000 00 00: Depth
 DCAL.in                       : CDL Caliper
 RHOB.g/cc                     : CDL Bulk Density
 RHOC.g/cc                     : CDL Density Correction
 DPOR.pu                       : CDL Density Porosity
 GR.GAPI                       : Gamma Ray
 NPOR.pu                       : Neutron Porosity
 ~Parameter Information Block
 ~A  Depth       DCAL        RHOB        RHOC        DPOR         GR         NPOR    
# ...
   792.4000      7.8645      2.6154      0.0609      2.0980    109.3138     21.0795
   792.5000      7.8564      2.6133      0.0644      2.2227    107.3309     20.8827
   792.6000      7.8564      2.6114      0.0675      2.3405    105.1772     20.7375
   792.7000      7.8564      2.6094      0.0700      2.4588    102.9301     20.6581
   792.8000      7.8527      2.6074      0.0716      2.5839    100.6758     20.6529
   792.9000      7.8527      2.6051      0.0721      2.7201     98.5056     20.7230
   793.0000      7.8528      2.6026      0.0716      2.8699     96.5203     20.8626
   793.1000      7.8528      2.6000      0.0701      3.0331     94.8330     21.0590
   793.2000      7.8528      2.5971      0.0678      3.2074     93.5627     21.2951
   793.3000      7.8526      2.5941      0.0649      3.3884     92.8249     21.5531
   793.4000      7.8526      2.5911      0.0620      3.5701     92.7245     21.8166
   793.5000      7.8515      2.5882      0.0593      3.7456     93.3411     22.0739
   793.6000      7.8515      2.5855      0.0573      3.9074     94.7204     22.3196
   793.7000      7.8515      2.5832      0.0563      4.0483     96.8652     22.5533
   793.8000      7.8524      2.5813      0.0567      4.1620     99.7304     22.7775
   793.9000      7.8524      2.5800      0.0586      4.2434    103.2269     22.9961
   794.0000      7.8533      2.5792      0.0619      4.2891    107.2272     23.2099
   794.1000      7.8533      2.5791      0.0665      4.2973    111.5776     23.4146
   794.2000      7.8533      2.5796      0.0719      4.2679    116.1116     23.6022
   794.3000      7.8467      2.5807      0.0777      4.2026    120.6609     23.7601
   794.4000      7.8467      2.5823      0.0836      4.1039    125.0695     23.8754
   794.5000      7.8334      2.5844      0.0890      3.9758    129.1947     23.9383
   794.6000      7.8334      2.5869      0.0936      3.8226    132.9109     23.9436
   794.7000      7.8334      2.5898      0.0971      3.6491    136.1110     23.8935
   794.8000      7.8236      2.5929      0.0995      3.4605    138.6988     23.7966
   794.9000      7.8236      2.5962      0.1006      3.2617    140.5986     23.6657
   795.0000      7.8250      2.5995      0.1005      3.0582    141.7510     23.5156
   795.1000      7.8250      2.6029      0.0993      2.8553    142.1306     23.3599
   795.2000      7.8250      2.6061      0.0970      2.6586    141.7509     23.2094
   795.3000      7.8371      2.6092      0.0938      2.4738    140.6747     23.0719
   795.4000      7.8371      2.6119      0.0897      2.3068    139.0195     22.9523
   795.5000      7.8563      2.6143      0.0849      2.1636    136.9514     22.8544
   795.6000      7.8563      2.6162      0.0796      2.0498    134.6723     22.7826
   795.7000      7.8563      2.6175      0.0739      1.9712    132.4032     22.7431
   795.8000      7.8737      2.6181      0.0680      1.9327    130.3597     22.7433
   795.9000      7.8737      2.6180      0.0621      1.9385    128.7307     22.7910
   796.0000      7.8774      2.6171      0.0563      1.9916    127.6653     22.8923
   796.1000      7.8774      2.6155      0.0507      2.0938    127.2569     23.0501
   796.2000      7.8774      2.6129      0.0456      2.2455    127.5416     23.2620
   796.3000      7.8694      2.6097      0.0410      2.4452    128.5068     23.5196
   796.4000      7.8694      2.6056      0.0370      2.6904    130.0890     23.8097
   796.5000      7.8606      2.6009      0.0336      2.9767    132.1959     24.1154
   796.6000      7.8606      2.5956      0.0308      3.2989    134.7141     24.4195
   796.7000      7.8606      2.5898      0.0288      3.6510    137.5302     24.7072
   796.8000      7.8560      2.5836      0.0274      4.0267    140.5417     24.9687
   796.9000      7.8560      2.5771      0.0268      4.4200    143.6669     25.2004
   797.0000      7.8590      2.5704      0.0269      4.8255    146.8549     25.4048
   797.1000      7.8590      2.5636      0.0278      5.2389    150.0816     25.5887
   797.2000      7.8590      2.5567      0.0293      5.6575    153.3419     25.7624
   797.3000      7.8742      2.5497      0.0313      6.0803    156.6381     25.9360
   797.4000      7.8742      2.5426      0.0335      6.5075    159.9705     26.1186
   797.5000      7.9031      2.5355      0.0357      6.9413    163.3238     26.3164
   797.6000      7.9031      2.5282      0.0377      7.3843    166.6647     26.5323
   797.7000      7.9031      2.5206      0.0391      7.8398    169.9400     26.7675
   797.8000      7.9340      2.5129      0.0397      8.3108    173.0865     27.0206
   797.9000      7.9340      2.5048      0.0395      8.7992    176.0366     27.2896
   798.0000      7.9499      2.4965      0.0383      9.3059    178.7258     27.5714
   798.1000      7.9499      2.4878      0.0363      9.8297    181.0979     27.8635
   798.2000      7.9499      2.4789      0.0335     10.3679    183.1014     28.1639
   798.3000      7.9494      2.4699      0.0302     10.9159    184.6927     28.4696
   798.4000      7.9494      2.4608      0.0268     11.4686    185.8311     28.7782
   798.5000      7.9458      2.4517      0.0237     12.0206    186.4809     29.0869
   798.6000      7.9458      2.4426      0.0211     12.5679    186.6160     29.3925
   798.7000      7.9458      2.4337      0.0196     13.1087    186.2260     29.6914
   798.8000      7.9518      2.4249      0.0192     13.6448    185.3249     29.9796
   798.9000      7.9518      2.4160      0.0200     14.1826    183.9574     30.2525
   799.0000      7.9651      2.4069      0.0219     14.7334    182.1954     30.5058
   799.1000      7.9651      2.3973      0.0246     15.3134    180.1361     30.7346
   799.2000      7.9651      2.3869      0.0277     15.9436    177.8859     30.9345
   799.3000      7.9794      2.3753      0.0305     16.6477    175.5489     31.1030
   799.4000      7.9794      2.3621      0.0325     17.4504    173.2106     31.2386
   799.5000      7.9796      2.3468      0.0332     18.3753    170.9257     31.3430
   799.6000      7.9796      2.3292      0.0320     19.4418    168.7114     31.4210
   799.7000      7.9796      2.3091      0.0287     20.6625    166.5491     31.4813
   799.8000      7.9608      2.2863      0.0231     22.0401    164.3858     31.5347
   799.9000      7.9608      2.2612      0.0153     23.5662    162.1440     31.5946
   800.0000      7.9494      2.2339      0.0056     25.2199    159.7356     31.6742
   800.1000      7.9494      2.2050     -0.0051     26.9674    157.0735     31.7839
   800.2000      7.9494      2.1754     -0.0161     28.7630    154.0893     31.9293
   800.3000      7.9611      2.1459     -0.0262     30.5520    150.7423     32.1094
   800.4000      7.9611      2.1175     -0.0342     32.2729    147.0283     32.3157
   800.5000      7.9816      2.0913     -0.0391     33.8613    142.9899     32.5323
   800.6000      7.9816      2.0683     -0.0400     35.2544    138.7052     32.7374
   800.7000      7.9816      2.0495     -0.0366     36.3944    134.2874     32.9059
   800.8000      8.0015      2.0357     -0.0288     37.2327    129.8664     33.0123
   800.9000      8.0015      2.0274     -0.0171     37.7324    125.5794     33.0347
   801.0000      8.0214      2.0251     -0.0024     37.8704    121.5494     32.9568
   801.1000      8.0214      2.0290      0.0142     37.6386    117.8761     32.7712
   801.2000      8.0214      2.0388      0.0315     37.0438    114.6270     32.4800
   801.3000      8.0257      2.0542      0.0483     36.1067    111.8389     32.0939
   801.4000      8.0257      2.0748      0.0634     34.8605    109.5221     31.6318
   801.5000      8.0127      2.0998      0.0760     33.3485    107.6653     31.1174
   801.6000      8.0127      2.1283      0.0857     31.6211    106.2521     30.5770
   801.7000      8.0127      2.1594      0.0920     29.7335    105.2627     30.0364
   801.8000      7.9999      2.1923      0.0951     27.7424    104.6868     29.5179
   801.9000      7.9999      2.2259      0.0952     25.7031    104.5207     29.0394
