~Version Information
VERS.                      2.0: CWLS Log ASCII Standard - VERSION 2.0
WRAP.                       NO: One line per depth step
~Well Information Block
STRT.FT               964.0000: 
STOP.FT              2440.0000: 
STEP.FT                 0.2500: 
NULL.                -999.2500: 
COMP.          Petrogulf Corporation: COMPANY
WELL.              Hand 8-44 V: WELL
FLD.           Purgatorie River: FIELD
LOC.           1076' FEL & 820' FSL: LOCATION
CNTY.               Las Animas: COUNTY
SRVC.                         : SERVICE COMPANY
DATE.          Fri Nov 21 11:54:17 2003: LOG DATE
UWI.                          : UNIQUE WELL ID
STAT.                 Colorado: STATE
~Curve Information Block
DEPT.FT            0 000 00 00: Depth
SP.mV                         : IEL Spontaneous Potential
DIR.Ohm-m                     : IEL Induction Resistivity
GR.GAPI                       : Gamma Ray
~Parameter Information Block
~A  Depth        SP         DIR          GR     
# ...
  1423.2500     -3.8310     17.1649    109.4740
  1423.5000     -3.8250     17.6807    109.7035
  1423.7500     -3.8196     18.2617    109.3158
  1424.0000     -3.8160     18.9183    107.5847
  1424.2500     -3.8143     19.6417    105.4694
  1424.5000     -3.8136     20.4058    100.8949
  1424.7500     -3.8126     21.1794     97.3033
  1425.0000     -3.8102     21.9397     92.2247
  1425.2500     -3.8065     22.6741     89.6924
  1425.5000     -3.8016     23.3738     87.7763
  1425.7500     -3.7964     24.0316     87.6777
  1426.0000     -3.7923     24.6482     88.5961
  1426.2500     -3.7909     25.2396     89.3460
  1426.5000     -3.7933     25.8308     89.6746
  1426.7500     -3.7987     26.4349     88.9909
  1427.0000     -3.8048     27.0340     86.7723
  1427.2500     -3.8093     27.5795     84.9668
  1427.5000     -3.8111     28.0189     82.5427
  1427.7500     -3.8100     28.3330     81.3311
  1428.0000     -3.8066     28.5548     80.2126
  1428.2500     -3.8011     28.7541     79.9763
  1428.5000     -3.7943     29.0058     80.6003
  1428.7500     -3.7878     29.3630     81.7855
  1429.0000     -3.7833     29.8463     84.5020
  1429.2500     -3.7808     30.4434     86.5174
  1429.5000     -3.7785     31.1167     89.1061
  1429.7500     -3.7738     31.8168     90.4030
  1430.0000     -3.7657     32.5003     91.8573
  1430.2500     -3.7548     33.1444     92.4445
  1430.5000     -3.7430     33.7459     92.0938
  1430.7500     -3.7323     34.3082     90.6336
  1431.0000     -3.7242     34.8240     86.6249
  1431.2500     -3.7197     35.2747     83.1162
  1431.5000     -3.7185     35.6475     77.2321
  1431.7500     -3.7199     35.9528     73.1960
  1432.0000     -3.7227     36.2120     67.8430
  1432.2500     -3.7262     36.4113     65.5123
  1432.5000     -3.7300     36.4570     64.8534
  1432.7500     -3.7342     36.1827     66.2004
  1433.0000     -3.7390     35.4332     69.6364
  1433.2500     -3.7448     34.1752     72.0500
  1433.5000     -3.7517     32.5362     75.0869
  1433.7500     -3.7593     30.7295     76.6069
  1434.0000     -3.7666     28.9437     78.1952
  1434.2500     -3.7728     27.2846     79.0910
  1434.5000     -3.7778     25.7844     81.4725
  1434.7500     -3.7822     24.4386     84.7339
  1435.0000     -3.7873     23.2323     92.9590
  1435.2500     -3.7932     22.1503    100.1166
  1435.5000     -3.7992     21.1754    111.1663
  1435.7500     -3.8041     20.2880    117.6249
  1436.0000     -3.8067     19.4721    125.4237
  1436.2500     -3.8066     18.7235    129.6670
  1436.5000     -3.8041     18.0537    135.2252
  1436.7500     -3.8001     17.4853    138.6306
  1437.0000     -3.7956     17.0426    143.5466
  1437.2500     -3.7921     16.7423    146.5805
  1437.5000     -3.7906     16.5891    149.8220
  1437.7500     -3.7913     16.5765    150.4835
  1438.0000     -3.7935     16.6895    149.1396
  1438.2500     -3.7959     16.9077    147.3465
  1438.5000     -3.7969     17.2068    144.8529
  1438.7500     -3.7957     17.5625    143.7653
  1439.0000     -3.7923     17.9564    142.0747
  1439.2500     -3.7878     18.3835    139.7432
  1439.5000     -3.7835     18.8560    133.4980
  1439.7500     -3.7809     19.3983    128.2209
  1440.0000     -3.7809     20.0350    120.7206
  1440.2500     -3.7841     20.7770    116.5653
  1440.5000     -3.7907     21.6126    111.0249
  1440.7500     -3.7998     22.5051    107.1647
  1441.0000     -3.8101     23.4012    100.5162
  1441.2500     -3.8205     24.2424     95.4815
  1441.5000     -3.8303     24.9757     87.3735
  1441.7500     -3.8392     25.5580     82.0078
  1442.0000     -3.8461     25.9548     74.8267
  1442.2500     -3.8492     26.1409     70.9274
  1442.5000     -3.8480     26.1045     66.6491
  1442.7500     -3.8437     25.8527     64.9151
  1443.0000     -3.8380     25.4112     63.8149
  1443.2500     -3.8327     24.8203     63.6646
  1443.5000     -3.8289     24.1304     63.6266
  1443.7500     -3.8277     23.3975     63.8995
  1444.0000     -3.8298     22.6771     66.2456
  1444.2500     -3.8348     22.0139     70.2016
  1444.5000     -3.8409     21.4342     80.7431
  1444.7500     -3.8451     20.9445     90.3861
  1445.0000     -3.8450     20.5356    106.2168
  1445.2500     -3.8401     20.1899    115.9514
  1445.5000     -3.8324     19.8921    127.5798
  1445.7500     -3.8250     19.6395    133.0904
  1446.0000     -3.8208     19.4477    137.8325
  1446.2500     -3.8212     19.3439    138.4906
  1446.5000     -3.8258     19.3531    135.8356
  1446.7500     -3.8327     19.4888    132.0581
  1447.0000     -3.8390     19.7548    124.3937
  1447.2500     -3.8419     20.1516    118.5974
  1447.5000     -3.8392     20.6757    110.0467
  1447.7500     -3.8309     21.3109    104.8907
  1448.0000     -3.8184     22.0166     97.6215
  1448.2500     -3.8038     22.7201     92.3738
  1448.5000     -3.7888     23.3135     83.2314
  1448.7500     -3.7749     23.6612     76.7792
  1449.0000     -3.7625     23.6298     68.3208
  1449.2500     -3.7517     23.1441     64.2318
  1449.5000     -3.7419     22.2357     60.3969
  1449.7500     -3.7326     21.0385     58.8760
  1450.0000     -3.7236     19.7270     57.4478
  1450.2500     -3.7156     18.4466     57.0189
  1450.5000     -3.7098     17.2808     57.7271
  1450.7500     -3.7075     16.2600     59.7105
  1451.0000     -3.7089     15.3866     66.0153
  1451.2500     -3.7131     14.6523     72.7559
  1451.5000     -3.7179     14.0424     86.5199
  1451.7500     -3.7212     13.5310     97.6193
  1452.0000     -3.7219     13.0825    115.1564
  1452.2500     -3.7208     12.6596    125.6679
  1452.5000     -3.7199     12.2354    137.2024
  1452.7500     -3.7215     11.8032    141.9702
  1453.0000     -3.7265     11.3784    146.4859
  1453.2500     -3.7347     10.9905    148.6076
  1453.5000     -3.7445     10.6702    150.1664
  1453.7500     -3.7539     10.4363    149.3437
  1454.0000     -3.7608     10.2891    144.5672
  1454.2500     -3.7638     10.2103    139.4110
  1454.5000     -3.7629     10.1708    130.9525
  1454.7500     -3.7592     10.1423    126.7462
  1455.0000     -3.7545     10.1068    125.0840
  1455.2500     -3.7508     10.0588    126.9746
  1455.5000     -3.7500     10.0011    131.7219
  1455.7500     -3.7529      9.9387    134.6999
  1456.0000     -3.7593      9.8770    138.7185
  1456.2500     -3.7672      9.8222    142.1160
  1456.5000     -3.7737      9.7820    149.6054
  1456.7500     -3.7766      9.7636    155.7286
  1457.0000     -3.7753      9.7727    164.0553
  1457.2500     -3.7720      9.8127    167.6545
  1457.5000     -3.7700      9.8847    169.8171
  1457.7500     -3.7720      9.9885    170.0297
  1458.0000     -3.7782     10.1227    170.1365
  1458.2500     -3.7868     10.2873    170.2335
  1458.5000     -3.7952     10.4877    169.4693
  1458.7500     -3.8017     10.7409    167.7567
  1459.0000     -3.8058     11.0760    163.4788
  1459.2500     -3.8070     11.5273    160.2350
  1459.5000     -3.8049     12.1179    156.0128
  1459.7500     -3.7987     12.8457    153.6540
  1460.0000     -3.7877     13.6796    149.8549
  1460.2500     -3.7726     14.5707    146.5784
  1460.5000     -3.7546     15.4714    139.9998
  1460.7500     -3.7363     16.3495    134.4184
  1461.0000     -3.7200     17.1911    124.7003
  1461.2500     -3.7073     17.9956    118.0539
  1461.5000     -3.6989     18.7716    109.3942
  1461.7500     -3.6943     19.5299    105.0627
  1462.0000     -3.6926     20.2730    100.7332
  1462.2500     -3.6920     20.9815     99.0019
  1462.5000     -3.6903     21.6112     97.7463
  1462.7500     -3.6858     22.1073     97.6538
  1463.0000     -3.6785     22.4330     98.1719
  1463.2500     -3.6707     22.5894     98.4323
  1463.5000     -3.6657     22.6074     97.5350
  1463.7500     -3.6663     22.5211     95.6607
  1464.0000     -3.6728     22.3437     91.4913
  1464.2500     -3.6837     22.0628     88.8728
  1464.5000     -3.6966     21.6514     87.2214
  1464.7500     -3.7097     21.0861     88.2853
