~Version Information
VERS.                      2.0: CWLS Log ASCII Standard - VERSION 2.0
WRAP.                       NO: One line per depth step
~Well Information Block
STRT.FT               -12.5000: 
STOP.FT              2284.7500: 
STEP.FT                 0.2500: 
NULL.                -999.2500: 
COMP.          Pioneer Natural Resources: COMPANY
WELL.          Hill Climb 22-2: WELL
FLD.           Purgatorie River: FIELD
LOC.           1820' FNL & 2193' FWL--: LOCATION
PROV.                       CO: PROVINCE
CNTY.               Las Animas: COUNTRY
SRVC.                         : SERVICE COMPANY
DATE.          Fri Oct 22 11:44:16 2004: LOG DATE
UWI.                          : UNIQUE WELL ID
~Curve Information Block
DEPT.FT            0 000 00 00: Depth
GR.GAPI                       : Gamma Ray
CCL.                          : Casing Collar Locator
TT3.usec                      : CBL 3' Travel Time
AMP3.mV                       : CBL 3' Amplitude
~Parameter Information Block
~A  Depth        GR         CCL         TT3         AMP3    
# ...
   289.0000    111.0249      0.0000    258.8924     82.9404
   289.2500    108.8512      0.0000    258.8848     82.9958
   289.5000    104.4397      0.0000    258.8849     83.0005
   289.7500     98.8469      0.0000    258.8901     82.9768
   290.0000     93.2992      0.0000    258.8927     82.9767
   290.2500     88.5731      0.0000    258.8893     83.0314
   290.5000     85.1927      0.0000    258.8848     83.1144
   290.7500     83.4936      0.0000    258.8879     83.1577
   291.0000     83.2380      0.0000    258.9016     83.1067
   291.2500     83.5763      0.0000    258.9204     82.9703
   291.5000     83.6267      0.0000    258.9364     82.8163
   291.7500     83.1163      0.0000    258.9467     82.7121
   292.0000     82.5782      0.0000    258.9538     82.6755
   292.2500     83.0408      0.0000    258.9614     82.6872
   292.5000     85.2848      0.0000    258.9712     82.7271
   292.7500     89.0735      0.0000    258.9826     82.7786
   293.0000     93.1190      0.0000    258.9930     82.8217
   293.2500     95.9067      0.0000    259.0001     82.8499
   293.5000     96.7621      0.0000    259.0045     82.8801
   293.7500     96.3803      0.0000    259.0073     82.9252
   294.0000     96.2826      0.0000    259.0079     82.9691
   294.2500     97.4714      0.0000    259.0049     82.9812
   294.5000     99.6113      0.0000    258.9993     82.9485
   294.7500    101.5841      0.0000    258.9921     82.8958
   295.0000    102.6153      0.0000    258.9834     82.8791
   295.2500    102.5810      0.0000    258.9741     82.9410
   295.5000    101.4511      0.0000    258.9666     83.0610
   295.7500     99.1333      0.0000    258.9614     83.1640
   296.0000     96.1263      0.0000    258.9562     83.1897
   296.2500     93.7462      0.0000    258.9479     83.1420
   296.5000     93.0602      0.0000    258.9349     83.0662
   296.7500     93.6095      0.0000    258.9185     82.9964
   297.0000     93.4511      0.0000    258.9037     82.9388
   297.2500     90.5773      0.0000    258.8960     82.8934
   297.5000     84.5784      0.0000    258.8986     82.8682
   297.7500     77.1781      0.0000    258.9096     82.8725
   298.0000     71.1896      0.0000    258.9227     82.9080
   298.2500     68.6856      0.0000    258.9285     82.9659
   298.5000     69.7481      0.0000    258.9230     83.0235
   298.7500     72.5947      0.0000    258.9131     83.0511
   299.0000     74.8293      0.0000    258.9122     83.0245
   299.2500     74.8788      0.0000    258.9280     82.9359
   299.5000     72.8413      0.0000    258.9566     82.8050
   299.7500     70.3979      0.0000    258.9899     82.6821
   300.0000     69.5529      0.0000    259.0215     82.6197
   300.2500     70.8090      0.0000    259.0451     82.6268
   300.5000     72.5323      0.0000    259.0536     82.6600
   300.7500     72.5452      0.0000    259.0446     82.6682
   301.0000     70.3530      0.0000    259.0234     82.6349
   301.2500     67.4449      0.0000    258.9997     82.5802
   301.5000     65.4759      0.0000    258.9820     82.5412
   301.7500     64.6517      0.0000    258.9749     82.5467
   302.0000     64.0714      0.0000    258.9767     82.5873
   302.2500     63.0316      0.0000    258.9803     82.6073
   302.5000     61.3150      0.0000    258.9806     82.5520
   302.7500     58.5462      0.0000    258.9777     82.4239
   303.0000     54.3380      0.0000    258.9745     82.2815
   303.2500     49.2366      0.0000    258.9733     82.1805
   303.5000     44.8077      0.0000    258.9760     82.1261
   303.7500     42.4793      0.0000    258.9828     82.0792
   304.0000     42.4224      0.0000    258.9925     82.0024
   304.2500     43.4608      0.0000    259.0032     81.9035
   304.5000     43.9958      0.0000    259.0137     81.8319
   304.7500     43.3028      0.0000    259.0228     81.8307
   305.0000     42.0904      0.0000    259.0279     81.9004
   305.2500     41.6468      0.0000    259.0269     82.0158
   305.5000     42.4317      0.0000    259.0200     82.1537
   305.7500     43.8002      0.0000    259.0121     82.2912
   306.0000     45.0517      0.0000    259.0109     82.3998
   306.2500     46.2027      0.0000    259.0203     82.4627
   306.5000     47.4749      0.0000    259.0349     82.4841
   306.7500     48.4807      0.0000    259.0454     82.4810
   307.0000     48.4727      0.0000    259.0478     82.4835
   307.2500     47.3542      0.0000    259.0441     82.5270
   307.5000     46.0577      0.0000    259.0363     82.6230
   307.7500     45.8479      0.0000    259.0245     82.7487
   308.0000     47.4943      0.0000    259.0087     82.8785
   308.2500     50.9422      0.0000    258.9891     83.0015
   308.5000     55.2257      0.0000    258.9649     83.0996
   308.7500     58.6303      0.0000    258.9362     83.1415
   309.0000     59.4793      0.0000    258.9048     83.1150
   309.2500     57.1930      0.0000    258.8719     83.0456
   309.5000     52.6442      0.0000    258.8407     82.9665
   309.7500     47.7271      0.0000    258.8209     82.8891
   310.0000     44.8735      0.0000    258.8237     82.8108
   310.2500     46.3660      0.0000    258.8492     82.7384
   310.5000     52.9151      0.0000    258.8841     82.6892
   310.7500     62.6059      0.0000    258.9153     82.6733
   311.0000     71.8824      0.0000    258.9372     82.6878
   311.2500     77.7778      0.0000    258.9486     82.7222
   311.5000     79.0544      0.0000    258.9487     82.7626
   311.7500     75.8419      0.0000    258.9397     82.7921
   312.0000     69.2186      0.0000    258.9277     82.7916
   312.2500     61.1655      0.0000    258.9187     82.7517
   312.5000     54.0089      0.0000    258.9147     82.6900
   312.7500     49.2812      0.0000    258.9136     82.6511
   313.0000     47.1063      0.0000    258.9112     82.6692
   313.2500     46.6906      0.0000    258.9067     82.7330
   313.5000     47.1820      0.0000    258.9047     82.7980
   313.7500     48.0479      0.0000    258.9108     82.8267
   314.0000     49.0242      0.0000    258.9268     82.8063
   314.2500     50.1470      0.0000    258.9508     82.7422
   314.5000     51.7875      0.0000    258.9796     82.6521
   314.7500     54.1732      0.0000    259.0064     82.5593
   315.0000     56.8240      0.0000    259.0213     82.4809
   315.2500     58.9271      0.0000    259.0188     82.4279
   315.5000     60.2690      0.0000    259.0042     82.4142
   315.7500     61.2131      0.0000    258.9882     82.4506
   316.0000     61.7892      0.0000    258.9780     82.5294
   316.2500     61.6146      0.0000    258.9754     82.6221
   316.5000     60.9622      0.0000    258.9793     82.6961
   316.7500     61.1785      0.0000    258.9862     82.7352
   317.0000     63.4310      0.0000    258.9920     82.7477
   317.2500     67.1845      0.0000    258.9945     82.7542
   317.5000     70.4184      0.0000    258.9921     82.7649
   317.7500     71.6053      0.0000    258.9816     82.7653
   318.0000     71.1937      0.0000    258.9630     82.7223
   318.2500     70.7760      0.0000    258.9449     82.6100
   318.5000     71.1312      0.0000    258.9374     82.4469
   318.7500     71.7208      0.0000    258.9412     82.3077
   319.0000     72.0021      0.0000    258.9470     82.2790
   319.2500     72.5877      0.0000    258.9456     82.3842
   319.5000     74.9292      0.0000    258.9364     82.5571
   319.7500     80.2315      0.0000    258.9263     82.6969
   320.0000     88.7040      0.0000    258.9230     82.7489
   320.2500     99.1605      0.0000    258.9265     82.7313
   320.5000    108.9453      0.0000    258.9298     82.6971
   320.7500    114.9323      0.0000    258.9261     82.6854
   321.0000    115.5125      0.0000    258.9146     82.7127
   321.2500    111.8117      0.0000    258.8963     82.7896
   321.5000    106.7628      0.0000    258.8713     82.9227
   321.7500    102.9222      0.0000    258.8446     83.0892
   322.0000    101.2083      0.0000    258.8271     83.2323
   322.2500    101.4683      0.0000    258.8276     83.2996
