~Version Information
VERS.                      2.0: CWLS Log ASCII Standard - VERSION 2.0
WRAP.                       NO: One line per depth step
~Well Information Block
STRT.FT               375.0000: 
STOP.FT              2795.7000: 
STEP.FT                 0.1000: 
NULL.                -999.2500: 
COMP.          Pioneer Natural Resources: COMPANY
WELL.              Getem 21-23: WELL
FLD.           Purgatoire River: FIELD
LOC.           2623' FWL & 790' FNL--: LOCATION
PROV.                 Colorado: PROVINCE
CNTY.               Las Animas: COUNTRY
SRVC.                Patterson: SERVICE COMPANY
DATE.          Mon Jun 20 07:26:21 2005: LOG DATE
UWI.           05 071 08411 00: UNIQUE WELL ID
~Curve Information Block
DEPT.FT            0 000 00 00: Depth
DCAL.in                       : CDL Caliper
RHOB.g/cc                     : CDL Bulk Density
RHOC.g/cc                     : CDL Density Correction
DPOR.pu                       : CDL Density Porosity
NPOR.pu                       : Neutron Porosity
GR.GAPI                       : Gamma Ray
~Parameter Information Block
~A  Depth       DCAL        RHOB        RHOC        DPOR        NPOR         GR     
# ...
  1968.6000      8.0234      2.5870      0.0570      3.8194     17.6555     90.4622
  1968.7000      8.0234      2.5844      0.0448      3.9734     17.4758     85.6076
  1968.8000      8.0299      2.5789      0.0704      4.3111     17.2562     79.9435
  1968.9000      8.0299      2.5694      0.0546      4.8867     17.3132     77.8756
  1969.0000      8.0300      2.5644      0.0209      5.1878     17.6725     80.4436
  1969.1000      8.0300      2.5779      0.0034      4.3704     18.0643     80.7635
  1969.2000      8.0300      2.5994      0.0632      3.0651     18.4258     77.2151
  1969.3000      8.0277      2.6075      0.0713      2.5733     18.9388     75.6977
  1969.4000      8.0277      2.6058      0.0370      2.6762     19.5823     77.5470
  1969.5000      8.0287      2.6104      0.0348      2.4020     20.1086     80.4238
  1969.6000      8.0287      2.6218      0.0605      1.7065     20.3955     81.4047
  1969.7000      8.0287      2.6266      0.0874      1.4155     20.5211     78.4820
  1969.8000      8.0325      2.6190      0.0544      1.8797     20.5846     75.9851
  1969.9000      8.0325      2.6082      0.0531      2.5360     20.6209     79.4920
  1970.0000      8.0355      2.6055      0.0336      2.6991     20.6989     87.1390
  1970.1000      8.0355      2.6143      0.0455      2.1612     20.9993     92.7478
  1970.2000      8.0355      2.6227      0.0711      1.6532     21.5397     94.9321
  1970.3000      8.0368      2.6131      0.0678      2.2382     22.0180     98.5299
  1970.4000      8.0368      2.5914      0.0196      3.5505     22.0637    106.3293
  1970.5000      8.0377      2.5813      0.0045      4.1648     21.7140    113.4707
  1970.6000      8.0377      2.5883      0.0649      3.7386     21.6388    114.0006
  1970.7000      8.0377      2.6040      0.0318      2.7876     22.1379    110.0175
  1970.8000      8.0380      2.6232      0.0605      1.6240     22.6814    106.1204
  1970.9000      8.0380      2.6254      0.0926      1.4905     22.8549    103.3061
  1971.0000      8.0379      2.5882      0.0485      3.7466     22.7426    102.4809
  1971.1000      8.0379      2.5357     -0.0186      6.9249     22.5776    104.5400
  1971.2000      8.0379      2.5128      0.0017      8.3135     22.4078    108.7040
  1971.3000      8.0387      2.5201      0.0155      7.8717     22.1777    112.1897
  1971.4000      8.0387      2.5301      0.0360      7.2690     21.9761    112.1649
  1971.5000      8.0413      2.5345      0.0173      7.0010     21.8417    108.1317
  1971.6000      8.0413      2.5415      0.0206      6.5755     21.6357    102.9990
  1971.7000      8.0413      2.5559      0.0079      5.7032     21.4808     99.9721
  1971.8000      8.0423      2.5699      0.0782      4.8575     21.6962     99.3654
  1971.9000      8.0423      2.5738      0.0343      4.6161     22.1615     99.8795
  1972.0000      8.0434      2.5783      0.0311      4.3445     22.7075    100.7872
  1972.1000      8.0434      2.5957      0.0818      3.2922     23.3960    101.9798
  1972.2000      8.0434      2.6208      0.0817      1.7706     24.0397    102.8014
  1972.3000      8.0445      2.6367      0.1685      0.8039     24.4384    104.0842
  1972.4000      8.0445      2.6312      0.1101      1.1413     24.6664    106.4064
  1972.5000      8.0465      2.6079      0.1400      2.5544     24.8920    108.6065
  1972.6000      8.0465      2.5787      0.0761      4.3226     25.2017    109.9246
  1972.7000      8.0465      2.5622      0.0266      5.3191     25.5431    108.3314
  1972.8000      8.0500      2.5641      0.0801      5.2079     25.8454    104.5916
  1972.9000      8.0500      2.5728      0.0461      4.6778     25.8670    102.2310
  1973.0000      8.0509      2.5834      0.0830      4.0367     25.5136    102.9334
  1973.1000      8.0509      2.5917      0.0886      3.5343     25.0361    107.0900
  1973.2000      8.0509      2.5943      0.1064      3.3754     24.6510    114.9670
  1973.3000      8.0500      2.5939      0.0951      3.3977     24.3599    121.9487
  1973.4000      8.0500      2.5976      0.0827      3.1765     24.1403    120.8669
  1973.5000      8.0486      2.6070      0.0996      2.6081     24.4428    114.1329
  1973.6000      8.0486      2.6146      0.0971      2.1458     25.4845    109.2017
  1973.7000      8.0486      2.6244      0.0605      1.5524     26.5537    107.6342
  1973.8000      8.0459      2.6441      0.0860      0.3558     27.1172    108.3540
  1973.9000      8.0459      2.6596      0.1143     -0.5821     27.3204    110.7423
  1974.0000      8.0439      2.6526      0.0637     -0.1590     27.3418    112.2457
  1974.1000      8.0439      2.6321      0.0327      1.0840     27.1533    112.9371
  1974.2000      8.0439      2.6145      0.0510      2.1526     26.7962    115.1891
  1974.3000      8.0488      2.6038      0.0564      2.7989     26.7875    117.4746
  1974.4000      8.0488      2.6071      0.0280      2.5973     27.3325    118.4697
  1974.5000      8.0639      2.6232      0.1057      1.6258     27.6753    120.0634
  1974.6000      8.0639      2.6321      0.0638      1.0855     27.1380    125.8415
  1974.7000      8.0639      2.6212      0.0851      1.7474     26.1909    138.1818
  1974.8000      8.0895      2.5955      0.0421      3.3016     25.4667    154.1046
  1974.9000      8.0895      2.5707      0.0270      4.8073     24.9042    165.2658
  1975.0000      8.1211      2.5548      0.0441      5.7723     24.5104    164.5102
  1975.1000      8.1211      2.5469      0.0477      6.2485     24.2640    155.2005
  1975.2000      8.1211      2.5467      0.0555      6.2599     23.8722    145.5013
  1975.3000      8.1425      2.5429      0.0771      6.4924     23.3890    139.8222
  1975.4000      8.1425      2.5212      0.0356      7.8065     22.9882    139.6949
  1975.5000      8.1501      2.4932      0.0220      9.5049     22.7928    144.1931
  1975.6000      8.1501      2.4851      0.0185      9.9950     22.9132    149.5962
  1975.7000      8.1501      2.5052      0.0627      8.7784     23.2268    151.8029
  1975.8000      8.1501      2.5353      0.0648      6.9531     23.4267    151.5545
  1975.9000      8.1501      2.5478      0.0988      6.1916     23.2161    151.8651
  1976.0000      8.1474      2.5321      0.0761      7.1438     22.7954    155.1802
  1976.1000      8.1474      2.5048      0.0367      8.8020     22.6694    162.0879
  1976.2000      8.1474      2.4839      0.0653     10.0646     22.6012    167.0292
  1976.3000      8.1471      2.4786      0.0202     10.3890     21.9724    165.0092
  1976.4000      8.1471      2.4944      0.0707      9.4323     20.9432    159.7798
  1976.5000      8.1513      2.5218      0.0930      7.7677     20.2776    158.4330
  1976.6000      8.1513      2.5507      0.0967      6.0169     20.4020    159.6001
  1976.7000      8.1513      2.5799      0.1182      4.2503     21.0910    159.5795
  1976.8000      8.1536      2.6008      0.1248      2.9824     21.9040    161.1828
  1976.9000      8.1536      2.6053      0.1177      2.7063     22.6009    164.7694
  1977.0000      8.1450      2.5983      0.1171      3.1322     23.2639    165.1241
  1977.1000      8.1450      2.5922      0.1163      3.5009     23.9667    161.5321
  1977.2000      8.1450      2.5992      0.1138      3.0817     24.4016    159.9366
  1977.3000      8.1227      2.6125      0.1729      2.2732     24.2032    161.0375
  1977.4000      8.1227      2.6113      0.0938      2.3425     23.7758    161.0603
  1977.5000      8.1017      2.5939      0.0458      3.3985     23.7981    159.7989
  1977.6000      8.1017      2.5756      0.0214      4.5070     24.1652    156.9227
  1977.7000      8.1017      2.5692      0.0382      4.8963     24.3392    152.4435
  1977.8000      8.0949      2.5755      0.0415      4.5127     24.1872    147.9471
  1977.9000      8.0949      2.5914      0.0575      3.5541     24.1448    144.4688
  1978.0000      8.0946      2.6150      0.0461      2.1221     24.4931    143.3681
  1978.1000      8.0946      2.6331      0.1111      1.0270     24.9601    144.2354
