~Version Information
 VERS.                                  2.0 : CWLS LAS VERSION
 WRAP.                                   NO : WRAPING MODE
 SWARE .                 MController 2.5.0J : SOFTWARE VERSION
~Well Information
 WELL.                         Sebring42-29 : WELL
 COMP.    Pioneer Natural Resources USA Inc : COMPANY
 FLD.                      Purgatoire River : FIELD
 LOC.                SE/NE Sec 29 T32S R67W : LOCATION
 DATE.                             08/12/05 : DATE(S) LOGGED
 SRVC.       BLANCO Geological Services LLC : SERVICE COMPANY
 STAT.                                   CO : STATE
 CNTY.                           Las Animas : COUNTY
 CTRY.                                  USA : COUNTRY
 API.                       05-071-08293-00 : API NUMBER
 STRT.FT                             750.00 : START DEPTH
 STOP.FT                            2880.00 : STOP DEPTH
 STEP.FT                               1.00 : DEPTH INCREMENT
 NULL.                                -9999 : NULL VALUE
~Curve information
 DEPTH.FT                                   :
 ROP.MIN/FT                                 :
 GAS.UNITS                                  :
~ASCII Log data
# ...
      2350.0         0.30        191.8 
      2351.0         0.30        189.0 
      2352.0         0.28        178.6 
      2353.0         0.30        167.0 
      2354.0         0.33        156.1 
      2355.0         0.40        156.5 
      2356.0         0.37        130.9 
      2357.0         0.37         69.9 
      2358.0         0.33         44.4 
      2359.0         0.33         34.4 
      2360.0         0.30         28.4 
      2361.0         0.30         30.2 
      2362.0         0.32         36.8 
      2363.0         0.30         46.6 
      2364.0         0.37         58.9 
      2365.0         0.33         70.3 
      2366.0         0.30         79.3 
      2367.0         0.40         81.3 
      2368.0         0.43         74.3 
      2369.0         0.37         51.1 
      2370.0         0.33         39.5 
      2371.0         3.83        169.1 
      2372.0         0.07        172.3 
      2373.0         1.07        183.0 
      2374.0         0.47        150.7 
      2375.0         0.37        136.8 
      2376.0         0.37        138.8 
      2377.0         0.57        145.7 
      2378.0         1.08        146.3 
      2379.0         0.60        157.9 
      2380.0         0.60        178.5 
      2381.0         0.43        195.9 
      2382.0         0.40        212.9 
      2383.0         0.37        230.6 
      2384.0         0.42        245.2 
      2385.0         0.43        246.1 
      2386.0         0.40        239.9 
      2387.0         0.43        222.4 
      2388.0         0.47        136.8 
      2389.0         0.40         48.8 
      2390.0         0.43         26.1 
      2391.0         0.40         19.6 
      2392.0         0.52         22.0 
      2393.0         0.47         32.8 
      2394.0         0.47         47.5 
      2395.0         0.47         64.5 
      2396.0         0.43         65.2 
      2397.0         0.47         50.3 
      2398.0         0.33         29.8 
      2399.0         0.27         25.3 
      2400.0         0.35         22.3 
      2401.0         8.13        332.5 
      2402.0         5.17        389.1 
      2403.0         0.53        184.6 
      2404.0         0.40        192.3 
      2405.0         0.40        199.7 
      2406.0         0.30        200.9 
      2407.0         0.27        199.9 
      2408.0         0.27        195.2 
      2409.0         0.30        198.3 
      2410.0         0.33        200.7 
      2411.0         0.35        182.3 
      2412.0         0.30        106.1 
      2413.0         0.30         56.0 
      2414.0         0.23         34.0 
      2415.0         0.27         25.2 
      2416.0         0.33         20.4 
      2417.0         0.37         17.8 
      2418.0         0.30         16.3 
      2419.0         0.37         16.4 
      2420.0         0.50         19.3 
      2421.0         0.55         23.5 
      2422.0         0.40         26.9 
      2423.0         0.33         27.6 
      2424.0         0.33         27.8 
      2425.0         0.33         28.8 
      2426.0         0.23         32.3 
      2427.0         0.23         36.7 
      2428.0         0.30         42.9 
      2429.0         0.27         51.1 
      2430.0         0.27         60.9 
      2431.0         2.25        178.4 
      2432.0         5.77        274.1 
      2433.0         0.40        139.4 
      2434.0         0.20        144.0 
      2435.0         0.20        147.5 
      2436.0         0.57        161.6 
      2437.0         0.63        184.4 
      2438.0         0.95        185.1 
      2439.0         0.23        139.5 
      2440.0         0.27        112.6 
      2441.0         0.33         97.1 
      2442.0         0.20         83.5 
      2443.0         0.17         66.2 
      2444.0         0.20         51.4 
      2445.0         0.30         38.3 
      2446.0         0.37         27.3 
      2447.0         0.30         40.7 
      2448.0         0.40         75.3 
      2449.0         0.35        109.6 
      2450.0         0.33        143.0 
      2451.0         0.40        166.6 
      2452.0         0.33        166.2 
      2453.0         0.23        133.2 
      2454.0         0.23         92.7 
      2455.0         0.30         59.4 
      2456.0         0.43         35.4 
      2457.0         0.27         22.9 
      2458.0         0.30         24.7 
      2459.0         0.35         28.6 
      2460.0         0.27         29.7 
      2461.0         8.80        196.2 
      2462.0         0.60        198.0 
      2463.0         1.38        194.2 
      2464.0         0.43        154.4 
      2465.0         0.30        159.1 
      2466.0         0.40        176.2 
      2467.0         0.30        190.9 
      2468.0         0.37        208.1 
      2469.0         0.33        220.6 
      2470.0         0.32        230.5 
      2471.0         0.20        235.4 
      2472.0         0.20        239.7 
      2473.0         0.27        245.0 
      2474.0         0.23        248.7 
      2475.0         0.20        252.4 
      2476.0         0.27        257.3 
      2477.0         0.27        259.4 
      2478.0         0.20        259.3 
      2479.0         0.33        256.7 
      2480.0         0.40        242.4 
      2481.0         0.33        222.8 
      2482.0         0.35        240.6 
      2483.0         0.33        244.4 
      2484.0         0.40        237.9 
      2485.0         0.30        175.9 
      2486.0         0.33        115.4 
      2487.0         0.40         71.1 
      2488.0         0.67         44.5 
      2489.0         0.67         21.9 
      2490.0         0.72         17.1 
      2491.0         5.45        197.1 
      2492.0         3.92        200.1 
      2493.0         0.62        152.8 
      2494.0         0.60        175.9 
      2495.0         0.50        196.0 
      2496.0         0.47        213.8 
      2497.0         0.57        235.0 
      2498.0         0.60        254.8 
      2499.0         0.55        270.0 
      2500.0         0.57        257.5 
      2501.0         0.50        111.8 
      2502.0         0.47         43.0 
      2503.0         0.57         25.5 
      2504.0         0.53         18.6 
      2505.0         0.52         16.5 
      2506.0         0.47         18.0 
      2507.0         0.33         20.6 
      2508.0         0.33         24.5 
      2509.0         0.63         32.3 
      2510.0         0.53         36.5 
      2511.0         0.57         37.4 
      2512.0         0.32         37.7 
      2513.0         0.23         37.5 
      2514.0         0.27         37.4 
      2515.0         0.23         36.9 
      2516.0         0.17         36.5 
      2517.0         0.27         37.3 
      2518.0         0.40         52.9 
      2519.0         0.20         65.4 
      2520.0         0.17         77.7 
      2521.0        15.48        210.2 
      2522.0         0.67        188.8 
      2523.0         0.57        230.5 
      2524.0         0.43        262.4 
      2525.0         0.57        296.9 
      2526.0         0.72        319.0 
      2527.0         0.60        373.3 
      2528.0         0.63        392.5 
      2529.0         0.67        384.0 
      2530.0         0.73        275.9 
      2531.0         0.82        153.7 
      2532.0         0.80         30.6 
      2533.0         0.80         16.3 
      2534.0         0.80         16.2 
      2535.0         0.82         25.3 
      2536.0         0.63         32.8 
      2537.0         0.53         37.3 
      2538.0         0.47         39.7 
      2539.0         0.47         41.5 
      2540.0         0.50         44.2 
      2541.0         0.45         48.6 
      2542.0         0.53         54.1 
      2543.0         0.60         59.0 
      2544.0         0.60         72.9 
      2545.0         0.37         77.5 
      2546.0         0.30         77.3 
      2547.0         0.20         73.1 
      2548.0         0.17         68.3 
      2549.0         0.37         64.1 
