~Version Information
VERS.                      2.0: CWLS Log ASCII Standard - VERSION 2.0
WRAP.                       NO: One line per depth step
~Well Information Block
STRT.FT               -12.5000: 
STOP.FT              2487.7500: 
STEP.FT                 0.2500: 
NULL.                -999.2500: 
COMP.          Petrogulf Corporation: COMPANY
WELL.             Royal 8-33 V: WELL
FLD.           Purgatorie River: FIELD
LOC.           2365' FSL & 2336' FEL--: LOCATION
CNTY.               Las Animas: COUNTY
SRVC.                         : SERVICE COMPANY
DATE.          Sat Jan 17 11:43:49 2004: LOG DATE
UWI.           05 071 07934 00: UNIQUE WELL ID
STAT.                       CO: STATE
~Curve Information Block
DEPT.FT            0 000 00 00: Depth
CCL.                          : Casing Collar Locator
TT3.usec                      : CBL 3' Travel Time
AMP3.mV                       : CBL 3' Amplitude
GR.GAPI                       : Gamma Ray
~Parameter Information Block
~A  Depth       CCL         TT3         AMP3         GR     
# ...
   825.0000      0.0000    265.1603     44.8034     61.7897
   825.2500      0.0000    262.4056     45.0241     66.7677
   825.5000      0.0000    262.6914     44.8662     71.5676
   825.7500      0.0000    266.4083     44.3786     74.9453
   826.0000      0.0000    272.9008     43.6992     76.4493
   826.2500      0.0000    280.5309     42.9460     76.3010
   826.5000      0.0000    287.3061     42.2250     75.0822
   826.7500      0.0000    291.9057     41.6655     73.3905
   827.0000      0.0000    294.0959     41.3682     71.4429
   827.2500      0.0000    294.1450     41.3356     69.0414
   827.5000      0.0000    292.0536     41.5190     66.1749
   827.7500      0.0000    287.5405     41.9280     63.4477
   828.0000      0.0000    280.8291     42.6316     61.5528
   828.2500      0.0000    273.3275     43.6124     60.5349
   828.5000      0.0000    267.3165     44.6120     60.0234
   828.7500      0.0000    264.8715     45.0974     59.9268
   829.0000      0.0000    266.9431     44.4143     60.4137
   829.2500      0.0000    273.1718     42.1470     61.3603
   829.5000      0.0000    282.5566     38.4848     62.3804
   829.7500      0.0000    295.1778     34.1811     63.4368
   830.0000      0.0000    314.0262     30.0210     64.8814
   830.2500      0.0000    344.6641     26.3237     66.7809
   830.5000      0.0000    391.6801     22.9838     68.6896
   830.7500      0.0000    454.4526     19.8811     70.2496
   831.0000      0.0000    526.1945     17.1283     71.5756
   831.2500      0.0000    597.0464     14.9625     72.8686
   831.5000      0.0000    657.8740     13.5228     73.9738
   831.7500      0.0000    701.6267     12.8036     74.4087
   832.0000      0.0000    722.6534     12.7757     73.5707
   832.2500      0.0000    716.1158     13.4407     70.9673
   832.5000      0.0000    678.7893     14.7350     66.7077
   832.7500      0.0000    612.2738     16.4573     61.9341
   833.0000      0.0000    527.3485     18.3385     58.4336
   833.2500     -4.0000    443.1639     20.1464     57.4234
   833.5000      0.0000    377.8510     21.7293     58.6501
   833.7500      0.0000    338.4456     23.0286     60.8920
   834.0000      0.0000    319.8963     24.0564     63.4208
   834.2500      0.0000    312.2700     24.7894     66.6697
   834.5000      0.0000    307.9999     25.1216     71.2135
   834.7500      0.0000    304.1914     25.0498     76.3580
   835.0000      0.0000    300.9064     24.8453     80.2383
   835.2500      0.0000    298.7097     24.8638     81.4505
   835.5000      0.0000    297.5804     25.2062     80.2575
   835.7500      0.0000    297.1051     25.6902     77.9332
   836.0000      0.0000    296.9020     26.1274     75.1374
   836.2500      0.0000    296.7619     26.5549     71.3738
   836.5000      0.0000    296.5571     27.2437     66.1131
   836.7500      0.0000    296.0732     28.5382     60.0154
   837.0000      0.0000    294.8796     30.6423     54.7662
   837.2500      0.0000    292.4195     33.4433     51.9381
   837.5000      0.0000    288.5099     36.4739     52.0626
   837.7500      0.0000    284.0394     39.0593     54.4268
   838.0000      0.0000    280.9507     40.6281     57.5461
   838.2500      0.0000    280.8876     41.0418     60.0167
   838.5000      0.0000    283.5894     40.6968     61.1686
   838.7500      0.0000    286.8661     40.2678     61.1813
   839.0000      0.0000    288.2123     40.2843     60.8424
   839.2500      0.0000    286.4324     40.8843     60.9876
   839.5000      0.0000    282.1314     41.8669     61.7824
   839.7500      0.0000    277.0138     42.9131     62.7014
   840.0000      0.0000    272.4877     43.8019     63.4574
   840.2500      0.0000    268.7534     44.5209     64.7739
   840.5000      0.0000    265.3136     45.2460     68.0729
   840.7500      0.0000    262.0495     46.2494     74.3766
   841.0000      0.0000    259.3712     47.7817     83.3138
   841.2500      0.0000    257.5804     49.9080     93.1223
   841.5000      0.0000    256.5589     52.3651    101.6818
   841.7500      0.0000    256.0136     54.6167    107.5360
   842.0000      0.0000    255.7448     56.1191    110.1595
   842.2500      0.0000    255.6656     56.5847    109.8566
   842.5000      0.0000    255.7145     56.0733    107.5868
   842.7500      0.0000    255.8174     54.9132    104.5951
   843.0000      0.0000    255.9110     53.5304    101.9124
   843.2500      0.0000    255.9731     52.2789     99.8789
   843.5000      0.0000    256.0160     51.3437     97.9770
   843.7500      0.0000    256.0621     50.7303     95.4256
   844.0000      0.0000    256.1205     50.3397     92.2132
   844.2500      0.0000    256.1759     50.1084     89.4357
   844.5000      0.0000    256.1990     50.1088     88.4785
   844.7500      0.0000    256.1734     50.5051     89.8117
   845.0000      0.0000    256.1099     51.4162     92.5206
   845.2500      0.0000    256.0286     52.8307     95.0446
   845.5000      0.0000    255.9330     54.6209     96.3871
   845.7500      0.0000    255.8142     56.5903     96.5063
   846.0000      0.0000    255.6778     58.5055     95.8196
   846.2500      0.0000    255.5579     60.1376     94.9076
   846.5000      0.0000    255.4944     61.3292     94.5059
   846.7500      0.0000    255.4977     62.0521     95.0567
   847.0000      0.0000    255.5413     62.4209     96.0049
   847.2500      0.0000    255.5842     62.6426     95.7858
   847.5000      0.0000    255.6025     62.9149     92.8750
   847.7500      0.0000    255.6038     63.3429     87.3028
   848.0000      0.0000    255.6182     63.9298     81.2741
   848.2500      0.0000    255.6698     64.6080     77.8946
   848.5000      0.0000    255.7542     65.2724     78.8234
   848.7500      0.0000    255.8401     65.8526     83.0733
   849.0000      0.0000    255.8880     66.4256     88.0435
   849.2500      0.0000    255.8681     67.2359     91.3818
   849.5000      0.0000    255.7693     68.4986     91.9132
   849.7500      0.0000    255.6094     70.0972     89.6301
   850.0000      0.0000    255.4405     71.5009     85.5518
   850.2500      0.0000    255.3362     72.0790     81.3196
   850.5000      0.0000    255.3545     71.5480     78.1627
   850.7500      0.0000    255.5035     70.1048     76.0760
   851.0000      0.0000    255.7322     68.1852     74.3627
   851.2500      0.0000    255.9545     66.2081     73.0194
   851.5000      0.0000    256.0967     64.5277     73.0161
   851.7500      0.0000    256.1376     63.4279     74.7965
   852.0000      0.0000    256.1094     63.0138     77.0667
   852.2500      0.0000    256.0617     63.1334     77.8352
   852.5000      0.0000    256.0251     63.4800     76.4825
   852.7500      0.0000    256.0046     63.7800     74.2278
   853.0000      0.0000    256.0000     63.8934     72.6136
   853.2500      0.0000    256.0364     63.7798     71.9526
   853.5000      0.0000    256.2221     63.4108     71.3613
   853.7500      0.0000    256.8104     62.7247     69.9695
   854.0000      0.0000    258.2038     61.6298     67.7450
   854.2500      0.0000    260.7587     59.9799     65.1301
   854.5000      0.0000    264.3749     57.5656     62.3335
   854.7500      0.0000    268.2491     54.3224     59.3316
   855.0000      0.0000    271.4221     50.6382     56.3053
   855.2500      0.0000    273.9123     47.2315     53.6596
   855.5000      0.0000    276.9967     44.5911     51.6370
   855.7500      0.0000    281.8595     42.6761     50.1232
   856.0000      0.0000    288.0754     41.1894     48.9164
   856.2500     -4.0000    293.7724     39.9594     48.0640
   856.5000      0.0000    297.0364     39.0931     47.7873
   856.7500      0.0000    296.7960     38.9408     48.0943
   857.0000      0.0000    292.7947     39.8689     48.6160
   857.2500      0.0000    285.5973     41.8366     48.7442
   857.5000      0.0000    276.7976     44.1929     47.8482
   857.7500      0.0000    268.5707     46.1209     45.6293
   858.0000      0.0000    262.5340     47.2809     42.6078
   858.2500      0.0000    259.0258     47.8713     40.1916
