~Version Information
 VERS.                                  2.0 : CWLS LAS VERSION
 WRAP.                                   NO : WRAPING MODE
 SWARE .                 MController 2.5.0E : SOFTWARE VERSION
~Well Information
 WELL.                    Dude canyon 22-32 : WELL
 COMP.    Pioneer Natural Resources USA Inc : COMPANY
 FLD.                      Purgatoire River : FIELD
 LOC.                SE/NW Sec 32 T32S R67W : LOCATION
 DATE.                         3/06-07/2005 : DATE(S) LOGGED
 SRVC.       Blanco Geological Services LLC : SERVICE COMPANY
 STAT.                                   CO : STATE
 CNTY.                           Las Animas : COUNTY
 CTRY.                                  USA : COUNTRY
 API.                       05-071-08257-00 : API NUMBER
 STRT.FT                             494.00 : START DEPTH
 STOP.FT                            2760.00 : STOP DEPTH
 STEP.FT                               1.00 : DEPTH INCREMENT
 NULL.                                -9999 : NULL VALUE
~Curve information
 DEPTH.FT                                   :
 ROP.MIN/FT                                 :
 GAS.UNITS                                  :
~ASCII Log data
      494.00    -9999.000          5.7 
      495.00        1.267          6.0 
      496.00        0.767          5.9 
      497.00        0.867          5.9 
      498.00        0.850          5.5 
      499.00        0.800          5.6 
      500.00        0.767          5.7 
      501.00        0.733          5.7 
      502.00        0.717          5.9 
      503.00        0.667          5.8 
      504.00        0.633          5.8 
      505.00        0.633          6.2 
      506.00        0.633          6.1 
      507.00        0.617          6.0 
      508.00        0.633          6.4 
      509.00        0.600          6.6 
      510.00        0.567          6.5 
      511.00        0.600          6.0 
      512.00        0.533          5.6 
      513.00        0.550          4.4 
      514.00        0.533          3.5 
      515.00        0.533          4.7 
      516.00        0.533          5.2 
      517.00        0.500          4.6 
      518.00        0.867          3.8 
      519.00        9.650          6.7 
      520.00        0.617          6.8 
      521.00        0.500          6.7 
      522.00        0.467          7.6 
      523.00        0.433          7.3 
      524.00        0.400          7.1 
      525.00        0.367          6.0 
      526.00        0.400          5.7 
      527.00        0.333          5.1 
      528.00        0.417          4.8 
      529.00        0.400          5.0 
      530.00        0.500          5.0 
      531.00      101.717          6.7 
      532.00        0.300          5.5 
      533.00        0.367          5.2 
      534.00        0.367          5.3 
      535.00        0.367          5.1 
      536.00        0.417          5.3 
      537.00        0.367          5.2 
      538.00        0.367          5.4 
      539.00        0.367          5.2 
      540.00        0.433          5.2 
      541.00        0.333          5.1 
      542.00        0.500          5.3 
      543.00        0.467          5.3 
      544.00        0.450          5.3 
      545.00        0.367          5.3 
      546.00        0.300          5.3 
      547.00        0.367          5.1 
      548.00        0.433          5.4 
      549.00        0.367          5.7 
      550.00        5.767          6.3 
      551.00        0.300          5.2 
      552.00        0.300          5.0 
      553.00        0.333          4.9 
      554.00        0.333          5.4 
      555.00        0.367         81.5 
      556.00        0.300         82.4 
      557.00        0.267         47.1 
      558.00        0.250         22.4 
      559.00        0.300         10.7 
      560.00        0.233          5.8 
      561.00        0.333          4.5 
      562.00        0.367          4.2 
      563.00        0.367          4.1 
      564.00        0.467          4.3 
      565.00        0.467          4.2 
      566.00        0.433          4.7 
      567.00        0.483          4.8 
      568.00        0.533          4.8 
      569.00        0.533          4.5 
      570.00        6.800          5.4 
      571.00        0.367          4.1 
      572.00        0.267          4.3 
      573.00        0.400          4.0 
      574.00        0.400          4.0 
      575.00        0.400          4.0 
      576.00        0.417          4.1 
      577.00        0.367          4.2 
      578.00        0.367          3.9 
      579.00        0.300          3.9 
      580.00        0.333          4.0 
      581.00        0.433          4.0 
      582.00        0.467          4.2 
      583.00        0.400          4.2 
      584.00        0.333          4.2 
      585.00        0.283          4.1 
      586.00        0.300          4.6 
      587.00        0.300          5.8 
      588.00        0.333          7.6 
      589.00        0.400          8.8 
      590.00        0.400          9.7 
      591.00        0.400          7.9 
      592.00        0.367          5.1 
      593.00        0.433          4.2 
      594.00        0.450          4.4 
      595.00        0.300          3.9 
      596.00        0.267          4.2 
      597.00        0.233          3.8 
      598.00        0.267          4.2 
      599.00        0.300          4.2 
      600.00        5.233          4.8 
      601.00        0.267          3.6 
      602.00        0.267          3.9 
      603.00        0.267          4.1 
      604.00        0.233          4.2 
      605.00        0.300          3.9 
      606.00        0.267          3.8 
      607.00        0.233          4.1 
      608.00        0.300          4.0 
      609.00        0.333          4.1 
      610.00        0.300          4.3 
      611.00        0.517          8.9 
      612.00        0.633         13.1 
      613.00        0.333          8.7 
      614.00        0.133          5.5 
      615.00        0.333          4.9 
      616.00        0.433          4.4 
      617.00        0.400          4.5 
      618.00        0.267          4.4 
      619.00        0.300          4.6 
      620.00        0.333          4.0 
      621.00        0.483          4.2 
      622.00        0.333          4.4 
      623.00        0.333          4.4 
      624.00        0.267          4.3 
      625.00        0.200          4.6 
      626.00        0.167          4.6 
      627.00        0.200          4.5 
      628.00        0.233          4.7 
      629.00        0.233          5.0 
      630.00        6.200          7.4 
      631.00        0.267          3.7 
      632.00        0.333          3.9 
      633.00        0.333          3.6 
      634.00        0.300          3.8 
      635.00        0.317          3.8 
      636.00        0.333          4.0 
      637.00        0.333          4.0 
      638.00        0.633          4.3 
      639.00        0.200          4.0 
      640.00        0.333          3.9 
      641.00        0.300          3.7 
      642.00        0.333          3.6 
      643.00        0.300          3.9 
      644.00        0.433          3.9 
      645.00        0.417          3.7 
      646.00        0.233          3.7 
      647.00        0.300          3.6 
      648.00        0.300          3.4 
      649.00        0.267          3.3 
      650.00        0.167          3.3 
      651.00        0.300          3.4 
      652.00        0.200          3.4 
      653.00        0.300          3.7 
      654.00        0.300          3.7 
      655.00        0.267          3.6 
      656.00        0.267          3.5 
      657.00        0.283          3.7 
      658.00        0.333          3.6 
      659.00        0.333          3.8 
      660.00        5.650          5.2 
      661.00        0.483          3.5 
      662.00        0.333          3.8 
      663.00        0.333          3.4 
      664.00        0.300          3.7 
      665.00        0.300          3.2 
      666.00        0.333          3.2 
      667.00        0.333          3.2 
      668.00        0.400          3.4 
      669.00        0.200          3.1 
      670.00        0.267          3.1 
      671.00        0.217          3.4 
      672.00        0.300          3.0 
      673.00        0.333          3.1 
      674.00        0.267          3.3 
      675.00        0.267          3.1 
      676.00        0.300          3.1 
      677.00        0.333          3.3 
      678.00        0.467          6.3 
      679.00        0.267          7.3 
      680.00        0.267          7.4 
      681.00        0.267          6.1 
      682.00        0.350          4.4 
      683.00        0.367          4.0 
      684.00        0.367          3.9 
      685.00        0.400          3.8 
      686.00        0.367          3.9 
      687.00        0.167          4.2 
      688.00        0.267          4.1 
      689.00        0.400          5.0 
      690.00        4.217          8.2 
      691.00        0.383          7.0 
      692.00        0.200          7.0 
      693.00        0.233          6.7 
