~Version Information
VERS.                      2.0: CWLS Log ASCII Standard - VERSION 2.0
WRAP.                       NO: One line per depth step
~Well Information Block
STRT.FT                -3.0000: 
STOP.FT              2043.2500: 
STEP.FT                 0.2500: 
NULL.                -999.2500: 
COMP.          Pioneer Natural Resources: COMPANY
WELL.           Galloway 32-13: WELL
FLD.           Purgatorie River: FIELD
LOC.           1809' FNL & 2004' FEL--: LOCATION
PROV.                       CO: PROVINCE
CNTY.               Las Animas: COUNTRY
SRVC.          Patterson Wireline: SERVICE COMPANY
DATE.          Thu Jul 14 13:02:15 2005: LOG DATE
UWI.           05 071 08423 00: UNIQUE WELL ID
~Curve Information Block
DEPT.FT            0 000 00 00: Depth
CCL.                          : Casing Collar Locator
TT3.usec                      : CBL 3' Travel Time
AMP3.mV                       : CBL 3' Amplitude
GR.GAPI                       : Gamma Ray
~Parameter Information Block
~A  Depth       CCL         TT3         AMP3         GR     
# ...
   935.0000      0.0000    759.7765      7.2445    131.0696
   935.2500      0.0000    765.2429      7.2027    137.1585
   935.5000      0.0000    768.4257      7.2177    141.9036
   935.7500      0.0000    773.8976      7.2811    142.7434
   936.0000      0.0000    784.2665      7.3493    139.2178
   936.2500      0.0000    797.7513      7.3785    132.9047
   936.5000      0.0000    810.1302      7.3552    126.2323
   936.7500      0.0000    819.1023      7.2934    121.3576
   937.0000      0.0000    825.7905      7.2037    119.5073
   937.2500      0.0000    831.1198      7.0745    120.6549
   937.5000      0.0000    831.9891      6.8920    123.5997
   937.7500      0.0000    823.1339      6.6739    126.5031
   938.0000      0.0000    803.2711      6.4673    127.7544
   938.2500      0.0000    778.2953      6.3110    126.8555
   938.5000      0.0000    757.0758      6.2034    124.6565
   938.7500      0.0000    743.8680      6.1068    122.5739
   939.0000      0.0000    735.6076      5.9813    121.6196
   939.2500      0.0000    726.7291      5.8215    122.1921
   939.5000      0.0000    715.2892      5.6558    124.1634
   939.7500      0.0000    704.0228      5.5071    126.5555
   940.0000      0.0000    697.3142      5.3650    127.5057
   940.2500      0.0000    698.9890      5.1994    125.3324
   940.5000      0.0000    711.7761      4.9862    119.8171
   940.7500      0.0000    735.5063      4.7113    112.2804
   941.0000      0.0000    764.1580      4.3740    104.6774
   941.2500      0.0000    787.0870      4.0070     98.9043
   941.5000      0.0000    796.8118      3.6767     96.5399
   941.7500      0.0000    795.4390      3.4381     98.4637
   942.0000      0.0000    790.8221      3.2878    104.3803
   942.2500      0.0000    787.0057      3.1780    112.8817
   942.5000      0.0000    781.5349      3.0767    122.1868
   942.7500      0.0000    771.5255      2.9963    130.7141
   943.0000      0.0000    758.2921      2.9657    136.8946
   943.2500      0.0000    744.8687      2.9897    139.1597
   943.5000      0.0000    732.0536      3.0469    136.8850
   943.7500      0.0000    718.9265      3.1155    131.0750
   944.0000      0.0000    705.4572      3.1926    123.6928
   944.2500      0.0000    692.6350      3.2897    116.5901
   944.5000      0.0000    680.7014      3.4146    110.9827
   944.7500      0.0000    668.8437      3.5619    107.2146
   945.0000      0.0000    657.1483      3.7164    104.8974
   945.2500      0.0000    648.6467      3.8639    103.7745
   945.5000      0.0000    648.5592      3.9968    104.3379
   945.7500      0.0000    660.3563      4.1113    107.0242
   946.0000      0.0000    682.3685      4.2045    111.0343
   946.2500      0.0000    708.4834      4.2822    114.6713
   946.5000      0.0000    731.7787      4.3588    116.8073
   946.7500      0.0000    747.6271      4.4371    117.6568
   947.0000      0.0000    754.8295      4.4918    118.3919
   947.2500      0.0000    755.1964      4.4877    120.4758
   947.5000      0.0000    752.0885      4.4108    124.8980
   947.7500      0.0000    748.4677      4.2698    131.0578
   948.0000      0.0000    745.6792      4.0791    136.3036
   948.2500      0.0000    743.7408      3.8604    137.3665
   948.5000      0.0000    742.1458      3.6532    132.6048
   948.7500      0.0000    740.2690      3.5014    122.7856
   949.0000      0.0000    738.1669      3.4210    110.0754
   949.2500      0.0000    737.8218      3.3911     96.6903
   949.5000      0.0000    742.2779      3.3787     84.3059
   949.7500      0.0000    752.1073      3.3664     74.2518
   950.0000      0.0000    763.5566      3.3564     67.7534
   950.2500      0.0000    771.5638      3.3512     65.6403
   950.5000      0.0000    773.9791      3.3412     67.9328
   950.7500      0.0000    772.1033      3.3134     73.8215
   951.0000      0.0000    768.4286      3.2679     81.6024
   951.2500      0.0000    764.6815      3.2212     88.4605
   951.5000      0.0000    760.7457      3.1966     91.1305
   951.7500      0.0000    754.8733      3.2137     87.7949
   952.0000      0.0000    746.0707      3.2844     79.5260
   952.2500      0.0000    736.6722      3.4110     69.5485
   952.5000      0.0000    731.8224      3.5825     60.9577
   952.7500      0.0000    735.7667      3.7725     55.0789
   953.0000      0.0000    748.0418      3.9480     51.5300
   953.2500      0.0000    762.8583      4.0869     49.1564
   953.5000      0.0000    773.0549      4.1895     46.9558
   953.7500      0.0000    775.9500      4.2720     44.7872
   954.0000      0.0000    775.2271      4.3444     43.4841
   954.2500      0.0000    776.6318      4.3988     44.1432
   954.5000      0.0000    782.4582      4.4175     47.3969
   954.7500      0.0000    790.6943      4.3922     53.4053
   955.0000      0.0000    798.2700      4.3313     62.0488
   955.2500      0.0000    803.6140      4.2543     72.7308
   955.5000      0.0000    806.2657      4.1825     84.1713
   955.7500      0.0000    805.2726      4.1317     94.7386
   956.0000      0.0000    798.6075      4.1048    103.0845
   956.2500      0.0000    784.0175      4.0911    108.5657
   956.5000      0.0000    760.1331      4.0759    111.4098
   956.7500      0.0000    726.7708      4.0559    112.6757
   957.0000      0.0000    685.0578      4.0439    113.7201
   957.2500      0.0000    638.4457      4.0573    115.3232
   957.5000      0.0000    593.4439      4.0937    117.4961
   957.7500      0.0000    557.9316      4.1232    120.1214
   958.0000      0.0000    538.2443      4.1113    123.2236
   958.2500      0.0000    537.8427      4.0518    126.5150
   958.5000      0.0000    557.0709      3.9748    129.1391
   958.7500      0.0000    592.0931      3.9241    129.8109
   959.0000      0.0000    634.8069      3.9294    126.9428
   959.2500      0.0000    676.4114      3.9947    119.2260
   959.5000      0.0000    711.8713      4.1022    107.0511
   959.7500      0.0000    739.8716      4.2227     93.2770
   960.0000      0.0000    759.1244      4.3212     81.4961
   960.2500      0.0000    767.4094      4.3629     73.0779
   960.5000      0.0000    765.2999      4.3317     66.5907
   960.7500      0.0000    758.9135      4.2522     60.2766
   961.0000      0.0000    756.3679      4.1777     54.2590
   961.2500      0.0000    760.7792      4.1429     50.0572
   961.5000      0.0000    767.6465      4.1387     48.8666
   961.7500      0.0000    769.5538      4.1410     50.9424
   962.0000      0.0000    762.7027      4.1456     55.9925
   962.2500      0.0000    749.1253      4.1592     63.2152
   962.5000      0.0000    734.7322      4.1705     71.1369
   962.7500      0.0000    726.1178      4.1535     78.3701
   963.0000      0.0000    727.4316      4.0965     84.8341
   963.2500      0.0000    738.2357      4.0181     91.8602
   963.5000      0.0000    753.4836      3.9560    100.8694
   963.7500      0.0000    765.7368      3.9393    111.8219
   964.0000      0.0000    768.9271      3.9645    122.7120
   964.2500      0.0000    761.9856      4.0021    130.4840
   964.5000      0.0000    749.8304      4.0303    132.7670
   964.7500      0.0000    740.3585      4.0586    129.4338
   965.0000      0.0000    739.3500      4.1141    122.8552
   965.2500      0.0000    747.1783      4.2114    116.2704
   965.5000      0.0000    759.6060      4.3399    111.7040
   965.7500      0.0000    771.4353      4.4732    109.5275
   966.0000      0.0000    779.2504      4.5811    109.4401
   966.2500      0.0000    781.2505      4.6411    111.0112
   966.5000      0.0000    776.5438      4.6414    113.2917
   966.7500      0.0000    766.5494      4.5820    114.5623
   967.0000      0.0000    756.2379      4.4748    112.9187
   967.2500      0.0000    751.3091      4.3441    107.3856
   967.5000      0.0000    752.9971      4.2192     98.7516
   967.7500      0.0000    756.7811      4.1228     89.3438
   968.0000      0.0000    757.3599      4.0589     81.6032
   968.2500      0.0000    754.0948      4.0145     76.6451
