~Version Information
VERS.                      2.0: CWLS Log ASCII Standard - VERSION 2.0
WRAP.                       NO: One line per depth step
~Well Information Block
STRT.FT               650.0000: 
STOP.FT              2085.0000: 
STEP.FT                 0.1000: 
NULL.                -999.2500: 
COMP.          Pioneer Natural Resources: COMPANY
WELL.           Galloway 32-13: WELL
FLD.           Purgatoire River: FIELD
LOC.           1809' FNL & 2004' FEL: LOCATION
PROV.                 Colorado: PROVINCE
CNTY.               Las Animas: COUNTRY
SRVC.                Patterson: SERVICE COMPANY
DATE.          Sat Jul 09 02:17:51 2005: LOG DATE
UWI.           05 071 08423 00: UNIQUE WELL ID
~Curve Information Block
DEPT.FT            0 000 00 00: Depth
DCAL.in                       : CDL Caliper
RHOB.g/cc                     : CDL Bulk Density
RHOC.g/cc                     : CDL Density Correction
DPOR.pu                       : CDL Density Porosity
GR.GAPI                       : Gamma Ray
NPOR.pu                       : Neutron Porosity
~Parameter Information Block
~A  Depth       DCAL        RHOB        RHOC        DPOR         GR         NPOR    
# ...
  1216.4000      8.0434      2.4808      0.1177     10.2561     87.0238     22.5658
  1216.5000      8.0303      2.4736      0.0734     10.6925     80.8939     22.0087
  1216.6000      8.0303      2.4744      0.1303     10.6427     79.8534     21.9357
  1216.7000      8.0303      2.4802      0.0892     10.2926     79.8087     22.3290
  1216.8000      7.9993      2.4680      0.1134     11.0329     80.6813     22.5732
  1216.9000      7.9993      2.4373      0.0588     12.8922     81.1568     22.3421
  1217.0000      7.9841      2.4091      0.0374     14.6012     77.9084     22.2566
  1217.1000      7.9841      2.3915     -0.0027     15.6649     75.0273     22.6340
  1217.2000      7.9841      2.3861      0.0261     15.9937     76.2405     22.3847
  1217.3000      7.9890      2.3993      0.0139     15.1957     78.4499     21.5175
  1217.4000      7.9890      2.4290      0.0526     13.3943     79.3471     21.2804
  1217.5000      7.9892      2.4647      0.0582     11.2277     78.9934     21.9441
  1217.6000      7.9892      2.4991      0.1005      9.1477     76.9960     23.1083
  1217.7000      7.9892      2.5177      0.1354      8.0185     74.1224     24.5643
  1217.8000      7.9826      2.5055      0.1529      8.7602     72.7733     25.9357
  1217.9000      7.9826      2.4714      0.0917     10.8249     72.3104     26.5575
  1218.0000      7.9915      2.4491      0.0537     12.1751     68.4694     26.8494
  1218.1000      7.9915      2.4541      0.0628     11.8710     61.3392     27.6050
  1218.2000      7.9915      2.4668      0.0723     11.1004     56.8486     28.6280
  1218.3000      8.0611      2.4686      0.0713     10.9952     56.6511     28.8820
  1218.4000      8.0611      2.4594      0.0792     11.5539     55.9733     27.9592
  1218.5000      8.1641      2.4477      0.0199     12.2614     53.7935     26.8017
  1218.6000      8.1641      2.4379      0.0330     12.8543     56.2100     25.8648
  1218.7000      8.1641      2.4262      0.0565     13.5651     63.3080     25.1855
  1218.8000      8.1762      2.4123     -0.0082     14.4084     68.0941     25.4110
  1218.9000      8.1762      2.3966      0.0370     15.3602     68.5451     26.0887
  1219.0000      8.1081      2.3784      0.0329     16.4615     66.9648     26.1712
  1219.1000      8.1081      2.3710     -0.0651     16.9116     66.7994     25.9283
  1219.2000      8.1081      2.3778     -0.0025     16.4978     71.9174     25.6422
  1219.3000      8.0825      2.3757      0.0078     16.6218     78.0037     25.0682
  1219.4000      8.0825      2.3546      0.0235     17.9007     77.3063     24.4666
  1219.5000      8.1583      2.3272     -0.0098     19.5665     73.2124     24.3151
  1219.6000      8.1583      2.3021      0.0162     21.0823     72.4605     24.4815
  1219.7000      8.1583      2.2873     -0.0433     21.9801     74.1370     25.1346
  1219.8000      8.3285      2.2945     -0.0183     21.5427     76.3838     26.4558
  1219.9000      8.3285      2.3163      0.0578     20.2263     81.1733     27.5129
  1220.0000      8.4477      2.3378      0.0256     18.9218     87.8802     27.5541
  1220.1000      8.4477      2.3675      0.0517     17.1240     93.0215     26.9913
  1220.2000      8.4477      2.4149      0.1312     14.2497     95.3796     26.6569
  1220.3000      8.3888      2.4604      0.2040     11.4905     95.2096     26.2080
  1220.4000      8.3888      2.4782      0.1536     10.4142     95.6054     24.9522
  1220.5000      8.2798      2.4695      0.1373     10.9415     97.5911     23.9487
  1220.6000      8.2798      2.4534      0.1417     11.9159     97.1085     24.1490
  1220.7000      8.2798      2.4534      0.0785     11.9177     94.2043     24.9079
  1220.8000      8.1831      2.4858      0.0386      9.9545     90.9009     25.1020
  1220.9000      8.1831      2.5295      0.0886      7.3037     86.4789     24.8227
  1221.0000      8.1119      2.5413      0.0652      6.5864     80.3797     24.6841
  1221.1000      8.1119      2.5149      0.0598      8.1871     75.7223     24.2629
  1221.2000      8.1119      2.4847      0.0114     10.0156     75.8513     22.9755
  1221.3000      8.0611      2.4756      0.0775     10.5673     78.0566     21.2053
  1221.4000      8.0611      2.4814      0.0117     10.2196     80.2156     20.2544
  1221.5000      8.0116      2.4889      0.0541      9.7659     84.7139     20.6168
  1221.6000      8.0116      2.4942      0.0444      9.4413     89.9903     21.2683
  1221.7000      8.0116      2.5014      0.0714      9.0074     93.2068     21.5832
  1221.8000      7.9789      2.5116      0.0835      8.3872     95.4203     21.8363
  1221.9000      7.9789      2.5211      0.0659      7.8139     96.3632     22.2465
  1222.0000      7.9682      2.5204      0.0682      7.8554     96.2747     22.9673
  1222.1000      7.9682      2.5040      0.0542      8.8491     95.4100     23.6598
  1222.2000      7.9682      2.4818      0.0270     10.1954     92.6519     24.1728
  1222.3000      7.9686      2.4645      0.0261     11.2451     89.4075     24.4424
  1222.4000      7.9686      2.4571      0.0357     11.6928     87.6591     23.7354
  1222.5000      7.9674      2.4664      0.0128     11.1275     86.1134     22.2090
  1222.6000      7.9674      2.4904      0.0567      9.6745     84.0503     21.3866
  1222.7000      7.9674      2.5051      0.0852      8.7792     82.6580     21.5933
  1222.8000      7.9655      2.4899      0.0358      9.7023     82.2044     21.6749
  1222.9000      7.9655      2.4632      0.0278     11.3240     84.0161     21.1780
  1223.0000      7.9655      2.4591      0.0270     11.5681     88.5832     20.5145
  1223.1000      7.9655      2.4799      0.0720     10.3092     92.0442     20.1873
  1223.2000      7.9655      2.5006      0.0732      9.0550     92.6281     20.8691
  1223.3000      7.9650      2.5104      0.0484      8.4627     94.4941     22.5076
  1223.4000      7.9650      2.5196      0.0196      7.9008     97.9441     23.7132
  1223.5000      7.9689      2.5339      0.0560      7.0385     97.4637     23.9632
  1223.6000      7.9689      2.5401      0.0737      6.6598     93.6222     24.3974
  1223.7000      7.9689      2.5321      0.0584      7.1475     91.1420     25.3647
  1223.8000      7.9751      2.5210      0.0372      7.8204     90.8374     25.1139
  1223.9000      7.9751      2.5159      0.0427      8.1272     92.3164     22.8519
  1224.0000      7.9780      2.5195      0.0234      7.9093     95.7771     20.7198
  1224.1000      7.9780      2.5311      0.0250      7.2074     99.7574     20.1911
  1224.2000      7.9780      2.5371      0.0687      6.8444    101.0494     20.9487
  1224.3000      7.9784      2.5246      0.0572      7.6015    100.2914     22.1020
  1224.4000      7.9784      2.5058      0.0316      8.7420     99.7831     22.7238
  1224.5000      7.9776      2.4931      0.0616      9.5082     96.3200     22.5656
  1224.6000      7.9776      2.4794      0.0250     10.3384     90.6935     21.7920
  1224.7000      7.9776      2.4626     -0.0042     11.3560     87.0792     21.2525
  1224.8000      7.9746      2.4492      0.0170     12.1674     84.2415     21.7179
  1224.9000      7.9746      2.4448      0.0233     12.4380     80.7670     22.2703
  1225.0000      7.9709      2.4552      0.0450     11.8047     79.0798     22.2142
  1225.1000      7.9709      2.4761      0.0839     10.5403     80.0239     22.4143
  1225.2000      7.9709      2.4894      0.0531      9.7327     82.1766     23.1802
  1225.3000      7.9693      2.4855      0.0549      9.9669     84.2032     24.0875
  1225.4000      7.9693      2.4730      0.0474     10.7281     84.8258     24.7295
  1225.5000      7.9705      2.4629      0.0082     11.3384     85.7376     24.1502
  1225.6000      7.9705      2.4577      0.0360     11.6540     87.4806     22.1402
  1225.7000      7.9705      2.4599      0.0163     11.5226     89.2881     20.1296
  1225.8000      7.9746      2.4752     -0.0014     10.5958     91.8613     19.5144
  1225.9000      7.9746      2.4978      0.0491      9.2218     92.7272     20.3809
