~Version Information
VERS.                      2.0: CWLS Log ASCII Standard - VERSION 2.0
WRAP.                       NO: One line per depth step
~Well Information Block
STRT.FT               460.0000: 
STOP.FT               961.2000: 
STEP.FT                 0.1000: 
NULL.                -999.2500: 
COMP.          Pioneer Natural Resources: COMPANY
WELL.                Pug 33-19: WELL
FLD.           Purgatoire River: FIELD
LOC.           1381' FSL & 2140' FEL: LOCATION
PROV.                 Colorado: PROVINCE
CNTY.               Las Animas: COUNTRY
SRVC.                Patterson: SERVICE COMPANY
DATE.          Wed Dec 15 07:19:20 2004: LOG DATE
UWI.           05 071 08193 00: UNIQUE WELL ID
~Curve Information Block
DEPT.FT            0 000 00 00: Depth
DCAL.in                       : CDL Caliper
RHOB.g/cc                     : CDL Bulk Density
RHOC.g/cc                     : CDL Density Correction
DPOR.pu                       : CDL Density Porosity
NPOR.pu                       : Neutron Porosity
GR.GAPI                       : Gamma Ray
~Parameter Information Block
~A  Depth       DCAL        RHOB        RHOC        DPOR        NPOR         GR     
# ...
   584.8000      7.9698      2.5823      0.1246      4.1031     22.0007    106.6614
   584.9000      7.9698      2.5771      0.1270      4.4212     22.7719    110.1182
   585.0000      7.9701      2.5631      0.1240      5.2654     23.6613    112.8252
   585.1000      7.9701      2.5435      0.0908      6.4570     24.1252    109.1604
   585.2000      7.9701      2.5247      0.0899      7.5952     24.3652    102.3876
   585.3000      7.9700      2.5160      0.0376      8.1194     25.0683     99.3012
   585.4000      7.9700      2.5209      0.0694      7.8249     26.2982     99.3510
   585.5000      7.9699      2.5259      0.0648      7.5217     27.1848    101.0007
   585.6000      7.9699      2.5181      0.0691      7.9961     27.2845    106.8270
   585.7000      7.9699      2.5011      0.0332      9.0224     27.3560    113.9037
   585.8000      7.9693      2.4844      0.0713     10.0334     28.0211    117.4038
   585.9000      7.9693      2.4744      0.0406     10.6422     28.9515    117.7079
   586.0000      7.9677      2.4699      0.0999     10.9135     29.6401    118.2102
   586.1000      7.9677      2.4550      0.0884     11.8194     29.9500    123.3714
   586.2000      7.9677      2.4228      0.0266     13.7719     29.9500    131.0325
   586.3000      7.9674      2.3850      0.0629     16.0587     29.7321    133.1487
   586.4000      7.9674      2.3542      0.0184     17.9302     29.4207    130.0292
   586.5000      7.9690      2.3401      0.0127     18.7828     29.5063    126.9984
   586.6000      7.9690      2.3374      0.0616     18.9456     30.3394    124.0200
   586.7000      7.9690      2.3253      0.0724     19.6805     31.3584    121.5232
   586.8000      7.9689      2.2947      0.0446     21.5361     31.9243    123.6590
   586.9000      7.9689      2.2554      0.0202     23.9147     32.1064    125.7325
   587.0000      7.9674      2.2169     -0.0036     26.2467     32.4665    120.3680
   587.1000      7.9674      2.1737      0.0317     28.8685     33.4076    109.9918
   587.2000      7.9674      2.1108      0.0209     32.6774     34.2864    101.1665
   587.3000      7.9679      2.0259     -0.0285     37.8247     34.2929     98.4362
   587.4000      7.9679      1.9318     -0.0543     43.5303     33.6082     99.0654
   587.5000      7.9702      1.8381     -0.0632     49.2061     32.8315     97.5817
   587.6000      7.9702      1.7489     -0.0705     54.6120     32.2149     95.2644
   587.7000      7.9702      1.6768     -0.1030     58.9836     32.0542     94.2374
   587.8000      7.9768      1.6398     -0.0699     61.2222     32.3828     93.2791
   587.9000      7.9768      1.6484     -0.0460     60.7019     32.3092     92.9748
   588.0000      7.9965      1.7048      0.0410     57.2872     31.2240     93.7359
   588.1000      7.9965      1.7978      0.1675     51.6506     29.3901     91.8884
   588.2000      7.9965      1.9056      0.1952     45.1149     27.3814     86.3458
   588.3000      8.0247      2.0159      0.2415     38.4305     25.9575     82.2217
   588.4000      8.0247      2.1253      0.2700     31.8004     25.3609     82.3110
   588.5000      8.0364      2.2293      0.2695     25.4997     24.7728     83.6815
   588.6000      8.0364      2.3242      0.2746     19.7472     23.7047     84.4780
   588.7000      8.0364      2.4051      0.2734     14.8396     22.8644     85.7502
   588.8000      8.0162      2.4667      0.2219     11.1101     22.5985     87.6656
   588.9000      8.0162      2.5064      0.1985      8.7008     22.5775     90.6346
   589.0000      7.9761      2.5229      0.1444      7.7034     22.5775     93.4267
   589.1000      7.9761      2.5254      0.0831      7.5496     22.5678     93.0127
   589.2000      7.9761      2.5352      0.0909      6.9550     22.4259     88.4210
   589.3000      7.9509      2.5615      0.0523      5.3644     22.0355     84.8683
   589.4000      7.9509      2.5884      0.1072      3.7325     22.0875     89.5413
   589.5000      7.9442      2.5999      0.0557      3.0355     23.0557     99.8009
   589.6000      7.9442      2.6024      0.0612      2.8838     24.3419    106.1982
   589.7000      7.9442      2.6052      0.0835      2.7176     25.3230    104.7897
   589.8000      7.9438      2.6117      0.0895      2.3220     25.5074     99.5428
   589.9000      7.9438      2.6210      0.0998      1.7598     25.1096     97.5968
   590.0000      7.9445      2.6219      0.0914      1.7040     25.2774    101.6007
   590.1000      7.9445      2.6049      0.0823      2.7332     26.1219    104.2929
   590.2000      7.9445      2.5744      0.0814      4.5802     26.6469    103.5419
   590.3000      7.9454      2.5413      0.0584      6.5853     26.6306    106.4713
   590.4000      7.9454      2.5145      0.0221      8.2116     26.6539    113.3583
   590.5000      7.9460      2.4917      0.0630      9.5934     26.9217    116.4780
   590.6000      7.9460      2.4598      0.0066     11.5278     27.4710    111.2630
   590.7000      7.9460      2.4207      0.0078     13.8957     28.3065    105.1137
   590.8000      7.9452      2.3960     -0.0401     15.3959     29.2572    105.8953
   590.9000      7.9452      2.3997     -0.0035     15.1667     30.0764    112.0598
   591.0000      7.9463      2.4203      0.0708     13.9238     30.4218    122.8651
   591.1000      7.9463      2.4368      0.0533     12.9212     30.0801    136.8686
   591.2000      7.9463      2.4467      0.0514     12.3228     29.3521    146.4027
   591.3000      7.9476      2.4567      0.0703     11.7175     28.9556    146.6397
   591.4000      7.9476      2.4625      0.0879     11.3665     29.1184    140.6935
   591.5000      7.9438      2.4559      0.0796     11.7610     29.3968    135.4697
   591.6000      7.9438      2.4417      0.0682     12.6272     29.4262    135.3206
   591.7000      7.9438      2.4290      0.1025     13.3941     29.5437    138.3490
   591.8000      7.9398      2.4194      0.0717     13.9729     30.2157    137.4137
   591.9000      7.9398      2.4086      0.0677     14.6322     30.8602    130.4929
   592.0000      7.9391      2.3970      0.0424     15.3305     30.6921    126.2792
   592.1000      7.9391      2.3948      0.0533     15.4656     30.1997    130.1293
   592.2000      7.9391      2.4068      0.0681     14.7368     29.9225    136.9195
   592.3000      7.9384      2.4259      0.1103     13.5802     29.6700    138.6420
   592.4000      7.9384      2.4425      0.1389     12.5771     29.3921    134.3816
   592.5000      7.9378      2.4573      0.1536     11.6809     29.4007    129.1346
   592.6000      7.9378      2.4755      0.1741     10.5787     29.6773    124.0404
   592.7000      7.9378      2.4956      0.1587      9.3604     29.6833    118.7916
   592.8000      7.9406      2.5046      0.1729      8.8116     29.2047    116.5258
   592.9000      7.9406      2.4880      0.1050      9.8154     28.8116    118.1893
   593.0000      7.9437      2.4556      0.0828     11.7820     29.2582    121.6734
   593.1000      7.9437      2.4355      0.0617     12.9985     30.0757    126.1444
   593.2000      7.9437      2.4386      0.1050     12.8115     30.1328    128.8481
   593.3000      7.9447      2.4520      0.0902     11.9989     29.6398    127.6214
   593.4000      7.9447      2.4650      0.0900     11.2115     29.3829    123.7554
   593.5000      7.9447      2.4765      0.0764     10.5140     29.3928    119.9329
   593.6000      7.9447      2.4859      0.0834      9.9446     29.4729    120.2848
   593.7000      7.9447      2.4906      0.0545      9.6588     29.4450    125.6131
   593.8000      7.9444      2.4886      0.0807      9.7826     29.2593    129.4441
   593.9000      7.9444      2.4773      0.0751     10.4681     29.0700    126.0495
   594.0000      7.9435      2.4621      0.0445     11.3909     28.8772    119.9818
   594.1000      7.9435      2.4513      0.0909     12.0396     28.6514    118.9488
   594.2000      7.9435      2.4436      0.0725     12.5077     28.7143    123.4775
   594.3000      7.9423      2.4387      0.0421     12.8079     29.1952    127.3219
