~Version Information
VERS.                      2.0: CWLS Log ASCII Standard - VERSION 2.0
WRAP.                       NO: One line per depth step
~Well Information Block
STRT.FT               710.0000: 
STOP.FT              2304.5000: 
STEP.FT                 0.2500: 
NULL.                -999.2500: 
COMP.          Pioneer Natural Resources: COMPANY
WELL.           Ogallela 44-12: WELL
FLD.           Purgatoire River: FIELD
LOC.           610' FSL & 671' FEL: LOCATION
PROV.                 Colorado: PROVINCE
CNTY.               Las Animas: COUNTRY
SRVC.                Patterson: SERVICE COMPANY
DATE.          Wed Feb 23 00:14:59 2005: LOG DATE
UWI.           05 071 08283 00: UNIQUE WELL ID
~Curve Information Block
DEPT.FT            0 000 00 00: Depth
SN.Ohm-m                      : IEL Short Normal
SP.mV                         : IEL Spontaneous Potential
DIR.Ohm-m                     : IEL Induction Resistivity
GR.GAPI                       : Gamma Ray
~Parameter Information Block
~A  Depth        SN          SP         DIR          GR     
# ...
  1246.0000     16.2486    -76.6980     13.1937    125.6891
  1246.2500     15.5778    -76.6278     12.9142    131.6165
  1246.5000     14.8177    -76.6017     12.7206    140.8419
  1246.7500     14.1373    -76.6216     12.5986    146.2605
  1247.0000     13.6464    -76.6725     12.5344    151.9633
  1247.2500     13.4081    -76.7258     12.5175    153.8173
  1247.5000     13.4166    -76.7515     12.5401    153.7257
  1247.7500     13.5874    -76.7318     12.5951    151.7788
  1248.0000     13.8194    -76.6674     12.6761    145.8849
  1248.2500     14.0696    -76.5751     12.7779    140.1725
  1248.5000     14.3586    -76.4780     12.8999    130.3072
  1248.7500     14.7334    -76.3948     13.0496    123.8887
  1249.0000     15.2312    -76.3325     13.2437    115.3523
  1249.2500     15.8485    -76.2849     13.5043    110.2596
  1249.5000     16.5409    -76.2365     13.8525    103.2577
  1249.7500     17.2599    -76.1675     14.3044     99.2664
  1250.0000     17.9714    -76.0622     14.8665     94.9680
  1250.2500     18.6482    -75.9196     15.5283     93.1909
  1250.5000     19.2831    -75.7605     16.2515     91.0993
  1250.7500     19.9057    -75.6196     16.9692     89.2701
  1251.0000     20.5656    -75.5267     17.6089     85.1453
  1251.2500     21.3053    -75.4939     18.1323     81.7488
  1251.5000     22.1458    -75.5189     18.5554     77.0251
  1251.7500     23.0712    -75.5915     18.9233     74.8617
  1252.0000     24.0256    -75.6943     19.2610     73.4899
  1252.2500     24.9281    -75.8036     19.5416     73.5412
  1252.5000     25.6935    -75.8976     19.6949     74.1111
  1252.7500     26.2499    -75.9641     19.6471     74.1881
  1253.0000     26.5345    -76.0029     19.3593     73.1531
  1253.2500     26.4902    -76.0247     18.8411     71.9324
  1253.5000     26.0711    -76.0444     18.1391     71.1691
  1253.7500     25.2177    -76.0737     17.3174     72.8621
  1254.0000     23.8953    -76.1188     16.4400     80.2452
  1254.2500     22.2436    -76.1837     15.5601     88.0402
  1254.5000     20.5753    -76.2739     14.7170    101.3663
  1254.7500     19.1442    -76.3958     13.9416    109.2261
  1255.0000     17.9848    -76.5501     13.2644    116.7194
  1255.2500     16.9964    -76.7280     12.7193    118.5858
  1255.5000     16.0843    -76.9154     12.3416    118.5485
  1255.7500     15.1986    -77.1000     12.1632    118.0775
  1256.0000     14.3548    -77.2732     12.2081    117.8741
  1256.2500     13.6419    -77.4308     12.4914    117.8903
  1256.5000     13.1314    -77.5761     13.0189    117.6338
  1256.7500     12.8045    -77.7240     13.7877    117.3971
  1257.0000     12.6023    -77.8997     14.7818    117.4463
  1257.2500     12.4712    -78.1300     15.9617    117.7685
  1257.5000     12.3619    -78.4299     17.2448    118.4026
  1257.7500     12.2500    -78.7935     18.4842    118.9894
  1258.0000     12.1697    -79.1964     19.4629    120.7165
  1258.2500     12.2003    -79.6077     19.9285    122.6682
  1258.5000     12.3927    -80.0053     19.6741    126.3636
  1258.7500     12.7162    -80.3877     18.6332    128.5743
  1259.0000     13.0896    -80.7753     16.9259    129.7056
  1259.2500     13.4727    -81.2017     14.8213    128.0294
  1259.5000     13.9121    -81.6989     12.6398    121.2540
  1259.7500     14.4634    -82.2832     10.6470    114.5616
  1260.0000     15.1124    -82.9523      8.9958    104.1000
  1260.2500     15.8098    -83.6946      7.7284     98.9206
  1260.5000     16.4863    -84.5038      6.8146     96.5273
  1260.7500     17.0213    -85.3912      6.1901     98.8308
  1261.0000     17.3013    -86.3910      5.7775    106.2930
  1261.2500     17.2858    -87.5583      5.4914    112.1150
  1261.5000     16.9978    -88.9568      5.2356    119.5112
  1261.7500     16.5248    -90.6422      4.9085    122.8723
  1262.0000     16.0115    -92.6576      4.4321    125.5548
  1262.2500     15.6115    -95.0465      3.7990    126.1036
  1262.5000     15.4320    -97.8729      3.0875    126.0065
  1262.7500     15.4594   -101.2292      2.4101    126.0241
  1263.0000     15.5094   -105.2241      1.8451    127.2390
  1263.2500     15.3294   -109.9772      1.4143    129.1952
  1263.5000     14.7770   -115.6422      1.1023    133.7655
  1263.7500     13.8233   -122.4422      0.8822    137.3303
  1264.0000     12.4096   -130.6878      0.7287    141.5975
  1264.2500     10.4492   -140.7411      0.6227    142.4038
  1264.5000      8.0356   -152.9100      0.5513    138.7466
  1264.7500      5.5679   -167.1975      0.5057    132.7833
  1265.0000      3.5644   -182.8851      0.4802    119.9287
  1265.2500      2.3317   -198.2167      0.4712    110.4153
  1265.5000      1.8721   -210.7133      0.4767     97.7270
  1265.7500      2.2292   -218.3300      0.4969     91.4133
  1266.0000      4.0411   -220.7364      0.5352     85.3945
  1266.2500      8.6621   -219.4926      0.5982     83.1524
  1266.5000     17.2313   -216.7612      0.6948     81.1555
  1266.7500     29.2674   -213.8798      0.8317     80.0343
  1267.0000     42.5305   -211.3475      0.9989     77.9566
  1267.2500     54.4129   -209.6208      1.1401     76.3210
  1267.5000     63.1570   -208.8627      1.1506     74.0495
  1267.7500     68.0261   -207.9357      0.9811     72.9821
  1268.0000     68.8723   -204.8347      0.7202     72.2896
  1268.2500     65.7023   -198.7538      0.4777     72.3819
  1268.5000     58.7180   -191.3110      0.2944     72.9344
  1268.7500     48.6730   -185.4679      0.1703     73.1578
  1269.0000     36.9498   -183.4902      0.0955     72.6212
  1269.2500     25.2755   -185.8506      0.0555     71.6081
  1269.5000     15.2900   -191.4271      0.0357     69.5438
  1269.7500      8.0515   -198.3630      0.0263     68.1792
  1270.0000      3.6906   -204.9129      0.0220     66.9000
  1270.2500      1.5352   -209.8684      0.0203     67.2162
  1270.5000      0.6622   -212.4653      0.0199     70.7793
  1270.7500      0.3759   -211.9822      0.0200     75.5887
  1271.0000      0.3289   -207.4540      0.0199     85.6417
  1271.2500      0.4653   -198.0143      0.0193     93.2042
  1271.5000      1.0152   -183.8448      0.0183    104.4818
  1271.7500      2.4817   -166.7343      0.0172    111.7364
  1272.0000      5.3256   -149.3639      0.0168    121.9943
  1272.2500      9.4042   -133.9039      0.0180    127.8186
  1272.5000     13.8855   -121.2545      0.0224    133.4692
  1272.7500     17.9000   -111.3088      0.0335    134.6143
  1273.0000     21.0974   -103.5704      0.0603    132.7441
  1273.2500     23.5485    -97.5458      0.1241    129.8019
  1273.5000     25.4375    -92.8322      0.2645    123.8324
  1273.7500     26.9363    -89.0974      0.5552    118.9747
  1274.0000     28.1459    -86.0544      1.2584    110.3354
  1274.2500     29.0729    -83.4774      4.1317    103.9513
  1274.5000     29.7076    -81.2266 100000.0000     94.7649
  1274.7500     30.0966    -79.2570 100000.0000     89.7466
  1275.0000     30.3330    -77.5889 100000.0000     84.2813
  1275.2500     30.4959    -76.2503 100000.0000     81.5356
  1275.5000     30.6099    -75.2296 100000.0000     77.6495
  1275.7500     30.6870    -74.4710 100000.0000     74.8727
  1276.0000     30.7666    -73.9006 100000.0000     70.5339
  1276.2500     30.8586    -73.4508 100000.0000     67.8503
  1276.5000     30.8919    -73.0674 100000.0000     64.8210
  1276.7500     30.7977    -72.7132 100000.0000     63.7032
  1277.0000     30.6156    -72.3714 100000.0000     63.2421
  1277.2500     30.4482    -72.0438 100000.0000     63.4858
  1277.5000     30.3508    -71.7418 100000.0000     64.4691
  1277.7500     30.3278    -71.4806 100000.0000     65.5533
  1278.0000     30.3886    -71.2758 100000.0000     67.4154
  1278.2500     30.5495    -71.1369 100000.0000     68.2010
  1278.5000     30.7877    -71.0593 100000.0000     67.8390
  1278.7500     31.0358    -71.0250 100000.0000     66.6707
  1279.0000     31.2361    -71.0169 100000.0000     64.6183
  1279.2500     31.3753    -71.0319 100000.0000     63.7823
