~Version Information
VERS.                      2.0: CWLS Log ASCII Standard - VERSION 2.0
WRAP.                       NO: One line per depth step
~Well Information Block
STRT.FT               555.5000: 
STOP.FT              2179.0000: 
STEP.FT                 0.2500: 
NULL.                -999.2500: 
COMP.          Petrogulf Corporation: COMPANY
WELL.            Montoya 6-14R: WELL
FLD.           Purgatorie River: FIELD
LOC.           867' FSL & 751' FWL: LOCATION
CNTY.               Las Animas: COUNTY
SRVC.                         : SERVICE COMPANY
DATE.          Mon Nov 15 07:02:23 2004: LOG DATE
UWI.           05 071 08242 00: UNIQUE WELL ID
STAT.                 Colorado: STATE
~Curve Information Block
DEPT.FT            0 000 00 00: Depth
SP.mV                         : DIL Spontaneous Potential
RILD.Ohm-m                    : DIL Deep Resistivity
RILM.Ohm-m                    : DIL Medium Resistivity
RLL3.Ohm-m                    : DIL Shallow Resistivity
GR.GAPI                       : Gamma Ray
~Parameter Information Block
~A  Depth        SP         RILD        RILM        RLL3         GR     
# ...
   583.5000   2000.0000      8.2270 100000.0000   2000.0000     75.5354
   583.7500   2000.0000      8.1874 100000.0000   2000.0000     76.1865
   584.0000   2000.0000      8.1511 100000.0000   2000.0000     76.9422
   584.2500   2000.0000      8.1224 100000.0000   2000.0000     77.1695
   584.5000   2000.0000      8.1046 100000.0000   2000.0000     76.7241
   584.7500   2000.0000      8.0998 100000.0000   2000.0000     75.8400
   585.0000   2000.0000      8.1087 100000.0000   2000.0000     74.0425
   585.2500   2000.0000      8.1307 100000.0000   2000.0000     72.8654
   585.5000   2000.0000      8.1642 100000.0000   2000.0000     71.3632
   585.7500   2000.0000      8.2065 100000.0000   2000.0000     70.5460
   586.0000   2000.0000      8.2546 100000.0000   2000.0000     69.8049
   586.2500   2000.0000      8.3046 100000.0000   2000.0000     69.7763
   586.5000   2000.0000      8.3529 100000.0000   2000.0000     70.2427
   586.7500   2000.0000      8.3958 100000.0000   2000.0000     70.6541
   587.0000   2000.0000      8.4302 100000.0000   2000.0000     71.3558
   587.2500   2000.0000      8.4540 100000.0000   2000.0000     71.9462
   587.5000   2000.0000      8.4657 100000.0000   2000.0000     72.5847
   587.7500   2000.0000      8.4651 100000.0000   2000.0000     72.2957
   588.0000   2000.0000      8.4529 100000.0000   2000.0000     70.3884
   588.2500   2000.0000      8.4303 100000.0000   2000.0000     68.6028
   588.5000   2000.0000      8.3993 100000.0000   2000.0000     66.4979
   588.7500   2000.0000      8.3623 100000.0000   2000.0000     65.8603
   589.0000   2000.0000      8.3218 100000.0000   2000.0000     65.4735
   589.2500   2000.0000      8.2805 100000.0000   2000.0000     64.8636
   589.5000   2000.0000      8.2409 100000.0000   2000.0000     62.5405
   589.7500   2000.0000      8.2049 100000.0000   2000.0000     60.1957
   590.0000   2000.0000      8.1744 100000.0000   2000.0000     56.9376
   590.2500   2000.0000      8.1508 100000.0000   2000.0000     55.9806
   590.5000   2000.0000      8.1349 100000.0000   2000.0000     57.0148
   590.7500   2000.0000      8.1273 100000.0000   2000.0000     58.6801
   591.0000   2000.0000      8.1283 100000.0000   2000.0000     60.5835
   591.2500   2000.0000      8.1377 100000.0000   2000.0000     60.6169
   591.5000   2000.0000      8.1551 100000.0000   2000.0000     58.8331
   591.7500   2000.0000      8.1797 100000.0000   2000.0000     57.1011
   592.0000   2000.0000      8.2105 100000.0000   2000.0000     55.1431
   592.2500   2000.0000      8.2464 100000.0000   2000.0000     54.8183
   592.5000   2000.0000      8.2861 100000.0000   2000.0000     55.7134
   592.7500   2000.0000      8.3284 100000.0000   2000.0000     56.6881
   593.0000   2000.0000      8.3719 100000.0000   2000.0000     57.7580
   593.2500   2000.0000      8.4154 100000.0000   2000.0000     57.9287
   593.5000   2000.0000      8.4572 100000.0000   2000.0000     57.2920
   593.7500   2000.0000      8.4956 100000.0000   2000.0000     56.3503
   594.0000   2000.0000      8.5292 100000.0000   2000.0000     54.4617
   594.2500   2000.0000      8.5568 100000.0000   2000.0000     53.1138
   594.5000   2000.0000      8.5784 100000.0000   2000.0000     51.4300
   594.7500   2000.0000      8.5955 100000.0000   2000.0000     50.9351
   595.0000   2000.0000      8.6106 100000.0000   2000.0000     51.8878
   595.2500   2000.0000      8.6273 100000.0000   2000.0000     53.8411
   595.5000   2000.0000      8.6494 100000.0000   2000.0000     58.5400
   595.7500   2000.0000      8.6799 100000.0000   2000.0000     62.7240
   596.0000   2000.0000      8.7202 100000.0000   2000.0000     70.4969
   596.2500   2000.0000      8.7698 100000.0000   2000.0000     76.3364
   596.5000   2000.0000      8.8265 100000.0000   2000.0000     84.6129
   596.7500   2000.0000      8.8876 100000.0000   2000.0000     88.8670
   597.0000   2000.0000      8.9508 100000.0000   2000.0000     92.6638
   597.2500   2000.0000      9.0154 100000.0000   2000.0000     93.6862
   597.5000   2000.0000      9.0822 100000.0000   2000.0000     93.7495
   597.7500   2000.0000      9.1528 100000.0000   2000.0000     93.2562
   598.0000   2000.0000      9.2271 100000.0000   2000.0000     92.3270
   598.2500   2000.0000      9.3010 100000.0000   2000.0000     91.8720
   598.5000   2000.0000      9.3640 100000.0000   2000.0000     91.6947
   598.7500   2000.0000      9.4001 100000.0000   2000.0000     91.8092
   599.0000   2000.0000      9.3909 100000.0000   2000.0000     91.6954
   599.2500   2000.0000      9.3213 100000.0000   2000.0000     91.0119
   599.5000   2000.0000      9.1859 100000.0000   2000.0000     88.8009
   599.7500   2000.0000      8.9929 100000.0000   2000.0000     86.6750
   600.0000   2000.0000      8.7634 100000.0000   2000.0000     82.8148
   600.2500   2000.0000      8.5252 100000.0000   2000.0000     79.7809
   600.5000   2000.0000      8.3052 100000.0000   2000.0000     74.3770
   600.7500   2000.0000      8.1222 100000.0000   2000.0000     70.3673
   601.0000   2000.0000      7.9829 100000.0000   2000.0000     64.6839
   601.2500   2000.0000      7.8806 100000.0000   2000.0000     61.7829
   601.5000   2000.0000      7.7956 100000.0000   2000.0000     59.5149
   601.7500   2000.0000      7.7005 100000.0000   2000.0000     59.5268
   602.0000   2000.0000      7.5675 100000.0000   2000.0000     61.6798
   602.2500   2000.0000      7.3778 100000.0000   2000.0000     64.2308
   602.5000   2000.0000      7.1308 100000.0000   2000.0000     68.7737
   602.7500   2000.0000      6.8446 100000.0000   2000.0000     71.6132
   603.0000   2000.0000      6.5481 100000.0000   2000.0000     74.9110
   603.2500   2000.0000      6.2699 100000.0000   2000.0000     76.5683
   603.5000   2000.0000      6.0290 100000.0000   2000.0000     78.8979
   603.7500   2000.0000      5.8312 100000.0000   2000.0000     80.6852
   604.0000   2000.0000      5.6699 100000.0000   2000.0000     84.0985
   604.2500   2000.0000      5.5304 100000.0000   2000.0000     86.9883
   604.5000   2000.0000      5.3968 100000.0000   2000.0000     92.1345
   604.7500   2000.0000      5.2610 100000.0000   2000.0000     95.9709
   605.0000   2000.0000      5.1283 100000.0000   2000.0000    102.6775
   605.2500   2000.0000      5.0193 100000.0000   2000.0000    108.3394
   605.5000   2000.0000      4.9667 100000.0000   2000.0000    118.9631
   605.7500   2000.0000      5.0113 100000.0000   2000.0000    126.7338
   606.0000   2000.0000      5.2033 100000.0000   2000.0000    137.2367
   606.2500   2000.0000      5.6108 100000.0000   2000.0000    142.6615
   606.5000   2000.0000      6.3414     57.2424   2000.0000    148.9029
   606.7500   2000.0000      7.5893     23.9679   2000.0000    152.7574
   607.0000   2000.0000      9.7483     17.2382   2000.0000    159.3364
   607.2500   2000.0000     13.7330     14.9921   2000.0000    164.2469
   607.5000   2000.0000     22.1620     14.5147   2000.0000    171.2147
   607.7500   2000.0000     46.1620     15.1167   2000.0000    174.6486
   608.0000   2000.0000    259.8839     16.6141   2000.0000    176.9178
   608.2500   2000.0000 100000.0000     18.9997   2000.0000    176.5760
   608.5000   2000.0000 100000.0000     22.3047   2000.0000    174.4101
   608.7500   2000.0000 100000.0000     26.4534   2000.0000    172.6801
   609.0000   2000.0000 100000.0000     31.0522   2000.0000    170.6623
   609.2500   2000.0000 100000.0000     35.2106   2000.0000    169.9200
   609.5000   2000.0000    441.4088     37.7223   2000.0000    169.4848
   609.7500   2000.0000     95.1294     37.8009   2000.0000    169.3758
   610.0000   2000.0000     54.2442     35.6973   2000.0000    169.3943
   610.2500   2000.0000     39.3562     32.3972   2000.0000    169.7878
   610.5000   2000.0000     32.1078     28.8706   2000.0000    171.3698
   610.7500   2000.0000     28.0702     25.6842   2000.0000    172.9913
   611.0000   2000.0000     25.6247     23.0447   2000.0000    175.5622
   611.2500   2000.0000     24.0370     20.9632   2000.0000    176.8351
