~Version Information
VERS.                      2.0: CWLS Log ASCII Standard - VERSION 2.0
WRAP.                       NO: One line per depth step
~Well Information Block
STRT.FT               902.0000: 
STOP.FT              2428.2000: 
STEP.FT                 0.1000: 
NULL.                -999.2500: 
COMP.          Pioneer Natural Resources: COMPANY
WELL.            Victory 12-14: WELL
FLD.           Purgatoire River: FIELD
LOC.           2434' FNL & 188' FWL: LOCATION
PROV.                 Colorado: PROVINCE
CNTY.               Las Animas: COUNTRY
SRVC.                Patterson: SERVICE COMPANY
DATE.          Mon Apr 18 07:24:17 2005: LOG DATE
UWI.           05 071 08332 00: UNIQUE WELL ID
~Curve Information Block
DEPT.FT            0 000 00 00: Depth
DCAL.in                       : CDL Caliper
RHOB.g/cc                     : CDL Bulk Density
RHOC.g/cc                     : CDL Density Correction
DPOR.pu                       : CDL Density Porosity
GR.GAPI                       : Gamma Ray
NPOR.pu                       : Neutron Porosity
~Parameter Information Block
~A  Depth       DCAL        RHOB        RHOC        DPOR         GR         NPOR    
# ...
  1506.8000      8.1886      2.4168      0.0501     14.1332     63.7820     19.1117
  1506.9000      8.1886      2.4381      0.0122     12.8398     64.8543     18.9912
  1507.0000      8.1950      2.4731      0.0785     10.7242     69.5272     18.7040
  1507.1000      8.1950      2.5009      0.1026      9.0385     72.4525     18.4521
  1507.2000      8.1950      2.5105      0.0454      8.4548     68.9276     18.1797
  1507.3000      8.1726      2.5053      0.0672      8.7686     62.1721     17.8211
  1507.4000      8.1726      2.4901      0.0652      9.6939     58.0874     17.6540
  1507.5000      8.1175      2.4658      0.0553     11.1628     57.9466     17.9430
  1507.6000      8.1175      2.4375      0.0036     12.8818     61.4489     18.3922
  1507.7000      8.1175      2.4116      0.0348     14.4468     68.2850     18.6134
  1507.8000      8.1088      2.3913     -0.0336     15.6779     75.0478     18.7508
  1507.9000      8.1088      2.3880     -0.0317     15.8767     78.5454     19.1095
  1508.0000      8.1127      2.4012      0.0142     15.0761     79.1755     19.5321
  1508.1000      8.1127      2.4151      0.0156     14.2352     79.3294     19.8846
  1508.2000      8.1127      2.4306      0.0172     13.2953     81.2165     20.1083
  1508.3000      8.1026      2.4547      0.0326     11.8343     85.4737     20.0919
  1508.4000      8.1026      2.4868      0.0273      9.8889     88.6138     19.9644
  1508.5000      8.0978      2.5272      0.0670      7.4442     86.0433     19.9518
  1508.6000      8.0978      2.5651      0.1362      5.1484     78.9858     20.1623
  1508.7000      8.0978      2.5847      0.0831      3.9599     74.2119     20.4863
  1508.8000      8.0998      2.5850      0.1084      3.9378     73.9501     20.7583
  1508.9000      8.0998      2.5642      0.1322      5.1972     72.7434     20.9875
  1509.0000      8.1024      2.5273     -0.0032      7.4378     67.0893     21.0235
  1509.1000      8.1024      2.5050     -0.0202      8.7879     59.4164     20.5985
  1509.2000      8.1024      2.5148     -0.0353      8.1943     54.7056     19.9610
  1509.3000      8.1088      2.5260      0.0636      7.5138     54.9979     19.4112
  1509.4000      8.1088      2.5028      0.0097      8.9238     57.8458     18.9007
  1509.5000      8.1105      2.4581     -0.0104     11.6282     60.9793     18.3442
  1509.6000      8.1105      2.4284     -0.0495     13.4295     62.9441     17.7415
  1509.7000      8.1105      2.4268      0.0159     13.5284     61.9883     17.0264
  1509.8000      8.1109      2.4335      0.0540     13.1220     58.2685     16.3535
  1509.9000      8.1109      2.4197      0.0390     13.9547     56.4330     16.1157
  1510.0000      8.1163      2.3776      0.0070     16.5088     59.0290     16.1455
  1510.1000      8.1163      2.3289     -0.0158     19.4619     61.3316     15.9282
  1510.2000      8.1163      2.3079     -0.0588     20.7351     60.7383     15.6406
  1510.3000      8.1161      2.3168      0.0548     20.1935     59.2005     15.6485
  1510.4000      8.1161      2.3211      0.0190     19.9356     56.6556     15.8481
  1510.5000      8.1195      2.3088     -0.0162     20.6790     53.6016     16.1089
  1510.6000      8.1195      2.3046     -0.0566     20.9333     53.1308     16.3977
  1510.7000      8.1195      2.3251     -0.0166     19.6917     54.9339     16.6479
  1510.8000      8.1222      2.3566      0.0502     17.7812     56.3044     16.7035
  1510.9000      8.1222      2.3753      0.0775     16.6484     56.2268     16.4809
  1511.0000      8.1261      2.3760      0.0379     16.6054     54.4356     16.2553
  1511.1000      8.1261      2.3675      0.0362     17.1216     51.5245     16.3353
  1511.2000      8.1261      2.3580     -0.0002     17.6948     51.1163     16.7289
  1511.3000      8.1300      2.3643     -0.0310     17.3145     57.1075     17.2436
  1511.4000      8.1300      2.3927      0.0428     15.5928     69.0145     17.5704
  1511.5000      8.1354      2.4195      0.0749     13.9691     82.2793     17.6481
  1511.6000      8.1354      2.4257      0.0664     13.5925     91.6363     17.7060
  1511.7000      8.1354      2.4207      0.0408     13.8987     96.9297     17.8965
  1511.8000      8.1388      2.4211      0.0257     13.8724    103.0854     18.2199
  1511.9000      8.1388      2.4314      0.0739     13.2494    111.9642     18.5440
  1512.0000      8.1461      2.4403      0.0367     12.7069    119.8736     18.8405
  1512.1000      8.1461      2.4389      0.0544     12.7914    126.0917     19.1647
  1512.2000      8.1461      2.4272      0.0171     13.5008    134.6131     19.4068
  1512.3000      8.1480      2.4054      0.0447     14.8238    146.0600     19.7677
  1512.4000      8.1480      2.3807      0.0029     16.3227    156.4352     20.5830
  1512.5000      8.1550      2.3683      0.0238     17.0706    162.6730     21.6594
  1512.6000      8.1550      2.3665      0.0393     17.1813    163.1069     22.5990
  1512.7000      8.1550      2.3681      0.0330     17.0855    160.4785     23.2720
  1512.8000      8.1607      2.3802      0.0720     16.3487    160.3019     23.6742
  1512.9000      8.1607      2.4017      0.1082     15.0511    161.6549     23.8600
  1513.0000      8.1761      2.4222      0.0892     13.8042    160.3456     23.8773
  1513.1000      8.1761      2.4453      0.0373     12.4044    156.4710     23.5914
  1513.2000      8.1761      2.4767      0.1251     10.5037    152.3022     23.1843
  1513.3000      8.2048      2.5032      0.1645      8.8998    149.6559     23.1056
  1513.4000      8.2048      2.5029      0.1258      8.9145    149.4446     23.4282
  1513.5000      8.2051      2.4630      0.1361     11.3319    150.5549     24.0191
  1513.6000      8.2051      2.4002      0.0409     15.1366    148.6115     24.7036
  1513.7000      8.2051      2.3617     -0.0090     17.4727    140.1143     25.1338
  1513.8000      8.2088      2.3593      0.0847     17.6205    128.5838     24.8149
  1513.9000      8.2088      2.3578      0.0457     17.7096    119.8848     23.7277
  1514.0000      8.2031      2.3521     -0.0007     18.0561    117.4432     22.5274
  1514.1000      8.2031      2.3597      0.0134     17.5948    119.7916     21.5658
  1514.2000      8.2031      2.3585      0.0841     17.6659    121.3998     20.4870
  1514.3000      8.2516      2.3113      0.0816     20.5275    118.9808     19.2525
  1514.4000      8.2516      2.2170      0.0029     26.2441    112.5884     18.3047
  1514.5000      8.2505      2.0946     -0.0356     33.6617    103.0433     17.5607
  1514.6000      8.2505      1.9567     -0.1509     42.0194     92.8841     16.7585
  1514.7000      8.2505      1.8111     -0.1177     50.8445     85.1484     15.9892
  1514.8000      8.2944      1.6681     -0.2403     59.5110     81.8090     15.4768
  1514.9000      8.2944      1.5456     -0.2163     66.9360     85.7726     15.5000
  1515.0000      8.3707      1.4496     -0.1693     72.7494     94.5721     16.0009
  1515.1000      8.3707      1.3859     -0.1853     76.6094     99.7391     16.4428
  1515.2000      8.3707      1.3719     -0.0588     77.4620     97.2178     16.6724
  1515.3000      8.4111      1.4057      0.0612     75.4147     91.8001     17.2535
  1515.4000      8.4111      1.4692      0.0766     71.5622     91.4642     18.3724
  1515.5000      8.4032      1.5530      0.0831     66.4868     96.9180     19.6266
  1515.6000      8.4032      1.6511      0.1206     60.5369    102.9397     20.7263
  1515.7000      8.4032      1.7585      0.1150     54.0283    105.6790     21.6310
  1515.8000      8.3188      1.8789      0.1176     46.7333    105.8355     22.2571
  1515.9000      8.3188      2.0118      0.1570     38.6770    106.4073     22.5447
  1516.0000      8.3222      2.1399      0.1805     30.9137    108.5803     22.7647
  1516.1000      8.3222      2.2360      0.1779     25.0936    110.0813     23.2910
  1516.2000      8.3222      2.2783      0.1694     22.5263    109.1743     23.9859
  1516.3000      8.2912      2.2743      0.0342     22.7712    105.5170     24.3432
