~Version Information
VERS.                      2.0: CWLS Log ASCII Standard - VERSION 2.0
WRAP.                       NO: One line per depth step
~Well Information Block
STRT.FT               -12.2500: 
STOP.FT              1948.2500: 
STEP.FT                 0.2500: 
NULL.                -999.2500: 
COMP.          Petrogulf Corporation: COMPANY
WELL.            Torcom 17-33R: WELL
FLD.           Purgatorie River: FIELD
LOC.           1483' FSL & 1804' FEL--: LOCATION
PROV.                       CO: PROVINCE
CNTY.               Las Animas: COUNTRY
SRVC.          Patterson Wireline: SERVICE COMPANY
DATE.          Fri Sep 30 10:11:43 2005: LOG DATE
UWI.           05 071 08096 00: UNIQUE WELL ID
~Curve Information Block
DEPT.FT            0 000 00 00: Depth
CCL.                          : Casing Collar Locator
TT3.usec                      : CBL 3' Travel Time
AMP3.mV                       : CBL 3' Amplitude
GR.GAPI                       : Gamma Ray
~Parameter Information Block
~A  Depth       CCL         TT3         AMP3         GR     
   -12.2500   -999.2500   -999.2500   -999.2500     68.9498
   -12.0000   -999.2500   -999.2500   -999.2500     65.6816
   -11.7500   -999.2500   -999.2500   -999.2500     64.4559
   -11.5000   -999.2500   -999.2500   -999.2500     66.0292
   -11.2500   -999.2500   -999.2500   -999.2500     69.7175
   -11.0000   -999.2500   -999.2500   -999.2500     74.1962
   -10.7500   -999.2500   -999.2500   -999.2500     78.2361
   -10.5000   -999.2500   -999.2500   -999.2500     80.9112
   -10.2500   -999.2500   -999.2500   -999.2500     81.9291
   -10.0000   -999.2500   -999.2500   -999.2500     82.0299
    -9.7500   -999.2500   -999.2500   -999.2500     82.5602
    -9.5000   -999.2500   -999.2500   -999.2500     84.3120
    -9.2500   -999.2500   -999.2500   -999.2500     86.7842
    -9.0000   -999.2500   -999.2500   -999.2500     88.6362
    -8.7500   -999.2500   -999.2500   -999.2500     89.0713
    -8.5000   -999.2500   -999.2500   -999.2500     88.8006
    -8.2500   -999.2500   -999.2500   -999.2500     89.2209
    -8.0000   -999.2500   -999.2500   -999.2500     90.5692
    -7.7500   -999.2500   -999.2500   -999.2500     91.5115
    -7.5000   -999.2500   -999.2500   -999.2500     90.7071
    -7.2500   -999.2500   1158.0000      2.1045     88.0860
    -7.0000   -999.2500   1158.0000      2.1030     84.4567
    -6.7500   -999.2500   1158.0000      2.0990     80.7662
    -6.5000   -999.2500   1158.0000      2.0939     78.0247
    -6.2500   -999.2500   1158.0000      2.0883     77.0105
    -6.0000   -999.2500   1158.0000      2.0831     77.4709
    -5.7500   -999.2500   1158.0000      2.0799     77.9445
    -5.5000   -999.2500   1158.0000      2.0802     76.6823
    -5.2500   -999.2500   1158.0000      2.0844     72.8749
    -5.0000   -999.2500   1158.0000      2.0912     67.2697
    -4.7500   -999.2500   1158.0000      2.0986     61.7339
    -4.5000   -999.2500   1158.0000      2.1049     58.0098
    -4.2500   -999.2500   1158.0000      2.1095     56.6077
    -4.0000   -999.2500   1158.0000      2.1123     56.5386
    -3.7500   -999.2500   1158.0000      2.1127     55.8547
    -3.5000   -999.2500   1158.0000      2.1105     52.7906
    -3.2500   -999.2500   1158.0000      2.1071     47.1786
    -3.0000   -999.2500   1158.0000      2.1045     40.9171
    -2.7500   -999.2500   1158.0000      2.1034     36.4932
    -2.5000   -999.2500   1158.0000      2.1030     34.9440
    -2.2500   -999.2500   1158.0000      2.1023     35.5998
    -2.0000   -999.2500   1158.0000      2.1019     37.4578
    -1.7500   -999.2500   1158.0000      2.1035     40.0613
    -1.5000      0.0000   1158.0000      2.1079     43.1381
    -1.2500      0.0000   1158.0000      2.1137     46.1532
    -1.0000      0.0000   1158.0000      2.1180     48.5455
    -0.7500      0.0000   1158.0000      2.1175     50.0797
    -0.5000      0.0000   1158.0000      2.1108     50.8936
    -0.2500      0.0000   1158.0000      2.1004     51.4994
     0.0000      0.0000   1158.0000      2.0910     52.6772
     0.2500      0.0000   1158.0000      2.0898     57.8507
     0.5000      0.0000   1158.0000      2.0978     60.6322
     0.7500      0.0000   1158.0000      2.1074     62.7255
     1.0000      0.0000   1158.0000      2.1153     64.1275
     1.2500      0.0000   1158.0000      2.1204     64.9959
     1.5000      0.0000   1158.0000      2.1222     65.5285
     1.7500      2.0000   1158.0000      2.1201     65.9142
     2.0000      0.0000   1158.0000      2.1140     65.9494
     2.2500      0.0000   1157.9735      2.1073     64.9633
     2.5000      0.0000   1157.8082      2.1053     62.4421
     2.7500      0.0000   1156.9697      2.1120     58.6248
     3.0000      0.0000   1153.6526      2.1348     54.4707
     3.2500      0.0000   1143.4177      2.2038     51.2459
     3.5000      0.0000   1118.4857      2.4509     49.9331
     3.7500      0.0000   1069.8179      3.2932     50.5977
     4.0000      0.0000    991.7370      5.6983     52.2397
     4.2500      0.0000    885.0917     11.2163     53.4911
     4.5000      0.0000    756.9191     21.2361     53.5924
     4.7500      0.0000    619.9772     35.5314     52.7232
     5.0000      0.0000    492.5240     51.4880     51.5296
     5.2500      0.0000    392.7429     65.3815     50.4538
     5.5000      0.0000    329.0299     74.7942     49.4947
     5.7500      0.0000    296.5106     79.7407     48.5830
     6.0000      0.0000    283.3894     81.7422     48.0216
     6.2500      0.0000    279.2256     82.3435     48.1828
     6.5000      0.0000    278.1909     82.4497     48.8351
     6.7500      0.0000    277.9871     82.4401     49.3622
     7.0000      0.0000    277.9577     82.4417     49.7098
     7.2500      0.0000    277.9599     82.4761     50.4862
     7.5000      0.0000    277.9664     82.5238     51.9388
     7.7500      0.0000    277.9779     82.5633     53.3910
     8.0000      0.0000    277.9911     82.5872     54.0226
     8.2500      0.0000    278.0016     82.5910     53.8355
     8.5000      0.0000    278.0084     82.5683     53.4950
     8.7500      0.0000    278.0127     82.5264     53.3714
     9.0000      0.0000    278.0147     82.4942     53.0691
     9.2500      0.0000    278.0126     82.5019     52.0096
     9.5000      0.0000    278.0059     82.5517     50.3935
     9.7500      0.0000    277.9972     82.6171     49.3310
    10.0000      0.0000    277.9923     82.6727     49.8067
    10.2500      0.0000    277.9967     82.7118     51.5641
    10.5000      0.0000    278.0125     82.7340     53.2113
    10.7500      0.0000    278.0371     82.7328     53.4606
    11.0000      0.0000    278.0655     82.7061     52.2706
    11.2500      0.0000    278.0927     82.6675     50.8592
    11.5000      0.0000    278.1144     82.6378     50.6529
    11.7500      0.0000    278.1278     82.6295     52.1008
    12.0000      0.0000    278.1329     82.6429     54.4115
    12.2500      0.0000    278.1340     82.6696     56.3988
    12.5000      0.0000    278.1364     82.6956     57.4960
    12.7500      0.0000    278.1423     82.7073     57.9710
    13.0000      0.0000    278.1480     82.7017     58.3796
    13.2500      0.0000    278.1470     82.6917     59.0048
    13.5000      0.0000    278.1358     82.6988     59.9182
    13.7500      0.0000    278.1175     82.7360     61.3991
    14.0000      0.0000    278.1001     82.7942     63.8186
    14.2500      0.0000    278.0904     82.8427     67.0269
    14.5000      0.0000    278.0903     82.8432     70.3726
    14.7500      0.0000    278.0967     82.7755     73.4029
    15.0000      0.0000    278.1046     82.6568     76.0507
    15.2500      0.0000    278.1107     82.5340     78.1493
    15.5000      0.0000    278.1149     82.4524     79.4749
    15.7500      0.0000    278.1204     82.4305     80.4745
    16.0000      0.0000    278.1302     82.4631     82.3361
    16.2500      0.0000    278.1448     82.5335     85.7955
    16.5000      0.0000    278.1615     82.6200     90.0394
    16.7500      0.0000    278.1754     82.6972     93.1020
    17.0000      0.0000    278.1819     82.7421     93.3308
    17.2500      0.0000    278.1787     82.7423     90.5556
    17.5000      0.0000    278.1679     82.7003     86.2658
    17.7500      0.0000    278.1556     82.6354     82.8787
    18.0000      0.0000    278.1486     82.5793     82.3058
    18.2500      0.0000    278.1506     82.5598     84.6265
    18.5000      0.0000    278.1619     82.5800     88.2060
    18.7500      0.0000    278.1798     82.6153     91.2538
    19.0000      0.0000    278.1997     82.6336     93.0150
    19.2500      0.0000    278.2158     82.6176     93.6069
    19.5000      0.0000    278.2228     82.5713     93.5941
    19.7500      0.0000    278.2199     82.5124     93.9801
    20.0000      0.0000    278.2115     82.4653     95.7399
    20.2500      0.0000    278.2053     82.4511     98.7387
    20.5000      0.0000    278.2075     82.4766    101.3642
    20.7500      0.0000    278.2202     82.5260    101.6236
    21.0000      0.0000    278.2409     82.5699     98.9012
