~Version Information
 VERS.                                  2.0 : CWLS LAS VERSION
 WRAP.                                   NO : WRAPING MODE
 SWARE .                 MController 2.5.0N : SOFTWARE VERSION
~Well Information
 WELL.                      EASTON 12-30 TR : WELL
 COMP.    PIONEER NATURAL RESOURCES USA INC : COMPANY
 FLD.                      PURGATOIRE RIVER : FIELD
 LOC.                SW/NW SEC 30 T32S R66W : LOCATION
 DATE.                             06/01/05 : DATE(S) LOGGED
 SRVC.       BLANCO GEOLOGICAL SERVICES LLC : SERVICE COMPANY
 STAT.                             COLORADO : STATE
 CNTY.                           LAS ANIMAS : COUNTY
 CTRY.                                  USA : COUNTRY
 API.                       05-071-08379-00 : API NUMBER
 STRT.FT                             307.00 : START DEPTH
 STOP.FT                            2000.00 : STOP DEPTH
 STEP.FT                               1.00 : DEPTH INCREMENT
 NULL.                                -9999 : NULL VALUE
~Curve information
 DEPTH.FT                                   :
 ROP.MIN/FT                                 :
 GAS.UNITS                                  :
~ASCII Log data
       307.0     -9999.00          4.0 
       308.0        19.57          5.6 
       309.0         0.10          4.9 
       310.0         0.10          5.5 
       311.0         0.37          5.0 
       312.0         0.07          5.0 
       313.0         0.10          4.8 
       314.0         0.10          4.8 
       315.0         0.13          5.1 
       316.0         0.10          4.7 
       317.0         0.10          4.8 
       318.0         0.17          4.9 
       319.0         0.40          4.4 
       320.0         0.73          4.6 
       321.0         0.18          4.0 
       322.0         0.10          3.3 
       323.0         0.17          4.0 
       324.0         0.13          3.5 
       325.0         0.13          3.3 
       326.0         0.13          3.2 
       327.0         0.10          3.9 
       328.0         0.10          3.2 
       329.0         0.07          3.5 
       330.0         0.23          3.6 
       331.0         0.10          3.4 
       332.0         0.07          3.6 
       333.0         0.10          3.4 
       334.0         0.10          3.4 
       335.0         0.13          3.5 
       336.0         0.10          3.3 
       337.0         0.13          3.4 
       338.0         0.17          2.9 
       339.0         0.10          3.0 
       340.0         0.17          2.9 
       341.0         0.13          3.5 
       342.0         0.07          2.7 
       343.0         0.13          2.7 
       344.0         0.17          4.6 
       345.0         0.10          8.4 
       346.0         0.13         14.6 
       347.0         0.10         20.2 
       348.0         0.15         28.7 
       349.0         0.13         34.6 
       350.0         0.10         37.2 
       351.0         0.10         39.3 
       352.0         1.37         40.3 
       353.0         0.20         17.4 
       354.0         0.10         13.6 
       355.0         0.10         13.1 
       356.0         0.10         12.0 
       357.0         0.23         10.1 
       358.0         0.17          8.8 
       359.0         0.10          7.1 
       360.0         0.10          6.9 
       361.0         0.10          6.0 
       362.0         0.07          5.1 
       363.0         0.10          4.8 
       364.0         0.10          5.4 
       365.0         0.08          4.5 
       366.0         0.10          4.3 
       367.0         0.07          4.3 
       368.0         0.10          3.2 
       369.0         0.10          4.0 
       370.0         0.07          3.2 
       371.0         0.10          2.7 
       372.0         0.10          2.8 
       373.0         0.07          2.7 
       374.0         0.10          2.2 
       375.0         0.10          2.3 
       376.0         0.10          2.2 
       377.0         0.07          1.6 
       378.0         0.10          2.2 
       379.0         0.10          2.1 
       380.0         0.10          1.8 
       381.0         0.10          2.2 
       382.0         0.07          2.0 
       383.0         0.10          1.6 
       384.0         0.10          2.4 
       385.0         0.13          2.0 
       386.0         3.15          2.9 
       387.0         0.17          2.1 
       388.0         0.13          2.3 
       389.0         0.10          2.3 
       390.0         0.13          2.8 
       391.0         0.10          2.3 
       392.0         0.13          3.0 
       393.0         0.10          2.7 
       394.0         0.10          2.8 
       395.0         0.10          3.1 
       396.0         0.07          2.4 
       397.0         0.10          2.8 
       398.0         0.07          2.6 
       399.0         0.10          2.7 
       400.0         0.07          3.2 
       401.0         0.10          3.1 
       402.0         0.08          2.7 
       403.0         0.10          2.8 
       404.0         0.10          2.8 
       405.0         0.10          2.5 
       406.0         0.10          2.7 
       407.0         0.10          2.8 
       408.0         0.10          2.9 
       409.0         0.07          5.1 
       410.0         0.13          5.5 
       411.0         0.13          4.9 
       412.0         0.13          5.8 
       413.0         0.13          5.5 
       414.0         0.10          5.2 
       415.0         0.20          5.4 
       416.0         5.83          6.5 
       417.0         0.27          6.0 
       418.0         0.23          5.3 
       419.0         0.23          5.8 
       420.0         0.23          6.2 
       421.0         0.20          6.3 
       422.0         0.17          5.2 
       423.0         0.17          5.4 
       424.0         0.17          5.3 
       425.0         0.17          5.4 
       426.0         0.17          5.6 
       427.0         0.17          5.9 
       428.0         0.20          5.6 
       429.0         0.17          6.0 
       430.0         0.18          6.0 
       431.0         0.17          5.9 
       432.0         0.20          5.9 
       433.0         0.17          6.1 
       434.0         0.20          5.8 
       435.0         0.20          5.6 
       436.0         0.20          6.2 
       437.0         0.23          6.2 
       438.0         0.20          6.3 
       439.0         0.17          6.2 
       440.0         0.20          5.6 
       441.0         0.23          5.5 
       442.0         0.20          5.8 
       443.0         0.20          5.6 
       444.0         0.23          6.1 
       445.0         0.17          6.5 
       446.0         2.02          6.3 
       447.0         0.23          6.0 
       448.0         0.25          5.6 
       449.0         0.27          5.2 
       450.0         0.23          5.2 
       451.0         0.20          5.0 
       452.0         0.13          5.5 
       453.0         0.17          5.2 
       454.0         0.13          8.8 
       455.0         0.17         50.0 
       456.0         0.13         83.9 
       457.0         0.17         90.8 
       458.0         0.20         84.0 
       459.0         0.20         59.2 
       460.0         0.17         36.2 
       461.0         0.13         21.5 
       462.0         0.17         13.7 
       463.0         0.17          9.0 
       464.0         0.17          6.7 
       465.0         0.17          4.9 
       466.0         0.18          3.8 
       467.0         0.17          3.8 
       468.0         0.17          3.6 
       469.0         0.17          3.0 
       470.0         0.17          3.5 
       471.0         0.17          3.4 
       472.0         0.20          2.7 
       473.0         0.20          2.8 
       474.0         0.17          3.1 
       475.0         0.13          2.6 
       476.0         3.75          4.5 
       477.0         0.23          3.8 
       478.0         0.27          3.8 
       479.0         0.23          3.3 
       480.0         0.17          3.6 
       481.0         0.17          3.6 
       482.0         0.18          3.4 
       483.0         0.17          3.1 
       484.0         0.17          3.0 
       485.0         0.17          3.3 
       486.0         0.17          2.8 
       487.0         0.17          3.1 
       488.0         0.17          2.6 
       489.0         0.20          3.6 
       490.0         0.20          3.5 
       491.0         0.17          3.5 
       492.0         0.13          3.8 
       493.0         0.13          3.5 
       494.0         0.17          3.5 
       495.0         0.17          4.1 
       496.0         0.13          3.3 
       497.0         0.17          3.6 
       498.0         0.17          3.7 
       499.0         0.20          3.1 
       500.0         0.23          3.3 
       501.0         0.17          4.1 
       502.0         0.15          3.8 
       503.0         0.17          4.0 
       504.0         0.17          4.0 
       505.0         0.20          3.8 
       506.0         4.32          4.8 
