~Version Information
VERS.                      2.0: CWLS Log ASCII Standard - VERSION 2.0
WRAP.                       NO: One line per depth step
~Well Information Block
STRT.FT                -3.2500: 
STOP.FT              1637.5000: 
STEP.FT                 0.2500: 
NULL.                -999.2500: 
COMP.          Pioneer Natural Resources: COMPANY
WELL.            Mad Dog 42-31: WELL
FLD.           Purgatorie River: FIELD
LOC.           2064' FNL & 479' FEL--: LOCATION
PROV.                       CO: PROVINCE
CNTY.               Las Animas: COUNTRY
SRVC.                         : SERVICE COMPANY
DATE.          Fri Oct 15 16:13:39 2004: LOG DATE
UWI.          005 071 08195   : UNIQUE WELL ID
~Curve Information Block
DEPT.FT            0 000 00 00: Depth
HVOLTA.V                      : Head Voltage Apparent
GR.GAPI                       : Gamma Ray
CCL.                          : Casing Collar Locator
TT3.usec                      : CBL 3' Travel Time
AMP3.mV                       : CBL 3' Amplitude
~Parameter Information Block
~A  Depth      HVOLTA        GR         CCL         TT3         AMP3    
# ...
  1284.7500     97.1982    123.7020      0.0000    653.6495      6.3093
  1285.0000     97.2914    122.9027      0.0000    611.7828      6.1305
  1285.2500     97.1840    120.5098      0.0000    563.6721      6.0171
  1285.5000     97.2114    117.3811      0.0000    523.3076      5.9575
  1285.7500     97.1397    114.3786      0.0000    502.0382      5.9188
  1286.0000     97.1230    111.9746      0.0000    504.3922      5.8543
  1286.2500     97.1326    110.0858      0.0000    529.2405      5.7250
  1286.5000     97.1230    108.2033      0.0000    571.1288      5.5172
  1286.7500     97.1158    106.0087      0.0000    620.6849      5.2372
  1287.0000     97.2735    103.7915      0.0000    668.2039      4.8958
  1287.2500     97.0991    101.8241      0.0000    709.5526      4.5175
  1287.5000     97.2293     99.4759      0.0000    747.0106      4.1570
  1287.7500     97.3010     95.6816      0.0000    783.0063      3.8671
  1288.0000     97.2425     90.4987      0.0000    814.7334      3.6416
  1288.2500     97.2592     85.5605      0.0000    836.4196      3.4327
  1288.5000     97.3034     82.6122      0.0000    845.0930      3.2441
  1288.7500     97.2806     81.8580      0.0000    842.4636      3.1592
  1289.0000     97.0752     81.9118      0.0000    833.1949      3.2468
  1289.2500     97.0848     81.2290      0.0000    823.3265      3.4710
  1289.5000     97.2699     79.5890      2.0000    818.3429      3.7097
  1289.7500     97.2567     78.2135      0.0000    820.1155      3.8399
  1290.0000     97.4718     78.4479      0.0000    825.1585      3.8172
  1290.2500     97.0848     80.5748      0.0000    825.9117      3.7123
  1290.5000     97.2460     84.0609      0.0000    814.6558      3.6655
  1290.7500     97.3010     88.6131      0.0000    787.9320      3.7701
  1291.0000     97.1158     94.3748      0.0000    747.9911      4.0069
  1291.2500     97.2782    100.9074      0.0000    701.3259      4.3174
  1291.5000     97.2664    106.4756      0.0000    657.9726      4.7139
  1291.7500     97.0573    108.9779      0.0000    630.5947      5.2716
  1292.0000     97.0203    107.6629      0.0000    628.5145      6.0213
  1292.2500     97.0620    103.5406      0.0000    649.9716      6.8868
  1292.5000     97.2771     98.2438      0.0000    682.4506      7.7299
  1292.7500     97.2974     93.1342      0.0000    711.7161      8.4377
  1293.0000     97.4240     89.4146      0.0000    729.3942      8.9660
  1293.2500     97.0024     88.1686      0.0000    732.8677      9.3254
  1293.5000     97.2246     89.7000      0.0000    722.0894      9.5489
  1293.7500     97.5287     93.0503      0.0000    699.8413      9.6649
  1294.0000     97.5825     96.6761      0.0000    674.1171      9.6848
  1294.2500     97.2449     99.7529      0.0000    654.7963      9.6166
  1294.5000     97.2521    102.5322      0.0000    643.9232      9.4947
  1294.7500     97.2257    105.3351      0.0000    631.6619      9.3726
  1295.0000     97.1612    107.6300      0.0000    605.7953      9.2678
  1295.2500     97.0681    108.3850      0.0000    564.1962      9.1325
  1295.5000     97.2603    107.1296      0.0000    516.1085      8.9042
  1295.7500     97.2257    104.4827      0.0000    473.5431      8.5748
  1296.0000     97.1708    101.7476      0.0000    443.6194      8.1932
  1296.2500     97.0167    100.0489      0.0000    427.1705      7.8134
  1296.5000     97.0955     99.7150      0.0000    421.2892      7.4615
  1296.7500     97.3452    100.2677      0.0000    421.9984      7.1417
  1297.0000     97.0884    101.0802      0.0000    425.6332      6.8554
  1297.2500     97.3380    102.1971      0.0000    429.1805      6.6058
  1297.5000     97.2878    104.1769      0.0000    430.2927      6.3872
  1297.7500     97.2699    106.8581      0.0000    427.5676      6.1797
  1298.0000     97.0442    108.8478      0.0000    421.9860      5.9600
  1298.2500     97.2436    108.6564      0.0000    418.9507      5.7165
  1298.5000     97.2496    106.1320      0.0000    427.8893      5.4590
  1298.7500     97.2150    102.6661      0.0000    457.1481      5.2268
  1299.0000     97.3452    100.1339      0.0000    507.0354      5.0868
  1299.2500     97.2353     99.5248      0.0000    567.5611      5.1003
  1299.5000     97.2293    100.3884      0.0000    624.0740      5.2721
  1299.7500     97.1636    101.4859      0.0000    666.0273      5.5371
  1300.0000     97.2018    101.8859      0.0000    691.2133      5.8027
  1300.2500     97.3081    101.4447      0.0000    703.5439      6.0003
  1300.5000     97.2831    100.5145      0.0000    708.5250      6.1020
  1300.7500     97.1505     99.4195      0.0000    710.3697      6.1110
  1301.0000     97.2221     98.2687      0.0000    711.4202      6.0522
  1301.2500     97.2460     97.2197      0.0000    712.7418      5.9673
  1301.5000     97.1911     96.6441      0.0000    714.7570      5.9030
  1301.7500     97.3691     96.8572      0.0000    717.3283      5.8928
  1302.0000     97.1982     97.9956      0.0000    719.5040      5.9386
  1302.2500     97.2389    100.3287      0.0000    719.7777      6.0024
  1302.5000     97.1601    104.2149      0.0000    717.1726      6.0233
  1302.7500     97.2471    109.2732      0.0000    712.1780      5.9539
  1303.0000     97.1982    113.8385      0.0000    706.3440      5.7900
  1303.2500     97.1087    115.8469      0.0000    700.4388      5.5710
  1303.5000     97.2664    114.5138      0.0000    692.6646      5.3580
  1303.7500     97.2628    110.9503      0.0000    679.3723      5.2078
  1304.0000     97.2532    107.0247      0.0000    658.9873      5.1519
  1304.2500     97.1779    103.8615      0.0000    635.5053      5.1877
  1304.5000     97.3619    101.5975      0.0000    617.1461      5.2777
  1304.7500     97.2114    100.0673      0.0000    611.2991      5.3616
  1305.0000     97.1540     99.0434      0.0000    620.6223      5.3833
  1305.2500     97.0370     97.9331      0.0000    642.1330      5.3220
  1305.5000     97.3010     95.9562      0.0000    668.3958      5.2014
  1305.7500     97.1266     92.9168      0.0000    690.9111      5.0701
  1306.0000     97.0848     89.5045      0.0000    704.6695      4.9773
  1306.2500     97.0609     86.5152      0.0000    710.1018      4.9642
  1306.5000     97.1947     83.7297      0.0000    710.8224      5.0577
  1306.7500     97.1469     79.8431      0.0000    710.1526      5.2522
  1307.0000     97.1804     73.8279      0.0000    709.6562      5.4993
  1307.2500     97.2831     66.2995      0.0000    709.6497      5.7281
  1307.5000     97.1098     59.3803      0.0000    710.1556      5.8879
  1307.7500     97.3249     55.4424      0.0000    711.4289      5.9742
  1308.0000     97.0884     55.9759      0.0000    713.9977      6.0143
  1308.2500     97.3141     60.9744      0.0000    718.1995      6.0286
  1308.5000     97.1337     68.9074      0.0000    723.4705      6.0132
  1308.7500     97.1290     77.4465      0.0000    728.1795      5.9608
  1309.0000     97.3045     84.4807      0.0000    730.5665      5.8902
  1309.2500     97.3523     88.6880      0.0000    730.0210      5.8475
  1309.5000     97.2293     89.7927      0.0000    727.3734      5.8788
  1309.7500     97.1362     88.7386      0.0000    723.9564      5.9991
  1310.0000     97.1947     87.1924      0.0000    720.0221      6.1755
  1310.2500     97.4108     86.2887      0.0000    713.5561      6.3396
  1310.5000     97.2318     85.9790      0.0000    701.4298      6.4259
  1310.7500     97.1266     85.9089      0.0000    683.3557      6.4110
  1311.0000     97.1922     86.5189      0.0000    664.5279      6.3250
  1311.2500     97.2293     88.5015      0.0000    652.3629      6.2326
  1311.5000     97.2532     91.3422      0.0000    650.0680      6.1960
  1311.7500     97.3010     93.3046      0.0000    654.5931      6.2392
  1312.0000     97.3976     92.9626      0.0000    660.6860      6.3367
  1312.2500     97.1540     90.2932      0.0000    665.3651      6.4386
  1312.5000     97.2221     86.5264      0.0000    668.6794      6.5138
