~Version Information
VERS.                      2.0: CWLS Log ASCII Standard - VERSION 2.0
WRAP.                       NO: One line per depth step
~Well Information Block
STRT.FT               928.1000: 
STOP.FT              2417.7000: 
STEP.FT                 0.1000: 
NULL.                -999.2500: 
COMP.          Pioneer Natural Resources: COMPANY
WELL.            Chevron 13-13: WELL
FLD.           Purgatoire River: FIELD
LOC.           1560' FSL & 711' FWL--: LOCATION
CNTY.               Las Animas: COUNTY
SRVC.          Superior Well Services: SERVICE COMPANY
DATE.          Mon Feb 12 14:51:53 2007: LOG DATE
UWI.           05 071 08319 00: UNIQUE WELL ID
STAT.                 Colorado: STATE
~Curve Information Block
DEPT.FT            0 000 00 00: Depth
DIR.Ohm-m                     : IEL Induction Resistivity
GR.GAPI                       : Gamma Ray
SN.Ohm-m                      : IEL Short Normal
SP.mV                         : IEL Spontaneous Potential
~Parameter Information Block
~A  Depth       DIR          GR          SN          SP     
# ...
  1624.9000     14.1675     85.5659     15.0201     -5.0484
  1625.0000     14.1061     83.5331     14.4355     -4.7589
  1625.1000     14.1061     82.0381     14.4355     -4.7589
  1625.2000     14.1061     81.1844     14.4355     -4.7589
  1625.3000     13.9482     81.0491     14.1826     -4.3737
  1625.4000     13.9482     81.6798     14.1826     -4.3737
  1625.5000     13.7615     83.0756     14.4743     -3.9059
  1625.6000     13.7615     85.1827     14.4743     -3.9059
  1625.7000     13.7615     87.8895     14.4743     -3.9059
  1625.8000     13.5987     91.0317     15.1223     -3.3753
  1625.9000     13.5987     94.4047     15.1223     -3.3753
  1626.0000     13.4776     97.7876     15.8576     -2.8042
  1626.1000     13.4776    100.9659     15.8576     -2.8042
  1626.2000     13.4776    103.7563     15.8576     -2.8042
  1626.3000     13.3795    106.0245     16.3667     -2.2146
  1626.4000     13.3795    107.6918     16.3667     -2.2146
  1626.5000     13.2628    108.7370     16.4316     -1.6253
  1626.6000     13.2628    109.1834     16.4316     -1.6253
  1626.7000     13.2628    109.0875     16.4316     -1.6253
  1626.8000     13.0836    108.5213     16.1578     -1.0505
  1626.9000     13.0836    107.5646     16.1578     -1.0505
  1627.0000     12.8164    106.3001     15.7763     -0.4992
  1627.1000     12.8164    104.8106     15.7763     -0.4992
  1627.2000     12.8164    103.1834     15.7763     -0.4992
  1627.3000     12.4652    101.5071     15.3806      0.0240
  1627.4000     12.4652     99.8748     15.3806      0.0240
  1627.5000     12.0619     98.3778     14.9631      0.5169
  1627.6000     12.0619     97.0964     14.9631      0.5169
  1627.7000     12.0619     96.0961     14.9631      0.5169
  1627.8000     11.6516     95.4217     14.6153      0.9785
  1627.9000     11.6516     95.0957     14.6153      0.9785
  1628.0000     11.2768     95.1187     14.3902      1.4078
  1628.1000     11.2768     95.4734     14.3902      1.4078
  1628.2000     11.2768     96.1297     14.3902      1.4078
  1628.3000     10.9664     97.0484     14.2636      1.8035
  1628.4000     10.9664     98.1850     14.2636      1.8035
  1628.5000     10.7316     99.4909     14.1517      2.1643
  1628.6000     10.7316    100.9121     14.1517      2.1643
  1628.7000     10.7316    102.3993     14.1517      2.1643
  1628.8000     10.5670    103.9019     14.0033      2.4900
  1628.9000     10.5670    105.3756     14.0033      2.4900
  1629.0000     10.4537    106.7868     13.8433      2.7819
  1629.1000     10.4537    108.1075     13.8433      2.7819
  1629.2000     10.4537    109.3203     13.8433      2.7819
  1629.3000     10.3642    110.4109     13.7206      3.0435
  1629.4000     10.3642    111.3674     13.7206      3.0435
  1629.5000     10.2694    112.1757     13.6331      3.2801
  1629.6000     10.2694    112.8231     13.6331      3.2801
  1629.7000     10.2694    113.2988     13.6331      3.2801
  1629.8000     10.1468    113.5986     13.5101      3.4981
  1629.9000     10.1468    113.7308     13.5101      3.4981
  1630.0000      9.9865    113.7171     13.2107      3.7039
  1630.1000      9.9865    113.5936     13.2107      3.7039
  1630.2000      9.9865    113.4063     13.2107      3.7039
  1630.3000      9.7939    113.2051     12.6902      3.9023
  1630.4000      9.7939    113.0379     12.6902      3.9023
  1630.5000      9.5875    112.9449     12.0918      4.0962
  1630.6000      9.5875    112.9533     12.0918      4.0962
  1630.7000      9.5875    113.0791     12.0918      4.0962
  1630.8000      9.3937    113.3275     11.5417      4.2865
  1630.9000      9.3937    113.6976     11.5417      4.2865
  1631.0000      9.2396    114.1831     11.1002      4.4723
  1631.1000      9.2396    114.7757     11.1002      4.4723
  1631.2000      9.2396    115.4701     11.1002      4.4723
  1631.3000      9.1467    116.2568     10.8392      4.6524
  1631.4000      9.1467    117.1289     10.8392      4.6524
  1631.5000      9.1250    118.0733     10.8141      4.8266
  1631.6000      9.1250    119.0723     10.8141      4.8266
  1631.7000      9.1250    120.1015     10.8141      4.8266
  1631.8000      9.1686    121.1243     10.9780      4.9965
  1631.9000      9.1686    122.0975     10.9780      4.9965
  1632.0000      9.2561    122.9694     11.0842      5.1663
  1632.1000      9.2561    123.6912     11.0842      5.1663
  1632.2000      9.2561    124.2187     11.0842      5.1663
  1632.3000      9.3555    124.5244     11.0142      5.3424
  1632.4000      9.3555    124.6054     11.0142      5.3424
  1632.5000      9.4362    124.4866     10.8842      5.5324
  1632.6000      9.4362    124.2209     10.8842      5.5324
  1632.7000      9.4362    123.8859     10.8842      5.5324
  1632.8000      9.4811    123.5729     10.7772      5.7440
  1632.9000      9.4811    123.3808     10.7772      5.7440
  1633.0000      9.4920    123.4022     10.5938      5.9829
  1633.1000      9.4920    123.7077     10.5938      5.9829
  1633.2000      9.4920    124.3521     10.5938      5.9829
  1633.3000      9.4841    125.3621     10.2430      6.2520
  1633.4000      9.4841    126.7387     10.2430      6.2520
  1633.5000      9.4761    128.4579      9.8354      6.5510
  1633.6000      9.4761    130.4690      9.8354      6.5510
  1633.7000      9.4761    132.7005      9.8354      6.5510
  1633.8000      9.4810    135.0586      9.5479      6.8764
  1633.9000      9.4810    137.4264      9.5479      6.8764
  1634.0000      9.5023    139.6786      9.6113      7.2228
  1634.1000      9.5023    141.6835      9.6113      7.2228
  1634.2000      9.5023    143.3181      9.6113      7.2228
  1634.3000      9.5331    144.4823     10.0480      7.5844
  1634.4000      9.5331    145.1146     10.0480      7.5844
  1634.5000      9.5584    145.1938     10.5040      7.9560
  1634.6000      9.5584    144.7528     10.5040      7.9560
  1634.7000      9.5584    143.8712     10.5040      7.9560
  1634.8000      9.5603    142.6658     10.7383      8.3338
  1634.9000      9.5603    141.2779     10.7383      8.3338
  1635.0000      9.5258    139.8618     10.8603      8.7162
  1635.1000      9.5258    138.5625     10.8603      8.7162
  1635.2000      9.5258    137.5064     10.8603      8.7162
  1635.3000      9.4520    136.7941     11.0714      9.1020
  1635.4000      9.4520    136.4955     11.0714      9.1020
  1635.5000      9.3475    136.6479     11.3512      9.4901
  1635.6000      9.3475    137.2594     11.3512      9.4901
  1635.7000      9.3475    138.3098     11.3512      9.4901
  1635.8000      9.2278    139.7532     11.5625      9.8775
  1635.9000      9.2278    141.5241     11.5625      9.8775
  1636.0000      9.1102    143.5369     11.6609     10.2589
  1636.1000      9.1102    145.6947     11.6609     10.2589
  1636.2000      9.1102    147.8895     11.6609     10.2589
  1636.3000      9.0074    150.0149     11.7025     10.6262
  1636.4000      9.0074    151.9678     11.7025     10.6262
  1636.5000      8.9253    153.6548     11.7021     10.9697
  1636.6000      8.9253    154.9957     11.7021     10.9697
  1636.7000      8.9253    155.9306     11.7021     10.9697
  1636.8000      8.8631    156.4146     11.6942     11.2789
  1636.9000      8.8631    156.4245     11.6942     11.2789
  1637.0000      8.8179    155.9628     11.6957     11.5435
  1637.1000      8.8179    155.0599     11.6957     11.5435
  1637.2000      8.8179    153.7770     11.6957     11.5435
  1637.3000      8.7895    152.2012     11.6617     11.7534
  1637.4000      8.7895    150.4404     11.6617     11.7534
  1637.5000      8.7833    148.6175     11.6238     11.8981
  1637.6000      8.7833    146.8503     11.6238     11.8981
  1637.7000      8.7833    145.2416     11.6238     11.8981
  1637.8000      8.8091    143.8639     11.6335     11.9648
  1637.9000      8.8091    142.7582     11.6335     11.9648
  1638.0000      8.8791    141.9304     11.6888     11.9375
  1638.1000      8.8791    141.3533     11.6888     11.9375
  1638.2000      8.8791    140.9814     11.6888     11.9375
