~Version Information
VERS.                      2.0: CWLS Log ASCII Standard - VERSION 2.0
WRAP.                       NO: One line per depth step
~Well Information Block
STRT.FT               350.0000: 
STOP.FT              2264.0000: 
STEP.FT                 0.1000: 
NULL.                -999.2500: 
COMP.          Pioneer Natural Resources: COMPANY
WELL.             Warrior 32-1: WELL
FLD.           Purgatoire River: FIELD
LOC.           2624' FNL & 2392' FEL: LOCATION
PROV.                 Colorado: PROVINCE
CNTY.               Las Animas: COUNTRY
SRVC.                Patterson: SERVICE COMPANY
DATE.          Tue Oct 05 06:54:20 2004: LOG DATE
UWI.           05 071 08176 00: UNIQUE WELL ID
~Curve Information Block
DEPT.FT            0 000 00 00: Depth
DCAL.in                       : CDL Caliper
RHOB.g/cc                     : CDL Bulk Density
RHOC.g/cc                     : CDL Density Correction
DPOR.pu                       : CDL Density Porosity
NPOR.pu                       : Neutron Porosity
GR.GAPI                       : Gamma Ray
~Parameter Information Block
~A  Depth       DCAL        RHOB        RHOC        DPOR        NPOR         GR     
# ...
  1991.6000      7.8957      2.4999      0.0779      9.0959     25.8736    109.1919
  1991.7000      7.8957      2.5115      0.1158      8.3966     25.5625    106.7359
  1991.8000      7.8958      2.5116      0.0921      8.3869     25.2875    114.6375
  1991.9000      7.8958      2.5041      0.1045      8.8401     25.0937    123.7220
  1992.0000      7.8963      2.4987      0.0710      9.1696     24.8598    125.0815
  1992.1000      7.8963      2.5001      0.0813      9.0844     24.4945    121.1834
  1992.2000      7.8963      2.5037      0.0368      8.8637     24.1408    118.0601
  1992.3000      7.8972      2.5004      0.0903      9.0643     23.8284    117.5597
  1992.4000      7.8972      2.4900      0.0490      9.6942     23.2170    115.9567
  1992.5000      7.8987      2.4868      0.0514      9.8917     22.2767    112.8516
  1992.6000      7.8987      2.4962      0.0673      9.3186     21.6863    112.6016
  1992.7000      7.8987      2.5099      0.0643      8.4910     21.6963    115.0932
  1992.8000      7.8983      2.5210      0.0843      7.8158     21.7279    115.8011
  1992.9000      7.8983      2.5264      0.0631      7.4888     21.4674    110.0401
  1993.0000      7.8969      2.5221      0.0927      7.7525     20.8374    100.9944
  1993.1000      7.8969      2.5132      0.0495      8.2886     20.1625     96.6996
  1993.2000      7.8969      2.5200      0.0332      7.8799     20.0509     96.3338
  1993.3000      7.8959      2.5409      0.1007      6.6147     20.2119     96.0434
  1993.4000      7.8959      2.5450      0.0575      6.3610     20.0233     93.3255
  1993.5000      7.8931      2.5238      0.0058      7.6473     19.4190     85.4504
  1993.6000      7.8931      2.5042     -0.0170      8.8375     18.6375     76.1123
  1993.7000      7.8931      2.5085      0.0279      8.5730     17.8406     72.7677
  1993.8000      7.8837      2.5326      0.0637      7.1180     17.1325     73.3507
  1993.9000      7.8837      2.5577      0.0818      5.5955     16.6539     69.0643
  1994.0000      7.8658      2.5669      0.0916      5.0354     16.2346     61.2044
  1994.1000      7.8658      2.5583      0.1053      5.5571     15.7132     56.1123
  1994.2000      7.8658      2.5484      0.0443      6.1591     15.2125     54.0131
  1994.3000      7.8502      2.5578      0.0527      5.5857     15.0655     52.2826
  1994.4000      7.8502      2.5860      0.0529      3.8777     15.3470     50.5336
  1994.5000      7.8466      2.6125      0.0895      2.2728     15.7040     52.8943
  1994.6000      7.8466      2.6266      0.0505      1.4167     15.7396     58.7015
  1994.7000      7.8466      2.6342      0.0859      0.9568     15.3981     62.3436
  1994.8000      7.8476      2.6356      0.0849      0.8721     15.1030     61.6002
  1994.9000      7.8476      2.6319      0.0811      1.0971     15.3411     57.6434
  1995.0000      7.8464      2.6252      0.1151      1.5014     16.0096     55.7493
  1995.1000      7.8464      2.6122      0.0575      2.2901     16.5250     61.0749
  1995.2000      7.8464      2.5965      0.0880      3.2443     16.5647     69.1955
  1995.3000      7.8507      2.5875      0.0377      3.7857     16.2256     71.7325
  1995.4000      7.8507      2.5921      0.0445      3.5111     15.7410     70.8133
  1995.5000      7.8688      2.5988      0.0998      3.1015     15.6827     74.1537
  1995.6000      7.8688      2.5980      0.0228      3.1485     16.4669     80.8513
  1995.7000      7.8688      2.6041      0.0441      2.7828     17.4308     84.5069
  1995.8000      7.8977      2.6165      0.0832      2.0324     17.9262     82.4914
  1995.9000      7.8977      2.6098      0.0968      2.4363     18.3468     79.1825
  1996.0000      7.9257      2.5748      0.0849      4.5573     18.7842     83.8042
  1996.1000      7.9257      2.5357      0.0007      6.9299     18.9449     97.7016
  1996.2000      7.9257      2.5188      0.0257      7.9544     19.1200    110.1323
  1996.3000      7.9434      2.5251      0.0525      7.5678     19.4309    115.2019
  1996.4000      7.9434      2.5426      0.0619      6.5108     19.3467    117.4487
  1996.5000      7.9497      2.5561      0.0777      5.6904     18.6879    116.0116
  1996.6000      7.9497      2.5549      0.0763      5.7617     18.0438    108.4164
  1996.7000      7.9497      2.5462      0.0357      6.2913     18.0357    102.3606
  1996.8000      7.9476      2.5390      0.0699      6.7273     18.3364    104.7397
  1996.9000      7.9476      2.5248      0.0610      7.5878     18.2847    109.2231
  1997.0000      7.9342      2.5050      0.0002      8.7855     17.9660    105.5597
  1997.1000      7.9342      2.4960      0.0530      9.3315     17.6816     95.3752
  1997.2000      7.9342      2.4992      0.0645      9.1403     17.2553     87.4893
  1997.3000      7.9058      2.5115      0.0417      8.3945     16.4991     83.3434
  1997.4000      7.9058      2.5281      0.0775      7.3856     15.7545     79.2344
  1997.5000      7.8722      2.5296      0.1018      7.2980     15.4603     73.6658
  1997.6000      7.8722      2.5138      0.0720      8.2544     15.4962     66.1492
  1997.7000      7.8722      2.5001      0.1007      9.0873     15.5383     56.7165
  1997.8000      7.8459      2.4905      0.1033      9.6693     15.5766     50.8796
  1997.9000      7.8459      2.4756      0.0721     10.5668     15.3670     53.1359
  1998.0000      7.8310      2.4605      0.0572     11.4862     14.7059     60.1401
  1998.1000      7.8310      2.4605      0.0711     11.4876     14.0440     66.9413
  1998.2000      7.8310      2.4842      0.1045     10.0509     13.8849     71.4262
  1998.3000      7.8264      2.5326      0.1146      7.1166     14.1116     73.1828
  1998.4000      7.8264      2.5997      0.1700      3.0457     14.3292     73.3187
  1998.5000      7.8392      2.6573      0.2306     -0.4412     14.3002     72.1740
  1998.6000      7.8392      2.6772      0.2023     -1.6471     14.2024     64.9658
  1998.7000      7.8392      2.6667      0.1864     -1.0092     14.4687     55.1247
  1998.8000      7.8737      2.6492      0.1561      0.0513     14.7972     53.5496
  1998.9000      7.8737      2.6397      0.1077      0.6251     14.7228     58.8492
  1999.0000      7.9153      2.6359      0.1330      0.8549     14.8059     60.7797
  1999.1000      7.9153      2.6220      0.1154      1.6972     15.5342     58.2923
  1999.2000      7.9153      2.5969      0.0863      3.2188     16.0969     58.8537
  1999.3000      7.9499      2.5751      0.0979      4.5423     16.0341     60.6077
  1999.4000      7.9499      2.5615      0.0681      5.3611     15.8033     58.3445
  1999.5000      7.9738      2.5544      0.0382      5.7958     15.7575     55.7336
  1999.6000      7.9738      2.5539      0.0608      5.8258     16.1610     54.2173
  1999.7000      7.9738      2.5609      0.0339      5.4018     16.6103     52.2745
  1999.8000      7.9855      2.5756      0.0468      4.5065     16.8426     53.3074
  1999.9000      7.9855      2.5946      0.0617      3.3558     17.0006     57.1914
  2000.0000      7.9924      2.6115      0.1026      2.3326     16.6531     57.8604
  2000.1000      7.9924      2.6242      0.0793      1.5654     15.7493     55.1423
  2000.2000      7.9924      2.6349      0.1117      0.9124     15.2248     53.0985
  2000.3000      7.9999      2.6382      0.1069      0.7152     15.4261     51.6512
  2000.4000      7.9999      2.6292      0.1087      1.2580     15.5361     50.3518
  2000.5000      8.0105      2.6171      0.0890      1.9926     15.4079     50.7229
  2000.6000      8.0105      2.6097      0.0921      2.4399     15.6528     50.2273
  2000.7000      8.0105      2.6051      0.0784      2.7230     15.9521     47.5916
  2000.8000      8.0250      2.6052      0.0573      2.7180     15.7524     45.9958
  2000.9000      8.0250      2.6114      0.0520      2.3396     15.5555     46.0098
  2001.0000      8.0379      2.6152      0.0676      2.1077     15.8600     47.4552
  2001.1000      8.0379      2.6122      0.0808      2.2882     16.2039     50.9904
