~Version Information
VERS.                      2.0: CWLS Log ASCII Standard - VERSION 2.0
WRAP.                       NO: One line per depth step
~Well Information Block
STRT.FT               710.0000: 
STOP.FT              2922.5000: 
STEP.FT                 0.2500: 
NULL.                -999.2500: 
COMP.          Petrogulf Corporation: COMPANY
WELL.            Montoya 1-41V: WELL
FLD.           Purgatorie River: FIELD
LOC.           610' FNL & 1205' FEL: LOCATION
PROV.                 Colorado: PROVINCE
CNTY.               Las Animas: COUNTRY
SRVC.                Patterson: SERVICE COMPANY
DATE.          Mon Aug 22 08:00:56 2005: LOG DATE
UWI.                          : UNIQUE WELL ID
~Curve Information Block
DEPT.FT            0 000 00 00: Depth
SP.mV                         : DIL Spontaneous Potential
RILD.Ohm-m                    : DIL Deep Resistivity
RILM.Ohm-m                    : DIL Medium Resistivity
RLL3.Ohm-m                    : DIL Shallow Resistivity
GR.GAPI                       : Gamma Ray
~Parameter Information Block
~A  Depth        SP         RILD        RILM        RLL3         GR     
# ...
  2894.0000     72.1734     16.6081     21.0519     27.9630     48.2753
  2894.2500     71.0209     16.0453     20.8543     28.2692     66.0331
  2894.5000     70.3236     15.3933     20.4619     27.9410     77.0853
  2894.7500     69.6687     14.7375     19.6622     27.0415     59.9198
  2895.0000     68.9545     14.2561     18.6533     25.3587     61.4653
  2895.2500     68.2985     13.7516     16.9334     22.2698     51.7086
  2895.5000     67.6698     13.2078     16.0565     18.5156     70.3129
  2895.7500     67.2068     12.9008     14.6627     17.3354     62.5732
  2896.0000     67.0381     12.8432     13.3977     17.9294     66.2472
  2896.2500     67.2743     12.9193     12.0421     17.2043     72.9370
  2896.5000     67.8267     13.0853     11.3448     13.7145     74.2656
  2896.7500     68.3451     13.3838     10.5623     10.1934     82.2705
  2897.0000     68.7593     13.1073     10.4845      8.9081     81.3006
  2897.2500     69.2785     13.2760     11.0123      8.8815     82.2970
  2897.5000     70.2207     13.2853     11.8671     10.6935     77.3933
  2897.7500     71.4748     13.2352     12.9642     16.5329     69.5454
  2898.0000     73.0274     12.8198     13.9455     24.6724     64.5312
  2898.2500     74.4726     12.3620     14.8606     27.4654     66.7767
  2898.5000     75.9103     12.2568     15.4374     26.3681     42.3915
  2898.7500     77.5706     11.6921     15.4035     23.2926      6.2024
  2899.0000     79.2289     11.0112     15.2062     20.7437      0.0056
  2899.2500     80.9102     11.1915     14.5475     22.5599   -999.2500
  2899.5000     82.5822     11.1664     13.7126     25.3586   -999.2500
  2899.7500     84.6943     11.6001     12.6290     23.5506   -999.2500
  2900.0000     86.7840     11.5489     11.7967     16.8104   -999.2500
  2900.2500     88.7212     11.4152     11.1948     10.3616   -999.2500
  2900.5000     89.9835     11.3480     10.6150      8.4275   -999.2500
  2900.7500     90.8028     11.3085     10.3643     10.5218   -999.2500
  2901.0000     91.2431     11.4817     10.0619     12.7333   -999.2500
  2901.2500     91.3992     11.0717      9.9740     10.2604   -999.2500
  2901.5000     91.2415     10.7847     10.0598      8.7626   -999.2500
  2901.7500     90.6311     10.3434     10.3831     10.1092   -999.2500
  2902.0000     89.8512      9.6878     10.6693     14.5355   -999.2500
  2902.2500     89.2074      9.3888     11.0006     21.5478   -999.2500
  2902.5000     88.6886      9.2941     11.2350     28.9778   -999.2500
  2902.7500     88.4279      9.2498     11.3249     31.7807   -999.2500
  2903.0000     88.4998      9.1426     10.7201     29.5389   -999.2500
  2903.2500     88.8987      9.1861     10.2522     21.5448   -999.2500
  2903.5000     89.5697      9.2958      9.7693     13.6911   -999.2500
  2903.7500     90.3238      9.7000      9.5691      9.9812   -999.2500
  2904.0000     91.0910     10.0356      9.6535      9.3852   -999.2500
  2904.2500     91.6548      9.9184      9.8069      9.8701   -999.2500
  2904.5000     91.8465      9.5809     10.3719     10.6099   -999.2500
  2904.7500     91.7977      9.8046     10.9301     12.3105   -999.2500
  2905.0000     91.5265      9.6512     11.5063     16.2844   -999.2500
  2905.2500     91.0059      9.5967     11.3770     18.5832   -999.2500
  2905.5000     90.1328      9.7036     11.2795     17.1488   -999.2500
  2905.7500     88.6059      9.8251     11.2200     13.1501   -999.2500
  2906.0000     86.5776      9.9007     11.0493     10.8909   -999.2500
  2906.2500     84.3188      9.9564     11.2803     11.3277   -999.2500
  2906.5000     82.4690     10.4792     11.9886     12.8944   -999.2500
  2906.7500     81.0025     10.7414     12.8857     15.3250   -999.2500
  2907.0000     79.4509     10.7234     13.5356     17.2077   -999.2500
  2907.2500     77.7916     11.1089     14.4476     17.8643   -999.2500
  2907.5000     76.4362     11.3440     15.1931     19.3564   -999.2500
  2907.7500     75.7515     11.7316     16.1408     21.3323   -999.2500
  2908.0000     75.5085     12.7637     16.4054     22.0901   -999.2500
  2908.2500     75.6636     13.4024     17.2278     22.0613   -999.2500
  2908.5000     76.0532     13.7954     16.9926     20.8828   -999.2500
  2908.7500     76.2215     14.1368     17.6529     17.3602   -999.2500
  2909.0000     75.5636     14.9622     18.1418     16.3207   -999.2500
  2909.2500     74.0721     15.1920     19.1837     18.4440   -999.2500
  2909.5000     72.2193     15.3143     19.9681     20.2037   -999.2500
  2909.7500     70.3400     15.6422     21.4171     21.1722   -999.2500
  2910.0000     68.3896     15.6479     22.9623     22.2788   -999.2500
  2910.2500     66.4355     14.9366     21.5824     23.6359   -999.2500
  2910.5000     64.8988     13.8514     21.2089     24.9699   -999.2500
  2910.7500     57.1013     14.4295     21.0936     24.9910   -999.2500
  2911.0000      6.8080     78.3942     19.0048     23.7176   -999.2500
  2911.2500      0.0168    190.7635     16.8317     23.5883   -999.2500
  2911.5000   -999.2500    259.4902     14.2130     22.9643   -999.2500
  2911.7500   -999.2500    265.9073     12.2166     18.7347   -999.2500
  2912.0000   -999.2500    282.0085     10.8245     11.8268   -999.2500
  2912.2500   -999.2500    286.4299     10.2905      8.5861   -999.2500
  2912.5000   -999.2500    287.4945      9.6834      8.4060   -999.2500
  2912.7500   -999.2500    293.3680      9.1553      9.9542   -999.2500
  2913.0000   -999.2500    293.5806      8.8753      9.7683   -999.2500
  2913.2500   -999.2500    278.8011      8.7961      9.1317   -999.2500
  2913.5000   -999.2500    257.3815      8.6184      9.7937   -999.2500
  2913.7500   -999.2500    267.8476      8.4919     12.0201   -999.2500
  2914.0000   -999.2500   1946.9441      8.3367     13.6850   -999.2500
  2914.2500   -999.2500  13009.1367      8.1139     12.4908   -999.2500
  2914.5000   -999.2500 100000.0000      8.8016     10.8211   -999.2500
  2914.7500   -999.2500 100000.0000     55.1222      9.7783   -999.2500
  2915.0000   -999.2500 100000.0000    189.5721      9.6293   -999.2500
  2915.2500   -999.2500 100000.0000   1105.3121     10.4278   -999.2500
  2915.5000   -999.2500 100000.0000   1086.4539     10.9430   -999.2500
  2915.7500   -999.2500 100000.0000   1080.2748     11.3833   -999.2500
  2916.0000   -999.2500 100000.0000    970.8460     12.8988   -999.2500
  2916.2500   -999.2500 100000.0000    856.4732     14.1592   -999.2500
  2916.5000   -999.2500 100000.0000    719.5287     13.1874   -999.2500
  2916.7500   -999.2500 100000.0000    617.3124     11.8755   -999.2500
  2917.0000   -999.2500 100000.0000    551.1732      9.8381   -999.2500
  2917.2500   -999.2500 100000.0000    518.4580      8.3500   -999.2500
  2917.5000   -999.2500 100000.0000    486.9959      8.4985   -999.2500
  2917.7500   -999.2500 100000.0000    459.8576     12.0901   -999.2500
  2918.0000   -999.2500   -999.2500    445.7067     22.6326   -999.2500
  2918.2500   -999.2500   -999.2500    441.4963     31.1360   -999.2500
  2918.5000   -999.2500   -999.2500    432.6486     34.7152   -999.2500
  2918.7500   -999.2500   -999.2500    426.1481     35.2809   -999.2500
  2919.0000   -999.2500   -999.2500    418.2712     34.8369   -999.2500
  2919.2500   -999.2500   -999.2500    406.9244     31.7486   -999.2500
  2919.5000   -999.2500   -999.2500    441.1359     20.4582   -999.2500
  2919.7500   -999.2500   -999.2500   2852.5425      9.8729   -999.2500
  2920.0000   -999.2500   -999.2500  11085.1309      0.6923   -999.2500
  2920.2500   -999.2500   -999.2500 100000.0000     -0.4033   -999.2500
  2920.5000   -999.2500   -999.2500 100000.0000   -999.2500   -999.2500
  2920.7500   -999.2500   -999.2500 100000.0000   -999.2500   -999.2500
  2921.0000   -999.2500   -999.2500 100000.0000   -999.2500   -999.2500
  2921.2500   -999.2500   -999.2500 100000.0000   -999.2500   -999.2500
  2921.5000   -999.2500   -999.2500 100000.0000   -999.2500   -999.2500
  2921.7500   -999.2500   -999.2500 100000.0000   -999.2500   -999.2500
