~Version Information
VERS.                      2.0: CWLS Log ASCII Standard - VERSION 2.0
WRAP.                       NO: One line per depth step
~Well Information Block
STRT.FT                60.5000: 
STOP.FT              1875.7500: 
STEP.FT                 0.2500: 
NULL.                -999.2500: 
COMP.          Petrogulf Corporation: COMPANY
WELL.             State 16-14R: WELL
FLD.           Purgatorie River: FIELD
LOC.           598' FSL & 682' FWL--: LOCATION
PROV.                       CO: PROVINCE
CNTY.               Las Animas: COUNTRY
SRVC.                         : SERVICE COMPANY
DATE.          Fri Nov 12 08:50:45 2004: LOG DATE
UWI.            005 071 08034 : UNIQUE WELL ID
~Curve Information Block
DEPT.FT            0 000 00 00: Depth
GR.GAPI                       : Gamma Ray
CCL.                          : Casing Collar Locator
TT3.usec                      : CBL 3' Travel Time
AMP3.mV                       : CBL 3' Amplitude
~Parameter Information Block
~A  Depth        GR         CCL         TT3         AMP3    
# ...
   295.0000     65.3241      0.0000    546.8210     16.5434
   295.2500     66.5660      0.0000    598.7283     16.6320
   295.5000     71.1107      0.0000    637.0438     16.7320
   295.7500     77.6310      0.0000    663.2502     16.8198
   296.0000     85.0919      0.0000    671.1979     16.8979
   296.2500     93.3463      0.0000    650.3427     16.9873
   296.5000    102.1229      0.0000    602.4822     17.1030
   296.7500    110.0279      0.0000    550.8842     17.2440
   297.0000    114.7393      0.0000    527.9476     17.3976
   297.2500    114.1245      0.0000    550.6823     17.5495
   297.5000    107.9327      0.0000    607.0378     17.6973
   297.7500     98.9137      0.0000    665.0593     17.8524
   298.0000     91.4329      0.0000    693.6034     18.0209
   298.2500     88.2537      0.0000    676.5421     18.1880
   298.5000     88.9069      0.0000    616.0640     18.3324
   298.7500     90.9814      0.0000    529.9569     18.4512
   299.0000     92.3485      0.0000    443.8826     18.5603
   299.2500     92.4279      0.0000    379.7148     18.6708
   299.5000     92.0770      0.0000    348.0487     18.7531
   299.7500     92.4273      0.0000    349.8018     18.7219
   300.0000     93.8147      0.0000    381.4440     18.4785
   300.2500     95.8881      0.0000    437.4014     17.9953
   300.5000     98.2609      0.0000    511.1620     17.3482
   300.7500    100.3825      0.0000    596.4421     16.6564
   301.0000    101.0268      0.0000    685.3096     16.0111
   301.2500     98.6890      0.0000    765.8194     15.4568
   301.5000     92.6936      0.0000    826.2192     15.0077
   301.7500     83.7109      0.0000    861.8601     14.6663
   302.0000     73.2363     -2.0000    874.1571     14.4367
   302.2500     62.6518      2.0000    863.5626     14.3313
   302.5000     52.6384      1.7969    827.3035     14.3907
   302.7500     43.4424      0.0000    763.8755     14.7096
   303.0000     35.6180      0.0000    677.4616     15.4016
   303.2500     30.1006      0.0000    579.0473     16.4680
   303.5000     27.3167      0.0000    485.5540     17.7022
   303.7500     26.6073      0.0000    416.1616     18.7933
   304.0000     26.9439      0.0000    385.0232     19.5384
   304.2500     28.1419      0.0000    394.4912     19.9204
   304.5000     31.1735      0.0000    433.8724     20.0256
   304.7500     37.2798      0.0000    484.1810     19.9602
   305.0000     46.8516      0.0000    525.7722     19.8260
   305.2500     59.0748      0.0000    545.8906     19.7104
   305.5000     72.3943      0.0000    544.8339     19.6668
   305.7500     85.2415      0.0000    535.3416     19.7046
   306.0000     96.4240      0.0000    528.9045     19.8094
   306.2500    104.8430      0.0000    520.6956     19.9730
   306.5000    109.1587      0.0000    495.1202     20.1932
   306.7500    108.4710      0.0000    447.4357     20.4405
   307.0000    103.5800      0.0000    391.8696     20.6432
   307.2500     97.1114      0.0000    347.1599     20.7248
   307.5000     92.0015      0.0000    320.9850     20.6628
   307.7500     89.6627      0.0000    309.5656     20.5051
   308.0000     89.3741      0.0000    305.8753     20.3311
   308.2500     89.3896      0.0000    305.2277     20.2016
   308.5000     88.7374      0.0000    306.2472     20.1370
   308.7500     87.8725      0.0000    310.6421     20.1192
   309.0000     87.6393      0.0000    323.8872     20.1047
   309.2500     88.1347      0.0000    354.8361     20.0503
   309.5000     88.8939      0.0000    410.1098     19.9399
   309.7500     89.6648      0.0000    483.2698     19.7950
   310.0000     90.5214      0.0000    549.2518     19.6644
   310.2500     91.5490      0.0000    576.1986     19.6017
   310.5000     92.8617      0.0000    549.2993     19.6386
   310.7500     94.5750      0.0000    483.4037     19.7656
   311.0000     96.1229      0.0000    410.8869     19.9334
   311.2500     95.8502      0.0000    358.4783     20.0778
   311.5000     92.2837      0.0000    335.9507     20.1494
   311.7500     86.0606      0.0000    340.3866     20.1326
   312.0000     79.8033      0.0000    362.3584     20.0553
   312.2500     75.7207      0.0000    386.9837     19.9838
   312.5000     73.7785      0.0000    397.6384     19.9875
   312.7500     72.3740      0.0000    386.4786     20.0879
   313.0000     70.4311      0.0000    360.5664     20.2417
   313.2500     68.6141      0.0000    334.1967     20.3807
   313.5000     68.7398      0.0000    316.5951     20.4644
   313.7500     72.3400      0.0000    308.1977     20.4985
   314.0000     79.6027      0.0000    305.2095     20.5220
   314.2500     88.9630      0.0000    304.2995     20.5919
   314.5000     97.4720      0.0000    303.8792     20.7672
   314.7500    102.2847      0.0000    303.4816     21.0824
   315.0000    102.3444      0.0000    303.0746     21.5187
   315.2500     98.6171      0.0000    302.6987     22.0011
   315.5000     92.7820      0.0000    302.4053     22.4317
   315.7500     85.9523      0.0000    302.2242     22.7238
   316.0000     78.6889      0.0000    302.1684     22.8178
   316.2500     71.9439      0.0000    302.2373     22.6924
   316.5000     67.4734      0.0000    302.4223     22.3793
   316.7500     67.1044      0.0000    302.7124     21.9603
   317.0000     71.6081      0.0000    303.0866     21.5401
   317.2500     79.9263      0.0000    303.4918     21.2113
   317.5000     89.1905      0.0000    303.8393     21.0219
   317.7500     96.0464      0.0000    304.0510     20.9578
   318.0000     98.7845      0.0000    304.1077     20.9583
   318.2500     98.2842      0.0000    304.0342     20.9698
   318.5000     96.7445      0.0000    303.8551     20.9859
   318.7500     95.8078      0.0000    303.6111     21.0206
   319.0000     95.9640      0.0000    303.4409     21.0509
   319.2500     97.0298      0.0000    303.7699     21.0069
   319.5000     98.4858      0.0000    305.8767     20.8253
   319.7500     99.5535      0.0000    313.0748     20.4960
   320.0000     99.5188      0.0000    331.8533     20.0594
   320.2500     98.0542      0.0000    370.6774     19.5740
   320.5000     95.2220      0.0000    434.5243     19.1012
   320.7500     91.5325      0.0000    517.7147     18.7070
   321.0000     88.1826      0.0000    602.5172     18.4578
   321.2500     86.9060      0.0000    667.1448     18.3958
   321.5000     89.0192      0.0000    697.6404     18.5090
   321.7500     94.0556      0.0000    695.1172     18.7246
   322.0000     99.2833      0.0000    674.0622     18.9411
   322.2500    101.1658      0.0000    651.2880     19.0827
   322.5000     97.8023      0.0000    632.2680     19.1419
   322.7500     90.0465      0.0000    609.8734     19.1756
   323.0000     80.5540      0.0000    579.4915     19.2514
   323.2500     72.0605      0.0000    549.6279     19.3965
   323.5000     66.1615      0.0000    530.1501     19.5973
   323.7500     62.9305      0.0000    514.8962     19.8389
   324.0000     61.3463      0.0000    486.8192     20.1290
   324.2500     60.2116      0.0000    439.9076     20.4792
   324.5000     58.8409      0.0000    387.4046     20.8675
   324.7500     57.0636      0.0000    348.5314     21.2239
   325.0000     55.1089      0.0000    335.2678     21.4618
   325.2500     53.8902      0.0000    352.1469     21.5331
   325.5000     54.9069      0.0000    399.4565     21.4554
   325.7500     59.0537      0.0000    468.9894     21.2924
   326.0000     65.4707      0.0000    539.3719     21.1093
   326.2500     72.0760      0.0000    583.8926     20.9408
   326.5000     77.3494      0.0000    587.6835     20.7905
   326.7500     81.3316      0.0000    556.5797     20.6563
   327.0000     84.8462      0.0000    510.7938     20.5455
   327.2500     87.9969      0.0000    473.6759     20.4662
   327.5000     89.6795      0.0000    461.5744     20.4191
   327.7500     88.6280      0.0000    473.4078     20.4127
   328.0000     84.7707      0.0000    488.9304     20.4733
   328.2500     79.4229      0.0000    486.2814     20.6192
