~Version Information
VERS.                      2.0: CWLS Log ASCII Standard - VERSION 2.0
WRAP.                       NO: One line per depth step
~Well Information Block
STRT.FT               475.0000: 
STOP.FT              2336.7000: 
STEP.FT                 0.1000: 
NULL.                -999.2500: 
COMP.          Pioneer Natural Resources: COMPANY
WELL.              Bobsy 34-11: WELL
FLD.           Purgatoire River: FIELD
LOC.           1937' FEL & 451' FSL----: LOCATION
PROV.                 Colorado: PROVINCE
CNTY.               Las Animas: COUNTRY
SRVC.                Patterson: SERVICE COMPANY
DATE.          Fri Apr 08 11:07:54 2005: LOG DATE
UWI.           05 071 08330 00: UNIQUE WELL ID
~Curve Information Block
DEPT.FT            0 000 00 00: Depth
DCAL.in                       : CDL Caliper
RHOB.g/cc                     : CDL Bulk Density
RHOC.g/cc                     : CDL Density Correction
DPOR.pu                       : CDL Density Porosity
NPOR.pu                       : Neutron Porosity
GR.GAPI                       : Gamma Ray
~Parameter Information Block
~A  Depth       DCAL        RHOB        RHOC        DPOR        NPOR         GR     
# ...
   964.6000      7.8910      2.6154     -0.0345      2.0996     30.0850    116.3752
   964.7000      7.8910      2.5795     -0.0501      4.2754     29.8384    119.6999
   964.8000      7.8909      2.5615     -0.0208      5.3639     29.5742    115.1531
   964.9000      7.8909      2.5606     -0.0005      5.4210     29.2290    108.5799
   965.0000      7.8910      2.5703      0.0160      4.8276     28.9476    110.3575
   965.1000      7.8910      2.5872      0.0142      3.8083     28.8514    118.5365
   965.2000      7.8910      2.6031      0.0184      2.8433     28.8814    127.0099
   965.3000      7.8918      2.6071      0.0536      2.6027     28.9505    132.8139
   965.4000      7.8918      2.5984      0.0222      3.1299     28.7915    135.4783
   965.5000      7.8925      2.5889      0.0147      3.7051     28.1571    134.4690
   965.6000      7.8925      2.5850      0.0606      3.9385     27.3180    129.1657
   965.7000      7.8925      2.5814      0.0207      4.1561     26.5072    125.0816
   965.8000      7.8927      2.5758      0.0391      4.4943     25.8202    126.9386
   965.9000      7.8927      2.5796     -0.0227      4.2648     25.4503    131.0666
   966.0000      7.8922      2.5965      0.0294      3.2430     25.2713    132.2377
   966.1000      7.8922      2.6024      0.0993      2.8836     24.8177    129.2399
   966.2000      7.8922      2.5861      0.0319      3.8732     23.7579    124.5692
   966.3000      7.8910      2.5687      0.0537      4.9278     22.3517    120.8513
   966.4000      7.8910      2.5653      0.0233      5.1331     21.3866    117.1123
   966.5000      7.8908      2.5749      0.0384      4.5492     21.4517    112.3469
   966.6000      7.8908      2.5875      0.0748      3.7892     22.3075    106.9194
   966.7000      7.8908      2.5920      0.0345      3.5167     23.0145    102.1239
   966.8000      7.8918      2.5829      0.0648      4.0636     23.1404    101.0207
   966.9000      7.8918      2.5586      0.0534      5.5368     23.2318    103.3009
   967.0000      7.8931      2.5341      0.0099      7.0252     23.4998    104.6652
   967.1000      7.8931      2.5312      0.0406      7.1970     23.7250    102.1740
   967.2000      7.8931      2.5499      0.0346      6.0678     23.8433     97.6972
   967.3000      7.8937      2.5755      0.0532      4.5170     23.9031     94.5942
   967.4000      7.8937      2.5979      0.1214      3.1558     24.0344     93.3702
   967.5000      7.8943      2.6167      0.0890      2.0178     24.4368     93.3601
   967.6000      7.8943      2.6382      0.0825      0.7137     25.2434     95.7251
   967.7000      7.8943      2.6540      0.0924     -0.2429     26.2328     99.1965
   967.8000      7.8949      2.6536      0.0444     -0.2176     26.9066    102.1192
   967.9000      7.8949      2.6513      0.0655     -0.0772     27.0970    105.0806
   968.0000      7.8946      2.6541      0.0858     -0.2510     27.1625    107.3798
   968.1000      7.8946      2.6465      0.0869      0.2092     27.3027    108.3562
   968.2000      7.8946      2.6264      0.0158      1.4286     27.5061    106.2160
   968.3000      7.8926      2.6139      0.0036      2.1853     28.0900    101.0666
   968.4000      7.8926      2.6222     -0.0147      1.6876     28.9237     96.6161
   968.5000      7.8919      2.6437      0.0173      0.3836     29.2201     96.0150
   968.6000      7.8919      2.6586     -0.0036     -0.5238     28.7502     97.4455
   968.7000      7.8919      2.6518     -0.0228     -0.1078     28.0200     97.7604
   968.8000      7.8931      2.6225     -0.0377      1.6692     27.5036     98.0847
   968.9000      7.8931      2.5906     -0.0920      3.5995     27.1808     96.0739
   969.0000      7.8932      2.5807     -0.0066      4.2007     26.8437     90.9669
   969.1000      7.8932      2.5866      0.0384      3.8400     26.5910     88.4660
   969.2000      7.8932      2.5898      0.0076      3.6489     26.5179     89.2399
   969.3000      7.8921      2.5885      0.0625      3.7283     26.6383     90.0861
   969.4000      7.8921      2.5892      0.0119      3.6833     26.8258     89.9742
   969.5000      7.8902      2.5964      0.0397      3.2472     26.7698     88.6582
   969.6000      7.8902      2.6046      0.0354      2.7503     26.4241     86.0073
   969.7000      7.8902      2.6106      0.0072      2.3859     26.0047     85.1165
   969.8000      7.8890      2.6154      0.0509      2.0950     25.6751     88.8095
   969.9000      7.8890      2.6087      0.0266      2.5026     25.6166     93.8459
   970.0000      7.8902      2.5816      0.0270      4.1453     26.0261     95.7332
   970.1000      7.8902      2.5466     -0.0431      6.2670     26.7389     94.8854
   970.2000      7.8902      2.5283     -0.0751      7.3733     27.2157     93.0107
   970.3000      7.8914      2.5337     -0.0175      7.0485     27.2596     91.4554
   970.4000      7.8914      2.5452      0.0190      6.3510     27.1086     89.6553
   970.5000      7.8912      2.5463     -0.0084      6.2820     27.1956     88.0979
   970.6000      7.8912      2.5408     -0.0063      6.6210     27.6465     90.7332
   970.7000      7.8912      2.5426      0.0104      6.5115     27.9013     96.5516
   970.8000      7.8913      2.5623      0.0008      5.3154     27.7043    101.0930
   970.9000      7.8913      2.5966      0.0799      3.2346     27.5777    104.4064
   971.0000      7.8888      2.6288      0.0751      1.2823     27.8014    108.3128
   971.1000      7.8888      2.6464      0.0707      0.2170     27.9170    111.7806
   971.2000      7.8888      2.6435      0.0882      0.3954     27.6562    112.0405
   971.3000      7.8818      2.6184      0.0800      1.9169     27.1629    110.5069
   971.4000      7.8818      2.5806      0.0918      4.2053     26.6473    107.2503
   971.5000      7.8732      2.5444      0.0516      6.4016     26.3273    101.3802
   971.6000      7.8732      2.5212      0.0059      7.8038     26.2482     95.8912
   971.7000      7.8732      2.5178      0.0508      8.0134     26.1483     93.0468
   971.8000      7.8680      2.5309      0.0510      7.2191     25.8742     95.2356
   971.9000      7.8680      2.5468      0.0499      6.2565     25.6073    103.0804
   972.0000      7.8654      2.5536     -0.0108      5.8455     25.3874    111.1969
   972.1000      7.8654      2.5549      0.0128      5.7629     25.1618    113.3189
   972.2000      7.8654      2.5515      0.0527      5.9686     25.1513    110.2740
   972.3000      7.8646      2.5358      0.0168      6.9239     25.5736    106.2247
   972.4000      7.8646      2.5133      0.0145      8.2867     26.1742    103.4682
   972.5000      7.8656      2.4988      0.0118      9.1616     26.2001    102.6909
   972.6000      7.8656      2.4952      0.0194      9.3830     25.6681    102.7702
   972.7000      7.8656      2.4956      0.0114      9.3601     25.3172    102.8687
   972.8000      7.8660      2.5013      0.0098      9.0107     25.2346    104.6917
   972.9000      7.8660      2.5146      0.0438      8.2077     25.1694    105.5848
   973.0000      7.8650      2.5293      0.0355      7.3156     25.1515    102.1855
   973.1000      7.8650      2.5427      0.0291      6.5015     25.5022     99.9379
   973.2000      7.8650      2.5566      0.0326      5.6632     26.1814    103.0980
   973.3000      7.8654      2.5741      0.0453      4.6027     26.7344    105.9245
   973.4000      7.8654      2.6037      0.0385      2.8031     26.9364    103.0843
   973.5000      7.8660      2.6423      0.1342      0.4659     26.9324     97.6444
   973.6000      7.8660      2.6622      0.1230     -0.7379     26.9598     94.2292
   973.7000      7.8660      2.6485      0.1176      0.0933     27.0816     94.7666
   973.8000      7.8653      2.6206      0.0655      1.7793     27.2761     96.3635
   973.9000      7.8653      2.5948      0.0721      3.3484     27.3793     95.1013
   974.0000      7.8648      2.5541      0.1161      5.8101     27.2571     94.6226
   974.1000      7.8648      2.4922      0.0162      9.5662     26.8674     97.1809
