~Version Information
VERS.                      2.0: CWLS Log ASCII Standard - VERSION 2.0
WRAP.                       NO: One line per depth step
~Well Information Block
STRT.FT               375.0000: 
STOP.FT              2795.7000: 
STEP.FT                 0.1000: 
NULL.                -999.2500: 
COMP.          Pioneer Natural Resources: COMPANY
WELL.              Getem 21-23: WELL
FLD.           Purgatoire River: FIELD
LOC.           2623' FWL & 790' FNL--: LOCATION
PROV.                 Colorado: PROVINCE
CNTY.               Las Animas: COUNTRY
SRVC.                Patterson: SERVICE COMPANY
DATE.          Mon Jun 20 07:26:21 2005: LOG DATE
UWI.           05 071 08411 00: UNIQUE WELL ID
~Curve Information Block
DEPT.FT            0 000 00 00: Depth
DCAL.in                       : CDL Caliper
RHOB.g/cc                     : CDL Bulk Density
RHOC.g/cc                     : CDL Density Correction
DPOR.pu                       : CDL Density Porosity
NPOR.pu                       : Neutron Porosity
GR.GAPI                       : Gamma Ray
~Parameter Information Block
~A  Depth       DCAL        RHOB        RHOC        DPOR        NPOR         GR     
# ...
   538.2000      8.1183      2.4928      0.1414      9.5249     21.4776    117.7131
   538.3000      8.1180      2.5265      0.1890      7.4820     22.1119    120.8829
   538.4000      8.1180      2.5501      0.2468      6.0516     22.1761    119.6768
   538.5000      8.1171      2.5476      0.1339      6.2036     21.9129    114.8843
   538.6000      8.1171      2.5387      0.1133      6.7438     21.5945    111.6977
   538.7000      8.1171      2.5361      0.1152      6.9055     21.4922    109.6770
   538.8000      8.1173      2.5386      0.0205      6.7543     21.7396    106.9885
   538.9000      8.1173      2.5458      0.1004      6.3135     21.8226    105.2246
   539.0000      8.1198      2.5449      0.0778      6.3696     21.4351    104.8373
   539.1000      8.1198      2.5381      0.0686      6.7830     20.9872    102.6955
   539.2000      8.1198      2.5468      0.0587      6.2516     20.8648     97.7752
   539.3000      8.1242      2.5686      0.0928      4.9353     20.8696     94.9120
   539.4000      8.1242      2.5772      0.1000      4.4146     20.7861     96.4169
   539.5000      8.1299      2.5694      0.0684      4.8844     20.6237     97.1786
   539.6000      8.1299      2.5681      0.1008      4.9612     20.4295     94.7089
   539.7000      8.1299      2.5801      0.0905      4.2336     20.4878     90.4358
   539.8000      8.1333      2.5860      0.1336      3.8801     20.9860     84.6618
   539.9000      8.1333      2.5704      0.0693      4.8262     21.7140     79.9432
   540.0000      8.1342      2.5437      0.0575      6.4405     22.3509     78.7972
   540.1000      8.1342      2.5217      0.0190      7.7742     22.8887     81.1790
   540.2000      8.1342      2.5046      0.0627      8.8135     23.4063     86.3071
   540.3000      8.1349      2.4919      0.0288      9.5809     23.6349     94.5168
   540.4000      8.1349      2.4965      0.0501      9.3044     23.4029    105.9705
   540.5000      8.1356      2.5122      0.0840      8.3523     23.1622    115.8992
   540.6000      8.1356      2.5145      0.0827      8.2124     23.4646    118.2937
   540.7000      8.1356      2.5090      0.0057      8.5428     23.8811    114.5789
   540.8000      8.1361      2.5151      0.0614      8.1785     23.5073    111.1488
   540.9000      8.1361      2.5261      0.0644      7.5084     22.6471    109.3358
   541.0000      8.1376      2.5367      0.0354      6.8673     22.4863    108.9839
   541.1000      8.1376      2.5455      0.0879      6.3330     23.1896    111.9270
   541.2000      8.1376      2.5381      0.0779      6.7818     23.8896    115.3768
   541.3000      8.1406      2.5151      0.0481      8.1739     24.1627    116.1136
   541.4000      8.1406      2.4989      0.0413      9.1562     24.1195    115.9596
   541.5000      8.1430      2.5034      0.0416      8.8819     24.0589    116.9880
   541.6000      8.1430      2.5222      0.0748      7.7453     24.3806    120.1362
   541.7000      8.1430      2.5392      0.0589      6.7137     25.2053    123.8201
   541.8000      8.1433      2.5414      0.0709      6.5797     26.1240    123.8228
   541.9000      8.1433      2.5310      0.0544      7.2148     26.6271    121.7112
   542.0000      8.1408      2.5254      0.0659      7.5527     26.7808    121.3648
   542.1000      8.1408      2.5356      0.0366      6.9332     26.8440    122.7000
   542.2000      8.1408      2.5544      0.0770      5.7923     26.8991    124.6141
   542.3000      8.1387      2.5684      0.0704      4.9435     27.0785    126.5263
   542.4000      8.1387      2.5719      0.0873      4.7306     27.2958    127.8887
   542.5000      8.1364      2.5671      0.0795      5.0221     27.2259    127.8351
   542.6000      8.1364      2.5622      0.0884      5.3241     26.9263    126.4277
   542.7000      8.1364      2.5646      0.0626      5.1738     26.5791    125.3852
   542.8000      8.1326      2.5668      0.0981      5.0454     26.2154    125.8999
   542.9000      8.1326      2.5539      0.0935      5.8233     25.9594    126.7019
   543.0000      8.1302      2.5346      0.0449      6.9949     25.7659    126.7096
   543.1000      8.1302      2.5259      0.0533      7.5208     25.4072    123.9818
   543.2000      8.1302      2.5200      0.0645      7.8793     24.8945    120.2700
   543.3000      8.1312      2.5021      0.0342      8.9644     24.3231    118.1505
   543.4000      8.1312      2.4840      0.0107     10.0586     23.7394    114.1745
   543.5000      8.1324      2.4848      0.0435     10.0106     23.3392    108.4933
   543.6000      8.1324      2.4929      0.0508      9.5205     23.3539    107.1992
   543.7000      8.1324      2.4799      0.0929     10.3085     23.6146    110.0425
   543.8000      8.1340      2.4484     -0.0009     12.2204     23.6283    113.8451
   543.9000      8.1340      2.4283      0.0065     13.4362     23.1490    116.6714
   544.0000      8.1356      2.4299      0.0355     13.3414     22.4079    115.9275
   544.1000      8.1356      2.4427      0.0494     12.5654     21.7795    113.3103
   544.2000      8.1356      2.4623      0.0395     11.3749     21.3863    110.6501
   544.3000      8.1353      2.4872      0.0377      9.8658     21.2849    105.1244
   544.4000      8.1353      2.5057      0.0845      8.7433     21.4698     97.8295
   544.5000      8.1294      2.5075      0.1020      8.6358     21.6930     95.1038
   544.6000      8.1294      2.4950      0.1176      9.3928     21.7446     97.4674
   544.7000      8.1294      2.4830      0.1042     10.1226     21.7837    101.1041
   544.8000      8.1185      2.4952      0.0618      9.3825     22.0594    105.1438
   544.9000      8.1185      2.5368      0.1653      6.8584     22.5623    107.6658
   545.0000      8.1100      2.5837      0.1430      4.0193     23.1802    106.4306
   545.1000      8.1100      2.6077      0.2051      2.5611     23.9148    105.6067
   545.2000      8.1100      2.5937      0.1457      3.4125     24.8461    107.5351
   545.3000      8.1067      2.5603      0.0636      5.4376     25.8370    108.5933
   545.4000      8.1067      2.5414      0.0612      6.5799     26.7850    108.7935
   545.5000      8.1072      2.5436      0.0547      6.4486     27.6488    107.9164
   545.6000      8.1072      2.5532      0.0786      5.8693     28.1545    101.4931
   545.7000      8.1072      2.5578      0.0558      5.5878     28.2502     92.3456
   545.8000      8.1084      2.5552      0.0415      5.7465     28.3362     89.4956
   545.9000      8.1084      2.5464      0.0617      6.2803     28.6514     93.2528
   546.0000      8.1100      2.5341      0.0447      7.0226     28.9505     97.1409
   546.1000      8.1100      2.5304      0.0337      7.2463     28.9744     99.4952
   546.2000      8.1100      2.5374      0.0926      6.8254     28.9205    100.6139
   546.3000      8.1110      2.5455      0.0295      6.3332     28.9555     97.6470
   546.4000      8.1110      2.5533      0.0733      5.8626     29.0914     93.1457
   546.5000      8.1110      2.5542      0.0818      5.8037     29.5877     93.7819
   546.6000      8.1110      2.5411      0.0434      6.6028     30.1646     99.6821
   546.7000      8.1110      2.5212      0.0505      7.8083     30.1735    106.4884
   546.8000      8.1108      2.5066      0.0175      8.6929     29.7247    109.7031
   546.9000      8.1108      2.4985      0.0421      9.1797     29.0887    108.0897
   547.0000      8.1100      2.4917      0.0206      9.5962     28.2247    105.0135
   547.1000      8.1100      2.4890      0.0133      9.7577     27.3458    103.6197
   547.2000      8.1100      2.4890      0.0628      9.7599     26.7320    104.3825
   547.3000      8.1089      2.4813      0.0315     10.2261     26.3790    106.3043
   547.4000      8.1089      2.4690      0.0008     10.9674     25.9732    109.4134
   547.5000      8.1079      2.4645      0.0110     11.2433     25.2569    112.9410
   547.6000      8.1079      2.4667      0.0440     11.1096     24.6879    115.7227
   547.7000      8.1079      2.4663      0.0388     11.1349     24.6586    117.3049
