~Version Information
VERS.                      2.0: CWLS Log ASCII Standard - VERSION 2.0
WRAP.                       NO: One line per depth step
~Well Information Block
STRT.FT               679.2000: 
STOP.FT              2289.5000: 
STEP.FT                 0.1000: 
NULL.                -999.2500: 
COMP.          Petrogulf Corporation: COMPANY
WELL.          Anderson 18-43V: WELL
FLD.           Purgatorie River: FIELD
LOC.           1782' FSL & 887' FEL: LOCATION
CNTY.               Las Animas: COUNTY
SRVC.                         : SERVICE COMPANY
DATE.          Thu Sep 02 08:33:50 2004: LOG DATE
UWI.           05 071 08156 00: UNIQUE WELL ID
STAT.                 Colorado: STATE
~Curve Information Block
DEPT.FT            0 000 00 00: Depth
GR.GAPI                       : Gamma Ray
DCAL.in                       : CDL Caliper
DPOR.pu                       : CDL Density Porosity
NPOR.pu                       : Neutron Porosity
RHOB.g/cc                     : CDL Bulk Density
RHOC.g/cc                     : CDL Density Correction
~Parameter Information Block
~A  Depth        GR         DCAL        DPOR        NPOR        RHOB        RHOC    
# ...
   804.0000    112.8059      8.2953      4.1626     27.5184      2.5813      0.0352
   804.1000    112.7576      8.2953      5.1463     27.2902      2.5651     -0.0134
   804.2000    112.8117      8.2953      6.1291     26.6067      2.5489     -0.0352
   804.3000    112.9951      8.3096      6.5099     25.7157      2.5426     -0.0366
   804.4000    113.3190      8.3096      6.8117     25.1773      2.5376     -0.0115
   804.5000    113.7845      8.3112      7.6566     25.1278      2.5237     -0.0273
   804.6000    114.3864      8.3112      8.6392     25.2752      2.5075     -0.0414
   804.7000    115.1190      8.3112      9.2372     25.4983      2.4976     -0.0132
   804.8000    115.9821      8.3114      9.6840     25.6321      2.4902      0.0110
   804.9000    116.9793      8.3114     10.1127     25.3844      2.4831      0.0159
   805.0000    118.1162      8.3127     10.0954     25.1449      2.4834     -0.0140
   805.1000    119.3957      8.3127      9.4617     25.3357      2.4939      0.0223
   805.2000    120.8157      8.3127      9.0901     25.4694      2.5000      0.0533
   805.3000    122.3631      8.3283      9.7212     25.1010      2.4896      0.0180
   805.4000    124.0133      8.3283     10.9813     24.5036      2.4688      0.0766
   805.5000    125.7378      8.3368     12.4268     24.1001      2.4450      0.0311
   805.6000    127.5007      8.3368     13.4939     24.0019      2.4274      0.0138
   805.7000    129.2697      8.3368     13.9869     24.1098      2.4192      0.0376
   805.8000    131.0125      8.3371     14.5288     24.3800      2.4103      0.0369
   805.9000    132.6999      8.3371     14.9853     24.7545      2.4027     -0.0172
   806.0000    134.3007      8.3476     14.6301     25.1058      2.4086     -0.0062
   806.1000    135.7824      8.3476     13.9767     25.5764      2.4194      0.0009
   806.2000    137.1052      8.3476     14.0970     26.2591      2.4174      0.0639
   806.3000    138.2242      8.4064     14.9276     27.0860      2.4037      0.0322
   806.4000    139.0951      8.4064     15.7757     27.9916      2.3897      0.0603
   806.5000    139.6793      8.3126     16.3151     28.7273      2.3808      0.0329
   806.6000    139.9490      8.3126     16.2611     29.0814      2.3817      0.0496
   806.7000    139.8967      8.3126     15.5796     29.2619      2.3929      0.0563
   806.8000    139.5325      8.2968     14.8846     29.5697      2.4044      0.0570
   806.9000    138.8857      8.2968     14.7255     29.9590      2.4070      0.0420
   807.0000    137.9938      8.2964     14.6302     30.2736      2.4086     -0.0013
   807.1000    136.8931      8.2964     13.6688     30.2874      2.4245      0.0627
   807.2000    135.6104      8.2964     12.0037     29.8099      2.4519      0.0536
   807.3000    134.1572      8.2951     10.4092     29.4348      2.4782      0.0386
   807.4000    132.5289      8.2951      8.8938     29.9187      2.5033      0.0045
   807.5000    130.7071      8.2948      7.2520     30.8653      2.5303      0.0799
   807.6000    128.6700      8.2948      6.0570     31.4290      2.5501      0.0868
   807.7000    126.4032      8.2948      5.6319     31.4619      2.5571      0.0786
   807.8000    123.9097      8.2801      5.7277     31.2646      2.5555      0.1019
   807.9000    121.2179      8.2801      5.9698     31.2542      2.5515      0.0743
   808.0000    118.3847      8.2759      5.5120     31.6708      2.5591      0.0490
   808.1000    115.4935      8.2759      3.6568     32.2060      2.5897      0.0857
   808.2000    112.6472      8.2759      0.8668     32.3654      2.6357      0.0648
   808.3000    109.9537      8.2708     -1.5225     32.1667      2.6751      0.1045
   808.4000    107.5143      8.2708     -2.4563     31.7474      2.6905      0.1070
   808.5000    105.4077      8.2689     -2.1823     31.1707      2.6860      0.1085
   808.6000    103.6810      8.2689     -2.0159     30.7086      2.6833      0.0823
   808.7000    102.3430      8.2689     -2.5913     30.2542      2.6928      0.1029
   808.8000    101.3650      8.2679     -3.4194     29.6642      2.7064      0.0711
   808.9000    100.6910      8.2679     -4.4148     29.2392      2.7228      0.0337
   809.0000    100.2513      8.2668     -5.6610     29.0497      2.7434      0.0742
   809.1000     99.9820      8.2668     -6.2981     28.8607      2.7539      0.0786
   809.2000     99.8399      8.2668     -5.9023     28.3900      2.7474      0.0364
   809.3000     99.8136      8.2651     -4.9534     27.5224      2.7317      0.0805
   809.4000     99.9281      8.2651     -3.5681     26.5530      2.7089      0.0588
   809.5000    100.2380      8.2651     -1.6172     25.8106      2.6767      0.0102
   809.6000    100.8101      8.2651      0.5813     25.3219      2.6404     -0.0116
   809.7000    101.7072      8.2651      2.4062     25.1413      2.6103     -0.0223
   809.8000    102.9679      8.2547      3.2750     25.2191      2.5960      0.0124
   809.9000    104.5972      8.2547      3.2355     24.8532      2.5966      0.0382
   810.0000    106.5589      8.2644      3.0785     23.7426      2.5992      0.0401
   810.1000    108.7822      8.2644      3.4922     22.7823      2.5924      0.0130
   810.2000    111.1758      8.2644      4.4119     22.6412      2.5772      0.0314
   810.3000    113.6419      8.2672      5.4049     22.8945      2.5608      0.0248
   810.4000    116.0940      8.2672      5.9204     23.1535      2.5523     -0.0199
   810.5000    118.4667      8.2639      5.6107     23.5236      2.5574      0.0029
   810.6000    120.7224      8.2639      4.7267     23.9627      2.5720      0.0490
   810.7000    122.8506      8.2639      3.7861     24.3899      2.5875      0.0556
   810.8000    124.8644      8.2819      3.3743     24.8204      2.5943      0.0507
   810.9000    126.7932      8.2819      3.9026     25.1876      2.5856      0.0929
   811.0000    128.6707      8.2805      4.8942     25.4932      2.5692      0.0574
   811.1000    130.5321      8.2805      5.4630     25.8745      2.5599      0.0530
   811.2000    132.4011      8.2805      5.5080     26.3979      2.5591      0.0667
   811.3000    134.2885      8.2913      4.8987     27.0061      2.5692      0.0297
   811.4000    136.1854      8.2913      3.3150     27.5042      2.5953      0.0311
   811.5000    138.0604      8.2932      1.6978     27.7374      2.6220      0.0685
   811.6000    139.8611      8.2932      1.3536     27.8451      2.6277      0.0546
   811.7000    141.5184      8.2932      2.0100     27.9737      2.6168      0.0418
   811.8000    142.9538      8.2933      2.4212     28.1513      2.6101      0.0962
   811.9000    144.0858      8.2933      1.8838     28.4357      2.6189      0.0671
   812.0000    144.8426      8.2932      0.7807     28.6137      2.6371      0.1065
   812.1000    145.1689      8.2932      0.1309     28.6040      2.6478      0.0770
   812.2000    145.0358      8.2932      0.0476     28.6750      2.6492      0.0378
   812.3000    144.4431      8.2927      0.0336     28.8112      2.6494      0.0498
   812.4000    143.4215      8.2927      0.3169     28.7239      2.6448      0.0369
   812.5000    142.0349      8.2921      0.9721     28.2509      2.6340      0.0079
   812.6000    140.3791      8.2921      1.3168     27.6552      2.6283      0.0023
   812.7000    138.5725      8.2921      1.2462     27.4019      2.6294      0.0516
   812.8000    136.7526      8.2930      1.4880     27.6856      2.6254      0.0076
   812.9000    135.0639      8.2930      2.2704     28.2463      2.6125      0.0183
   813.0000    133.6439      8.2951      3.2801     28.6971      2.5959      0.0002
   813.1000    132.6095      8.2951      4.1616     28.8852      2.5813     -0.0551
   813.2000    132.0427      8.2951      4.6958     28.9023      2.5725     -0.0443
   813.3000    131.9791      8.2939      5.1431     28.7373      2.5651      0.0008
   813.4000    132.4077      8.2939      5.8603     28.1534      2.5533      0.0566
   813.5000    133.2678      8.2947      6.5741     27.2496      2.5415      0.0267
