~Version Information
VERS.                      2.0: CWLS Log ASCII Standard - VERSION 2.0
WRAP.                       NO: One line per depth step
~Well Information Block
STRT.FT               430.0000: 
STOP.FT              2417.0000: 
STEP.FT                 0.2500: 
NULL.                -999.2500: 
COMP.          Evergreen Operating Corporation: COMPANY
WELL.          McCullough 34-32: WELL
FLD.           Purgatorie River: FIELD
LOC.           261' FSL & 2098' FEL: LOCATION
PROV.                 Colorado: PROVINCE
CNTY.               Las Animas: COUNTRY
SRVC.                Patterson: SERVICE COMPANY
DATE.          Sun May 16 02:33:07 2004: LOG DATE
UWI.           05 071 07953 00: UNIQUE WELL ID
~Curve Information Block
DEPT.FT            0 000 00 00: Depth
SN.Ohm-m                      : IEL Short Normal
SP.mV                         : IEL Spontaneous Potential
DIR.Ohm-m                     : IEL Induction Resistivity
GR.GAPI                       : Gamma Ray
~Parameter Information Block
~A  Depth        SN          SP         DIR          GR     
# ...
  2373.0000     30.4069    126.4530 100000.0000     86.3580
  2373.2500     39.0605    127.8703 100000.0000     84.4518
  2373.5000     47.4517    129.4271 100000.0000     85.8299
  2373.7500     52.8395    131.1140 100000.0000     88.0436
  2374.0000     53.7591    132.9430 100000.0000     92.0829
  2374.2500     50.8544    134.9533 100000.0000     95.8279
  2374.5000     46.1416    137.1707 100000.0000    104.5763
  2374.7500     41.5938    139.5455     75.8229    112.3577
  2375.0000     38.1086    141.9224     40.6408    124.1661
  2375.2500     35.5456    144.0821     32.1739    130.0589
  2375.5000     33.4303    145.8357     29.3350    134.2367
  2375.7500     31.4932    147.1029     29.4411    134.5002
  2376.0000     29.7999    147.9247     32.3458    133.5649
  2376.2500     28.4997    148.4164     38.7293    133.2470
  2376.5000     27.5215    148.7038     48.8761    133.7132
  2376.7500     26.6496    148.8813     58.5585    134.1792
  2377.0000     25.7767    149.0086     57.1925    134.2109
  2377.2500     24.9594    149.1267     44.7778    133.7271
  2377.5000     24.3012    149.2658     32.3043    132.8120
  2377.7500     23.8191    149.4354     23.9106    132.3864
  2378.0000     23.4033    149.6178     18.7874    132.1098
  2378.2500     22.8973    149.7814     15.6748    131.9829
  2378.5000     22.2451    149.9048     13.7712    131.2519
  2378.7500     21.5601    149.9905     12.6384    130.0287
  2379.0000     20.9975    150.0557     12.0464    127.2494
  2379.2500     20.5965    150.1139     11.8743    125.5510
  2379.5000     20.2931    150.1650     12.0519    124.7617
  2379.7500     20.0324    150.2054     12.5214    125.5460
  2380.0000     19.8015    150.2455     13.2108    127.4582
  2380.2500     19.5798    150.3121     14.0187    128.5256
  2380.5000     19.3340    150.4305     14.8223    130.2531
  2380.7500     19.0613    150.6052     15.5131    132.5925
  2381.0000     18.7982    150.8138     16.0396    139.3969
  2381.2500     18.5814    151.0115     16.4237    145.8251
  2381.5000     18.3960    151.1415     16.7365    155.4895
  2381.7500     18.1887    151.1504     17.0519    159.6464
  2382.0000     17.9624    151.0090     17.4144    158.6514
  2382.2500     17.7904    150.7268     17.8292    151.1877
  2382.5000     17.7260    150.3479     18.2691    127.5068
  2382.7500     17.7704    149.9262     18.6903    104.1394
  2383.0000     17.9067    149.4917     19.0503     64.5766
  2383.2500     18.1141    149.0363     19.3225     40.9599
  2383.5000     18.3527    148.5365     19.4972     16.4070
  2383.7500     18.5680    147.9953     19.5728      7.5507
  2384.0000     18.7315    147.4607     19.5532      1.8110
  2384.2500     18.8653    147.0029     19.4542      0.5819
  2384.5000     19.0124    146.6659     19.3103      0.0779
  2384.7500     19.1756    146.4331     19.1653      0.0146
  2385.0000     19.2798    146.2323     19.0543   -999.2500
  2385.2500     19.2338    145.9757     18.9898   -999.2500
  2385.5000     19.0368    145.6069     18.9628   -999.2500
  2385.7500     18.7701    145.1253     18.9531   -999.2500
  2386.0000     18.5172    144.5799     18.9427   -999.2500
  2386.2500     18.3348    144.0429     18.9248   -999.2500
  2386.5000     18.2516    143.5757     18.9043   -999.2500
  2386.7500     18.2622    143.2072     18.8940   -999.2500
  2387.0000     18.3382    142.9387     18.9082   -999.2500
  2387.2500     18.4416    142.7704     18.9554   -999.2500
  2387.5000     18.5327    142.7198     19.0345   -999.2500
  2387.7500     18.5919    142.8111     19.1385   -999.2500
  2388.0000     18.6401    143.0412     19.2670   -999.2500
  2388.2500     18.7270    143.3566     19.4359   -999.2500
  2388.5000     18.9044    143.6649     19.6698   -999.2500
  2388.7500     19.2184    143.8731     19.9798   -999.2500
  2389.0000     19.6996    143.9241     20.3453   -999.2500
  2389.2500     20.3166    143.8096     20.7186   -999.2500
  2389.5000     20.9540    143.5596     21.0515   -999.2500
  2389.7500     21.5192    143.2228     21.3234   -999.2500
  2390.0000     22.0586    142.8487     21.5468   -999.2500
  2390.2500     22.6492    142.4749     21.7469   -999.2500
  2390.5000     23.2251    142.1192     21.9354   -999.2500
  2390.7500     23.6409    141.7799     22.1009   -999.2500
  2391.0000     23.8199    141.4422     22.2190   -999.2500
  2391.2500     23.7787    141.0892     22.2712   -999.2500
  2391.5000     23.5910    140.7106     22.2562   -999.2500
  2391.7500     23.3500    140.3063     22.1879   -999.2500
  2392.0000     23.1323    139.8858     22.0849   -999.2500
  2392.2500     22.9625    139.4641     21.9622   -999.2500
  2392.5000     22.8066    139.0616     21.8296   -999.2500
  2392.7500     22.6200    138.7047     21.6904   -999.2500
  2393.0000     22.3985    138.4166     21.5386   -999.2500
  2393.2500     22.1791    138.1995     21.3567   -999.2500
  2393.5000     21.9960    138.0274     21.1251   -999.2500
  2393.7500     21.8268    137.8596     20.8423   -999.2500
  2394.0000     21.5880    137.6655     20.5402   -999.2500
  2394.2500     21.2126    137.4407     20.2745   -999.2500
  2394.5000     20.7401    137.2090     20.0952   -999.2500
  2394.7500     20.3105    137.0119     20.0215   -999.2500
  2395.0000     20.0577    136.8889     20.0392   -999.2500
  2395.2500     20.0170    136.8519     20.1158   -999.2500
  2395.5000     20.1374    136.8739     20.2198   -999.2500
  2395.7500     20.3529    136.9063     20.3316   -999.2500
  2396.0000     20.6058    136.9138     20.4443   -999.2500
  2396.2500     20.8340    136.8914     20.5589   -999.2500
  2396.5000     21.0545    136.8494     20.6828   -999.2500
  2396.7500     21.3905    136.7892     20.8294   -999.2500
  2397.0000     21.8904    136.7017     21.0178   -999.2500
  2397.2500     22.4606    136.5834     21.2676   -999.2500
  2397.5000     22.9935    136.4470     21.5907   -999.2500
  2397.7500     23.4374    136.3149     21.9828   -999.2500
  2398.0000     23.7805    136.2046     22.4194   -999.2500
  2398.2500     24.0054    136.1214     22.8597   -999.2500
  2398.5000     24.0700    136.0616     23.2610   -999.2500
  2398.7500     24.0024    136.0258     23.5941   -999.2500
  2399.0000     23.9422    136.0225     23.8519   -999.2500
  2399.2500     23.9916    136.0562     24.0429   -999.2500
  2399.5000     24.1197    136.1096     24.1773   -999.2500
  2399.7500     24.2565    136.1454     24.2575   -999.2500
  2400.0000     24.3854    136.1306     24.2780   -999.2500
  2400.2500     24.5215    136.0613     24.2295   -999.2500
  2400.5000     24.6632    135.9671     24.1001   -999.2500
  2400.7500     24.7851    135.8910     23.8736   -999.2500
  2401.0000     24.8438    135.8604     23.5278   -999.2500
  2401.2500     24.7764    135.8730     23.0401   -999.2500
  2401.5000     24.5169    135.9129     22.4014   -999.2500
  2401.7500     24.0526    135.9852     21.6322   -999.2500
  2402.0000     23.4610    136.1382     20.7882   -999.2500
  2402.2500     22.8463    136.4365     19.9467   -999.2500
  2402.5000     22.2465    136.8938     19.1813   -999.2500
  2402.7500     21.6279    137.4384     18.5417   -999.2500
  2403.0000     20.9388    137.9684     18.0477   -999.2500
  2403.2500     20.1535    138.4548     17.6956   -999.2500
  2403.5000     19.3093    138.9739     17.4683   -999.2500
  2403.7500     18.5114    139.6339     17.3457   -999.2500
  2404.0000     17.8555    140.4771     17.4572   -999.2500
  2404.2500     17.3393    141.4420     17.4916   -999.2500
  2404.5000     16.8909    142.3848     17.5704   -999.2500
  2404.7500     16.4929    143.1353     17.6562   -999.2500
  2405.0000     16.2551    143.5685     17.7104   -999.2500
  2405.2500     16.3793    143.6594     17.7162   -999.2500
  2405.5000     17.0248    143.4801     17.6930   -999.2500
  2405.7500     18.1651    143.1450     17.6848   -999.2500
  2406.0000     19.5740    142.7555     17.7372   -999.2500
  2406.2500     20.9179    142.3812     17.8897   -999.2500
