~Version Information
VERS.                      2.0: CWLS Log ASCII Standard - VERSION 2.0
WRAP.                       NO: One line per depth step
~Well Information Block
STRT.FT                -9.7500: 
STOP.FT              2158.2500: 
STEP.FT                 0.2500: 
NULL.                -999.2500: 
COMP.          Petrogulf Corporation: COMPANY
WELL.             State 16-41V: WELL
FLD.           Purgatoire River: FIELD
LOC.           335' FNL & 823' FEL--: LOCATION
PROV.                 Colorado: PROVINCE
CNTY.               Las Animas: COUNTRY
SRVC.                Patterson: SERVICE COMPANY
DATE.          Wed Aug 17 12:15:10 2005: LOG DATE
UWI.           05 071 08344 00: UNIQUE WELL ID
~Curve Information Block
DEPT.FT            0 000 00 00: Depth
CCL.                          : Casing Collar Locator
TT3.usec                      : CBL 3' Travel Time
AMP3.mV                       : CBL 3' Amplitude
GR.GAPI                       : Gamma Ray
~Parameter Information Block
~A  Depth       CCL         TT3         AMP3         GR     
# ...
  2134.2500      0.0000    721.7997      2.2253    101.4062
  2134.5000      0.0000    724.9890      2.2691     98.8491
  2134.7500      0.0000    717.5273      2.2947     93.5380
  2135.0000      0.0000    702.4687      2.3044     86.8639
  2135.2500      0.0000    687.3961      2.3189     80.6107
  2135.5000      0.0000    679.7316      2.3677     76.5650
  2135.7500      0.0000    682.0256      2.4615     75.8079
  2136.0000      0.0000    691.1970      2.5774     78.0364
  2136.2500      0.0000    702.2046      2.6727     81.7016
  2136.5000      0.0000    711.6371      2.7147     85.0181
  2136.7500      0.0000    717.7173      2.6969     87.0932
  2137.0000      0.0000    718.9968      2.6365     88.3823
  2137.2500      0.0000    714.9653      2.5645     90.0220
  2137.5000      0.0000    707.0408      2.5137     92.4354
  2137.7500      0.0000    697.2894      2.5059     94.6447
  2138.0000      0.0000    686.5829      2.5473     95.0860
  2138.2500      0.0000    675.3594      2.6320     93.0449
  2138.5000      0.0000    665.9242      2.7506     89.2024
  2138.7500      0.0000    662.3223      2.8940     84.8856
  2139.0000      0.0000    666.7515      3.0551     81.0263
  2139.2500      0.0000    676.5135      3.2307     77.8892
  2139.5000      0.0000    685.5936      3.4255     75.4817
  2139.7500      0.0000    689.5338      3.6492     73.7779
  2140.0000      0.0000    688.4536      3.9036     72.5305
  2140.2500      0.0000    685.8140      4.1743     71.3958
  2140.5000      0.0000    685.3150      4.4363     70.6585
  2140.7500      0.0000    689.0212      4.6685     71.5401
  2141.0000      0.0000    697.1038      4.8525     75.2222
  2141.2500      0.0000    708.1135      4.9598     81.2703
  2141.5000      0.0000    719.2970      4.9511     86.8227
  2141.7500      0.0000    727.0725      4.8035     87.3653
  2142.0000      0.0000    727.7681      4.5369     79.1992
  2142.2500      0.0000    718.9641      4.2107     62.4123
  2142.5000      0.0000    701.3351      3.8933     41.6131
  2142.7500      0.0000    679.5644      3.6378     23.0101
  2143.0000      0.0000    660.7250      3.4786     10.3975
  2143.2500      0.0000    650.7451      3.4368      3.7975
  2143.5000      0.0000    651.4659      3.5169      1.1113
  2143.7500      0.0000    660.2357      3.7043      0.2587
  2144.0000      0.0000    671.9616      3.9812      0.0470
  2144.2500      0.0000    682.1227      4.3498      0.0059
  2144.5000      0.0000    688.8917      4.8413      0.0000
  2144.7500      0.0000    692.7869      5.5068   -999.2500
  2145.0000      0.0000    693.8403      6.4021   -999.2500
  2145.2500      0.0000    688.4770      7.5736   -999.2500
  2145.5000      0.0000    669.2354      9.0335   -999.2500
  2145.7500      0.0000    629.0596     10.7238   -999.2500
  2146.0000      0.0000    568.2332     12.4922   -999.2500
  2146.2500      0.0000    497.8250     14.1237   -999.2500
  2146.5000      0.0000    433.9947     15.4176   -999.2500
  2146.7500      0.0000    386.5027     16.2287   -999.2500
  2147.0000      0.0000    351.9207     16.4084   -999.2500
  2147.2500      0.0000    317.1396     15.7234   -999.2500
  2147.5000      0.0000    269.3942     13.9439   -999.2500
  2147.7500      0.0000    205.8121     11.1421   -999.2500
  2148.0000      0.0000    136.1250      7.8843   -999.2500
  2148.2500      0.0000     75.7196      4.9832   -999.2500
  2148.5000      0.0000     34.6786      2.9843   -999.2500
  2148.7500      0.0000     12.8759      1.9147   -999.2500
  2149.0000      0.0000      3.8320      1.4695   -999.2500
  2149.2500      0.0000      0.9058      1.3252   -999.2500
  2149.5000      0.0000      0.1671      1.2888   -999.2500
  2149.7500      0.0000      0.0222      1.2816   -999.2500
  2150.0000      0.0000   -999.2500   -999.2500   -999.2500
  2150.2500      0.0000   -999.2500   -999.2500   -999.2500
  2150.5000      0.0000   -999.2500   -999.2500   -999.2500
  2150.7500      0.0000   -999.2500   -999.2500   -999.2500
  2151.0000      0.0000   -999.2500   -999.2500   -999.2500
  2151.2500      0.0000   -999.2500   -999.2500   -999.2500
  2151.5000      0.0000   -999.2500   -999.2500   -999.2500
  2151.7500      0.0000   -999.2500   -999.2500   -999.2500
  2152.0000      0.0000   -999.2500   -999.2500   -999.2500
  2152.2500      0.0000   -999.2500   -999.2500   -999.2500
  2152.5000      0.0000   -999.2500   -999.2500   -999.2500
  2152.7500      0.0000   -999.2500   -999.2500   -999.2500
  2153.0000      0.0000   -999.2500   -999.2500   -999.2500
  2153.2500      0.0000   -999.2500   -999.2500   -999.2500
  2153.5000      0.0000   -999.2500   -999.2500   -999.2500
  2153.7500      0.0000   -999.2500   -999.2500   -999.2500
  2154.0000      0.0000   -999.2500   -999.2500   -999.2500
  2154.2500      0.0000   -999.2500   -999.2500   -999.2500
  2154.5000      0.0000   -999.2500   -999.2500   -999.2500
  2154.7500      0.0000   -999.2500   -999.2500   -999.2500
  2155.0000      0.0000   -999.2500   -999.2500   -999.2500
  2155.2500      0.0000   -999.2500   -999.2500   -999.2500
  2155.5000   -999.2500   -999.2500   -999.2500   -999.2500
  2155.7500   -999.2500   -999.2500   -999.2500   -999.2500
  2156.0000   -999.2500   -999.2500   -999.2500   -999.2500
  2156.2500   -999.2500   -999.2500   -999.2500   -999.2500
  2156.5000   -999.2500   -999.2500   -999.2500   -999.2500
  2156.7500   -999.2500   -999.2500   -999.2500   -999.2500
  2157.0000   -999.2500   -999.2500   -999.2500   -999.2500
  2157.2500   -999.2500   -999.2500   -999.2500   -999.2500
  2157.5000   -999.2500   -999.2500   -999.2500   -999.2500
  2157.7500   -999.2500   -999.2500   -999.2500   -999.2500
  2158.0000   -999.2500   -999.2500   -999.2500   -999.2500
  2158.2500   -999.2500   -999.2500   -999.2500   -999.2500
