~Version Information
VERS.                      2.0: CWLS Log ASCII Standard - VERSION 2.0
WRAP.                       NO: One line per depth step
~Well Information Block
STRT.FT                37.7500: 
STOP.FT              1898.5000: 
STEP.FT                 0.2500: 
NULL.                -999.2500: 
COMP.          Petrogulf Corporation: COMPANY
WELL.           Montoya 12-41R: WELL
FLD.           Purgatorie River: FIELD
LOC.           1086' FNL & 610' FEL--: LOCATION
PROV.                       CO: PROVINCE
CNTY.               Las Animas: COUNTRY
SRVC.                         : SERVICE COMPANY
DATE.          Wed Feb 09 11:45:45 2005: LOG DATE
UWI.         005 071 08241 : UNIQUE WELL ID
~Curve Information Block
DEPT.FT            0 000 00 00: Depth
CCL.                          : Casing Collar Locator
TT3.usec                      : CBL 3' Travel Time
AMP3.mV                       : CBL 3' Amplitude
GR.GAPI                       : Gamma Ray
~Parameter Information Block
~A  Depth       CCL         TT3         AMP3         GR     
# ...
  1143.2500      0.0000    265.9611     69.0382    104.3579
  1143.5000      0.0000    265.9364     68.6409    101.9535
  1143.7500      0.0000    265.9135     68.1055    101.7228
  1144.0000      0.0000    265.8931     67.5653    104.3724
  1144.2500      0.0000    265.8820     67.1530    108.6475
  1144.5000      0.0000    265.8918     66.9383    111.7600
  1144.7500      0.0000    265.9244     66.9019    111.1361
  1145.0000      0.0000    265.9635     66.9755    105.9179
  1145.2500      0.0000    265.9862     67.0949     97.3611
  1145.5000      0.0000    265.9855     67.2128     88.1775
  1145.7500      0.0000    265.9764     67.2964     81.0707
  1146.0000      0.0000    265.9785     67.3337     77.2674
  1146.2500      0.0000    265.9945     67.3244     76.1278
  1146.5000      0.0000    266.0095     67.2582     75.9648
  1146.7500      0.0000    266.0086     67.1193     75.2575
  1147.0000      0.0000    265.9910     66.9223     73.5664
  1147.2500      0.0000    265.9674     66.7213     71.7052
  1147.5000      0.0000    265.9482     66.5681     71.0816
  1147.7500      0.0000    265.9370     66.4713     72.6108
  1148.0000      0.0000    265.9336     66.4050     75.8457
  1148.2500      0.0000    265.9380     66.3459     78.9059
  1148.5000      0.0000    265.9523     66.2936     79.6687
  1148.7500      0.0000    265.9780     66.2614     77.5697
  1149.0000      0.0000    266.0127     66.2599     74.1699
  1149.2500      0.0000    266.0491     66.2901     71.6770
  1149.5000      0.0000    266.0778     66.3482     70.9799
  1149.7500      0.0000    266.0907     66.4228     71.3126
  1150.0000      0.0000    266.0848     66.4862     71.6574
  1150.2500      0.0000    266.0636     66.5053     71.9474
  1150.5000      0.0000    266.0327     66.4721     72.5919
  1150.7500      0.0000    265.9965     66.4114     73.3584
  1151.0000      0.0000    265.9603     66.3516     73.5059
  1151.2500      0.0000    265.9331     66.2925     72.9698
  1151.5000      0.0000    265.9231     66.2071     72.7265
  1151.7500      0.0000    265.9333     66.0753     73.6914
  1152.0000      0.0000    265.9608     65.9148     75.5645
  1152.2500      0.0000    265.9992     65.7762     77.0041
  1152.5000      0.0000    266.0392     65.7051     76.9108
  1152.7500      0.0000    266.0718     65.7145     75.4773
  1153.0000      0.0000    266.0917     65.7878     74.0574
  1153.2500      0.0000    266.0963     65.8962     73.9833
  1153.5000      0.0000    266.0832     66.0119     75.4771
  1153.7500      0.0000    266.0493     66.1127     77.7193
  1154.0000      0.0000    265.9948     66.1861     79.9242
  1154.2500      0.0000    265.9274     66.2320     82.3108
  1154.5000      0.0000    265.8631     66.2592     86.0001
  1154.7500      0.0000    265.8202     66.2780     91.8952
  1155.0000      0.0000    265.8117     66.2969     99.4194
  1155.2500      0.0000    265.8389     66.3215    106.3230
  1155.5000      0.0000    265.8889     66.3567    110.1211
  1155.7500      0.0000    265.9400     66.4127    110.1237
  1156.0000      0.0000    265.9710     66.5082    108.0989
  1156.2500      0.0000    265.9709     66.6541    106.8059
  1156.5000      0.0000    265.9428     66.8340    107.6717
  1156.7500      0.0000    265.9021     67.0170    109.9705
  1157.0000      0.0000    265.8697     67.1960    112.5215
  1157.2500      0.0000    265.8615     67.4053    115.7997
  1157.5000      0.0000    265.8830     67.7049    121.8025
  1157.7500      0.0000    265.9279     68.1836    131.8853
  1158.0000      0.0000    265.9777     68.9774    144.9278
  1158.2500      0.0000    266.0062     70.2089    157.5523
  1158.5000      0.0000    265.9937     71.8344    166.3205
  1158.7500      0.0000    265.9436     73.5712    170.1408
  1159.0000      0.0000    265.8798     75.0428    170.5494
  1159.2500      0.0000    265.8271     76.0148    169.7637
  1159.5000      0.0000    265.7949     76.4907    168.8714
  1159.7500      0.0000    265.7783     76.6256    167.6031
  1160.0000      0.0000    265.7683     76.5950    164.9408
  1160.2500      0.0000    265.7586     76.5329    159.8747
  1160.5000      0.0000    265.7460     76.5627    152.0968
  1160.7500      0.0000    265.7289     76.8569    142.3965
  1161.0000      0.0000    265.7079     77.6095    132.6273
  1161.2500      0.0000    265.6851     78.8697    125.0733
  1161.5000      0.0000    265.6649     80.3996    121.1337
  1161.7500      0.0000    265.6534     81.7786    120.4090
  1162.0000      0.0000    265.6553     82.6976    121.3765
  1162.2500      0.0000    265.6694     83.1383    122.8002
  1162.5000      0.0000    265.6835     83.2978    124.1286
  1162.7500      0.0000    265.6812     83.3997    124.9369
  1163.0000      0.0000    265.6561     83.5599    124.8154
  1163.2500      0.0000    265.6187     83.7508    123.9742
  1163.5000      0.0000    265.5873     83.8405    123.4232
  1163.7500      0.0000    265.5740     83.6674    124.0448
  1164.0000      0.0000    265.5852     83.1227    125.6613
  1164.2500      0.0000    265.6363     82.1850    127.7322
  1164.5000      0.0000    265.7726     80.8493    130.9278
  1164.7500      0.0000    266.0861     78.9614    136.8207
  1165.0000      0.0000    266.7041     76.1732    145.3810
  1165.2500      0.0000    267.7222     72.2265    153.6603
  1165.5000      0.0000    269.1052     67.3762    157.6667
  1165.7500      0.0000    270.6427     62.4375    155.3513
  1166.0000      0.0000    272.0258     58.3042    147.8486
  1166.2500      0.0000    273.0086     55.4202    138.3977
  1166.5000      0.0000    273.5386     53.6419    130.1747
  1166.7500      0.0000    273.7513     52.4697    124.8072
  1167.0000      2.0000    273.8463     51.4107    122.6092
  1167.2500      0.0000    273.9659     50.2654    123.6332
  1167.5000      0.0000    274.1743     49.1503    127.8376
  1167.7500      0.0000    274.4776     48.3663    134.2934
  1168.0000      0.0000    274.7694     48.3471    140.9077
  1168.2500      0.0000    274.7476     49.6133    145.2848
  1168.5000      0.0000    274.0245     52.4310    145.9228
  1168.7500      0.0000    272.4746     56.3977    142.7459
  1169.0000      0.0000    270.4548     60.5864    136.7893
  1169.2500      0.0000    268.5792     64.1499    129.5016
  1169.5000      0.0000    267.2753     66.6719    122.1675
  1169.7500      0.0000    266.5843     68.1016    115.6501
  1170.0000      0.0000    266.3017     68.6412    110.5461
  1170.2500      0.0000    266.2044     68.6623    107.4612
  1170.5000      0.0000    266.1617     68.5353    106.9639
  1170.7500      0.0000    266.1289     68.4689    109.1358
  1171.0000      0.0000    266.1017     68.4953    113.2291
  1171.2500      0.0000    266.0805     68.5691    118.0108
  1171.5000      0.0000    266.0606     68.6432    122.4901
  1171.7500      0.0000    266.0394     68.6933    126.3938
  1172.0000      0.0000    266.0229     68.7068    130.3662
  1172.2500      0.0000    266.0196     68.6766    135.7181
  1172.5000      0.0000    266.0280     68.6010    143.1705
  1172.7500      0.0000    266.0354     68.4922    151.5624
  1173.0000      0.0000    266.0293     68.3864    158.6784
  1173.2500      0.0000    266.0107     68.3393    163.3256
  1173.5000      0.0000    265.9921     68.3985    165.4526
  1173.7500      0.0000    265.9825     68.5706    164.5257
  1174.0000      0.0000    265.9774     68.8176    159.4390
  1174.2500      0.0000    265.9688     69.0826    150.0932
  1174.5000      0.0000    265.9573     69.3155    137.9794
  1174.7500      0.0000    265.9508     69.4799    125.3453
  1175.0000      0.0000    265.9532     69.5499    114.4041
  1175.2500      0.0000    265.9612     69.5145    106.5268
  1175.5000      0.0000    265.9685     69.3912    101.2856
  1175.7500      0.0000    265.9717     69.2297     96.8089
  1176.0000      0.0000    265.9728     69.0965     91.7856
  1176.2500      0.0000    265.9789     69.0474     86.9925
  1176.5000      0.0000    265.9987     69.1002     84.6212
