~Version Information
VERS.                      2.0: CWLS Log ASCII Standard - VERSION 2.0
WRAP.                       NO: One line per depth step
~Well Information Block
STRT.FT               258.0000: 
STOP.FT               998.2000: 
STEP.FT                 0.1000: 
NULL.                -999.2500: 
COMP.          Pioneer Natural Resources: COMPANY
WELL.          Piggyback 33-25: WELL
FLD.           Purgatoire River: FIELD
LOC.           1600' FSL & 1800' FEL: LOCATION
PROV.                 Colorado: PROVINCE
CNTY.               Las Animas: COUNTRY
SRVC.                Patterson: SERVICE COMPANY
DATE.          Fri Apr 29 16:11:48 2005: LOG DATE
UWI.           05 071 08233 00: UNIQUE WELL ID
~Curve Information Block
DEPT.FT            0 000 00 00: Depth
DCAL.in                       : CDL Caliper
RHOB.g/cc                     : CDL Bulk Density
RHOC.g/cc                     : CDL Density Correction
DPOR.pu                       : CDL Density Porosity
GR.GAPI                       : Gamma Ray
NPOR.pu                       : Neutron Porosity
~Parameter Information Block
~A  Depth       DCAL        RHOB        RHOC        DPOR         GR         NPOR    
# ...
   402.0000      7.9389      2.5981      0.1438      3.1480    144.4102     26.4412
   402.1000      7.9389      2.6149      0.1985      2.1283    134.7094     26.6127
   402.2000      7.9389      2.5993      0.1501      3.0741    132.5262     26.6474
   402.3000      7.9998      2.5788      0.0886      4.3137    134.0807     26.5160
   402.4000      7.9998      2.5686      0.1327      4.9339    133.4953     26.1952
   402.5000      7.9312      2.5612      0.0603      5.3828    131.1377     25.6414
   402.6000      7.9312      2.5611      0.0588      5.3853    127.7187     25.0710
   402.7000      7.9312      2.5723      0.0647      4.7073    121.8823     24.8527
   402.8000      7.9300      2.5842      0.0695      3.9892    116.1401     24.7851
   402.9000      7.9300      2.5863      0.0905      3.8617    112.2311     24.3765
   403.0000      7.9276      2.5895      0.0222      3.6667    106.5516     23.7568
   403.1000      7.9276      2.6082      0.0681      2.5325     99.2045     23.2306
   403.2000      7.9276      2.6187      0.0936      1.8950     94.0906     22.7026
   403.3000      7.9195      2.5994      0.0527      3.0694     90.8997     22.2034
   403.4000      7.9195      2.5733      0.0716      4.6465     88.0588     22.0815
   403.5000      7.9060      2.5676      0.0728      4.9948     86.0027     22.2256
   403.6000      7.9060      2.5778      0.1106      4.3773     84.1751     22.2504
   403.7000      7.9060      2.5783      0.1676      4.3464     81.6095     22.1641
   403.8000      7.8778      2.5507      0.1005      6.0207     77.7683     22.1568
   403.9000      7.8778      2.5089      0.0303      8.5515     73.9971     22.1664
   404.0000      7.9051      2.4817      0.0886     10.1989     72.9354     21.9043
   404.1000      7.9051      2.4775      0.0391     10.4555     74.1262     21.4401
   404.2000      7.9051      2.4919      0.0451      9.5843     73.7873     21.0755
   404.3000      7.9008      2.5218      0.0787      7.7694     71.0370     20.9353
   404.4000      7.9008      2.5571      0.0852      5.6311     70.8669     20.9162
   404.5000      7.8783      2.5748      0.1472      4.5595     77.4207     20.8542
   404.6000      7.8783      2.5579      0.1648      5.5815     87.9380     20.7960
   404.7000      7.8783      2.5294      0.1401      7.3109     97.0535     20.7565
   404.8000      7.8548      2.5239      0.1894      7.6421    105.4781     20.6402
   404.9000      7.8548      2.5318      0.1999      7.1660    114.5035     20.5774
   405.0000      7.8572      2.5318      0.1094      7.1614    122.3959     20.6700
   405.1000      7.8572      2.5372      0.1305      6.8374    132.1710     20.7819
   405.2000      7.8572      2.5644      0.1332      5.1857    144.2271     20.9366
   405.3000      7.8954      2.6005      0.2391      3.0022    151.6694     21.5166
   405.4000      7.8954      2.6198      0.2675      1.8319    154.5724     22.6034
   405.5000      7.9470      2.6235      0.2889      1.6050    159.7937     23.7221
   405.6000      7.9470      2.6193      0.3653      1.8592    165.8384     24.6093
   405.7000      7.9470      2.5910      0.2621      3.5760    167.6469     25.3754
   405.8000      7.9437      2.5395      0.1451      6.6956    169.4819     25.7940
   405.9000      7.9437      2.4972      0.1083      9.2606    173.6833     25.4851
   406.0000      7.9728      2.4837      0.0623     10.0802    174.4549     24.8763
   406.1000      7.9728      2.4808      0.1616     10.2553    172.3925     24.5132
   406.2000      7.9728      2.4592      0.1153     11.5664    173.8830     24.3736
   406.3000      7.9826      2.4241      0.0302     13.6920    177.9382     24.3736
   406.4000      7.9826      2.4095      0.0436     14.5773    177.8105     24.6470
   406.5000      7.9790      2.4347      0.0802     13.0513    173.3510     25.2267
   406.6000      7.9790      2.4796      0.1809     10.3245    172.5282     25.7972
   406.7000      7.9790      2.5086      0.1420      8.5717    178.5370     26.0944
   406.8000      8.0285      2.5165      0.1672      8.0914    183.5013     26.3400
   406.9000      8.0285      2.5230      0.1228      7.6961    183.2495     26.9802
   407.0000      8.1424      2.5323      0.1886      7.1312    183.4940     27.9981
   407.1000      8.1424      2.5281      0.1745      7.3899    185.8002     28.8381
   407.2000      8.1424      2.5072      0.1199      8.6523    187.2966     29.2421
   407.3000      8.1286      2.4867      0.1402      9.8989    186.8301     29.4186
   407.4000      8.1286      2.4739      0.1477     10.6705    184.8680     29.4959
   407.5000      8.0201      2.4706      0.0593     10.8754    181.6117     29.4284
   407.6000      8.0201      2.4810      0.0813     10.2411    176.5466     29.1319
   407.7000      8.0201      2.4955      0.1040      9.3621    172.4733     28.6472
   407.8000      7.9791      2.5004      0.0460      9.0683    171.8369     28.2234
   407.9000      7.9791      2.4983      0.0511      9.1919    176.0111     27.7857
   408.0000      7.9758      2.4980      0.0292      9.2140    184.3899     27.1648
   408.1000      7.9758      2.4942      0.0417      9.4405    190.2994     26.6406
   408.2000      7.9758      2.4769      0.0532     10.4899    189.8564     26.5269
   408.3000      7.9740      2.4564      0.0467     11.7325    188.1543     26.6956
   408.4000      7.9740      2.4533      0.0260     11.9239    189.4532     26.8974
   408.5000      7.9556      2.4658      0.0839     11.1666    189.9825     27.0393
   408.6000      7.9556      2.4730      0.0878     10.7256    187.0352     26.9551
   408.7000      7.9556      2.4741      0.0457     10.6607    182.8759     26.5351
   408.8000      7.9209      2.4860      0.0686      9.9423    177.8102     26.1846
   408.9000      7.9209      2.5140      0.1469      8.2435    171.9779     26.2414
   409.0000      7.9036      2.5547      0.1759      5.7781    167.0812     26.3651
   409.1000      7.9036      2.5953      0.2396      3.3178    161.2488     26.3652
   409.2000      7.9036      2.6125      0.2468      2.2734    154.3656     26.4707
   409.3000      7.8827      2.6069      0.1741      2.6114    152.0181     26.6668
   409.4000      7.8827      2.6057      0.1370      2.6827    153.8865     26.7780
   409.5000      7.9168      2.6139      0.1827      2.1871    155.2890     26.8129
   409.6000      7.9168      2.6160      0.0857      2.0585    155.2096     26.7890
   409.7000      7.9168      2.6112      0.1396      2.3508    154.1378     26.6274
   409.8000      7.9600      2.5982      0.1721      3.1370    151.3883     26.3273
   409.9000      7.9600      2.5695      0.1485      4.8799    145.3944     25.9221
   410.0000      7.9799      2.5275      0.1178      7.4257    140.0223     25.4624
   410.1000      7.9799      2.4849      0.0609     10.0089    141.6050     25.0137
   410.2000      7.9799      2.4530      0.0323     11.9386    150.8083     24.5565
   410.3000      7.9351      2.4396     -0.0143     12.7539    159.1835     23.9961
   410.4000      7.9351      2.4455      0.0616     12.3939    158.0233     23.2685
   410.5000      7.8849      2.4678      0.0479     11.0451    150.2467     22.4446
   410.6000      7.8849      2.5054      0.1529      8.7657    145.8142     21.6694
   410.7000      7.8849      2.5356      0.2233      6.9354    150.7843     21.1180
   410.8000      7.8694      2.5213      0.2268      7.7995    162.5461     20.8359
   410.9000      7.8694      2.4544      0.2230     11.8550    170.8525     20.6748
   411.0000      7.8777      2.3691      0.1168     17.0268    167.5738     20.7894
   411.1000      7.8777      2.3100      0.1145     20.6077    160.1402     21.4404
   411.2000      7.8777      2.2841      0.1196     22.1755    158.9362     22.2349
   411.3000      7.9216      2.2748      0.0745     22.7417    159.6891     22.7818
   411.4000      7.9216      2.2848      0.0591     22.1353    155.2646     23.3598
   411.5000      7.9975      2.3222      0.1539     19.8663    148.5121     24.1241
