~Version Information
VERS.                      2.0: CWLS Log ASCII Standard - VERSION 2.0
WRAP.                       NO: One line per depth step
~Well Information Block
STRT.FT               583.0000: 
STOP.FT              1700.0000: 
STEP.FT                 0.1000: 
NULL.                -999.2500: 
COMP.          Pioneer Natural Resources: COMPANY
WELL.          Scott Canyon 11-18 Tr: WELL
FLD.           Purgatoire River: FIELD
LOC.           411' FNL & 580' FWL: LOCATION
PROV.                 Colorado: PROVINCE
CNTY.               Las Animas: COUNTRY
SRVC.                Patterson: SERVICE COMPANY
DATE.          Thu Feb 17 15:41:32 2005: LOG DATE
UWI.           05 071 08286 00: UNIQUE WELL ID
~Curve Information Block
DEPT.FT            0 000 00 00: Depth
DCAL.in                       : CDL Caliper
RHOB.g/cc                     : CDL Bulk Density
RHOC.g/cc                     : CDL Density Correction
DPOR.pu                       : CDL Density Porosity
GR.GAPI                       : Gamma Ray
NPOR.pu                       : Neutron Porosity
~Parameter Information Block
~A  Depth       DCAL        RHOB        RHOC        DPOR         GR         NPOR    
   583.0000      1.7315      0.9991     -0.0581    100.0555    119.3984     29.9825
   583.1000      1.7315      1.0085     -0.0580     99.4876    114.6561     29.8970
   583.2000      1.7315      1.0129     -0.0232     99.2167    111.9045     29.8409
   583.3000      1.7289      1.0231      0.0388     98.5991    112.4719     29.9651
   583.4000      1.7289      1.0515      0.0333     96.8805    114.3831     30.2658
   583.5000      1.7359      1.1167      0.0666     92.9251    113.3960     30.4462
   583.6000      1.7359      1.2230      0.1375     86.4827    108.2505     30.0883
   583.7000      1.7359      1.3478      0.1899     78.9230    102.9043     29.3992
   583.8000      1.7297      1.4533      0.2062     72.5266    100.9866     28.8742
   583.9000      1.7297      1.5084      0.1540     69.1863    101.4372     28.4130
   584.0000      1.7127      1.5072      0.1481     69.2598    104.5438     27.9354
   584.1000      1.7127      1.4713      0.1567     71.4354    108.9035     27.7680
   584.2000      1.7127      1.4396      0.1799     73.3557    109.9070     28.1221
   584.3000      1.7093      1.4500      0.2623     72.7288    107.0409     28.7375
   584.4000      1.7093      1.5290      0.2985     67.9413    103.1877     29.0571
   584.5000      1.7181      1.6856      0.3746     58.4471    100.1941     28.8084
   584.6000      1.7181      1.8742      0.4800     47.0161     95.8245     28.3971
   584.7000      1.7181      1.9807      0.5576     40.5655     89.1181     28.3205
   584.8000      1.7139      1.9220      0.4408     44.1190     85.2876     28.4711
   584.9000      1.7139      1.7694      0.2893     53.3688     89.0805     28.3545
   585.0000      1.7006      1.7018      0.2678     57.4681     97.3788     28.1542
   585.1000      1.7006      1.8411      0.3318     49.0244    102.9364     28.5863
   585.2000      1.7006      2.1582      0.5255     29.8038    104.7959     29.5221
   585.3000      1.7175      2.5107      0.6581      8.4426    106.3185     29.9173
   585.4000      1.7175      2.7737      0.7168     -7.4980    106.9017     29.4529
   585.5000      1.6938      2.9203      0.7530    -16.3807    106.7436     29.1907
   585.6000      1.6938      2.9811      0.6925    -20.0691    106.8800     29.6357
   585.7000      1.6938      2.9773      0.7270    -19.8355    106.1058     30.1484
   585.8000      1.6844      2.8930      0.6686    -14.7243    105.9146     30.3343
   585.9000      1.6844      2.7233      0.3883     -4.4437    107.7413     30.5878
   586.0000      1.6832      2.5240      0.1189      7.6361    110.3198     31.2700
   586.1000      1.6832      2.3613     -0.0204     17.4989    111.0301     31.9135
   586.2000      1.6832      2.2520     -0.1066     24.1237    106.4835     32.0080
   586.3000      1.6855      2.1784     -0.1407     28.5805     96.3627     31.5223
   586.4000      1.6855      2.1258     -0.2349     31.7687     87.9509     30.7085
   586.5000      1.6980      2.0967     -0.3094     33.5327     89.4911     30.0436
   586.6000      1.6980      2.0989     -0.2855     33.3978     98.2171     29.7307
   586.7000      1.6980      2.1281     -0.3146     31.6282    105.2977     29.3987
   586.8000      1.6854      2.1621     -0.2617     29.5725    105.6684     29.0080
   586.9000      1.6854      2.1800     -0.2651     28.4869    100.6409     28.8718
   587.0000      1.6824      2.1864     -0.2677     28.0950     93.2771     28.4796
   587.1000      1.6824      2.1989     -0.3226     27.3387     84.9943     27.4821
   587.2000      1.6824      2.2181     -0.2333     26.1742     79.0415     26.5530
   587.3000      1.6840      2.2311     -0.2893     25.3893     76.7321     26.0976
   587.4000      1.6840      2.2461     -0.2958     24.4794     76.3990     25.8069
   587.5000      1.6954      2.2705     -0.2150     22.9981     78.0949     25.4516
   587.6000      1.6954      2.2839     -0.1806     22.1860     80.3322     25.0518
   587.7000      1.6954      2.2818     -0.2673     22.3166     80.0375     24.8037
   587.8000      1.6831      2.2818     -0.2206     22.3163     77.0774     24.7827
   587.9000      1.6831      2.2815     -0.2410     22.3321     75.7815     24.6756
   588.0000      1.6808      2.2662     -0.2418     23.2597     77.4020     24.5668
   588.1000      1.6808      2.2330     -0.2283     25.2726     77.9269     24.5738
   588.2000      1.6808      2.2052     -0.3347     26.9573     76.8838     24.4064
   588.3000      1.6828      2.2128     -0.2545     26.4972     75.9871     24.1034
   588.4000      1.6828      2.2412     -0.1781     24.7780     76.1657     24.0324
   588.5000      1.6796      2.2528     -0.2224     24.0709     79.2064     24.3156
   588.6000      1.6796      2.2389     -0.2241     24.9121     84.6653     24.6119
   588.7000      1.6796      2.2171     -0.2464     26.2370     89.2051     24.6732
   588.8000      1.6803      2.2105     -0.2923     26.6387     89.2205     24.6778
   588.9000      1.6803      2.2260     -0.2181     25.6947     85.7794     24.6987
   589.0000      1.6829      2.2464     -0.2232     24.4590     81.6934     24.5567
   589.1000      1.6829      2.2621     -0.2254     23.5068     76.9224     24.3704
   589.2000      1.6829      2.2822     -0.2216     22.2908     73.8314     24.5598
   589.3000      2.3238      2.3119     -0.2008     20.4919     74.0819     24.7772
   589.4000      2.3238      2.3481     -0.2525     18.2960     75.3066     24.3100
   589.5000      7.0989      2.3838     -0.2051     16.1320     75.9115     23.6068
   589.6000      7.0989      2.4042     -0.1963     14.8944     75.9757     23.5097
   589.7000      7.0989      2.3958     -0.1724     15.4046     76.5056     23.8062
   589.8000      8.1252      2.3564     -0.2208     17.7929     76.5888     24.1853
   589.9000      8.1252      2.2966     -0.2877     21.4163     73.3588     24.5280
   590.0000      8.1760      2.2409     -0.4072     24.7915     69.2505     24.4660
   590.1000      8.1760      2.2159     -0.4196     26.3105     69.8576     24.1374
   590.2000      8.1760      2.2250     -0.4507     25.7569     75.0510     23.9389
   590.3000      8.1681      2.2436     -0.2831     24.6283     79.1760     23.8873
   590.4000      8.1681      2.2561     -0.4392     23.8734     78.4874     23.9701
   590.5000      8.1681      2.2728     -0.3833     22.8619     74.0331     24.3126
   590.6000      8.1681      2.2881     -0.4408     21.9350     70.7309     24.7979
   590.7000      8.1681      2.2870     -0.3712     22.0001     73.0051     25.0813
   590.8000      8.1733      2.2717     -0.4443     22.9301     78.6729     25.0584
   590.9000      8.1733      2.2453     -0.3943     24.5278     84.4997     25.0732
   591.0000      8.1761      2.2074     -0.4498     26.8224     91.1025     25.3929
   591.1000      8.1761      2.1750     -0.4528     28.7870     95.3002     26.0437
   591.2000      8.1761      2.1683     -0.4953     29.1919     94.1398     26.6265
   591.3000      8.1756      2.1797     -0.4417     28.5003     91.1855     26.8645
   591.4000      8.1756      2.1796     -0.3825     28.5091     90.1655     27.0948
   591.5000      8.1909      2.1516     -0.4237     30.2086     94.7780     27.4695
   591.6000      8.1909      2.1120     -0.4851     32.6062    104.5640     27.7944
   591.7000      8.1909      2.0914     -0.5395     33.8534    111.2786     28.0429
   591.8000      8.1950      2.1009     -0.4576     33.2792    112.2257     28.2800
   591.9000      8.1950      2.1218     -0.4659     32.0106    113.0122     28.5877
   592.0000      8.1985      2.1299     -0.4337     31.5238    114.0206     29.1451
   592.1000      8.1985      2.1146     -0.4654     32.4490    110.5849     29.7372
   592.2000      8.1985      2.0947     -0.5638     33.6561    104.7802     30.0296
   592.3000      8.1962      2.0952     -0.4567     33.6240    103.8763     30.1473
   592.4000      8.1962      2.0985     -0.4360     33.4219    109.0755     30.1984
   592.5000      8.1966      2.0825     -0.4930     34.3968    112.3072     30.1429
