~Version Information
VERS.                      2.0: CWLS Log ASCII Standard - VERSION 2.0
WRAP.                       NO: One line per depth step
~Well Information Block
STRT.FT                -7.5000: 
STOP.FT              1877.2500: 
STEP.FT                 0.2500: 
NULL.                -999.2500: 
COMP.          Pioneer Natural Resources: COMPANY
WELL.            Nova 11-14 Tr: WELL
FLD.           Purgatorie River: FIELD
LOC.           706' FNL & 1109' FWL--: LOCATION
PROV.                       CO: PROVINCE
CNTY.               Las Animas: COUNTRY
SRVC.          Patterson Wireline: SERVICE COMPANY
DATE.          Tue Jul 26 15:08:01 2005: LOG DATE
UWI.           05 071 08434 00: UNIQUE WELL ID
~Curve Information Block
DEPT.FT            0 000 00 00: Depth
CCL.                          : Casing Collar Locator
TT3.usec                      : CBL 3' Travel Time
AMP3.mV                       : CBL 3' Amplitude
GR.GAPI                       : Gamma Ray
~Parameter Information Block
~A  Depth       CCL         TT3         AMP3         GR     
# ...
   227.0000      0.0000    592.9709      9.5304     87.8182
   227.2500      0.0000    559.3525      9.5781     86.0117
   227.5000      0.0000    532.9330      9.6340     82.7005
   227.7500      0.0000    517.0883      9.6829     79.6697
   228.0000      0.0000    513.9045      9.7084     78.0496
   228.2500      0.0000    523.5890      9.7035     77.5983
   228.5000      0.0000    542.0273      9.6773     77.1942
   228.7500      0.0000    560.4831      9.6494     76.0297
   229.0000      0.0000    570.0920      9.6383     74.4714
   229.2500      0.0000    567.0928      9.6521     73.8160
   229.5000      0.0000    554.1761      9.6875     75.1049
   229.7500      0.0000    537.4899      9.7339     77.9816
   230.0000      0.0000    521.5663      9.7828     80.7188
   230.2500      0.0000    506.3969      9.8344     81.6447
   230.5000      0.0000    489.6796      9.8937     80.6403
   230.7500      0.0000    471.1936      9.9600     79.1178
   231.0000      0.0000    453.6909     10.0237     78.6999
   231.2500      0.0000    440.0352     10.0757     80.2356
   231.5000      0.0000    430.6839     10.1169     83.7425
   231.7500      0.0000    423.8019     10.1574     88.4700
   232.0000      0.0000    417.1429     10.2072     92.9080
   232.2500      0.0000    409.9972     10.2694     95.5079
   232.5000      0.0000    403.8448     10.3404     95.8869
   232.7500      0.0000    401.0070     10.4148     95.0553
   233.0000      0.0000    402.1699     10.4905     94.2349
   233.2500      0.0000    405.1431     10.5681     93.6722
   233.5000      0.0000    406.3094     10.6474     92.6327
   233.7500      0.0000    403.5449     10.7251     90.2037
   234.0000      0.0000    397.8242     10.7976     85.9819
   234.2500      0.0000    392.2565     10.8642     80.3653
   234.5000      0.0000    389.8680     10.9255     74.4264
   234.7500      0.0000    392.0447     10.9790     69.2599
   235.0000      0.0000    398.1693     11.0206     65.1413
   235.2500      0.0000    406.1447     11.0504     61.4741
   235.5000      0.0000    413.6050     11.0749     57.8069
   235.7500      0.0000    419.5030     11.1012     54.6311
   236.0000      0.0000    425.3663     11.1300     52.8881
   236.2500      0.0000    436.0119     11.1554     53.0614
   236.5000      0.0000    459.1184     11.1728     55.0858
   236.7500      0.0000    501.7372     11.1852     58.6183
   237.0000      0.0000    563.7369     11.2002     62.8044
   237.2500      0.0000    634.0800     11.2237     66.1767
   237.5000      0.0000    696.2465     11.2548     67.5581
   237.7500      0.0000    739.0734     11.2871     67.1287
   238.0000      0.0000    762.1353     11.3145     66.1070
   238.2500      0.0000    771.9358     11.3351     65.2195
   238.5000      0.0000    775.3401     11.3508     63.8536
   238.7500      0.0000    776.4237     11.3627     61.0056
   239.0000      0.0000    776.8096     11.3684     56.8168
   239.2500      0.0000    776.9377     11.3642     52.8102
   239.5000      0.0000    776.8831     11.3489     50.7047
   239.7500      0.0000    776.6853     11.3263     51.3463
   240.0000      0.0000    776.4084     11.3020     54.7034
   240.2500      0.0000    776.1371     11.2804     60.2685
   240.5000      0.0000    775.9369     11.2632     67.1707
   240.7500      0.0000    775.8240     11.2486     74.3508
   241.0000      0.0000    775.7658     11.2332     80.9451
   241.2500      0.0000    775.7160     11.2159     86.3312
   241.5000      0.0000    775.6421     11.2007     89.8846
   241.7500      0.0000    775.4869     11.1944     91.2132
   242.0000      0.0000    774.7937     11.2022     90.7426
   242.2500      0.0000    771.7371     11.2247     89.6838
   242.5000      0.0000    761.6510     11.2586     89.1124
   242.7500      0.0000    736.6663     11.2983     89.1610
   243.0000      0.0000    689.3185     11.3399     89.1978
   243.2500      0.0000    619.9841     11.3822     88.7387
   243.5000      0.0000    541.1776     11.4240     88.0886
   243.7500      0.0000    471.5135     11.4613     88.0171
   244.0000      0.0000    423.5653     11.4892     88.7595
   244.2500      0.0000    397.8426     11.5067     89.4497
   244.5000      0.0000    387.0739     11.5178     88.6246
   244.7500      0.0000    383.5661     11.5290     85.2959
   245.0000      0.0000    382.7185     11.5438     79.8243
   245.2500      0.0000    382.6381     11.5622     74.0905
   245.5000      0.0000    382.7414     11.5825     70.4718
   245.7500      0.0000    382.8817     11.6029     70.0604
   246.0000      0.0000    383.0083     11.6228     71.9091
   246.2500      0.0000    383.0995     11.6437     74.2460
   246.5000      0.0000    383.1449     11.6669     76.1214
   246.7500      0.0000    383.1575     11.6915     77.7067
   247.0000      0.0000    383.1657     11.7162     79.4056
   247.2500      0.0000    383.1837     11.7446     81.0549
   247.5000      0.0000    383.1923     11.7845     81.8555
   247.7500      0.0000    383.1559     11.8421     80.9530
   248.0000      0.0000    383.0600     11.9171     78.1887
   248.2500      0.0000    382.9346     12.0037     74.2452
   248.5000      0.0000    382.8686     12.0952     69.9840
   248.7500      0.0000    383.1754     12.1878     65.8719
   249.0000      0.0000    385.0115     12.2799     62.0863
   249.2500      0.0000    391.5483     12.3681     58.7123
   249.5000      0.0000    408.8892     12.4442     55.6968
   249.7500      0.0000    444.5676     12.4989     53.0459
   250.0000      0.0000    502.2281     12.5309     51.2024
   250.2500      0.0000    575.7774     12.5494     50.7644
   250.5000      0.0000    649.9431     12.5649     51.5560
   250.7500      0.0000    709.0620     12.5769     52.3128
   251.0000      0.0000    746.2748     12.5729     51.6918
   251.2500      0.0000    764.7535     12.5409     49.5286
   251.5000      0.0000    772.0349     12.4808     46.9015
   251.7500      0.0000    774.4308     12.4043     45.1264
   252.0000      0.0000    775.2653     12.3263     44.8842
   252.2500      0.0000    775.7309     12.2600     46.0098
   252.5000      0.0000    776.0868     12.2161     47.7393
   252.7500      0.0000    776.2552     12.2012     49.2311
   253.0000      0.0000    775.9310     12.2136     50.1041
   253.2500      0.0000    774.7291     12.2414     50.5697
   253.5000      0.0000    772.7258     12.2668     51.0335
   253.7500      0.0000    770.9677     12.2773     51.4903
   254.0000      0.0000    770.9536     12.2714     51.3698
   254.2500      0.0000    772.8647     12.2513     50.2607
   254.5000      0.0000    774.3063     12.2034     48.8118
   254.7500      0.0000    771.3212     12.0887     48.5413
   255.0000      0.0000    761.2321     11.8590     50.5561
   255.2500      0.0000    745.2404     11.4897     54.5696
   255.5000      0.0000    729.5035     10.9935     59.1271
   255.7500      0.0000    723.5116     10.4084     62.6388
   256.0000      0.0000    734.7745      9.7967     64.2621
   256.2500      0.0000    762.5200      9.2459     63.9045
   256.5000      0.0000    797.2247      8.8322     61.6207
   256.7500      0.0000    828.1931      8.5716     57.4689
   257.0000      2.0000    851.6409      8.4279     52.0557
   257.2500      0.0000    870.4929      8.3593     46.8326
   257.5000      0.0000    886.9819      8.3436     43.6543
   257.7500      0.0000    897.3771      8.3747     43.9579
   258.0000      0.0000    895.4496      8.4609     47.9046
   258.2500      0.0000    880.8482      8.6314     53.9925
   258.5000      0.0000    862.1500      8.9333     59.8915
   258.7500      0.0000    850.3705      9.4053     64.0207
   259.0000      0.0000    850.2148     10.0295     66.2134
   259.2500      0.0000    857.9150     10.6990     66.9200
   259.5000      0.0000    866.0027     11.2616     66.3078
   259.7500      0.0000    868.9961     11.6214     64.4175
   260.0000      0.0000    865.5153     11.7911     61.7334
   260.2500      0.0000    856.7092     11.8512     59.0291
