~Version Information
VERS.                      2.0: CWLS Log ASCII Standard - VERSION 2.0
WRAP.                       NO: One line per depth step
~Well Information Block
STRT.FT               450.0000: 
STOP.FT              1739.2500: 
STEP.FT                 0.2500: 
NULL.                -999.2500: 
COMP.          Pioneer Natural Resources: COMPANY
WELL.            Harlee L 34-9: WELL
FLD.           Purgatoire River: FIELD
LOC.           600' FSL & 2125' FEL: LOCATION
PROV.                 Colorado: PROVINCE
CNTY.               Las Animas: COUNTRY
SRVC.                Patterson: SERVICE COMPANY
DATE.          Wed Jan 26 02:00:08 2005: LOG DATE
UWI.           05 071 08009 00: UNIQUE WELL ID
~Curve Information Block
DEPT.FT            0 000 00 00: Depth
SN.Ohm-m                      : IEL Short Normal
SP.mV                         : IEL Spontaneous Potential
DIR.Ohm-m                     : IEL Induction Resistivity
GR.GAPI                       : Gamma Ray
~Parameter Information Block
~A  Depth        SN          SP         DIR          GR     
# ...
  1455.0000     16.3412    -67.1057     13.9581     95.6599
  1455.2500     16.8034    -67.4465     14.1826     95.4257
  1455.5000     17.2262    -67.8702     14.3865     93.8506
  1455.7500     17.6576    -68.3334     14.5721     92.4054
  1456.0000     18.1448    -68.7818     14.7584     91.0917
  1456.2500     18.6989    -69.1505     14.9664     91.5518
  1456.5000     19.2869    -69.3686     15.2020     94.4581
  1456.7500     19.8403    -69.3686     15.4464     97.2611
  1457.0000     20.2724    -69.1014     15.6600    101.1497
  1457.2500     20.5083    -68.5534     15.7958    102.6821
  1457.5000     20.5230    -67.7601     15.8173    102.5292
  1457.7500     20.3610    -66.8108     15.7142    100.7739
  1458.0000     20.1210    -65.8418     15.5095     96.5185
  1458.2500     19.9133    -65.0217     15.2560     93.4731
  1458.5000     19.8223    -64.5321     15.0234     89.9539
  1458.7500     19.8921    -64.5487     14.8819     88.5201
  1459.0000     20.1370    -65.2264     14.8891     86.8317
  1459.2500     20.5709    -66.6844     15.0822     85.1544
  1459.5000     21.2445    -68.9942     15.4770     80.6868
  1459.7500     22.2755    -72.1667     16.0732     76.1667
  1460.0000     23.8461    -76.1424     16.8644     67.4833
  1460.2500     26.1431    -80.7844     17.8486     61.1368
  1460.5000     29.2497    -85.8785     19.0332     52.2844
  1460.7500     33.0394    -91.1377     20.4305     47.4208
  1461.0000     37.1381    -96.2134     22.0443     41.9039
  1461.2500     40.9890   -100.7143     23.8457     39.3054
  1461.5000     44.0080   -104.2378     25.7341     36.8904
  1461.7500     45.7520   -106.4202     27.4995     36.3258
  1462.0000     46.0154   -107.0024     28.8208     37.4044
  1462.2500     44.8376   -105.8945     29.3525     39.5762
  1462.5000     42.4705   -103.2145     28.8958     44.5448
  1462.7500     39.3299    -99.2801     27.5330     48.2876
  1463.0000     35.9067    -94.5500     25.5934     53.7190
  1463.2500     32.6333    -89.5327     23.4753     57.4728
  1463.5000     29.7666    -84.6940     21.4813     64.4091
  1463.7500     27.3689    -80.3910     19.7636     70.1722
  1464.0000     25.3863    -76.8447     18.3553     79.6727
  1464.2500     23.7489    -74.1486     17.2261     85.6143
  1464.5000     22.4183    -72.2982     16.3278     92.5413
  1464.7500     21.3812    -71.2266     15.6202     95.5795
  1465.0000     20.6248    -70.8348     15.0812     98.1889
  1465.2500     20.1203    -71.0095     14.7050     98.9511
  1465.5000     19.8207    -71.6290     14.4955     98.8361
  1465.7500     19.6698    -72.5598     14.4545     98.0665
  1466.0000     19.6131    -73.6513     14.5709     96.6890
  1466.2500     19.5996    -74.7354     14.8118     96.2435
  1466.5000     19.5738    -75.6390     15.1197     96.7513
  1466.7500     19.4745    -76.2082     15.4179     97.6498
  1467.0000     19.2466    -76.3384     15.6260     99.1649
  1467.2500     18.8588    -75.9983     15.6802    100.0493
  1467.5000     18.3136    -75.2363     15.5518    101.1122
  1467.7500     17.6452    -74.1650     15.2528    101.6322
  1468.0000     16.9050    -72.9302     14.8269    102.0522
  1468.2500     16.1471    -71.6756     14.3313    102.1232
  1468.5000     15.4208    -70.5136     13.8181    102.1235
  1468.7500     14.7709    -69.5117     13.3246    102.0922
  1469.0000     14.2379    -68.6911     12.8711    101.9316
  1469.2500     13.8522    -68.0378     12.4651    101.8747
  1469.5000     13.6231    -67.5173     12.1057    102.4163
  1469.7500     13.5261    -67.0892     11.7890    103.4766
  1470.0000     13.5089    -66.7198     11.5112    106.2585
  1470.2500     13.5159    -66.3886     11.2715    108.7147
  1470.5000     13.5089    -66.0907     11.0719    112.3161
  1470.7500     13.4704    -65.8348     10.9156    113.8912
  1471.0000     13.4036    -65.6390     10.8059    114.3231
  1471.2500     13.3357    -65.5266     10.7444    113.5482
  1471.5000     13.3069    -65.5222     10.7313    111.6722
  1471.7500     13.3451    -65.6504     10.7672    110.3452
  1472.0000     13.4527    -65.9335     10.8537    108.6361
  1472.2500     13.6187    -66.3897     10.9951    107.9053
  1472.5000     13.8372    -67.0298     11.1968    107.6023
  1472.7500     14.1119    -67.8539     11.4632    107.6163
  1473.0000     14.4513    -68.8511     11.7947    106.7858
  1473.2500     14.8683    -70.0009     12.1886    105.1049
  1473.5000     15.3831    -71.2755     12.6448    100.8687
  1473.7500     16.0218    -72.6405     13.1740     97.2863
  1474.0000     16.8095    -74.0539     13.7980     91.4720
  1474.2500     17.7624    -75.4650     14.5391     87.6085
  1474.5000     18.8784    -76.8171     15.4027     82.2285
  1474.7500     20.1203    -78.0537     16.3659     79.0370
  1475.0000     21.4008    -79.1279     17.3770     74.8555
  1475.2500     22.5982    -80.0096     18.3650     72.5252
  1475.5000     23.6069    -80.6874     19.2563     70.1235
  1475.7500     24.3885    -81.1665     19.9979     69.4590
  1476.0000     24.9774    -81.4647     20.5780     69.5240
  1476.2500     25.4377    -81.6097     21.0285     69.7878
  1476.5000     25.8097    -81.6410     21.4041     70.2544
  1476.7500     26.0892    -81.6106     21.7508     70.9885
  1477.0000     26.2502    -81.5797     22.0830     73.2310
  1477.2500     26.2791    -81.6069     22.3816     75.2313
  1477.5000     26.1891    -81.7332     22.6069     78.0909
  1477.7500     26.0139    -81.9707     22.7232     79.6082
  1478.0000     25.7938    -82.3005     22.7185     81.2822
  1478.2500     25.5624    -82.6831     22.6118     82.0055
  1478.5000     25.3394    -83.0729     22.4445     82.5109
  1478.7500     25.1326    -83.4324     22.2642     82.6853
  1479.0000     24.9444    -83.7402     22.1095     83.4376
  1479.2500     24.7761    -83.9921     22.0013     84.4664
  1479.5000     24.6266    -84.1974     21.9404     85.9960
  1479.7500     24.4933    -84.3704     21.9126     86.0583
  1480.0000     24.3737    -84.5198     21.8963     83.7572
  1480.2500     24.2657    -84.6405     21.8705     81.0853
  1480.5000     24.1633    -84.7093     21.8130     77.3738
  1480.7500     24.0496    -84.6909     21.6908     76.0789
  1481.0000     23.8957    -84.5500     21.4549     76.1473
  1481.2500     23.6718    -84.2652     21.0613     76.8417
  1481.5000     23.3640    -83.8372     20.5139     77.2653
  1481.7500     22.9836    -83.2886     19.8919     76.7495
  1482.0000     22.5634    -82.6544     19.3212     75.5641
  1482.2500     22.1457    -81.9715     18.9103     75.2512
  1482.5000     21.7691    -81.2706     18.7010     75.9824
  1482.7500     21.4565    -80.5756     18.6568     77.0463
  1483.0000     21.2069    -79.9066     18.6845     79.0695
  1483.2500     20.9954    -79.2828     18.6789     80.5942
  1483.5000     20.7882    -78.7213     18.5714     82.7210
  1483.7500     20.5642    -78.2324     18.3549     83.4709
  1484.0000     20.3272    -77.8154     18.0704     82.7091
  1484.2500     20.0985    -77.4590     17.7742     80.9397
  1484.5000     19.9002    -77.1456     17.5153     77.2502
  1484.7500     19.7436    -76.8590     17.3288     74.6995
  1485.0000     19.6275    -76.5906     17.2368     71.4659
  1485.2500     19.5411    -76.3417     17.2458     69.9878
  1485.5000     19.4709    -76.1207     17.3413     69.0303
  1485.7500     19.4078    -75.9378     17.4863     69.1387
  1486.0000     19.3533    -75.7995     17.6268     69.9865
  1486.2500     19.3219    -75.7051     17.7066     70.8631
  1486.5000     19.3369    -75.6464     17.6907     72.7979
  1486.7500     19.4179    -75.6098     17.5861     74.5677
  1487.0000     19.5671    -75.5785     17.4426     77.4053
  1487.2500     19.7661    -75.5343     17.3283     78.7485
  1487.5000     19.9847    -75.4590     17.2940     78.8930
  1487.7500     20.1926    -75.3358     17.3536     77.5821
  1488.0000     20.3653    -75.1517     17.4876     74.1930
  1488.2500     20.4880    -74.9007     17.6610     71.7836
