~Version Information
VERS.                      2.0: CWLS Log ASCII Standard - VERSION 2.0
WRAP.                       NO: One line per depth step
~Well Information Block
STRT.FT               557.0000: 
STOP.FT              2136.0000: 
STEP.FT                 0.2500: 
NULL.                -999.2500: 
COMP.          Petrogulf Corporation: COMPANY
WELL.           Montoya 12-41R: WELL
FLD.           Purgatorie River: FIELD
LOC.           1086' FNL & 610' FEL: LOCATION
CNTY.               Las Animas: COUNTY
SRVC.                         : SERVICE COMPANY
DATE.          Thu Nov 18 06:03:03 2004: LOG DATE
UWI.           05 071 08241 00: UNIQUE WELL ID
STAT.                 Colorado: STATE
~Curve Information Block
DEPT.FT            0 000 00 00: Depth
SP.mV                         : DIL Spontaneous Potential
RILD.Ohm-m                    : DIL Deep Resistivity
RILM.Ohm-m                    : DIL Medium Resistivity
RLL3.Ohm-m                    : DIL Shallow Resistivity
GR.GAPI                       : Gamma Ray
~Parameter Information Block
~A  Depth        SP         RILD        RILM        RLL3         GR     
# ...
  2097.0000     18.6945     18.7109     20.0086     21.5408    113.2965
  2097.2500     18.0258     18.7858     20.2553     22.7755    107.8614
  2097.5000     17.1768     18.8988     20.5117     23.7001     99.4010
  2097.7500     16.2085     19.0482     20.7570     24.1954     93.4202
  2098.0000     15.1925     19.2313     20.9791     24.2354     84.3662
  2098.2500     14.1994     19.4431     21.1751     23.8796     78.6371
  2098.5000     13.3023     19.6758     21.3501     23.2478     70.7008
  2098.7500     12.5670     19.9202     21.5150     22.4837     65.8859
  2099.0000     12.0470     20.1657     21.6836     21.7224     59.8867
  2099.2500     11.7729     20.4029     21.8698     21.0686     57.1502
  2099.5000     11.7305     20.6246     22.0844     20.5900     55.2927
  2099.7500     11.8577     20.8269     22.3347     20.3223     55.3647
  2100.0000     12.0555     21.0098     22.6220     20.2789     56.6610
  2100.2500     12.2064     21.1753     22.9434     20.4587     57.8065
  2100.5000     12.2051     21.3274     23.2901     20.8494     59.2011
  2100.7500     11.9843     21.4703     23.6504     21.4274     59.5245
  2101.0000     11.5257     21.6073     24.0106     22.1556     58.4993
  2101.2500     10.8563     21.7400     24.3557     22.9827     56.6944
  2101.5000     10.0369     21.8685     24.6734     23.8461     52.8209
  2101.7500      9.1478     21.9912     24.9531     24.6770     50.0278
  2102.0000      8.2667     22.1054     25.1889     25.4096     46.3100
  2102.2500      7.4597     22.2076     25.3780     25.9908     44.2716
  2102.5000      6.7594     22.2951     25.5206     26.3884     41.5605
  2102.7500      6.1601     22.3658     25.6187     26.5969     39.7229
  2103.0000      5.6065     22.4204     25.6761     26.6375     36.7878
  2103.2500      5.0122     22.4621     25.6987     26.5534     34.8478
  2103.5000      4.2778     22.4966     25.6942     26.3991     32.2946
  2103.7500      3.3197     22.5315     25.6731     26.2274     30.9896
  2104.0000      2.1012     22.5748     25.6489     26.0764     29.8384
  2104.2500      0.6471     22.6326     25.6355     25.9605     29.6699
  2104.5000     -0.9587     22.7083     25.6451     25.8722     30.2396
  2104.7500     -2.5874     22.8013     25.6857     25.7923     31.0700
  2105.0000     -4.0993     22.9064     25.7577     25.7065     32.9533
  2105.2500     -5.3677     23.0146     25.8522     25.6212     34.7706
  2105.5000     -6.3120     23.1146     25.9513     25.5688     38.7902
  2105.7500     -6.9081     23.1932     26.0291     25.5968     42.5289
  2106.0000     -7.1963     23.2389     26.0563     25.7417     49.2876
  2106.2500     -7.2708     23.2421     26.0055     25.9995     53.6452
  2106.5000     -7.2522     23.1989     25.8584     26.3078     58.0482
  2106.7500     -7.2689     23.1108     25.6103     26.5518     59.1611
  2107.0000     -7.4135     22.9859     25.2738     26.5942     59.6141
  2107.2500     -7.7283     22.8378     24.8777     26.3220     60.7226
  2107.5000     -8.1969     22.6835     24.4628     25.6872     65.1317
  2107.7500     -8.7539     22.5417     24.0775     24.7295     68.8972
  2108.0000     -9.3083     22.4281     23.7698     23.5720     70.8819
  2108.2500     -9.7705     22.3559     23.5829     22.3976     66.7452
  2108.5000    -10.0647     22.3320     23.5514     21.4155     51.3066
  2108.7500    -10.1281     22.3583     23.6989     20.8323     37.5418
  2109.0000     -9.8956     22.4317     24.0353     20.8275     18.6506
  2109.2500     -9.2847     22.5443     24.5548     21.5350      9.9249
  2109.5000     -8.1918     22.6859     25.2336     23.0259      2.9714
  2109.7500     -6.5082     22.8444     26.0274     25.2894      1.1118
  2110.0000     -4.1624     23.0066     26.8713     28.2148      0.1922
  2110.2500     -1.1556     23.1594     27.6846     31.5773      0.0481
  2110.5000      2.4136     23.2897     28.3807     35.0411      0.0029
  2110.7500      6.3613     23.3855     28.8826     38.1870   -999.2500
  2111.0000     10.4536     23.4359     29.1382     40.5724   -999.2500
  2111.2500     14.4721     23.4310     29.1303     41.8166   -999.2500
  2111.5000     18.2607     23.3631     28.8779     41.6911   -999.2500
  2111.7500     21.7557     23.2269     28.4257     40.1859   -999.2500
  2112.0000     24.9776     23.0206     27.8312     37.5245   -999.2500
  2112.2500     27.9902     22.7458     27.1511     34.1154   -999.2500
  2112.5000     30.8563     22.4085     26.4332     30.4536   -999.2500
  2112.7500     33.6007     22.0192     25.7134     27.0061   -999.2500
  2113.0000     36.1892     21.5923     25.0152     24.1198   -999.2500
  2113.2500     38.5418     21.1453     24.3547     21.9770   -999.2500
  2113.5000     40.5494     20.6975     23.7427     20.6017   -999.2500
  2113.7500     42.1116     20.2691     23.1891     19.9016   -999.2500
  2114.0000     43.1633     19.8793     22.7038     19.7224   -999.2500
  2114.2500     43.7020     19.5462     22.2983     19.8958   -999.2500
  2114.5000     43.7981     19.2849     21.9848     20.2738   -999.2500
  2114.7500     43.5893     19.1082     21.7764     20.7476   -999.2500
  2115.0000     43.2657     19.0259     21.6858     21.2564   -999.2500
  2115.2500     43.0243     19.0446     21.7268     21.7877   -999.2500
  2115.5000     43.0337     19.1673     21.9134     22.3710   -999.2500
  2115.7500     43.3927     19.3936     22.2613     23.0662   -999.2500
  2116.0000     44.1115     19.7197     22.7879     23.9499   -999.2500
  2116.2500     45.1099     20.1379     23.5115     25.1053   -999.2500
  2116.5000     46.2421     20.6371     24.4501     26.6186   -999.2500
  2116.7500     47.3284     21.2031     25.6174     28.5961   -999.2500
  2117.0000     48.1861     21.8190     27.0179     31.1922   -999.2500
  2117.2500     48.6569     22.4658     28.6404     34.6372   -999.2500
  2117.5000     48.6209     23.1242     30.4493     39.2420   -999.2500
  2117.7500     48.0069     23.7776     32.3761     45.3532   -999.2500
  2118.0000     46.7930     24.4171     34.3146     53.2439   -999.2500
  2118.2500     45.0094     24.7495     36.1211     62.9490   -999.2500
  2118.5000     42.7268     25.0735     37.6250     74.0913   -999.2500
  2118.7500     40.0390     25.7448     38.6534     85.7712   -999.2500
  2119.0000     37.0420     26.5375     39.0641     96.5983   -999.2500
  2119.2500     33.8129     27.5352     38.7810    104.9117   -999.2500
  2119.5000     30.4036     28.8357     37.8173    109.1604   -999.2500
  2119.7500     26.8489     30.5468     36.2794    108.3380   -999.2500
  2120.0000     23.1878     32.7818     34.3338    102.3098   -999.2500
  2120.2500     19.4880     35.6515     32.1713     91.8938   -999.2500
  2120.5000     15.8552     39.2521     29.9670     78.6494   -999.2500
  2120.7500     12.4247     43.6394     27.8567     64.4517   -999.2500
  2121.0000      9.3355     48.7960     25.9319     51.0184   -999.2500
  2121.2500      6.7001     54.5906     24.2453     39.5607   -999.2500
  2121.5000      4.5780     60.7593     22.8236     30.6510   -999.2500
  2121.7500      2.9709     66.9296     21.6782     24.2999   -999.2500
  2122.0000      1.8275     75.7449     20.8158     20.1527   -999.2500
  2122.2500      1.0633     81.2508     20.2449     17.7028   -999.2500
  2122.5000      0.5846     85.8576     19.9806     16.4462   -999.2500
  2122.7500      0.3032     89.5901     20.0486     15.9571   -999.2500
  2123.0000      0.1486     92.6039     20.4884     15.9017   -999.2500
  2123.2500      0.0684     95.0847     21.3576     16.0257   -999.2500
  2123.5000      0.0295     97.2001     22.7363     16.1436   -999.2500
  2123.7500      0.0120     99.0525     24.7310     16.1393   -999.2500
  2124.0000      0.0043    100.6868     27.4789     15.9681   -999.2500
  2124.2500      0.0008    102.1099     31.1446     15.6571   -999.2500
  2124.5000   -999.2500    103.3138     35.9044     15.2895   -999.2500
  2124.7500   -999.2500    104.2937     41.9083     14.9727   -999.2500
