~Version Information
VERS.                      2.0: CWLS Log ASCII Standard - VERSION 2.0
WRAP.                       NO: One line per depth step
~Well Information Block
STRT.FT               510.5000: 
STOP.FT              2075.5000: 
STEP.FT                 0.1000: 
NULL.                -999.2500: 
COMP.          Petrogulf Corporation: COMPANY
WELL.          Robinson 15-11V: WELL
FLD.           Purgatorie River: FIELD
LOC.           226' FNL & 592' FWL: LOCATION
CNTY.               Las Animas: COUNTY
SRVC.                         : SERVICE COMPANY
DATE.          Wed Aug 04 06:17:53 2004: LOG DATE
UWI.           05 071 08027 00: UNIQUE WELL ID
STAT.                 Colorado: STATE
~Curve Information Block
DEPT.FT            0 000 00 00: Depth
DCAL.in                       : CDL Caliper
RHOB.g/cc                     : CDL Bulk Density
RHOC.g/cc                     : CDL Density Correction
DPOR.pu                       : CDL Density Porosity
GR.GAPI                       : Gamma Ray
NPOR.pu                       : Neutron Porosity
~Parameter Information Block
~A  Depth       DCAL        RHOB        RHOC        DPOR         GR         NPOR    
# ...
   932.9000      8.1277      2.3497      0.0759     18.1996    134.6514     23.4534
   933.0000      8.1260      2.3328      0.0696     19.2224    144.9185     23.1350
   933.1000      8.1260      2.3061      0.0731     20.8433    149.9219     22.8613
   933.2000      8.1260      2.2660      0.0291     23.2722    148.6248     22.5735
   933.3000      8.1041      2.2180      0.0016     26.1809    142.7044     21.9640
   933.4000      8.1041      2.1792     -0.0514     28.5346    135.0710     21.1982
   933.5000      8.1027      2.1504      0.0492     30.2806    129.3483     20.5332
   933.6000      8.1027      2.1013      0.0520     33.2520    126.3139     19.9146
   933.7000      8.1027      2.0225     -0.0257     38.0283    127.3225     19.3085
   933.8000      8.1052      1.9396     -0.0285     43.0544    132.7577     18.7040
   933.9000      8.1052      1.8587      0.0021     47.9581    135.1014     18.0954
   934.0000      8.1170      1.7659     -0.0315     53.5845    132.1887     17.5572
   934.1000      8.1170      1.6737     -0.0480     59.1674    134.5803     17.1635
   934.2000      8.1170      1.5994      0.0560     63.6733    144.4852     16.8929
   934.3000      8.1269      1.5348     -0.0225     67.5881    150.1330     16.7453
   934.4000      8.1269      1.4860     -0.0788     70.5435    147.6888     16.8672
   934.5000      8.1578      1.4783      0.0123     71.0112    142.0221     17.3761
   934.6000      8.1578      1.5211      0.0847     68.4165    134.0966     18.2134
   934.7000      8.1578      1.6097      0.1529     63.0505    125.5758     19.2640
   934.8000      8.1790      1.7317      0.2477     55.6563    119.3473     20.3230
   934.9000      8.1790      1.8617      0.2994     47.7780    118.0113     21.2224
   935.0000      8.1774      1.9778      0.3921     40.7424    123.1277     21.9934
   935.1000      8.1774      2.0866      0.3457     34.1435    129.8551     22.6750
   935.2000      8.1774      2.2012      0.3497     27.2002    132.8651     23.3038
   935.3000      8.1601      2.2978      0.3994     21.3463    128.4540     23.8887
   935.4000      8.1601      2.3500      0.2639     18.1830    117.3195     24.4234
   935.5000      8.0453      2.3742      0.1952     16.7175    107.4494     25.0153
   935.6000      8.0453      2.3934      0.2000     15.5531    102.5973     25.5925
   935.7000      8.0453      2.4063      0.1971     14.7711     99.7408     25.9053
   935.8000      8.0124      2.4052      0.1210     14.8387     98.4702     26.0669
   935.9000      8.0124      2.3922      0.1216     15.6259    101.2424     26.2766
   936.0000      8.0087      2.3757      0.0662     16.6246    106.8735     26.1534
   936.1000      8.0087      2.3612      0.0844     17.5058    115.2671     25.4826
   936.2000      8.0087      2.3461      0.0963     18.4154    129.2477     24.8739
   936.3000      8.0060      2.3389      0.0694     18.8572    143.3376     24.9215
   936.4000      8.0060      2.3561      0.0933     17.8130    147.7498     25.4143
   936.5000      7.9882      2.3966      0.1175     15.3590    145.5285     25.9373
   936.6000      7.9882      2.4444      0.1433     12.4616    145.8226     26.4315
   936.7000      7.9882      2.4921      0.1643      9.5667    148.0308     26.8355
   936.8000      7.9746      2.5419      0.2022      6.5530    147.1201     26.9412
   936.9000      7.9746      2.5776      0.2763      4.3895    144.5270     26.7536
   937.0000      7.9638      2.5817      0.2058      4.1423    146.6777     26.6617
   937.1000      7.9638      2.5767      0.1709      4.4414    152.6276     27.0243
   937.2000      7.9638      2.5842      0.2307      3.9867    155.7730     27.5917
   937.3000      7.9648      2.5885      0.1800      3.7290    156.2089     27.8133
   937.4000      7.9648      2.5844      0.0934      3.9748    153.7775     27.5649
   937.5000      7.9379      2.5852      0.1100      3.9278    146.5851     27.2738
   937.6000      7.9379      2.5832      0.0910      4.0487    140.5821     27.3505
   937.7000      7.9379      2.5712      0.0768      4.7784    142.5360     27.5829
   937.8000      7.9334      2.5562      0.0943      5.6848    148.4550     27.4472
   937.9000      7.9334      2.5393      0.0330      6.7076    151.8851     27.0135
   938.0000      7.9358      2.5226      0.0411      7.7184    150.4133     26.9552
   938.1000      7.9358      2.5173      0.0169      8.0408    143.3956     27.3686
   938.2000      7.9358      2.5279      0.0544      7.3995    136.0602     27.7785
   938.3000      7.9351      2.5426      0.0746      6.5115    134.4937     28.2175
   938.4000      7.9351      2.5532      0.0470      5.8697    137.8539     28.8391
   938.5000      7.9352      2.5659      0.0637      5.0961    142.6503     29.6385
   938.6000      7.9352      2.5913      0.0782      3.5565    145.3116     30.6394
   938.7000      7.9352      2.6393      0.1127      0.6469    144.8678     31.5678
   938.8000      7.9353      2.7162      0.0859     -4.0117    144.9637     32.2250
   938.9000      7.9353      2.8137      0.1376     -9.9238    147.8660     32.6944
   939.0000      7.9373      2.9044      0.1426    -15.4156    148.3398     32.8902
   939.1000      7.9373      2.9706      0.1576    -19.4312    141.9031     32.5792
   939.2000      7.9373      3.0178      0.1706    -22.2914    133.9163     31.8985
   939.3000      7.9319      3.0412      0.1381    -23.7073    129.9863     31.1564
   939.4000      7.9319      3.0130      0.1349    -22.0026    127.9742     30.3596
   939.5000      7.9235      2.9312     -0.0357    -17.0430    125.4113     29.4443
   939.6000      7.9235      2.8461     -0.1519    -11.8852    122.8108     28.3984
   939.7000      7.9235      2.7953     -0.1446     -8.8045    118.9016     27.2577
   939.8000      7.9269      2.7582     -0.1182     -6.5585    111.1951     26.1567
   939.9000      7.9269      2.7109     -0.0514     -3.6938    100.9227     25.2124
   940.0000      7.9296      2.6612     -0.0099     -0.6783     91.7675     24.5395
   940.1000      7.9296      2.6112      0.0633      2.3494     84.4722     24.0972
   940.2000      7.9296      2.5562      0.0115      5.6846     78.7992     23.7930
   940.3000      7.9507      2.5113      0.0442      8.4035     76.8438     23.7351
   940.4000      7.9507      2.4920      0.0658      9.5728     77.8538     23.8271
   940.5000      7.9770      2.4934      0.0297      9.4908     79.4111     23.6749
   940.6000      7.9770      2.4936      0.0639      9.4788     80.4022     23.2442
   940.7000      7.9770      2.4677      0.0760     11.0463     82.3525     22.6883
   940.8000      7.9823      2.4099      0.0922     14.5521     88.7391     21.9993
   940.9000      7.9823      2.3392      0.0428     18.8374     98.7599     21.3724
   941.0000      7.9878      2.2783      0.0381     22.5290    107.7290     21.1503
   941.1000      7.9878      2.2355      0.0409     25.1216    112.3239     21.2239
   941.2000      7.9878      2.2158      0.0362     26.3137    114.7862     21.1206
   941.3000      8.0035      2.2243      0.0262     25.7997    119.1128     20.6922
   941.4000      8.0035      2.2495      0.0824     24.2729    122.7414     20.2364
   941.5000      8.0339      2.2722      0.1452     22.8950    123.7365     20.0390
   941.6000      8.0339      2.2965      0.1919     21.4226    126.2869     20.0662
   941.7000      8.0339      2.3380      0.2947     18.9082    135.0273     20.0870
   941.8000      8.0462      2.3861      0.4124     15.9934    147.6000     20.0529
   941.9000      8.0462      2.4165      0.4103     14.1504    155.8575     20.2717
   942.0000      8.0123      2.4246      0.4051     13.6596    159.2452     20.9238
   942.1000      8.0123      2.4186      0.3661     14.0250    161.2347     21.6621
   942.2000      8.0123      2.4034      0.2794     14.9429    162.9820     22.0509
   942.3000      8.0059      2.3867      0.2353     15.9560    169.3885     22.2167
   942.4000      8.0059      2.3802      0.2401     16.3544    178.6892     22.4764
