~Version Information
VERS.                      2.0: CWLS Log ASCII Standard - VERSION 2.0
WRAP.                       NO: One line per depth step
~Well Information Block
STRT.FT               250.0000: 
STOP.FT              2600.7500: 
STEP.FT                 0.2500: 
NULL.                -999.2500: 
COMP.          Pioneer Natural Resources: COMPANY
WELL.              Quack 22-24: WELL
FLD.           Purgatoire River: FIELD
LOC.           2492' FNL & 2459' FWL--: LOCATION
PROV.                 Colorado: PROVINCE
CNTY.               Las Animas: COUNTRY
SRVC.                Patterson: SERVICE COMPANY
DATE.          Sun Jun 12 09:02:01 2005: LOG DATE
UWI.            05 071 0840200: UNIQUE WELL ID
~Curve Information Block
DEPT.FT            0 000 00 00: Depth
SN.Ohm-m                      : IEL Short Normal
SP.mV                         : IEL Spontaneous Potential
DIR.Ohm-m                     : IEL Induction Resistivity
GR.GAPI                       : Gamma Ray
~Parameter Information Block
~A  Depth        SN          SP         DIR          GR     
# ...
  1188.0000     12.7812   -153.4169     10.5847    134.9730
  1188.2500     12.6648   -153.9417     10.8987    132.5134
  1188.5000     12.4124   -154.0696     11.2418    127.2177
  1188.7500     12.0774   -153.7964     11.6026    122.8704
  1189.0000     11.8491   -153.1635     11.9889    116.2515
  1189.2500     12.0190   -152.2519     12.4301    112.5956
  1189.5000     12.8734   -151.1677     12.9689    109.2067
  1189.7500     14.5488   -150.0203     13.6447    108.4410
  1190.0000     16.9099   -148.8978     14.4721    108.8920
  1190.2500     19.5290   -147.8456     15.4192    109.4841
  1190.5000     21.8284   -146.8537     16.3977    109.2815
  1190.7500     23.3552   -145.8578     17.2835    107.8827
  1191.0000     24.0322   -144.7547     17.9707    104.1757
  1191.2500     24.2080   -143.4288     18.4309    101.4775
  1191.5000     24.4447   -141.7825     18.7260     99.2047
  1191.7500     25.1654   -139.7628     18.9648    100.0830
  1192.0000     26.3863   -137.3751     19.2426    106.1733
  1192.2500     27.7119   -134.6814     19.5990    113.1978
  1192.5000     28.5944   -131.7849     20.0017    125.9053
  1192.7500     28.6710   -128.8056     20.3551    133.7088
  1193.0000     27.9409   -125.8568     20.5388    141.2314
  1193.2500     26.6945   -123.0280     20.4706    142.9223
  1193.5000     25.3057   -120.3785     20.1567    142.1248
  1193.7500     24.0589   -117.9400     19.6876    140.9037
  1194.0000     23.0843   -115.7254     19.1844    139.5779
  1194.2500     22.3714   -113.7376     18.7431    139.0288
  1194.5000     21.8200   -111.9751     18.4100    138.3686
  1194.7500     21.3234   -110.4330     18.1867    138.2659
  1195.0000     20.8607   -109.1010     18.0482    139.6149
  1195.2500     20.5305   -107.9618     17.9624    141.9395
  1195.5000     20.4798   -106.9920     17.9059    147.0950
  1195.7500     20.7853   -106.1670     17.8723    150.5638
  1196.0000     21.3948   -105.4691     17.8704    153.7549
  1196.2500     22.1607   -104.8937     17.9179    154.2296
  1196.5000     22.9188   -104.4533     18.0359    153.7762
  1196.7500     23.5525   -104.1757     18.2468    153.4716
  1197.0000     24.0242   -104.0966     18.5722    152.4725
  1197.2500     24.3725   -104.2504     19.0289    150.2839
  1197.5000     24.6866   -104.6605     19.6252    143.2384
  1197.7500     25.0771   -105.3329     20.3603    136.0883
  1198.0000     25.6525   -106.2544     21.2246    123.0302
  1198.2500     26.4986   -107.3949     22.1996    113.8845
  1198.5000     27.6518   -108.7132     23.2582    101.3366
  1198.7500     29.0719   -110.1647     24.3692     94.4123
  1199.0000     30.6417   -111.7110     25.5039     86.3416
  1199.2500     32.2111   -113.3280     26.6373     82.3246
  1199.5000     33.6678   -115.0122     27.7453     78.3153
  1199.7500     34.9789   -116.7827     28.8043     77.0870
  1200.0000     36.1649   -118.6770     29.8020     77.0609
  1200.2500     37.2398   -120.7410     30.7524     77.5449
  1200.5000     38.1866   -123.0147     31.6980     77.3813
  1200.7500     38.9943   -125.5175     32.6953     75.9602
  1201.0000     39.6981   -128.2351     33.7886     71.7323
  1201.2500     40.3655   -131.1160     34.9867     68.0607
  1201.5000     41.0513   -134.0773     36.2542     62.5223
  1201.7500     41.7792   -137.0229     37.5288     59.3292
  1202.0000     42.5568   -139.8682     38.7596     55.6754
  1202.2500     43.3808   -142.5654     39.9346     54.0268
  1202.5000     44.2231   -145.1206     41.0644     52.5343
  1202.7500     45.0303   -147.5936     42.1290     51.9995
  1203.0000     45.7557   -150.0775     43.0449     51.7608
  1203.2500     46.3920   -152.6637     43.6959     52.0694
  1203.5000     46.9644   -155.4044     44.0114     53.1730
  1203.7500     47.4974   -158.2867     44.0190     53.9569
  1204.0000     47.9933   -161.2287     43.8256     54.3709
  1204.2500     48.4337   -164.1028     43.5502     53.9435
  1204.5000     48.7827   -166.7761     43.2718     52.5533
  1204.7500     48.9876   -169.1517     43.0237     51.4415
  1205.0000     48.9949   -171.1978     42.8205     49.9769
  1205.2500     48.7934   -172.9499     42.6747     49.3968
  1205.5000     48.4408   -174.4902     42.5868     49.4819
  1205.7500     48.0324   -175.9117     42.5280     50.2479
  1206.0000     47.6402   -177.2831     42.4501     52.3972
  1206.2500     47.2933   -178.6274     42.3223     54.4358
  1206.5000     46.9872   -179.9202     42.1509     58.2041
  1206.7500     46.6729   -181.1057     41.9519     61.0006
  1207.0000     46.2590   -182.1221     41.7085     65.4090
  1207.2500     45.6803   -182.9255     41.3685     68.5963
  1207.5000     44.9672   -183.5047     40.8980     74.2456
  1207.7500     44.2232   -183.8848     40.3328     78.7565
  1208.0000     43.5338   -184.1192     39.7716     86.2656
  1208.2500     42.9098   -184.2760     39.3154     91.2925
  1208.5000     42.3141   -184.4225     39.0123     98.1644
  1208.7500     41.7309   -184.6125     38.8453    102.0224
  1209.0000     41.2095   -184.8783     38.7632    106.3373
  1209.2500     40.8380   -185.2293     38.7279    108.1572
  1209.5000     40.6720   -185.6551     38.7454    109.4318
  1209.7500     40.6908   -186.1336     38.8560    109.1932
  1210.0000     40.8217   -186.6407     39.0901    106.2692
  1210.2500     41.0007   -187.1594     39.4195    102.0794
  1210.5000     41.2140   -187.6863     39.7439     92.8409
  1210.7500     41.4944   -188.2335     39.9259     85.7736
  1211.0000     41.8801   -188.8276     39.8618     75.8517
  1211.2500     42.3717   -189.5045     39.5410     70.4480
  1211.5000     42.9320   -190.3011     39.0500     64.7883
  1211.7500     43.5243   -191.2454     38.5198     62.8454
  1212.0000     44.1314   -192.3454     38.0584     62.5615
  1212.2500     44.7235   -193.5782     37.7085     63.5599
  1212.5000     45.2156   -194.8821     37.4411     65.2317
  1212.7500     45.4614   -196.1548     37.1770     65.6398
  1213.0000     45.2943   -197.2599     36.8195     64.7270
  1213.2500     44.6002   -198.0422     36.2868     63.3594
  1213.5000     43.3844   -198.3513     35.5352     61.0576
  1213.7500     41.7797   -198.0667     34.5689     59.9747
  1214.0000     39.9839   -197.1204     33.4307     60.2092
  1214.2500     38.1805   -195.5095     32.1758     62.3186
  1214.5000     36.4890   -193.2957     30.8441     69.3855
  1214.7500     34.9424   -190.5920     29.4503     76.8809
  1215.0000     33.4964   -187.5403     27.9959     91.5430
  1215.2500     32.0771   -184.2876     26.4885    102.5330
  1215.5000     30.6259   -180.9670     24.9519    118.5661
  1215.7500     29.1007   -177.6898     23.4249    127.7921
  1216.0000     27.4722   -174.5486     21.9549    138.1156
  1216.2500     25.7536   -171.6283     20.5954    142.3306
  1216.5000     24.0236   -169.0161     19.4040    145.0250
  1216.7500     22.4040   -166.8056     18.4381    145.1629
  1217.0000     21.0236   -165.0887     17.7459    144.4599
  1217.2500     20.0085   -163.9344     17.3583    143.9034
  1217.5000     19.4785   -163.3593     17.2824    142.6220
  1217.7500     19.5012   -163.2979     17.4982    140.8188
  1218.0000     20.0143   -163.5802     17.9574    135.5982
  1218.2500     20.8004   -163.9303     18.5848    130.0382
  1218.5000     21.5849   -163.9889     19.2869    118.3532
  1218.7500     22.2156   -163.3634     19.9667    108.6006
  1219.0000     22.7768   -161.6965     20.5407     92.6789
  1219.2500     23.5098   -158.7401     20.9480     82.8839
  1219.5000     24.5790   -154.4144     21.1513     72.5634
  1219.7500     25.8731   -148.8338     21.1347     69.8603
  1220.0000     27.0213   -142.2928     20.9024     72.6801
  1220.2500     27.6221   -135.2110     20.4752     78.6813
  1220.5000     27.4979   -128.0547     19.8826     91.7392
  1220.7500     26.7738   -121.2543     19.1596    101.1874
  1221.0000     25.7532   -115.1393     18.3523    112.9818
  1221.2500     24.7192   -109.9047     17.5267    118.1853
