~Version Information
VERS.                      2.0: CWLS Log ASCII Standard - VERSION 2.0
WRAP.                       NO: One line per depth step
~Well Information Block
STRT.FT               -11.2500: 
STOP.FT              1767.0000: 
STEP.FT                 0.2500: 
NULL.                -999.2500: 
COMP.          Petrogulf Corporation: COMPANY
WELL.             McLeod 9-42R: WELL
FLD.           Purgatoire River: FIELD
LOC.           1748' FNL & 372' FEL--: LOCATION
PROV.                 Colorado: PROVINCE
CNTY.               Las Animas: COUNTRY
SRVC.                         : SERVICE COMPANY
DATE.          Thu Sep 29 13:28:07 2005: LOG DATE
UWI.                          : UNIQUE WELL ID
~Curve Information Block
DEPT.FT            0 000 00 00: Depth
GR.GAPI                       : Gamma Ray
CCL.                          : Casing Collar Locator
AMP3.mV                       : CBL 3' Amplitude
AMP5.mV                       : CBL 5' Amplitude
~Parameter Information Block
~A  Depth        GR         CCL         AMP3        AMP5    
# ...
   792.7500    140.1409      0.0000      4.9151      0.5497
   793.0000    136.0400      0.0000      4.9204      0.5768
   793.2500    129.2551      0.0000      4.9239      0.6054
   793.5000    122.2431      0.0000      4.9434      0.6323
   793.7500    117.2926      0.0000      4.9760      0.6561
   794.0000    115.0459      0.0000      5.0048      0.6717
   794.2500    114.4670      0.0000      5.0201      0.6723
   794.5000    114.0617      0.0000      5.0252      0.6589
   794.7500    112.8871      0.0000      5.0234      0.6429
   795.0000    110.6977      0.0000      5.0128      0.6357
   795.2500    107.7372      0.0000      4.9987      0.6383
   795.5000    104.6127      0.0000      4.9971      0.6420
   795.7500    102.0524      0.0000      5.0188      0.6365
   796.0000    100.4159      0.0000      5.0550      0.6183
   796.2500     99.4526      0.0000      5.0848      0.5933
   796.5000     98.6525      0.0000      5.0920      0.5732
   796.7500     97.8875      0.0000      5.0710      0.5685
   797.0000     97.6815      0.0000      5.0266      0.5805
   797.2500     98.8060      0.0000      4.9740      0.5999
   797.5000    101.5464      0.0000      4.9347      0.6147
   797.7500    105.3416      0.0000      4.9195      0.6198
   798.0000    109.0589      0.0000      4.9138      0.6186
   798.2500    111.5966      0.0000      4.8851      0.6156
   798.5000    112.4911      0.0000      4.8111      0.6109
   798.7500    112.1595      0.0000      4.7001      0.6026
   799.0000    111.3202      0.0000      4.5853      0.5904
   799.2500    110.0599      0.0000      4.5014      0.5750
   799.5000    107.7947      0.0000      4.4654      0.5591
   799.7500    104.2363      0.0000      4.4727      0.5493
   800.0000     99.9524      0.0000      4.5082      0.5523
   800.2500     95.7109      0.0000      4.5603      0.5686
   800.5000     91.6250      0.0000      4.6272      0.5909
   800.7500     87.3342      0.0000      4.7080      0.6089
   801.0000     82.7851      0.0000      4.7893      0.6174
   801.2500     78.4789      0.0000      4.8438      0.6181
   801.5000     75.0662      0.0000      4.8490      0.6168
   801.7500     72.9043      0.0000      4.8057      0.6147
   802.0000     71.7601      0.0000      4.7343      0.6071
   802.2500     70.8223      0.0000      4.6537      0.5892
   802.5000     69.3078      0.0000      4.5726      0.5620
   802.7500     67.2359      0.0000      4.4967      0.5313
   803.0000     65.4409      0.0000      4.4340      0.5025
   803.2500     64.7731      0.0000      4.3887      0.4789
   803.5000     65.4460      0.0000      4.3577      0.4639
   803.7500     67.1546      0.0000      4.3386      0.4625
   804.0000     69.5038      0.0000      4.3332      0.4775
   804.2500     72.0904      0.0000      4.3393      0.5055
   804.5000     74.3316      0.0000      4.3510      0.5396
   804.7500     75.5190      0.0000      4.3737      0.5752
   805.0000     75.1552      0.0000      4.4272      0.6121
   805.2500     73.3133      0.0000      4.5248      0.6481
   805.5000     70.7242      0.0000      4.6566      0.6742
   805.7500     68.4509      0.0000      4.7989      0.6790
   806.0000     67.3633      0.0000      4.9337      0.6605
   806.2500     67.7549      0.0000      5.0538      0.6301
   806.5000     69.2396      0.0000      5.1537      0.6036
   806.7500     71.0049      0.0000      5.2224      0.5912
   807.0000     72.3027      0.0000      5.2498      0.5963
   807.2500     72.8159      0.0000      5.2408      0.6179
   807.5000     72.6623      0.0000      5.2229      0.6521
   807.7500     72.0646      0.0000      5.2384      0.6939
   808.0000     70.9190      0.0000      5.3243      0.7397
   808.2500     68.7470      0.0000      5.4932      0.7870
   808.5000     65.1748      0.0000      5.7319      0.8332
   808.7500     60.3755      0.0000      6.0154      0.8768
   809.0000     55.0363      0.0000      6.3213      0.9210
   809.2500     50.1887      0.0000      6.6344      0.9703
   809.5000     47.1207      0.0000      6.9449      1.0222
   809.7500     46.9182      0.0000      7.2499      1.0656
   810.0000     49.5974      0.0000      7.5528      1.0908
   810.2500     53.8351      0.0000      7.8583      1.0981
   810.5000     57.9359      0.0000      8.1707      1.0957
   810.7500     61.0921      0.0000      8.4980      1.0917
   811.0000     63.6118      0.0000      8.8470      1.0893
   811.2500     66.1175      0.0000      9.2040      1.0896
   811.5000     68.8087      0.0000      9.5178      1.0948
   811.7500     71.3624      0.0000      9.7088      1.1081
   812.0000     73.2608      0.0000      9.7062      1.1308
   812.2500     74.4011      0.0000      9.4904      1.1596
   812.5000     75.7706      0.0000      9.1093      1.1874
   812.7500     79.3698      0.0000      8.6556      1.2054
   813.0000     87.0035      0.0000      8.2184      1.2050
   813.2500     98.8330      0.0000      7.8437      1.1813
   813.5000    112.8830      0.0000      7.5319      1.1343
   813.7500    125.8346      0.0000      7.2620      1.0677
   814.0000    134.7043      0.0000      7.0165      0.9884
   814.2500    138.5873      0.0000      6.7858      0.9061
   814.5000    139.1505      0.0000      6.5616      0.8310
   814.7500    138.9935      0.0000      6.3332      0.7694
   815.0000    139.1933      0.0000      6.0966      0.7215
   815.2500    138.5997      0.0000      5.8619      0.6846
   815.5000    135.5075      0.0000      5.6483      0.6545
   815.7500    129.7411      0.0000      5.4720      0.6250
   816.0000    123.1974      0.0000      5.3430      0.5905
   816.2500    118.6992      0.0000      5.2605      0.5528
   816.5000    118.1500      0.0000      5.1974      0.5213
   816.7500    121.0986      0.0000      5.1098      0.5018
   817.0000    124.8121      0.0000      4.9885      0.4896
   817.2500    126.0640      0.0000      4.8816      0.4764
   817.5000    123.2736      0.0000      4.8277      0.4612
   817.7500    117.2957      0.0000      4.7912      0.4490
   818.0000    110.5577      0.0000      4.7119      0.4432
   818.2500    105.4921      0.0000      4.5958      0.4434
   818.5000    103.3324      0.0000      4.5083      0.4479
   818.7500    103.8841      0.0000      4.4938      0.4543
   819.0000    106.2668      0.0000      4.5447      0.4586
   819.2500    109.9076      1.6168      4.6379      0.4576
   819.5000    114.8895      0.0000      4.7750      0.4545
   819.7500    121.4071      0.0000      4.9901      0.4587
   820.0000    129.0748      0.0000      5.3139      0.4764
   820.2500    137.0022      0.0000      5.7113      0.5043
   820.5000    144.1854      0.0000      6.0658      0.5359
   820.7500    149.3425      0.0000      6.2677      0.5706
   821.0000    150.7785      0.0000      6.3096      0.6119
   821.2500    147.3604      0.0000      6.2678      0.6579
   821.5000    140.0254      0.0000      6.2112      0.6994
   821.7500    132.0752      0.0000      6.1580      0.7290
   822.0000    127.4315      0.0000      6.1031      0.7488
   822.2500    127.9338      0.0000      6.0611      0.7669
   822.5000    132.0181      0.0000      6.0799      0.7898
   822.7500    136.2912      0.0000      6.2154      0.8218
   823.0000    138.6415      0.0000      6.4960      0.8643
   823.2500    139.5870      0.0000      6.9051      0.9152
   823.5000    140.6221      0.0000      7.3913      0.9711
   823.7500    141.9770      0.0000      7.8896      1.0334
   824.0000    142.3844      0.0000      8.3481      1.1071
   824.2500    140.5312      0.0000      8.7484      1.1899
   824.5000    136.3324      0.0000      9.1064      1.2708
   824.7500    131.1501      0.0000      9.4520      1.3385
   825.0000    126.9379      0.0000      9.8057      1.3884
   825.2500    124.8951      0.0000     10.1655      1.4202
   825.5000    124.8168      0.0000     10.5032      1.4335
   825.7500    125.7144      0.0000     10.7687      1.4291
   826.0000    126.6480      0.0000     10.9017      1.4115
