~Version Information
VERS.                      2.0: CWLS Log ASCII Standard - VERSION 2.0
WRAP.                       NO: One line per depth step
~Well Information Block
STRT.FT               450.0000: 
STOP.FT              1642.0000: 
STEP.FT                 0.1000: 
NULL.                -999.2500: 
COMP.          Pioneer Natural Resources: COMPANY
WELL.           Buckhorn 12-21: WELL
FLD.           Purgatoire River: FIELD
LOC.           2450' FNL & 608' FWL: LOCATION
PROV.                 Colorado: PROVINCE
CNTY.               Las Animas: COUNTRY
SRVC.                Patterson: SERVICE COMPANY
DATE.          Wed Dec 01 15:08:21 2004: LOG DATE
UWI.           05 071 08129 00: UNIQUE WELL ID
~Curve Information Block
DEPT.FT            0 000 00 00: Depth
NPOR.pu                       : Neutron Porosity
CCL.                          : Casing Collar Locator
GR.GAPI                       : Gamma Ray
~Parameter Information Block
~A  Depth       NPOR        CCL          GR     
# ...
  1385.2000     14.3160      0.0000     44.0896
  1385.3000     14.4817      0.0000     45.5677
  1385.4000     14.4817      0.0000     45.5677
  1385.5000     14.4152      0.0000     45.8813
  1385.6000     14.4152      0.0000     45.8813
  1385.7000     14.4152      0.0000     45.8813
  1385.8000     14.1412      0.0000     44.5394
  1385.9000     14.1412      0.0000     44.5394
  1386.0000     13.7666      0.0000     42.3013
  1386.1000     13.7666      0.0000     42.3013
  1386.2000     13.7666      0.0000     42.3013
  1386.3000     13.4038      0.0000     40.5205
  1386.4000     13.4038      0.0000     40.5205
  1386.5000     13.1177      0.0000     39.8131
  1386.6000     13.1177      0.0000     39.8131
  1386.7000     13.1177      0.0000     39.8131
  1386.8000     12.9163      0.0000     39.4134
  1386.9000     12.9163      0.0000     39.4134
  1387.0000     12.7340      0.0000     38.0206
  1387.1000     12.7340      0.0000     38.0206
  1387.2000     12.7340      0.0000     38.0206
  1387.3000     12.4275      0.0000     35.1827
  1387.4000     12.4275      0.0000     35.1827
  1387.5000     11.8673      0.0000     31.6233
  1387.6000     11.8673      0.0000     31.6233
  1387.7000     11.8673      0.0000     31.6233
  1387.8000     11.0838      0.0000     28.3566
  1387.9000     11.0838      0.0000     28.3566
  1388.0000     10.2732      0.0000     25.8104
  1388.1000     10.2732      0.0000     25.8104
  1388.2000     10.2732      0.0000     25.8104
  1388.3000      9.6261      0.0000     23.7519
  1388.4000      9.6261      0.0000     23.7519
  1388.5000      9.1924      0.0000     21.7123
  1388.6000      9.1924      0.0000     21.7123
  1388.7000      9.1924      0.0000     21.7123
  1388.8000      8.9074      0.0000     19.4560
  1388.9000      8.9074      0.0000     19.4560
  1389.0000      8.6998      0.0000     17.3036
  1389.1000      8.6998      0.0000     17.3036
  1389.2000      8.6998      0.0000     17.3036
  1389.3000      8.5584      0.0000     16.0479
  1389.4000      8.5584      0.0000     16.0479
  1389.5000      8.5260      0.0000     16.4926
  1389.6000      8.5260      0.0000     16.4926
  1389.7000      8.5260      0.0000     16.4926
  1389.8000      8.6773      0.0000     19.0481
  1389.9000      8.6773      0.0000     19.0481
  1390.0000      9.0886      0.0000     23.5472
  1390.1000      9.0886      0.0000     23.5472
  1390.2000      9.0886      0.0000     23.5472
  1390.3000      9.7867      0.0000     29.2090
  1390.4000      9.7867      0.0000     29.2090
  1390.5000     10.7116      0.0000     35.0852
  1390.6000     10.7116      0.0000     35.0852
  1390.7000     10.7116      0.0000     35.0852
  1390.8000     11.7616      0.0000     41.1704
  1390.9000     11.7616      0.0000     41.1704
  1391.0000     12.9110      0.0000     49.0902
  1391.1000     12.9110      0.0000     49.0902
  1391.2000     12.9110      0.0000     49.0902
  1391.3000     14.2649      0.0000     61.0368
  1391.4000     14.2649      0.0000     61.0368
  1391.5000     15.9495      0.0000     77.6115
  1391.6000     15.9495      0.0000     77.6115
  1391.7000     15.9495      0.0000     77.6115
  1391.8000     17.9310      0.0000     96.9456
  1391.9000     17.9310      0.0000     96.9456
  1392.0000     19.9377      0.0000    116.0669
  1392.1000     19.9377      0.0000    116.0669
  1392.2000     19.9377      0.0000    116.0669
  1392.3000     21.5946      0.0000    132.7979
  1392.4000     21.5946      0.0000    132.7979
  1392.5000     22.6589      0.0000    146.3490
  1392.6000     22.6589      0.0000    146.3490
  1392.7000     22.6589      0.0000    146.3490
  1392.8000     23.1331      0.0000    156.7453
  1392.9000     23.1331      0.0000    156.7453
  1393.0000     23.1862      0.0000    164.1382
  1393.1000     23.1862      0.0000    164.1382
  1393.2000     23.1862      0.0000    164.1382
  1393.3000     23.0122      0.0000    168.5868
  1393.4000     23.0122      0.0000    168.5868
  1393.5000     22.7563      0.0000    170.1275
  1393.6000     22.7563      0.0000    170.1275
  1393.7000     22.7563      0.0000    170.1275
  1393.8000     22.5257      0.0000    168.7222
  1393.9000     22.5257      0.0000    168.7222
  1394.0000     22.3924      0.0000    164.3392
  1394.1000     22.3924      0.0000    164.3392
  1394.2000     22.3924      0.0000    164.3392
  1394.3000     22.3397      0.0000    157.5494
  1394.4000     22.3397      0.0000    157.5494
  1394.5000     22.2340      0.0000    149.8556
  1394.6000     22.2340      0.0000    149.8556
  1394.7000     22.2340      0.0000    149.8556
  1394.8000     21.9147      0.0000    142.8891
  1394.9000     21.9147      0.0000    142.8891
  1395.0000     21.3378      0.0000    137.4026
  1395.1000     21.3378      0.0000    137.4026
  1395.2000     21.3378      0.0000    137.4026
  1395.3000     20.6160      0.0000    133.4219
  1395.4000     20.6160      0.0000    133.4219
  1395.5000     19.9299      0.0000    130.9543
  1395.6000     19.9299      0.0000    130.9543
  1395.7000     19.9299      0.0000    130.9543
  1395.8000     19.4278      0.0000    129.9012
  1395.9000     19.4278      0.0000    129.9012
  1396.0000     19.1889      0.0000    129.4479
  1396.1000     19.1889      0.0000    129.4479
  1396.2000     19.1889      0.0000    129.4479
  1396.3000     19.2175      0.0000    128.2144
  1396.4000     19.2175      0.0000    128.2144
  1396.5000     19.4316      0.0000    125.3760
  1396.6000     19.4316      0.0000    125.3760
  1396.7000     19.4316      0.0000    125.3760
  1396.8000     19.6754      0.0000    121.5477
  1396.9000     19.6754      0.0000    121.5477
  1397.0000     19.8011      0.0000    118.3148
  1397.1000     19.8011      0.0000    118.3148
  1397.2000     19.8011      0.0000    118.3148
  1397.3000     19.7665      0.0000    116.8926
  1397.4000     19.7665      0.0000    116.8926
  1397.5000     19.6500      0.0000    117.2929
  1397.6000     19.6500      0.0000    117.2929
  1397.7000     19.6500      0.0000    117.2929
  1397.8000     19.5640      0.0000    118.5222
  1397.9000     19.5640      0.0000    118.5222
  1398.0000     19.5740      0.0000    119.3494
  1398.1000     19.5740      0.0000    119.3494
  1398.2000     19.5740      0.0000    119.3494
  1398.3000     19.7072      0.0000    119.1840
  1398.4000     19.7072      0.0000    119.1840
  1398.5000     19.9859      0.0000    118.6084
  1398.6000     19.9859      0.0000    118.6084
  1398.7000     19.9859      0.0000    118.6084
  1398.8000     20.3852      0.0000    119.1386
  1398.9000     20.3852      0.0000    119.1386
  1399.0000     20.7734      0.0000    122.1069
  1399.1000     20.7734      0.0000    122.1069
  1399.2000     20.7734      0.0000    122.1069
  1399.3000     20.9767      0.0000    127.2120
  1399.4000     20.9767      0.0000    127.2120
  1399.5000     20.9413      0.0000    132.0277
  1399.6000     20.9413      0.0000    132.0277
  1399.7000     20.9413      0.0000    132.0277
  1399.8000     20.7916      0.0000    133.4661
  1399.9000     20.7916      0.0000    133.4661
  1400.0000     20.6987      0.0000    130.2176
  1400.1000     20.6987      0.0000    130.2176
  1400.2000     20.6987      0.0000    130.2176
  1400.3000     20.7310      0.0000    123.7918
  1400.4000     20.7310      0.0000    123.7918
  1400.5000     20.8474      0.0000    117.1018
  1400.6000     20.8474      0.0000    117.1018
  1400.7000     20.8474      0.0000    117.1018
  1400.8000     20.9695      0.0000    112.2131
  1400.9000     20.9695      0.0000    112.2131
  1401.0000     21.0081      0.0000    109.4575
  1401.1000     21.0081      0.0000    109.4575
  1401.2000     21.0081      0.0000    109.4575
  1401.3000     20.8729      0.0000    108.2671
  1401.4000     20.8729      0.0000    108.2671
  1401.5000     20.5411      0.0000    108.4383
  1401.6000     20.5411      0.0000    108.4383
  1401.7000     20.5411      0.0000    108.4383
  1401.8000     20.0981      0.0000    110.5886
