~Version Information
VERS.                      2.0: CWLS Log ASCII Standard - VERSION 2.0
WRAP.                       NO: One line per depth step
~Well Information Block
STRT.FT               590.0000: 
STOP.FT              1563.5000: 
STEP.FT                 0.1000: 
NULL.                -999.2500: 
COMP.          Petrogulf Corporation: COMPANY
WELL.             State 16-43R: WELL
FLD.           Purgatorie River: FIELD
LOC.           2538' FSL & 716' FEL: LOCATION
PROV.                 Colorado: PROVINCE
CNTY.               Las Animas: COUNTRY
SRVC.                Patterson: SERVICE COMPANY
DATE.          Tue Aug 09 14:21:37 2005: LOG DATE
UWI.                          : UNIQUE WELL ID
~Curve Information Block
DEPT.FT            0 000 00 00: Depth
DCAL.in                       : CDL Caliper
RHOB.g/cc                     : CDL Bulk Density
RHOC.g/cc                     : CDL Density Correction
DPOR.pu                       : CDL Density Porosity
GR.GAPI                       : Gamma Ray
NPOR.pu                       : Neutron Porosity
~Parameter Information Block
~A  Depth       DCAL        RHOB        RHOC        DPOR         GR         NPOR    
# ...
  1031.6000      8.0472      2.5438      0.2822      6.4348    157.9266     25.3753
  1031.7000      8.0472      2.5607      0.2600      5.4104    160.5168     26.5244
  1031.8000      8.0441      2.5672      0.1523      5.0197    162.2505     27.3458
  1031.9000      8.0441      2.5723      0.1262      4.7101    163.0500     27.7644
  1032.0000      8.0515      2.5797      0.1110      4.2625    165.9585     27.9391
  1032.1000      8.0515      2.5796      0.1018      4.2697    169.4795     28.1401
  1032.2000      8.0515      2.5638      0.0807      5.2213    167.9802     28.3247
  1032.3000      8.0681      2.5409      0.0617      6.6119    163.6242     28.3724
  1032.4000      8.0681      2.5237      0.0663      7.6561    162.2643     28.3371
  1032.5000      8.0710      2.5184      0.0276      7.9733    163.7706     28.3014
  1032.6000      8.0710      2.5289      0.0650      7.3378    165.4945     28.3412
  1032.7000      8.0710      2.5490      0.0762      6.1198    166.2542     28.3490
  1032.8000      8.0759      2.5698      0.0570      4.8600    165.3086     28.2279
  1032.9000      8.0759      2.5901      0.0893      3.6317    162.1778     28.3171
  1033.0000      8.0740      2.6057      0.1069      2.6844    157.6682     28.8286
  1033.1000      8.0740      2.6114      0.0995      2.3388    154.8523     29.3742
  1033.2000      8.0740      2.6105      0.0926      2.3924    156.2096     29.4852
  1033.3000      8.0732      2.6044      0.1263      2.7607    159.9895     29.2287
  1033.4000      8.0732      2.5855      0.1148      3.9085    161.3561     29.1170
  1033.5000      8.0703      2.5598      0.0318      5.4661    158.1365     29.2455
  1033.6000      8.0703      2.5490      0.0363      6.1185    155.5805     29.2366
  1033.7000      8.0703      2.5590      0.0491      5.5152    158.4624     29.1434
  1033.8000      8.0655      2.5749      0.0704      4.5505    162.8437     29.2243
  1033.9000      8.0655      2.5837      0.0643      4.0162    164.3587     29.3568
  1034.0000      8.0531      2.5882      0.0233      3.7446    163.9262     29.4904
  1034.1000      8.0531      2.5908      0.0905      3.5885    162.3695     29.7583
  1034.2000      8.0531      2.5788      0.0904      4.3149    159.5693     30.0285
  1034.3000      8.0583      2.5508      0.0381      6.0126    158.1158     29.9510
  1034.4000      8.0583      2.5240      0.0131      7.6386    160.2617     29.4814
  1034.5000      8.0530      2.5113      0.0158      8.4075    164.2852     28.9639
  1034.6000      8.0530      2.5112      0.0333      8.4141    166.4106     28.7663
  1034.7000      8.0530      2.5138      0.0257      8.2519    165.4371     28.7834
  1034.8000      8.0504      2.5199      0.0185      7.8872    163.7158     28.6475
  1034.9000      8.0504      2.5394      0.0506      6.7053    161.9200     28.3005
  1035.0000      8.0279      2.5647      0.0985      5.1708    159.4300     28.0080
  1035.1000      8.0279      2.5777      0.0549      4.3839    158.5900     27.7973
  1035.2000      8.0279      2.5749      0.0955      4.5502    160.5180     27.5654
  1035.3000      8.0214      2.5662      0.0557      5.0788    162.2259     27.5394
  1035.4000      8.0214      2.5606      0.0474      5.4204    163.6022     27.8018
  1035.5000      8.0122      2.5550      0.1073      5.7554    165.8922     28.0770
  1035.6000      8.0122      2.5404      0.0578      6.6414    167.9917     28.1483
  1035.7000      8.0122      2.5173      0.0505      8.0413    170.1006     27.9400
  1035.8000      7.9953      2.4973      0.0489      9.2518    171.7135     27.6113
  1035.9000      7.9953      2.4922      0.0283      9.5625    170.1049     27.4535
  1036.0000      8.0071      2.4990      0.0810      9.1538    166.2017     27.5098
  1036.1000      8.0071      2.4978      0.1026      9.2264    163.8141     27.6562
  1036.2000      8.0071      2.4799      0.0444     10.3096    163.9519     27.8527
  1036.3000      8.0528      2.4659      0.0018     11.1587    164.0796     28.0345
  1036.4000      8.0528      2.4705      0.0717     10.8814    163.3547     27.9840
  1036.5000      8.0488      2.4821      0.0829     10.1770    163.5572     27.7506
  1036.6000      8.0488      2.4954      0.0522      9.3708    164.6240     27.6689
  1036.7000      8.0488      2.5127      0.1285      8.3233    165.8268     27.9797
  1036.8000      8.0388      2.5248      0.1137      7.5877    167.4325     28.5036
  1036.9000      8.0388      2.5282      0.1232      7.3826    168.3089     28.8296
  1037.0000      8.0304      2.5340      0.0949      7.0328    166.7889     29.0036
  1037.1000      8.0304      2.5488      0.1304      6.1341    164.9011     29.1874
  1037.2000      8.0304      2.5665      0.1441      5.0595    165.2067     29.3683
  1037.3000      8.0252      2.5823      0.1500      4.1006    166.3724     29.3373
  1037.4000      8.0252      2.5987      0.1472      3.1094    167.1646     28.8354
  1037.5000      8.0330      2.6137      0.1655      2.2016    168.0594     28.2568
  1037.6000      8.0330      2.6151      0.1804      2.1130    168.4072     28.1679
  1037.7000      8.0330      2.5982      0.1462      3.1398    166.7950     28.5614
  1037.8000      8.0487      2.5735      0.1184      4.6374    164.3558     29.0490
  1037.9000      8.0487      2.5544      0.1231      5.7962    163.2519     29.2105
  1038.0000      8.0555      2.5494      0.1095      6.0985    163.9821     28.9167
  1038.1000      8.0555      2.5617      0.0742      5.3538    165.7532     28.2858
  1038.2000      8.0555      2.5860      0.1343      3.8788    167.7053     27.5084
  1038.3000      8.0705      2.6087      0.1597      2.5030    169.2481     26.9227
  1038.4000      8.0705      2.6209      0.1633      1.7637    170.7194     26.6075
  1038.5000      8.0542      2.6251      0.1280      1.5091    171.9502     26.4056
  1038.6000      8.0542      2.6299      0.1929      1.2178    172.0499     26.5173
  1038.7000      8.0542      2.6381      0.1962      0.7211    170.4426     27.0350
  1038.8000      8.0495      2.6435      0.2077      0.3935    168.3824     27.5666
  1038.9000      8.0495      2.6403      0.1622      0.5875    167.9496     27.6498
  1039.0000      8.0403      2.6296      0.1158      1.2352    169.4258     27.3404
  1039.1000      8.0403      2.6192      0.0705      1.8689    171.6631     27.0893
  1039.2000      8.0403      2.6154      0.1003      2.0975    171.7771     27.0205
  1039.3000      8.0270      2.6137      0.0660      2.1978    167.9772     26.9369
  1039.4000      8.0270      2.6096      0.0810      2.4514    161.8890     26.9221
  1039.5000      8.0739      2.6068      0.0428      2.6174    157.9512     27.2482
  1039.6000      8.0739      2.6045      0.0726      2.7593    158.3983     27.7447
  1039.7000      8.0739      2.5870      0.1066      3.8203    158.6182     28.1602
  1039.8000      8.1145      2.5558      0.0284      5.7084    154.9444     28.4672
  1039.9000      8.1145      2.5392      0.0284      6.7143    150.8331     28.6489
  1040.0000      8.0365      2.5464      0.0603      6.2811    150.3200     28.7685
  1040.1000      8.0365      2.5601      0.0788      5.4512    151.6667     28.9409
  1040.2000      8.0365      2.5710      0.0754      4.7887    150.5367     29.1075
  1040.3000      8.0118      2.5810      0.1245      4.1831    147.0773     29.1573
  1040.4000      8.0118      2.5871      0.1398      3.8135    145.0250     29.1814
  1040.5000      7.9970      2.5910      0.0913      3.5771    144.8798     29.1119
  1040.6000      7.9970      2.6013      0.1062      2.9485    144.0864     28.7219
  1040.7000      7.9970      2.6174      0.1487      1.9730    142.1756     27.9984
  1040.8000      7.9965      2.6315      0.1295      1.1218    143.0068     27.2196
  1040.9000      7.9965      2.6365      0.1615      0.8205    149.3871     26.6287
  1041.0000      8.0057      2.6267      0.1367      1.4095    155.7390     26.2997
  1041.1000      8.0057      2.6046      0.1241      2.7491    154.0079     26.3380
