~Version Information
 VERS.                                  2.0 : CWLS LAS VERSION
 WRAP.                                   NO : WRAPING MODE
 SWARE .                 MController 2.5.0J : SOFTWARE VERSION
~Well Information
 WELL.                       Galloway 32-13 : WELL
 COMP.   Pioneer Natural Resources USA Inc. : COMPANY
 FLD.                         Spanish Peaks : FIELD
 LOC.                SW/NE Sec 13 T32S R66W : LOCATION
 DATE.                             7/6-7/05 : DATE(S) LOGGED
 SRVC.       BLANCO Geological Services LLC : SERVICE COMPANY
 STAT.                                   CO : STATE
 CNTY.                           Las Animas : COUNTY
 CTRY.                                  USA : COUNTRY
 API.                       05-071-08423-00 : API NUMBER
 STRT.FT                             596.00 : START DEPTH
 STOP.FT                            2075.00 : STOP DEPTH
 STEP.FT                               1.00 : DEPTH INCREMENT
 NULL.                                -9999 : NULL VALUE
~Curve information
 DEPTH.FT                                   :
 ROP.MIN/FT                                 :
 GAS.UNITS                                  :
~ASCII Log data
# ...
       796.0         0.50         20.0 
       797.0         0.40         20.0 
       798.0         0.50         20.3 
       799.0         0.52         20.0 
       800.0         0.40         19.7 
       801.0         0.50         19.8 
       802.0         0.40         20.4 
       803.0         0.40         19.1 
       804.0         0.40         19.5 
       805.0         0.30         19.2 
       806.0         0.30         20.0 
       807.0         0.40         20.4 
       808.0         0.42         19.5 
       809.0         0.40         20.8 
       810.0         0.40         20.2 
       811.0         0.40         21.2 
       812.0         0.40         20.7 
       813.0         0.40         20.5 
       814.0         0.40         20.1 
       815.0         0.20         21.2 
       816.0         0.40         20.4 
       817.0         0.52         20.7 
       818.0         0.40         20.8 
       819.0         0.40         21.7 
       820.0         0.40         20.8 
       821.0         0.40         20.7 
       822.0         0.50         20.8 
       823.0         0.40         21.6 
       824.0         0.30         21.7 
       825.0         0.22         20.5 
       826.0         0.30         21.1 
       827.0         0.30         21.5 
       828.0         0.20         21.1 
       829.0         0.20         20.8 
       830.0         0.20         21.3 
       831.0         0.10         21.7 
       832.0         0.33         25.9 
       833.0         0.17         30.6 
       834.0         0.27         38.5 
       835.0         0.20         44.2 
       836.0         0.17         46.2 
       837.0         0.20         47.9 
       838.0         0.13         49.4 
       839.0         0.30         50.3 
       840.0         0.22         49.1 
       841.0         0.10         49.2 
       842.0         0.20         49.6 
       843.0         0.20         48.2 
       844.0         0.10         47.7 
       845.0         0.20         45.1 
       846.0         0.23         44.4 
       847.0         0.20         43.7 
       848.0         0.20         45.0 
       849.0         0.20         46.8 
       850.0         0.20         46.7 
       851.0         0.10         46.1 
       852.0         0.20         46.0 
       853.0         0.10         45.5 
       854.0         0.20         44.9 
       855.0         0.20         45.6 
       856.0         0.20         47.0 
       857.0         0.23         49.9 
       858.0         0.22         51.5 
       859.0         0.20         52.9 
       860.0         0.20         56.4 
       861.0         0.10         58.6 
       862.0         0.17         61.3 
       863.0         0.10         61.3 
       864.0         0.20         58.9 
       865.0         0.20         56.6 
       866.0         0.10         55.8 
       867.0         0.20         54.6 
       868.0         0.20         54.6 
       869.0         0.20         54.9 
       870.0         0.10         54.8 
       871.0         0.20         54.5 
       872.0         0.10         54.6 
       873.0         0.20         55.0 
       874.0         0.10         55.5 
       875.0         0.20         57.0 
       876.0         0.10         57.9 
       877.0         0.20         57.4 
       878.0         0.20         56.0 
       879.0         0.12         55.4 
       880.0         0.20         54.6 
       881.0         0.17         53.9 
       882.0         0.10         53.6 
       883.0         0.20         53.3 
       884.0         0.20         53.7 
       885.0         0.10         54.3 
       886.0         0.10         54.9 
       887.0         0.20         56.6 
       888.0         0.10         57.6 
       889.0         0.10         57.6 
       890.0         0.20         56.4 
       891.0         0.10         56.4 
       892.0         0.20         58.0 
       893.0         0.10         59.6 
       894.0         0.20         62.1 
       895.0         0.10         62.6 
       896.0         0.20         63.0 
       897.0         0.20         63.7 
       898.0         0.20         64.6 
       899.0         0.10         65.1 
       900.0         0.13         65.6 
       901.0         0.12         66.2 
       902.0         0.10         66.4 
       903.0         0.20         66.4 
       904.0         0.10         66.7 
       905.0         0.10         66.2 
       906.0         0.10         64.9 
       907.0         0.20         61.3 
       908.0         0.20         59.4 
       909.0         0.17         58.1 
       910.0         0.10         57.6 
       911.0         0.20         57.9 
       912.0         0.20         58.9 
       913.0         0.10         58.8 
       914.0         0.20         58.6 
       915.0         0.10         59.1 
       916.0         0.20         60.9 
       917.0         0.20         62.9 
       918.0         0.20         63.1 
       919.0         0.20         63.4 
       920.0         0.10         63.3 
       921.0         0.20         62.3 
       922.0         0.10         61.5 
       923.0         0.12         60.6 
       924.0         0.20         60.0 
       925.0         0.20         59.9 
       926.0         0.20         59.8 
       927.0         0.20         59.9 
       928.0         0.10         60.0 
       929.0         0.20         60.1 
       930.0         0.20         60.7 
       931.0         0.20         60.9 
       932.0         0.20         59.1 
       933.0         0.20         56.8 
       934.0         0.20         55.5 
       935.0         0.20         54.9 
       936.0         0.27         52.9 
       937.0         0.10         52.3 
       938.0         0.20         50.8 
       939.0         0.10         50.6 
       940.0         0.20         52.5 
       941.0         0.22         54.2 
       942.0         0.10         53.7 
       943.0         0.10         53.2 
       944.0         0.40         52.3 
       945.0         0.10         52.2 
       946.0         0.30         52.4 
       947.0         0.20         52.5 
       948.0         0.20         51.9 
       949.0         0.20         52.0 
       950.0         0.30         55.8 
       951.0         0.10         55.4 
       952.0         0.30         51.5 
       953.0         0.20         49.6 
       954.0         0.10         49.1 
       955.0         0.30         49.7 
       956.0         0.10         49.8 
       957.0         0.20         48.6 
       958.0         0.15         47.5 
       959.0         0.10         47.1 
       960.0         0.30         47.5 
       961.0         0.10         47.9 
       962.0         0.20         49.3 
       963.0         0.30         51.8 
       964.0         0.07         52.5 
       965.0         0.20         57.4 
       966.0         0.17         61.9 
       967.0         0.10         63.0 
       968.0         0.20         62.3 
       969.0         0.20         61.1 
       970.0         0.30         60.7 
       971.0         0.20         62.8 
       972.0         0.37         67.1 
       973.0         0.30         68.2 
       974.0         0.32         64.3 
       975.0         0.40         63.0 
       976.0         0.40         62.8 
       977.0         0.20         64.6 
       978.0         0.20         66.6 
       979.0         0.20         66.0 
       980.0         0.20         64.3 
       981.0         0.30         65.5 
       982.0         0.20         66.8 
       983.0         0.40         65.4 
       984.0         0.20         66.1 
       985.0         0.20         66.2 
       986.0         0.32         61.0 
       987.0         0.20         60.0 
       988.0         0.30         64.2 
       989.0         0.30         64.3 
       990.0         0.30         58.7 
       991.0         0.20         57.4 
       992.0         0.30         62.1 
       993.0         0.30         65.4 
       994.0         0.20         65.7 
       995.0         0.20         67.6 
