~Version Information
VERS.                      2.0: CWLS Log ASCII Standard - VERSION 2.0
WRAP.                       NO: One line per depth step
~Well Information Block
STRT.FT               -12.2500: 
STOP.FT              2183.0000: 
STEP.FT                 0.2500: 
NULL.                -999.2500: 
COMP.          Petrogulf Corporation: COMPANY
WELL.            Montoya 6-14R: WELL
FLD.           Purgatorie River: FIELD
LOC.           867' FSL & 751' FWL: LOCATION
CNTY.               Las Animas: COUNTY
SRVC.                         : SERVICE COMPANY
DATE.          Mon Nov 22 13:07:31 2004: LOG DATE
UWI.           05-071-08242-00: UNIQUE WELL ID
STAT.                 Colorado: STATE
~Curve Information Block
DEPT.FT            0 000 00 00: Depth
TT3.usec                      : CBL 3' Travel Time
AMP3.mV                       : CBL 3' Amplitude
GR.GAPI                       : Gamma Ray
CCL.                          : Casing Collar Locator
~Parameter Information Block
~A  Depth       TT3         AMP3         GR         CCL     
# ...
  1562.2500    285.8089     74.5372    155.6917      0.0000
  1562.5000    285.7774     74.8414    154.9029      0.0000
  1562.7500    285.7546     75.0744    151.1900      0.0000
  1563.0000    285.7388     75.2186    146.3393      0.0000
  1563.2500    285.7256     75.3047    142.4575      0.0000
  1563.5000    285.7137     75.3590    140.4890      0.0000
  1563.7500    285.7067     75.3735    139.7405      0.0000
  1564.0000    285.7093     75.3215    138.8916      0.0000
  1564.2500    285.7217     75.2006    137.3363      0.0000
  1564.5000    285.7364     75.0623    135.4013      0.0000
  1564.7500    285.7428     74.9829    133.7450      0.0000
  1565.0000    285.7363     75.0006    133.1109      0.0000
  1565.2500    285.7224     75.0859    134.3405      0.0000
  1565.5000    285.7109     75.1798    137.7390      0.0000
  1565.7500    285.7075     75.2440    142.2451      0.0000
  1566.0000    285.7112     75.2716    145.9491      0.0000
  1566.2500    285.7178     75.2681    147.8848      0.0000
  1566.5000    285.7243     75.2403    149.0283      0.0000
  1566.7500    285.7305     75.2005    151.3443      0.0000
  1567.0000    285.7369     75.1675    156.1740      0.0000
  1567.2500    285.7424     75.1574    163.3591      0.0000
  1567.5000    285.7448     75.1788    171.2337      0.0000
  1567.7500    285.7426     75.2327    177.4245      0.0000
  1568.0000    285.7365     75.3031    180.1802      0.0000
  1568.2500    285.7294     75.3485    179.1803      0.0000
  1568.5000    285.7242     75.3164    175.3454      0.0000
  1568.7500    285.7225     75.1759    170.2779      0.0000
  1569.0000    285.7234     74.9344    165.7487      0.0000
  1569.2500    285.7256     74.6259    162.9087      0.0000
  1569.5000    285.7289     74.3017    161.4344      0.0000
  1569.7500    285.7332     74.0329    159.7379      0.0000
  1570.0000    285.7369     73.8955    156.6200      0.0000
  1570.2500    285.7375     73.9253    152.8026      0.0000
  1570.5000    285.7325     74.0904    150.6241      0.0000
  1570.7500    285.7224     74.3186    152.2457      0.0000
  1571.0000    285.7108     74.5449    158.3161      0.0000
  1571.2500    285.7028     74.7281    167.8867      0.0000
  1571.5000    285.7012     74.8422    178.7244      0.0000
  1571.7500    285.7034     74.8714    187.6138      0.0000
  1572.0000    285.7050     74.8161    191.3015      0.0000
  1572.2500    285.7044     74.6979    188.0190      0.0000
  1572.5000    285.7043     74.5527    178.3586      0.0000
  1572.7500    285.7079     74.4155    164.7792      0.0000
  1573.0000    285.7154     74.3100    150.3699      0.0000
  1573.2500    285.7232     74.2526    137.6915      0.0000
  1573.5000    285.7266     74.2590    127.9600      0.0000
  1573.7500    285.7237     74.3372    120.8193      0.0000
  1574.0000    285.7166     74.4762    115.2344      0.0000
  1574.2500    285.7086     74.6434    110.8658      0.0000
  1574.5000    285.7011     74.7953    108.3167      0.0000
  1574.7500    285.6944     74.8947    108.0494      0.0000
  1575.0000    285.6877     74.9269    109.7206      0.0000
  1575.2500    285.6788     74.9076    112.8107      0.0000
  1575.5000    285.6650     74.8723    117.3436      0.0000
  1575.7500    285.6465     74.8485    123.5640      0.0000
  1576.0000    285.6281     74.8333    131.1585      0.0000
  1576.2500    285.6154     74.7964    139.3037      0.0000
  1576.5000    285.6110     74.7097    147.6552      0.0000
  1576.7500    285.6132     74.5826    156.8948      0.0000
  1577.0000    285.6183     74.4653    167.6852      0.0000
  1577.2500    285.6253     74.4112    179.0664      0.0000
  1577.5000    285.6361     74.4323    188.5411      0.0000
  1577.7500    285.6525     74.4919    194.2110      0.0000
  1578.0000    285.6733     74.5373    196.6019      0.0000
  1578.2500    285.6948     74.5411    197.7199      0.0000
  1578.5000    285.7120     74.5164    198.3302      0.0000
  1578.7500    285.7211     74.4940    197.0598      0.0000
  1579.0000    285.7216     74.4917    192.5474      0.0000
  1579.2500    285.7173     74.5107    185.8076      0.0000
  1579.5000    285.7123     74.5545    180.0291      0.0000
  1579.7500    285.7087     74.6313    178.1575      0.0000
  1580.0000    285.7073     74.7371    180.6384      0.0000
  1580.2500    285.7090     74.8541    185.2220      0.0000
  1580.5000    285.7151     74.9698    188.7349      0.0000
  1580.7500    285.7247     75.0809    188.9450      0.0000
  1581.0000    285.7358     75.1781    185.0424      0.0000
  1581.2500    285.7462     75.2466    177.2918      0.0000
  1581.5000    285.7542     75.2921    166.9820      0.0000
  1581.7500    285.7570     75.3503    156.3785      0.0000
  1582.0000    285.7505     75.4527    147.7513      0.0000
  1582.2500    285.7324     75.5869    141.9080      0.0000
  1582.5000    285.7043     75.7012    137.8296      0.0000
  1582.7500    285.6716     75.7431    134.1315      0.0000
  1583.0000    285.6411     75.6881    130.8407      0.0000
  1583.2500    285.6185     75.5422    129.2026      0.0000
  1583.5000    285.6133     75.3224    129.6465      0.0000
  1583.7500    285.6490     75.0263    130.8249      0.0000
  1584.0000    285.7857     74.5691    131.2480      0.0000
  1584.2500    286.1426     73.7223    131.1487      0.0000
  1584.5000    286.8843     72.1149    132.0775      0.0000
  1584.7500    288.1330     69.3475    135.1046      0.0000
  1585.0000    289.8317     65.2499    139.9829      0.0000
  1585.2500    291.6740     60.2358    145.6035      0.0000
  1585.5000    293.2159     55.4130    150.5337      0.0000
  1585.7500    294.1363     52.0261    153.3858      0.0000
  1586.0000    294.4298     50.5658    153.5958      0.0000
  1586.2500    294.3469     50.5175    152.2589      0.0000
  1586.5000    294.1653     50.9745    151.7744      0.0000
  1586.7500    294.0323     51.3297    154.1484     -2.5528
  1587.0000    293.9565     51.4764    159.4825      0.0000
  1587.2500    293.8533     51.7397    166.1172      0.0000
  1587.5000    293.5656     52.7665    172.0563      0.0000
  1587.7500    292.9016     55.1920    176.1499      0.0000
  1588.0000    291.7462     59.0607    178.1976      0.0000
  1588.2500    290.1898     63.5971    178.5101      0.0000
  1588.5000    288.5325     67.7526    177.8583      0.0000
  1588.7500    287.1194     70.9468    177.6071      0.0000
  1589.0000    286.1467     73.1788    179.0522      0.0000
  1589.2500    285.6037     74.6436    182.1555      0.0000
  1589.5000    285.3584     75.4942    185.4742      0.0000
  1589.7500    285.2700     75.8700    187.8185      0.0000
  1590.0000    285.2457     75.9347    189.4745      0.0000
  1590.2500    285.2411     75.8438    191.2700      0.0000
  1590.5000    285.2404     75.7112    193.0284      0.0000
  1590.7500    285.2402     75.6020    193.7266      0.0000
  1591.0000    285.2403     75.5338    192.7770      0.0000
  1591.2500    285.2405     75.4908    190.2458      0.0000
  1591.5000    285.2410     75.4408    185.9392      0.0000
  1591.7500    285.2426     75.3537    179.3702      0.0000
  1592.0000    285.2459     75.2158    171.0763      0.0000
  1592.2500    285.2511     75.0360    163.0620      0.0000
  1592.5000    285.2576     74.8397    157.0894      0.0000
  1592.7500    285.2635     74.6584    153.0056      0.0000
  1593.0000    285.2666     74.5155    149.5203      0.0000
  1593.2500    285.2650     74.4152    146.1857      0.0000
  1593.5000    285.2591     74.3422    143.7853      0.0000
  1593.7500    285.2506     74.2738    142.9210      0.0000
  1594.0000    285.2425     74.1950    142.8184      0.0000
  1594.2500    285.2382     74.1058    141.7057      0.0000
  1594.5000    285.2402     74.0179    138.4373      0.0000
  1594.7500    285.2483     73.9428    133.8554      0.0000
  1595.0000    285.2585     73.8786    130.4658      0.0000
  1595.2500    285.2667     73.8068    130.6252      0.0000
  1595.5000    285.2710     73.7161    134.8533      0.0000
