~Version Information
 VERS.                                  2.0 : CWLS LAS VERSION
 WRAP.                                   NO : WRAPING MODE
 SWARE .                 MController 2.5.0N : SOFTWARE VERSION
~Well Information
 WELL.                   Sand Pebbles 13-33 : WELL
 COMP.    Pioneer Natural Resources USA Inc : COMPANY
 FLD.                      Purgatoire River : FIELD
 LOC.                 NW/SW Sec 33 T32S R67W : LOCATION
 DATE.                           3/08-10/05 : DATE(S) LOGGED
 SRVC.         Blanco Geological Services LLC : SERVICE COMPANY
 STAT.                                   CO : STATE
 CNTY.                           Las Animas : COUNTY
 CTRY.                                  USA : COUNTRY
 API.                       05-071-08224-00 : API NUMBER
 STRT.FT                             655.00 : START DEPTH
 STOP.FT                            2730.00 : STOP DEPTH
 STEP.FT                               1.00 : DEPTH INCREMENT
 NULL.                                -9999 : NULL VALUE
~Curve information
 DEPTH.FT                                   :
 ROP.MIN/FT                                 :
 GAS.UNITS                                  :
~ASCII Log data
# ...
      2255.0         0.83         13.4 
      2256.0         0.60         16.5 
      2257.0         0.48         21.3 
      2258.0         0.47         27.4 
      2259.0         0.40         30.0 
      2260.0         0.30         29.8 
      2261.0         0.33         28.6 
      2262.0         0.40         24.9 
      2263.0         0.37         20.9 
      2264.0         0.47         16.0 
      2265.0         0.43         13.2 
      2266.0         0.45         14.6 
      2267.0         0.43         15.7 
      2268.0         0.40         15.2 
      2269.0         0.37         14.9 
      2270.0         0.23         15.3 
      2271.0         0.23         16.0 
      2272.0         0.30         15.7 
      2273.0         0.50         15.7 
      2274.0         0.58         13.2 
      2275.0         0.53         12.8 
      2276.0         0.50         12.4 
      2277.0         0.60          9.7 
      2278.0         0.63          7.0 
      2279.0         0.73          6.2 
      2280.0         0.23          6.1 
      2281.0         9.48         32.6 
      2282.0         0.65         37.4 
      2283.0         0.63         48.1 
      2284.0         0.73         56.8 
      2285.0         0.53         31.9 
      2286.0         0.63         10.4 
      2287.0         1.95         28.7 
      2288.0         1.47         38.1 
      2289.0         1.12         10.7 
      2290.0         1.20         21.5 
      2291.0         1.17         44.1 
      2292.0         0.98         36.8 
      2293.0         0.67         13.3 
      2294.0         0.50          7.9 
      2295.0         0.33          6.2 
      2296.0         0.37          6.3 
      2297.0         0.30          7.6 
      2298.0         0.30          9.1 
      2299.0         0.42         11.5 
      2300.0         0.40         13.6 
      2301.0         0.33         16.6 
      2302.0         0.37         20.6 
      2303.0         0.40         20.1 
      2304.0         0.40         12.9 
      2305.0         0.40          9.0 
      2306.0         0.37          7.9 
      2307.0         0.40          7.3 
      2308.0         0.32          7.4 
      2309.0         0.30          7.5 
      2310.0         0.43          8.9 
      2311.0         9.82         18.9 
      2312.0         0.37         20.1 
      2313.0         0.17         20.1 
      2314.0         0.23         21.0 
      2315.0         0.23         21.7 
      2316.0         0.40         25.5 
      2317.0         0.37         31.5 
      2318.0         0.50         49.3 
      2319.0         0.27         48.4 
      2320.0         0.42         20.3 
      2321.0         0.30          9.9 
      2322.0         0.27          7.1 
      2323.0         0.60          6.1 
      2324.0         0.60          9.4 
      2325.0         0.53         14.9 
      2326.0         0.63         23.3 
      2327.0         1.08         44.0 
      2328.0         1.03         35.2 
      2329.0         0.80         17.1 
      2330.0         0.72         14.0 
      2331.0         0.43         14.8 
      2332.0         0.33         14.7 
      2333.0         0.37         15.9 
      2334.0         0.43         19.2 
      2335.0         1.03         18.7 
      2336.0         1.52         14.6 
      2337.0         0.53         14.7 
      2338.0         0.63         16.7 
      2339.0         0.47         14.3 
      2340.0         0.50         15.4 
      2341.0        11.63         22.0 
      2342.0         0.37         12.5 
      2343.0         0.43          7.3 
      2344.0         0.33          5.1 
      2345.0         0.33          4.6 
      2346.0         0.43          5.1 
      2347.0         0.68          6.7 
      2348.0         0.67         13.4 
      2349.0         0.73         23.2 
      2350.0         0.77         44.3 
      2351.0         0.88         72.9 
      2352.0         0.83         56.4 
      2353.0         0.73         34.0 
      2354.0         0.73         13.2 
      2355.0         0.78          7.9 
      2356.0         0.67          8.3 
      2357.0         0.57         11.9 
      2358.0         0.57         16.9 
      2359.0         0.60         19.3 
      2360.0         0.67         20.2 
      2361.0         0.88         21.0 
      2362.0         0.77         21.6 
      2363.0         0.80         21.2 
      2364.0         0.83         18.6 
      2365.0         0.58         15.6 
      2366.0         0.70          8.7 
      2367.0         0.70          7.0 
      2368.0         0.67          7.6 
      2369.0         0.70         10.5 
      2370.0         0.65         13.5 
      2371.0        10.68         33.3 
      2372.0         0.43         37.8 
      2373.0         0.37         41.0 
      2374.0         0.37         29.3 
      2375.0         0.43          9.1 
      2376.0         0.23          6.3 
      2377.0         0.37          5.4 
      2378.0         0.48          5.8 
      2379.0         0.60          8.7 
      2380.0         0.70         14.9 
      2381.0         0.53         19.7 
      2382.0         0.53         24.0 
      2383.0         0.65         32.5 
      2384.0         0.63         34.8 
      2385.0         0.57         26.6 
      2386.0         0.60         19.0 
      2387.0         0.57         16.9 
      2388.0         0.77         15.7 
      2389.0         0.68         12.8 
      2390.0         0.63          9.6 
      2391.0         0.53          6.9 
      2392.0         0.50          6.0 
      2393.0         0.63          5.6 
      2394.0         0.55          5.4 
      2395.0         0.27          5.4 
      2396.0         0.30          5.1 
      2397.0         0.33          5.0 
      2398.0         0.43          6.1 
      2399.0         0.70          8.7 
      2400.0         0.97         13.2 
      2401.0        17.40         28.2 
      2402.0         0.93         31.4 
      2403.0         0.77         43.5 
      2404.0         0.60         39.1 
      2405.0         0.30         24.7 
      2406.0         0.23         16.3 
      2407.0         0.28         10.2 
      2408.0         0.47          7.0 
      2409.0         0.50          8.9 
      2410.0         0.47         12.7 
      2411.0         0.40         18.1 
      2412.0         0.33         24.3 
      2413.0         0.20         27.2 
      2414.0         0.37         32.9 
      2415.0         0.43         36.8 
      2416.0         0.52         39.8 
      2417.0         0.47         40.0 
      2418.0         0.57         37.9 
      2419.0         0.23         36.0 
      2420.0         0.17         36.1 
      2421.0         0.33         32.0 
      2422.0         0.30         30.7 
      2423.0         0.43         46.8 
      2424.0         0.65         42.3 
      2425.0         0.53         26.6 
      2426.0         0.50         16.5 
      2427.0         0.43         13.7 
      2428.0         0.40         15.9 
      2429.0         0.47         22.1 
      2430.0         0.20         25.2 
      2431.0        10.73          4.6 
      2432.0        10.65         72.5 
      2433.0         0.53         80.2 
      2434.0         0.50         94.6 
      2435.0         0.60         81.3 
      2436.0         0.57         30.5 
      2437.0         0.45         10.9 
      2438.0         0.77          5.2 
      2439.0         1.27          7.8 
      2440.0         0.50         12.8 
      2441.0         0.57         25.4 
      2442.0         0.58         50.0 
      2443.0         0.30         63.5 
      2444.0         0.37         79.6 
      2445.0         0.50         99.5 
      2446.0         0.47         93.7 
      2447.0         1.03         35.7 
      2448.0         0.98         16.0 
      2449.0         0.30         16.3 
      2450.0         0.50         18.5 
      2451.0         0.67         22.9 
      2452.0         0.67         24.1 
      2453.0         0.68         21.8 
      2454.0         0.73         26.2 
