~Version Information
VERS.                      2.0: CWLS Log ASCII Standard - VERSION 2.0
WRAP.                       NO: One line per depth step
~Well Information Block
STRT.FT               800.0000: 
STOP.FT              1933.5000: 
STEP.FT                 0.2500: 
NULL.                -999.2500: 
COMP.          Pioneer Natural Resources: COMPANY
WELL.            Nova 11-14 Tr: WELL
FLD.           Purgatoire River: FIELD
LOC.           706' FNL & 1109' FWL: LOCATION
PROV.                 Colorado: PROVINCE
CNTY.               Las Animas: COUNTRY
SRVC.                Patterson: SERVICE COMPANY
DATE.          Wed Jul 20 23:28:11 2005: LOG DATE
UWI.           05 071 08434 00: UNIQUE WELL ID
~Curve Information Block
DEPT.FT            0 000 00 00: Depth
SN.Ohm-m                      : IEL Short Normal
SP.mV                         : IEL Spontaneous Potential
DIR.Ohm-m                     : IEL Induction Resistivity
GR.GAPI                       : Gamma Ray
~Parameter Information Block
~A  Depth        SN          SP         DIR          GR     
# ...
  1403.0000     29.7562    -82.0584     19.6828     88.2449
  1403.2500     28.0780    -81.2965     18.7677     85.5344
  1403.5000     25.7225    -80.6333     17.8398     87.6184
  1403.7500     22.9768    -80.1100     16.9569     93.8848
  1404.0000     20.2310    -79.7184     16.1502    109.1879
  1404.2500     17.8877    -79.4353     15.4216    121.3848
  1404.5000     16.1279    -79.2496     14.7521    138.6737
  1404.7500     14.8682    -79.1681     14.1153    147.4772
  1405.0000     13.9582    -79.2034     13.4933    154.7211
  1405.2500     13.2972    -79.3521     12.8853    155.7162
  1405.5000     12.7770    -79.5860     12.3058    153.3189
  1405.7500     12.2783    -79.8672     11.7732    150.5670
  1406.0000     11.7866    -80.1731     11.3007    146.8137
  1406.2500     11.4068    -80.5043     10.8956    145.2983
  1406.5000     11.2108    -80.8660     10.5618    144.9938
  1406.7500     11.1462    -81.2433     10.3024    146.0495
  1407.0000     11.1184    -81.5976     10.1187    148.8194
  1407.2500     11.0779    -81.8915     10.0101    150.7863
  1407.5000     11.0116    -82.1169      9.9717    153.1202
  1407.7500     10.8890    -82.2989      9.9926    154.2832
  1408.0000     10.6679    -82.4730     10.0545    155.6313
  1408.2500     10.3826    -82.6566     10.1348    156.0177
  1408.5000     10.1439    -82.8409     10.2158    155.1261
  1408.7500     10.0183    -83.0061     10.2939    153.4917
  1409.0000      9.9752    -83.1451     10.3817    150.1339
  1409.2500      9.9590    -83.2693     10.5016    147.8364
  1409.5000      9.9392    -83.3981     10.6732    145.2335
  1409.7500      9.9161    -83.5500     10.9029    144.5065
  1410.0000      9.9489    -83.7405     11.1787    145.1300
  1410.2500     10.1126    -83.9793     11.4749    146.3658
  1410.5000     10.4387    -84.2622     11.7625    148.3373
  1410.7500     10.9795    -84.5707     12.0205    148.9978
  1411.0000     11.7896    -84.8818     12.2403    148.3662
  1411.2500     12.7367    -85.1777     12.4215    147.2621
  1411.5000     13.5040    -85.4490     12.5659    146.2667
  1411.7500     13.8796    -85.6933     12.6747    146.7648
  1412.0000     13.9287    -85.9100     12.7533    148.8601
  1412.2500     13.8649    -86.0965     12.8178    150.1829
  1412.5000     13.8380    -86.2505     12.8934    150.4781
  1412.7500     13.8553    -86.3774     12.9998    149.2532
  1413.0000     13.8574    -86.4929     13.1360    145.9572
  1413.2500     13.8347    -86.6141     13.2757    143.5284
  1413.5000     13.8505    -86.7461     13.3837    140.6648
  1413.7500     13.9270    -86.8773     13.4415    139.5963
  1414.0000     13.9621    -86.9908     13.4597    138.9984
  1414.2500     13.8045    -87.0834     13.4655    138.7598
  1414.5000     13.3792    -87.1698     13.4797    137.6779
  1414.7500     12.7285    -87.2647     13.5051    136.0370
  1415.0000     11.9929    -87.3583     13.5331    131.8795
  1415.2500     11.4078    -87.4148     13.5544    128.2867
  1415.5000     11.2534    -87.3984     13.5648    123.1231
  1415.7500     11.6860    -87.2992     13.5608    120.7386
  1416.0000     12.6015    -87.1334     13.5386    119.4145
  1416.2500     13.6614    -86.9295     13.4970    119.8561
  1416.5000     14.4068    -86.7236     13.4451    121.6314
  1416.7500     14.4691    -86.5677     13.4020    122.8477
  1417.0000     13.8577    -86.5306     13.3878    123.4505
  1417.2500     12.9762    -86.6802     13.4142    122.6317
  1417.5000     12.3169    -87.0557     13.4854    120.1090
  1417.7500     12.2108    -87.6565     13.6071    118.4914
  1418.0000     12.7276    -88.4604     13.7933    117.6910
  1418.2500     13.6524    -89.4487     14.0615    118.5962
  1418.5000     14.6101    -90.6112     14.4202    121.7816
  1418.7500     15.3234    -91.9261     14.8607    124.5000
  1419.0000     15.7780    -93.3446     15.3617    127.6995
  1419.2500     16.1413    -94.7984     15.9016    128.0916
  1419.5000     16.5829    -96.2223     16.4680    125.0054
  1419.7500     17.1999    -97.5723     17.0592    120.7348
  1420.0000     18.0239    -98.8293     17.6806    112.3241
  1420.2500     19.0613    -99.9918     18.3449    106.1123
  1420.5000     20.3303   -101.0591     19.0755     96.5587
  1420.7500     21.8231   -102.0170     19.9089     90.2396
  1421.0000     23.4735   -102.8404     20.8883     81.3393
  1421.2500     25.1844   -103.5109     22.0468     76.1675
  1421.5000     26.8323   -104.0320     23.3888     69.9578
  1421.7500     28.2795   -104.4256     24.8788     66.8347
  1422.0000     29.4372   -104.7159     26.4480     63.3815
  1422.2500     30.2809   -104.9140     28.0137     61.7705
  1422.5000     30.8283   -105.0160     29.4928     60.5310
  1422.7500     31.1459   -105.0130     30.8033     60.7034
  1423.0000     31.3683   -104.9015     31.8693     62.5225
  1423.2500     31.6481   -104.6892     32.6504     64.4100
  1423.5000     32.0507   -104.3951     33.1689     67.0149
  1423.7500     32.5459   -104.0455     33.4937     67.7796
  1424.0000     33.0624   -103.6724     33.6818     66.5355
  1424.2500     33.5277   -103.3164     33.7427     64.1177
  1424.5000     33.9378   -103.0225     33.6640     59.0445
  1424.7500     34.3693   -102.8189     33.4627     55.5275
  1425.0000     34.9137   -102.6899     33.1953     51.3725
  1425.2500     35.6476   -102.5721     32.9072     49.8047
  1425.5000     36.5759   -102.3779     32.5777     49.2569
  1425.7500     37.5147   -102.0322     32.1216     49.7158
  1426.0000     38.1249   -101.5015     31.4530     50.8435
  1426.2500     38.1168   -100.8050     30.5531     51.6448
  1426.5000     37.3829   -100.0051     29.4831     53.2576
  1426.7500     35.9772    -99.1854     28.3404     55.2978
  1427.0000     34.0342    -98.4291     27.2087     61.5724
  1427.2500     31.6673    -97.8040     26.1368     68.8596
  1427.5000     28.9907    -97.3507     25.1417     84.8549
  1427.7500     26.2637    -97.0724     24.2192     97.8743
  1428.0000     23.8147    -96.9364     23.3554    117.0886
  1428.2500     21.8184    -96.8998     22.5386    127.0822
  1428.5000     20.2889    -96.9372     21.7653    134.9863
  1428.7500     19.1628    -97.0432     21.0414    135.4241
  1429.0000     18.3354    -97.2092     20.3787    130.9094
  1429.2500     17.7536    -97.4085     19.7904    126.3377
  1429.5000     17.4561    -97.6053     19.2854    120.1054
  1429.7500     17.5173    -97.7751     18.8668    117.2543
  1430.0000     17.9301    -97.9157     18.5368    114.7299
  1430.2500     18.4933    -98.0474     18.3040    113.6612
  1430.5000     18.9344    -98.2071     18.1883    112.5566
  1430.7500     19.1654    -98.4375     18.2129    112.3193
  1431.0000     19.2829    -98.7708     18.3919    112.8550
  1431.2500     19.3758    -99.2094     18.7216    113.4287
  1431.5000     19.4644    -99.7218     19.1765    113.4701
  1431.7500     19.5778   -100.2573     19.7069    112.4747
  1432.0000     19.7254   -100.7718     20.2387    109.5463
  1432.2500     19.8191   -101.2422     20.6876    107.2143
  1432.5000     19.7922   -101.6608     20.9983    104.5701
  1432.7500     19.7409   -102.0164     21.1855    104.0640
  1433.0000     19.8470   -102.2806     21.3324    105.3621
  1433.2500     20.2442   -102.4140     21.5425    106.9729
  1433.5000     20.9074   -102.3896     21.8838    108.9188
  1433.7500     21.6193   -102.2153     22.3634    109.3491
  1434.0000     22.1733   -101.9334     22.9351    109.0109
  1434.2500     22.5892   -101.5986     23.5271    108.7330
  1434.5000     23.0504   -101.2474     24.0754    108.7646
  1434.7500     23.6713   -100.8833     24.5494    108.7341
  1435.0000     24.3888   -100.4892     24.9580    107.4845
  1435.2500     25.0821   -100.0598     25.3374    105.6044
  1435.5000     25.7121    -99.6250     25.7328    102.1260
  1435.7500     26.3374    -99.2409     26.1827    100.2457
  1436.0000     27.0305    -98.9512     26.7117     98.8940
  1436.2500     27.8150    -98.7515     27.3265     98.8454
