~Version Information
VERS.                      2.0: CWLS Log ASCII Standard - VERSION 2.0
WRAP.                       NO: One line per depth step
~Well Information Block
STRT.FT                -7.2500: 
STOP.FT               862.2500: 
STEP.FT                 0.2500: 
NULL.                -999.2500: 
COMP.          Pioneer Natural Resources: COMPANY
WELL.          Santisteven 13-22: WELL
FLD.           Purgatorie River: FIELD
LOC.           1861' FSL & 992' FWL--: LOCATION
PROV.                       CO: PROVINCE
CNTY.               Las Animas: COUNTRY
SRVC.          Patterson Wireline: SERVICE COMPANY
DATE.          Thu Apr 07 09:08:11 2005: LOG DATE
UWI.           05 071 08337 00: UNIQUE WELL ID
~Curve Information Block
DEPT.FT            0 000 00 00: Depth
CCL.                          : Casing Collar Locator
TT3.usec                      : CBL 3' Travel Time
AMP3.mV                       : CBL 3' Amplitude
GR.GAPI                       : Gamma Ray
~Parameter Information Block
~A  Depth       CCL         TT3         AMP3         GR     
# ...
   729.7500      0.0000    730.3258      3.6210     88.5951
   730.0000      0.0000    741.0023      3.5525     80.5801
   730.2500      0.0000    744.6041      3.5130     72.9074
   730.5000      0.0000    742.4400      3.5055     65.9778
   730.7500      0.0000    737.3454      3.5230     61.2727
   731.0000      0.0000    731.2346      3.5314     60.2076
   731.2500      0.0000    724.7579      3.4889     62.8574
   731.5000      0.0000    718.2878      3.3842     67.8018
   731.7500      0.0000    712.9730      3.2438     73.1856
   732.0000      0.0000    710.9962      3.1116     77.8227
   732.2500      0.0000    714.7352      3.0225     81.2745
   732.5000      0.0000    725.0258      2.9834     83.3789
   732.7500      0.0000    739.7233      2.9762     84.2471
   733.0000      0.0000    754.1954      2.9791     84.5595
   733.2500      0.0000    763.5380      2.9779     85.3337
   733.5000      0.0000    764.6612      2.9665     87.2074
   733.7500      0.0000    757.7002      2.9501     90.0323
   734.0000      0.0000    746.7328      2.9484     93.2710
   734.2500      0.0000    737.9891      2.9918     96.8327
   734.5000      0.0000    735.2558      3.1078    101.3056
   734.7500      0.0000    736.7463      3.3010    106.9976
   735.0000      0.0000    737.3967      3.5522    112.8809
   735.2500      0.0000    734.2834      3.8311    116.9239
   735.5000      0.0000    729.5538      4.0902    117.4928
   735.7500      0.0000    728.3568      4.2620    114.2430
   736.0000      0.0000    734.0572      4.2941    107.9618
   736.2500      0.0000    745.0653      4.1928    100.0408
   736.5000      0.0000    756.0162      4.0233     92.0307
   736.7500      0.0000    761.9731      3.8652     85.1779
   737.0000      0.0000    761.4216      3.7627     80.0383
   737.2500      0.0000    755.9761      3.7115     76.4694
   737.5000      0.0000    748.5170      3.6874     74.0331
   737.7500      0.0000    741.6970      3.6748     72.4514
   738.0000      0.0000    737.0170      3.6748     71.7772
   738.2500      0.0000    734.5150      3.6979     72.2228
   738.5000      0.0000    733.3185      3.7468     73.9139
   738.7500      0.0000    732.5529      3.8053     76.8475
   739.0000      0.0000    731.8245      3.8488     80.8690
   739.2500      0.0000    731.0936      3.8603     85.3410
   739.5000      0.0000    730.3546      3.8345     89.0494
   739.7500      0.0000    729.4031      3.7785     91.0416
   740.0000      0.0000    727.7278      3.7129     91.5089
   740.2500      0.0000    724.5186      3.6636     91.2428
   740.5000      0.0000    719.0144      3.6434     90.4395
   740.7500      0.0000    711.2296      3.6407     88.7341
   741.0000      0.0000    702.5405      3.6346     86.2343
   741.2500      0.0000    695.4054      3.6207     83.7556
   741.5000      0.0000    692.0950      3.6142     81.8671
   741.7500      0.0000    692.9675      3.6215     80.1551
   742.0000      0.0000    695.6133      3.6206     77.6459
   742.2500      0.0000    696.4748      3.5884     73.8046
   742.5000      0.0000    694.3258      3.5388     69.0614
   742.7500      0.0000    691.8938      3.5142     64.4523
   743.0000      0.0000    693.2805      3.5403     60.8446
   743.2500      2.0000    699.9745      3.5995     58.5883
   743.5000      2.0000    709.8114      3.6462     57.7326
   743.7500      0.0000    719.3481      3.6457     58.2212
   744.0000      0.0000    726.4774      3.6057     59.7659
   744.2500      0.0000    730.6866      3.5773     61.7555
   744.5000      0.0000    731.4880      3.6134     63.5928
   744.7500      0.0000    727.6760      3.7188     65.1053
   745.0000      0.0000    718.8234      3.8487     66.3764
   745.2500      0.0000    706.9411      3.9559     67.3450
   745.5000      0.0000    695.6509      4.0266     68.0009
   745.7500      0.0000    687.6260      4.0722     68.7431
   746.0000      0.0000    683.2413      4.1090     70.0075
   746.2500      0.0000    681.3379      4.1436     71.6841
   746.5000      0.0000    680.5953      4.1646     73.2359
   746.7500      0.0000    680.1994      4.1503     74.1950
   747.0000      0.0000    679.8242      4.0944     74.2501
   747.2500      0.0000    679.4266      4.0208     73.0048
   747.5000      0.0000    679.0771      3.9688     70.0535
   747.7500      0.0000    678.8492      3.9594     65.5620
   748.0000      0.0000    678.7515      3.9796     60.6849
   748.2500      0.0000    678.7184      4.0040     57.1624
   748.5000      0.0000    678.6596      4.0243     56.2316
   748.7500      0.0000    678.5250      4.0475     57.7577
   749.0000      0.0000    678.3350      4.0732     60.4261
   749.2500      0.0000    678.1563      4.0938     62.9236
   749.5000      0.0000    678.0554      4.1128     65.0064
   749.7500      0.0000    678.0691      4.1427     67.3921
   750.0000      0.0000    678.1960      4.1882     70.6472
   750.2500      0.0000    678.3931      4.2390     74.3582
   750.5000      0.0000    678.5747      4.2791     77.4891
   750.7500      0.0000    678.6306      4.2957     79.3682
   751.0000      0.0000    678.4671      4.2838     80.0930
   751.2500      0.0000    678.0578      4.2495     80.0873
   751.5000      0.0000    677.4677      4.2072     79.6684
   751.7500      0.0000    676.8235      4.1720     79.1117
   752.0000      0.0000    676.3028      4.1509     78.7039
   752.2500      0.0000    676.2451      4.1392     78.5096
   752.5000      0.0000    677.3837      4.1233     78.2803
   752.7500      0.0000    680.8638      4.0953     77.6686
   753.0000      0.0000    687.5350      4.0624     76.4829
   753.2500      0.0000    696.5662      4.0397     74.8531
   753.5000      0.0000    704.7299      4.0358     73.1723
   753.7500      0.0000    707.9292      4.0537     71.7656
   754.0000      0.0000    704.2770      4.0969     70.6948
   754.2500      0.0000    695.7128      4.1617     70.0270
   754.5000      0.0000    686.3328      4.2309     70.0589
   754.7500      0.0000    679.2147      4.2855     70.9206
   755.0000      0.0000    674.7928      4.3209     72.0779
   755.2500      0.0000    671.6594      4.3402     72.5888
   755.5000      0.0000    668.3338      4.3376     71.9305
   755.7500      0.0000    664.3831      4.2987     70.4596
   756.0000      0.0000    660.3690      4.2167     69.1107
   756.2500      0.0000    657.0962      4.1040     68.8013
   756.5000      0.0000    655.0117      3.9886     70.0876
   756.7500      0.0000    654.1343      3.9048     73.0664
   757.0000      0.0000    654.2870      3.8801     77.2457
   757.2500      0.0000    655.1227      3.9175     81.4521
   757.5000      0.0000    655.3392      3.9886     84.1978
   757.7500      0.0000    651.7099      4.0508     84.5930
   758.0000      0.0000    640.2029      4.0775     83.0947
   758.2500      0.0000    619.6529      4.0690     81.2505
   758.5000      0.0000    594.4127      4.0372     80.5326
   758.7500      0.0000    572.4346      3.9938     81.3522
   759.0000      0.0000    560.7668      3.9542     83.1238
   759.2500      0.0000    562.7630      3.9329     84.9604
   759.5000      0.0000    577.7093      3.9272     86.0596
   759.7500      0.0000    601.0121      3.9126     85.6276
   760.0000      0.0000    625.7067      3.8695     82.9550
   760.2500      0.0000    646.4454      3.8111     77.9270
   760.5000      0.0000    662.8311      3.7737     71.5180
   760.7500      0.0000    678.0716      3.7783     65.6331
   761.0000      0.0000    694.3392      3.8063     62.1585
   761.2500      0.0000    710.2277      3.8217     61.7797
   761.5000      0.0000    722.6904      3.8146     63.4210
   761.7500      0.0000    730.2999      3.8117     64.9539
   762.0000      0.0000    733.9830      3.8396     64.8679
   762.2500      0.0000    735.4619      3.8896     63.3856
   762.5000      0.0000    735.7017      3.9254     61.8749
   762.7500      0.0000    734.1470      3.9237     61.3445
   763.0000      0.0000    728.4279      3.8950     61.6816
