~Version Information
VERS.                      2.0: CWLS Log ASCII Standard - VERSION 2.0
WRAP.                       NO: One line per depth step
~Well Information Block
STRT.FT                -8.0000: 
STOP.FT              1357.5000: 
STEP.FT                 0.2500: 
NULL.                -999.2500: 
COMP.          Pioneer Natural Resources: COMPANY
WELL.          Lorencito 6-3-34-66: WELL
FLD.           Purgatorie River: FIELD
LOC.           2545' FNL & 1914' FWL: LOCATION
STAT.                       CO: State
CNTY.               Las Animas: COUNTY
CTRY. USA : Country
SECT. 3 : Section
TOWN. 34S : Township
RANG. 66W : Range
SRVC.          Patterson Wireline: SERVICE COMPANY
DATE.          Tue Sep 27 11:36:13 2005: LOG DATE
API.           05 071 08369 00: UNIQUE WELL ID
~Curve Information Block
DEPT.FT            0 000 00 00: Depth
CCL.                          : Casing Collar Locator
TT3.usec                      : CBL 3' Travel Time
AMP3.mV                       : CBL 3' Amplitude
GR.GAPI                       : Gamma Ray
~Parameter Information Block
~A  Depth       CCL         TT3         AMP3         GR     
# ...
  1164.5000      0.0000    649.3940      4.8182     93.1002
  1164.7500      0.0000    652.4482      4.8215     91.2795
  1165.0000      0.0000    652.8842      4.8321     86.5282
  1165.2500      0.0000    650.1230      4.8625     80.7106
  1165.5000      0.0000    639.9720      4.8697     75.5608
  1165.7500      0.0000    615.5230      4.8362     71.8355
  1166.0000      0.0000    573.5082      4.8292     69.2706
  1166.2500      0.0000    520.8495      4.9430     67.0387
  1166.5000      0.0000    472.9328      5.1950     64.3756
  1166.7500      0.0000    443.5870      5.5057     61.3559
  1167.0000      0.0000    435.6436      5.7719     59.2080
  1167.2500      0.0000    439.6286      5.9408     59.3299
  1167.5000      0.0000    441.3469      6.0206     61.7869
  1167.7500      0.0000    432.6574      6.0455     65.1415
  1168.0000      0.0000    416.1613      6.0419     67.7274
  1168.2500      0.0000    399.9111      6.0183     68.7348
  1168.5000      0.0000    389.2963      5.9742     68.2429
  1168.7500      0.0000    384.4978      5.9097     66.7834
  1169.0000      0.0000    383.1646      5.8297     65.0098
  1169.2500      0.0000    383.2137      5.7431     63.4539
  1169.5000      0.0000    383.5594      5.6610     62.3484
  1169.7500      0.0000    383.6793      5.5937     61.6590
  1170.0000      0.0000    383.1260      5.5472     61.2861
  1170.2500      0.0000    381.2971      5.5208     61.2390
  1170.5000      0.0000    377.6523      5.5065     61.7143
  1170.7500      0.0000    372.2496      5.4927     63.1002
  1171.0000      0.0000    366.0929      5.4714     65.8278
  1171.2500      0.0000    360.6841      5.4439     69.9945
  1171.5000      0.0000    357.0646      5.4188     74.9725
  1171.7500      0.0000    355.3068      5.4031     79.4539
  1172.0000      0.0000    354.8219      5.3966     82.0233
  1172.2500      0.0000    354.9434      5.3929     81.8127
  1172.5000      0.0000    355.2309      5.3835     78.8808
  1172.7500      0.0000    355.4655      5.3614     74.3132
  1173.0000      0.0000    355.5493      5.3230     69.9108
  1173.2500      0.0000    355.4411      5.2719     67.2197
  1173.5000      0.0000    355.1509      5.2176     66.4168
  1173.7500      0.0000    354.7496      5.1693     66.3293
  1174.0000      0.0000    354.3444      5.1306     65.8087
  1174.2500      0.0000    354.0339      5.1007     64.8439
  1174.5000      0.0000    353.9025      5.0783     64.1543
  1174.7500      0.0000    354.1060      5.0641     64.0921
  1175.0000      0.0000    355.0341      5.0601     64.3159
  1175.2500      0.0000    357.3750      5.0672     64.3840
  1175.5000      0.0000    361.7922      5.0844     64.3447
  1175.7500      0.0000    368.2366      5.1087     64.6369
  1176.0000      0.0000    375.5558      5.1373     65.5924
  1176.2500      0.0000    382.0503      5.1697     67.3118
  1176.5000      0.0000    386.5718      5.2070     69.8437
  1176.7500      0.0000    389.0658      5.2497     72.9378
  1177.0000      0.0000    390.1986      5.2963     75.5233
  1177.2500      0.0000    390.8297      5.3428     76.0205
  1177.5000      0.0000    391.9428      5.3836     73.7198
  1177.7500      0.0000    394.8918      5.4125     69.7773
  1178.0000      0.0000    401.0627      5.4248     66.4717
  1178.2500      0.0000    410.2808      5.4187     65.4620
  1178.5000      0.0000    419.2122      5.3947     66.9081
  1178.7500      0.0000    422.6674      5.3535     69.9152
  1179.0000      0.0000    417.9779      5.2961     73.1882
  1179.2500      0.0000    407.6176      5.2262     75.3138
  1179.5000      0.0000    396.7189      5.1510     75.3017
  1179.7500      0.0000    388.9352      5.0791     73.4846
  1180.0000      0.0000    385.3337      5.0176     71.6350
  1180.2500      0.0000    385.7196      4.9700     71.8074
  1180.5000      0.0000    389.4739      4.9356     74.9448
  1180.7500      0.0000    395.4485      4.9094     80.3726
  1181.0000      0.0000    401.9895      4.8848     86.1746
  1181.2500      0.0000    407.3064      4.8583     90.0340
  1181.5000      0.0000    409.9984      4.8298     90.2708
  1181.7500      0.0000    409.7708      4.8011     86.6400
  1182.0000      0.0000    407.8486      4.7741     80.3318
  1182.2500      0.0000    406.7790      4.7507     73.1942
  1182.5000      0.0000    410.3814      4.7326     66.7257
  1182.7500      0.0000    423.8662      4.7221     61.4904
  1183.0000      0.0000    452.0811      4.7214     57.3711
  1183.2500      0.0000    494.8918      4.7303     54.3164
  1183.5000      0.0000    543.8832      4.7417     52.5905
  1183.7500      0.0000    585.8240      4.7452     52.2295
  1184.0000      0.0000    611.2337      4.7359     52.5239
  1184.2500      0.0000    619.8479      4.7225     52.1622
  1184.5000      0.0000    618.3101      4.7248     49.9400
  1184.7500      0.0000    613.2578      4.7620     45.7535
  1185.0000      0.0000    606.1710      4.8395     41.1049
  1185.2500      0.0000    594.3849      4.9428     38.1671
  1185.5000      0.0000    576.8915      5.0437     37.9693
  1185.7500      0.0000    558.2655      5.1133     39.7390
  1186.0000      0.0000    546.1976      5.1332     42.1565
  1186.2500      0.0000    545.6652      5.0994     44.7327
  1186.5000      0.0000    555.6610      5.0210     47.5405
  1186.7500      0.0000    570.2327      4.9183     50.0722
  1187.0000      0.0000    581.3677      4.8176     51.1038
  1187.2500      0.0000    581.2800      4.7434     49.8334
  1187.5000      0.0000    564.6815      4.7092     46.8499
  1187.7500      0.0000    531.7393      4.7141     43.7592
  1188.0000      0.0000    489.2668      4.7448     41.9338
  1188.2500      0.0000    447.6479      4.7808     41.7445
  1188.5000      0.0000    415.3871      4.8007     42.7623
  1188.7500      0.0000    395.5564      4.7899     44.2568
  1189.0000      0.0000    386.3354      4.7448     45.4870
  1189.2500      0.0000    384.3659      4.6726     45.9986
  1189.5000      0.0000    387.9218      4.5903     45.9193
  1189.7500      0.0000    397.7844      4.5198     45.8278
  1190.0000      0.0000    414.9329      4.4777     46.2448
  1190.2500      0.0000    436.2836      4.4673     47.2361
  1190.5000      0.0000    453.0233      4.4799     48.3801
  1190.7500      0.0000    455.9153      4.5038     49.1045
  1191.0000      0.0000    444.0794      4.5307     49.1524
  1191.2500      0.0000    427.5476      4.5577     48.7507
  1191.5000      0.0000    420.7353      4.5840     48.3170
  1191.7500      0.0000    433.9604      4.6072     48.1302
  1192.0000      0.0000    468.9928      4.6226     48.3176
  1192.2500      0.0000    518.6735      4.6270     49.0324
  1192.5000      0.0000    570.4088      4.6228     50.5742
  1192.7500      0.0000    612.8887      4.6174     53.4144
  1193.0000      0.0000    641.2093      4.6190     58.2204
  1193.2500      0.0000    656.3600      4.6296     65.7051
  1193.5000      0.0000    661.8088      4.6411     75.8550
  1193.7500      0.0000    661.5935      4.6394     87.0013
  1194.0000      0.0000    659.3826      4.6142     96.1225
  1194.2500      0.0000    656.8610      4.5661    100.7177
  1194.5000      0.0000    652.8560      4.5039    100.6895
  1194.7500      0.0000    644.9208      4.4371     98.3704
  1195.0000      0.0000    632.2449      4.3715     96.4650
  1195.2500      0.0000    616.8068      4.3105     95.8101
  1195.5000      0.0000    600.7122      4.2573     95.2158
  1195.7500      0.0000    582.4019      4.2155     93.3709
  1196.0000      0.0000    557.6861      4.1886     90.4536
  1196.2500      0.0000    525.6208      4.1778     87.7818
  1196.5000      0.0000    491.4354      4.1820     86.2758
  1196.7500      0.0000    462.5160      4.1984     85.6706
  1197.0000      0.0000    442.9055      4.2241     85.2551
  1197.2500      0.0000    432.0287      4.2564     85.0881
  1197.5000      0.0000    426.9557      4.2918     86.1018
  1197.7500      0.0000    424.8137      4.3247     88.8984
