~Version Information
VERS.                      2.0: CWLS Log ASCII Standard - VERSION 2.0
WRAP.                       NO: One line per depth step
~Well Information Block
STRT.FT               964.2000: 
STOP.FT              2596.7000: 
STEP.FT                 0.1000: 
NULL.                -999.2500: 
COMP.          Petrogulf Corporation: COMPANY
WELL.             Valejo 8-12V: WELL
FLD.           Purgatorie River: FIELD
LOC.           1510' FNL & 1460' FWL: LOCATION
CNTY.               Las Animas: COUNTY
SRVC.                         : SERVICE COMPANY
DATE.          Sat Nov 15 12:30:37 2003: LOG DATE
UWI.                          : UNIQUE WELL ID
STAT.                 Colorado: STATE
~Curve Information Block
DEPT.FT            0 000 00 00: Depth
DCAL.in                       : CDL Caliper
RHOB.g/cc                     : CDL Bulk Density
RHOC.g/cc                     : CDL Density Correction
DPOR.pu                       : CDL Density Porosity
GR.GAPI                       : Gamma Ray
NPOR.pu                       : Neutron Porosity
~Parameter Information Block
~A  Depth       DCAL        RHOB        RHOC        DPOR         GR         NPOR    
# ...
  2586.6000      7.8678      2.4941      0.0266      9.4473   -999.2500     17.5168
  2586.7000      7.8678      2.5041      0.1008      8.8404   -999.2500     17.3859
  2586.8000      7.8526      2.5081      0.0953      8.5994   -999.2500     17.6219
  2586.9000      7.8526      2.5014      0.1070      9.0069   -999.2500     18.0293
  2587.0000      7.8371      2.4888      0.0535      9.7677   -999.2500     18.4560
  2587.1000      7.8371      2.4777      0.0793     10.4452   -999.2500     18.5973
  2587.2000      7.8371      2.4688      0.0515     10.9798   -999.2500     18.3299
  2587.3000      7.8218      2.4652      0.0665     11.2026   -999.2500     18.0308
  2587.4000      7.8218      2.4665      0.0852     11.1232   -999.2500     17.8384
  2587.5000      7.8066      2.4650      0.0529     11.2104   -999.2500     17.6207
  2587.6000      7.8066      2.4616      0.0400     11.4208   -999.2500     17.6510
  2587.7000      7.8066      2.4592      0.0628     11.5658   -999.2500     19.7789
  2587.8000      7.7926      2.4561      0.0643     11.7514   -999.2500     27.5332
  2587.9000      7.7926      2.4560      0.0352     11.7603   -999.2500     39.8969
  2588.0000      7.7824      2.4582      0.0600     11.6255   -999.2500     48.8043
  2588.1000      7.7824      2.4531      0.0460     11.9348   -999.2500     51.9903
  2588.2000      7.7824      2.4431      0.0146     12.5387   -999.2500     52.6116
  2588.3000      7.7776      2.4414      0.0333     12.6429   -999.2500     52.6773
  2588.4000      7.7776      2.4512      0.0426     12.0464   -999.2500     52.6810
  2588.5000      7.7772      2.4612      0.0789     11.4450   -999.2500   -999.2500
  2588.6000      7.7772      2.4614      0.0599     11.4291   -999.2500   -999.2500
  2588.7000      7.7772      2.4600      0.0592     11.5138   -999.2500   -999.2500
  2588.8000      7.7788      2.4628      0.0685     11.3455   -999.2500   -999.2500
  2588.9000      7.7788      2.4654      0.0536     11.1854   -999.2500   -999.2500
  2589.0000      7.7803      2.4735      0.0388     10.6969   -999.2500   -999.2500
  2589.1000      7.7803      2.4943      0.0775      9.4378   -999.2500   -999.2500
  2589.2000      7.7803      2.5143      0.0912      8.2254   -999.2500   -999.2500
  2589.3000      7.7807      2.5114      0.1103      8.4002   -999.2500   -999.2500
  2589.4000      7.7807      2.4885      0.0387      9.7856   -999.2500   -999.2500
  2589.5000      7.7799      2.4726      0.0377     10.7491   -999.2500   -999.2500
  2589.6000      7.7799      2.4787      0.0134     10.3813   -999.2500   -999.2500
  2589.7000      7.7799      2.4944      0.0725      9.4289   -999.2500   -999.2500
  2589.8000      7.7779      2.4954      0.0488      9.3703   -999.2500   -999.2500
  2589.9000      7.7779      2.4790      0.0336     10.3648   -999.2500   -999.2500
  2590.0000      7.7752      2.4650      0.0142     11.2135   -999.2500   -999.2500
  2590.1000      7.7752      2.4650      0.0242     11.2094   -999.2500   -999.2500
  2590.2000      7.7752      2.4707      0.0529     10.8674   -999.2500   -999.2500
  2590.3000      7.7723      2.4679      0.0480     11.0343   -999.2500   -999.2500
  2590.4000      7.7723      2.4614      0.0307     11.4299   -999.2500   -999.2500
  2590.5000      7.7698      2.4665      0.0242     11.1232   -999.2500   -999.2500
  2590.6000      7.7698      2.4767      0.0881     10.5049   -999.2500   -999.2500
  2590.7000      7.7698      2.4719      0.0639     10.7937   -999.2500   -999.2500
  2590.8000      7.7680      2.4510      0.0327     12.0635   -999.2500   -999.2500
  2590.9000      7.7680      2.4302      0.0177     13.3222   -999.2500   -999.2500
  2591.0000      7.7667      2.4218      0.0085     13.8318   -999.2500   -999.2500
  2591.1000      7.7667      2.4269      0.0073     13.5227   -999.2500   -999.2500
  2591.2000      7.7667      2.4424      0.0255     12.5806   -999.2500   -999.2500
  2591.3000      7.7650      2.4612      0.0575     11.4439   -999.2500   -999.2500
  2591.4000      7.7650      2.4732      0.0593     10.7178   -999.2500   -999.2500
  2591.5000      7.7602      2.4755      0.0429     10.5754   -999.2500   -999.2500
  2591.6000      7.7602      2.4693      0.0470     10.9541   -999.2500   -999.2500
  2591.7000      7.7602      2.4579      0.0362     11.6426   -999.2500   -999.2500
  2591.8000      7.7484      2.4484      0.0322     12.2165   -999.2500   -999.2500
  2591.9000      7.7484      2.4419      0.0309     12.6142   -999.2500   -999.2500
  2592.0000      7.7255      2.4419      0.0120     12.6122   -999.2500   -999.2500
  2592.1000      7.7255      2.4496      0.0640     12.1471   -999.2500   -999.2500
  2592.2000      7.7255      2.4529      0.0227     11.9482   -999.2500   -999.2500
  2592.3000      7.6905      2.4510      0.0120     12.0622   -999.2500   -999.2500
  2592.4000      7.6905      2.4537      0.0369     11.8942   -999.2500   -999.2500
  2592.5000      7.6456      2.4596      0.0457     11.5383   -999.2500   -999.2500
  2592.6000      7.6456      2.4630      0.0493     11.3347   -999.2500   -999.2500
  2592.7000      7.6456      2.4652      0.0348     11.1991   -999.2500   -999.2500
  2592.8000      7.5933      2.4691      0.0596     10.9615   -999.2500   -999.2500
  2592.9000      7.5933      2.4777      0.0349     10.4426   -999.2500   -999.2500
  2593.0000      7.5227      2.4937      0.0738      9.4705   -999.2500   -999.2500
  2593.1000      7.5227      2.5112      0.0800      8.4142   -999.2500   -999.2500
  2593.2000      7.5227      2.5162      0.0966      8.1081   -999.2500   -999.2500
  2593.3000      7.3819      2.5039      0.0405      8.8576   -999.2500   -999.2500
  2593.4000      7.3819      2.4827      0.0771     10.1422   -999.2500   -999.2500
  2593.5000      7.0374      2.4638      0.0222     11.2830   -999.2500   -999.2500
  2593.6000      7.0374      2.4588      0.0428     11.5902   -999.2500   -999.2500
  2593.7000      7.0374      2.4716      0.0112     10.8110   -999.2500   -999.2500
  2593.8000      6.2659      2.5127      0.0359      8.3206   -999.2500   -999.2500
  2593.9000      6.2659      2.6049      0.0480      2.7304   -999.2500   -999.2500
  2594.0000      4.8568      2.6276      0.0673      1.3601   -999.2500   -999.2500
  2594.1000      4.8568      2.1864      0.5891     28.0986   -999.2500   -999.2500
  2594.2000      4.8568      1.2363      0.0000     85.6804   -999.2500   -999.2500
  2594.3000      2.8244      0.4182      0.0000    135.2626   -999.2500   -999.2500
  2594.4000      2.8244      0.0793   -999.2500    155.8001   -999.2500   -999.2500
  2594.5000      0.5301      0.0082   -999.2500    160.1110   -999.2500   -999.2500
  2594.6000      0.5301      0.0004   -999.2500    160.5792   -999.2500   -999.2500
  2594.7000      0.5301      0.0000   -999.2500    160.6061   -999.2500   -999.2500
  2594.8000     -1.4910      0.0000   -999.2500    160.6061   -999.2500   -999.2500
  2594.9000     -1.4910   -999.2500   -999.2500   -999.2500   -999.2500   -999.2500
  2595.0000     -2.8788   -999.2500   -999.2500   -999.2500   -999.2500   -999.2500
  2595.1000     -2.8788   -999.2500   -999.2500   -999.2500   -999.2500   -999.2500
  2595.2000     -2.8788   -999.2500   -999.2500   -999.2500   -999.2500   -999.2500
  2595.3000     -3.6213   -999.2500   -999.2500   -999.2500   -999.2500   -999.2500
  2595.4000     -3.6213   -999.2500   -999.2500   -999.2500   -999.2500   -999.2500
  2595.5000     -3.9307   -999.2500   -999.2500   -999.2500   -999.2500   -999.2500
  2595.6000     -3.9307   -999.2500   -999.2500   -999.2500   -999.2500   -999.2500
  2595.7000     -3.9307   -999.2500   -999.2500   -999.2500   -999.2500   -999.2500
  2595.8000     -4.0312   -999.2500   -999.2500   -999.2500   -999.2500   -999.2500
  2595.9000     -4.0312   -999.2500   -999.2500   -999.2500   -999.2500   -999.2500
  2596.0000     -4.0566   -999.2500   -999.2500   -999.2500   -999.2500   -999.2500
  2596.1000     -4.0566   -999.2500   -999.2500   -999.2500   -999.2500   -999.2500
