~Version Information
VERS.                      2.0: CWLS Log ASCII Standard - VERSION 2.0
WRAP.                       NO: One line per depth step
~Well Information Block
STRT.FT                 0.5000: 
STOP.FT              2891.5000: 
STEP.FT                 0.2500: 
NULL.                -999.2500: 
COMP.          Petrogulf Corporation: COMPANY
WELL.            Montoya 1-41V: WELL
FLD.           Purgatoire River: FIELD
LOC.           610' FNL & 1205' FEL--: LOCATION
PROV.                 Colorado: PROVINCE
CNTY.               Las Animas: COUNTRY
SRVC.                Patterson: SERVICE COMPANY
DATE.          Mon Sep 12 11:42:30 2005: LOG DATE
UWI.           05 071 08144 00: UNIQUE WELL ID
~Curve Information Block
DEPT.FT            0 000 00 00: Depth
CCL.                          : Casing Collar Locator
TT3.usec                      : CBL 3' Travel Time
AMP3.mV                       : CBL 3' Amplitude
GR.GAPI                       : Gamma Ray
~Parameter Information Block
~A  Depth       CCL         TT3         AMP3         GR     
# ...
  1139.5000      0.0000    661.8666      4.1016    114.8032
  1139.7500      0.0000    668.8394      4.0129    119.5166
  1140.0000      0.0000    680.7012      4.0497    123.5062
  1140.2500      0.0000    697.0574      4.1965    125.0828
  1140.5000      0.0000    714.7732      4.4077    123.6191
  1140.7500      0.0000    729.5584      4.6344    120.3926
  1141.0000      0.0000    738.9174      4.8454    117.4688
  1141.2500      0.0000    742.7646      5.0213    116.1645
  1141.5000      0.0000    741.8928      5.1406    116.7797
  1141.7500      0.0000    736.9142      5.1823    119.1981
  1142.0000      0.0000    728.8124      5.1441    122.9602
  1142.2500      0.0000    719.7483      5.0549    126.8650
  1142.5000      0.0000    712.5982      4.9623    129.3432
  1142.7500      0.0000    709.4852      4.9062    129.5421
  1143.0000      0.0000    710.7573      4.9036    127.8892
  1143.2500      0.0000    715.1980      4.9519    125.5224
  1143.5000      0.0000    720.9918      5.0354    123.2256
  1143.7500      0.0000    726.4267      5.1283    121.0197
  1144.0000      0.0000    729.8765      5.2038    118.8260
  1144.2500      0.0000    729.8037      5.2463    117.2796
  1144.5000      0.0000    725.5984      5.2563    117.3796
  1144.7500      0.0000    718.3903      5.2438    119.2862
  1145.0000      0.0000    710.4677      5.2166    121.9629
  1145.2500      0.0000    703.8599      5.1734    124.1678
  1145.5000      0.0000    699.7205      5.1101    125.3579
  1145.7500      0.0000    698.6260      5.0351    125.4150
  1146.0000      0.0000    700.6548      4.9752    124.0812
  1146.2500      0.0000    705.0516      4.9616    121.3569
  1146.5000      0.0000    710.3442      5.0075    118.2253
  1146.7500      0.0000    715.2272      5.1026    116.2447
  1147.0000      0.0000    719.3514      5.2245    116.4084
  1147.2500      0.0000    722.9705      5.3547    118.8340
  1147.5000      0.0000    725.8820      5.4801    123.3818
  1147.7500      0.0000    727.1492      5.5835    129.9263
  1148.0000      0.0000    725.8036      5.6363    137.7988
  1148.2500      0.0000    721.5978      5.6126    145.3805
  1148.5000      0.0000    715.6619      5.5133    150.6950
  1148.7500      0.0000    710.7286      5.3745    152.4582
  1149.0000      0.0000    709.6700      5.2452    150.6301
  1149.2500      0.0000    713.0298      5.1549    146.3295
  1149.5000      0.0000    718.3896      5.1011    141.2673
  1149.7500      0.0000    722.4179      5.0655    136.9887
  1150.0000      0.0000    723.3490      5.0353    134.4866
  1150.2500      0.0000    721.7015      5.0106    134.3093
  1150.5000      0.0000    719.0718      4.9981    136.5123
  1150.7500      0.0000    716.7508      5.0000    140.2755
  1151.0000      0.0000    715.7064      5.0052    144.0109
  1151.2500      0.0000    716.9919      4.9950    146.2143
  1151.5000      0.0000    720.8319      4.9637    146.1093
  1151.7500      0.0000    725.3410      4.9318    143.7339
  1152.0000      0.0000    727.3010      4.9321    140.0764
  1152.2500      0.0000    724.8048      4.9828    137.1038
  1152.5000      0.0000    718.8353      5.0796    136.8277
  1152.7500      0.0000    712.1371      5.2103    139.6898
  1153.0000      0.0000    706.8811      5.3719    143.8284
  1153.2500      0.0000    703.5840      5.5715    146.3862
  1153.5000      0.0000    701.6935      5.8136    145.7846
  1153.7500      0.0000    700.3757      6.0889    142.6548
  1154.0000      0.0000    698.5659      6.3761    138.9212
  1154.2500      0.0000    695.0890      6.6556    136.5256
  1154.5000      0.0000    689.5984      6.9229    136.6136
  1154.7500      0.0000    683.2390      7.1892    138.8990
  1155.0000      0.0000    677.8094      7.4721    141.5485
  1155.2500      0.0000    674.4111      7.7828    142.2717
  1155.5000      0.0000    673.2012      8.1169    140.0966
  1155.7500      0.0000    674.0143      8.4486    136.1068
  1156.0000      0.0000    676.6524      8.7394    132.1351
  1156.2500      0.0000    680.6925      8.9604    128.7441
  1156.5000      0.0000    685.5551      9.1094    124.9159
  1156.7500      0.0000    691.0355      9.2090    119.7797
  1157.0000      0.0000    697.5582      9.2889    113.9750
  1157.2500      0.0000    705.6661      9.3657    109.0035
  1157.5000      0.0000    715.1649      9.4313    105.7213
  1157.7500      0.0000    724.7955      9.4587    103.6993
  1158.0000      0.0000    732.8661      9.4199    101.6022
  1158.2500      0.0000    738.3347      9.3033     98.0920
  1158.5000      0.0000    741.2793      9.1155     93.0144
  1158.7500      0.0000    742.4162      8.8718     88.1170
  1159.0000      0.0000    742.3543      8.5875     86.2402
  1159.2500      0.0000    741.3113      8.2741     89.2119
  1159.5000      0.0000    739.4281      7.9404     96.3611
  1159.7500      0.0000    737.2092      7.6004    105.1339
  1160.0000      0.0000    735.4774      7.2815    113.1757
  1160.2500      0.0000    734.8500      7.0204    119.8196
  1160.5000      0.0000    735.5008      6.8487    125.6493
  1160.7500      0.0000    737.3584      6.7809    130.8128
  1161.0000      0.0000    740.0255      6.8127    134.0634
  1161.2500      0.0000    742.4315      6.9234    133.7886
  1161.5000      0.0000    743.0332      7.0810    130.0085
  1161.7500      0.0000    740.4924      7.2520    124.8329
  1162.0000      0.0000    734.0544      7.4084    120.4576
  1162.2500      0.0000    723.6401      7.5273    117.0075
  1162.5000      0.0000    710.2231      7.5874    112.9170
  1162.7500      0.0000    696.4676      7.5713    107.2091
  1163.0000      0.0000    686.6763      7.4729    100.7414
  1163.2500      0.0000    685.1477      7.3014     95.1901
  1163.5000      0.0000    693.4259      7.0736     91.2501
  1163.7500      0.0000    708.6528      6.8031     88.1826
  1164.0000      0.0000    725.1800      6.4939     85.2191
  1164.2500      0.0000    738.5151      6.1455     83.1055
  1164.5000      0.0000    748.0834      5.7686     83.7571
  1164.7500      0.0000    757.2305      5.3978     88.4057
  1165.0000      0.0000    770.7589      5.0867     96.4001
  1165.2500      0.0000    789.6931      4.8817    105.6825
  1165.5000      0.0000    806.2191      4.7999    114.1820
  1165.7500      0.0000    806.7351      4.8383    120.9832
  1166.0000      0.0000    784.1431      5.0051    126.4902
  1166.2500      0.0000    746.2381      5.3402    131.4413
  1166.5000      0.0000    709.6237      5.8878    135.6561
  1166.7500      0.0000    687.2604      6.6297    137.8851
  1167.0000      0.0000    683.2505      7.4391    137.1132
  1167.2500      0.0000    695.3063      8.1275    133.9343
  1167.5000      0.0000    717.3640      8.5685    130.3052
  1167.7500      0.0000    740.8069      8.7734    127.9082
  1168.0000      0.0000    758.0798      8.8375    126.8884
  1168.2500      0.0000    767.7285      8.8354    126.0216
  1168.5000      2.0000    774.4154      8.7837    123.9370
  1168.7500      0.0000    782.1605      8.6727    120.2462
  1169.0000      0.0000    788.5048      8.5046    115.6062
  1169.2500      0.0000    787.2040      8.3037    111.0303
  1169.5000      0.0000    775.9117      8.0994    107.4373
  1169.7500      0.0000    759.4506      7.8935    105.5848
  1170.0000      0.0000    745.8496      7.6621    106.0362
  1170.2500      0.0000    740.2376      7.4136    109.1254
  1170.5000      0.0000    741.7424      7.2164    114.5863
  1170.7500      0.0000    744.9404      7.1359    120.7408
  1171.0000      0.0000    744.4285      7.1678    124.5228
  1171.2500      0.0000    738.5336      7.2551    123.3636
  1171.5000      0.0000    729.1597      7.3469    117.3595
  1171.7500      0.0000    719.3097      7.4210    109.2364
  1172.0000      0.0000    711.2236      7.4705    102.2673
  1172.2500      0.0000    705.6903      7.4954     98.5510
  1172.5000      0.0000    702.0598      7.5054     98.6850
  1172.7500      0.0000    698.8670      7.5156    101.8339
