~Version Information
VERS.                      2.0: CWLS Log ASCII Standard - VERSION 2.0
WRAP.                       NO: One line per depth step
~Well Information Block
STRT.FT                -3.5000: 
STOP.FT              1841.0000: 
STEP.FT                 0.2500: 
NULL.                -999.2500: 
COMP.          Pioneer Natural Resources: COMPANY
WELL.          Corkscrew 33-12 Tr: WELL
FLD.           Purgatorie River: FIELD
LOC.           1870' FSL  & 1706' FEL--------: LOCATION
PROV.                       CO: PROVINCE
CNTY.               Las Animas: COUNTRY
SRVC.          Patterson Wireline: SERVICE COMPANY
DATE.          Mon Apr 04 10:07:45 2005: LOG DATE
UWI.           05 071 08295 00: UNIQUE WELL ID
~Curve Information Block
DEPT.FT            0 000 00 00: Depth
CCL.                          : Casing Collar Locator
TT3.usec                      : CBL 3' Travel Time
AMP3.mV                       : CBL 3' Amplitude
GR.GAPI                       : Gamma Ray
~Parameter Information Block
~A  Depth       CCL         TT3         AMP3         GR     
# ...
   365.0000      0.0000    735.9689      5.6314    109.2936
   365.2500      0.0000    736.0902      5.4312    102.4122
   365.5000      0.0000    739.6436      5.3006     96.9179
   365.7500      0.0000    746.7887      5.3291     94.1279
   366.0000      0.0000    757.0733      5.4835     93.5637
   366.2500      0.0000    770.5754      5.6484     93.9381
   366.5000      0.0000    787.0768      5.7482     94.2741
   366.7500      0.0000    803.7358      5.8075     94.0904
   367.0000      0.0000    815.7448      5.8830     93.0692
   367.2500      0.0000    821.0825      5.9743     91.0560
   367.5000      0.0000    823.4034      6.0412     88.4443
   367.7500      2.0000    829.1030      6.0901     86.1913
   368.0000      2.0000    841.5491      6.1857     85.1787
   368.2500      0.0000    857.3188      6.3716     85.7642
   368.5000      0.0000    868.1885      6.6224     88.0744
   368.7500      0.0000    868.2367      6.8806     92.1804
   369.0000      0.0000    858.6015      7.0972     97.5849
   369.2500      0.0000    844.9508      7.2225    103.0481
   369.5000      0.0000    832.8199      7.2121    107.5139
   369.7500      0.0000    826.5117      7.0799    110.7887
   370.0000      0.0000    829.5918      6.9101    112.8213
   370.2500      0.0000    843.7529      6.7834    113.0421
   370.5000      0.0000    867.0083      6.6982    111.2696
   370.7500      0.0000    893.2068      6.5869    108.7035
   371.0000      0.0000    913.4501      6.4083    106.9953
   371.2500      0.0000    919.0813      6.2083    106.4895
   371.5000      0.0000    905.4789      6.0841    106.0430
   371.7500      0.0000    874.9092      6.0904    104.4192
   372.0000      0.0000    835.9108      6.1752    101.4729
   372.2500      0.0000    798.8945      6.2081     98.2249
   372.5000      0.0000    771.0392      6.0851     95.9963
   372.7500      0.0000    754.0502      5.8234     95.0960
   373.0000      0.0000    745.5729      5.5561     94.1719
   373.2500      0.0000    742.0972      5.4304     91.2948
   373.5000      0.0000    740.9658      5.5028     85.9811
   373.7500      0.0000    740.8220      5.7146     79.9798
   374.0000      0.0000    741.2079      5.9467     76.0949
   374.2500      0.0000    742.1270      6.0951     76.3163
   374.5000      0.0000    743.7468      6.1174     80.6147
   374.7500      0.0000    746.0112      6.0379     86.8872
   375.0000      0.0000    748.2204      5.9206     92.1904
   375.2500      0.0000    749.2165      5.8328     94.6908
   375.5000      0.0000    748.3783      5.8127     94.6642
   375.7500      0.0000    746.3021      5.8555     93.5106
   376.0000      0.0000    744.2055      5.9222     92.0509
   376.2500      0.0000    742.8256      5.9644     90.0168
   376.5000      0.0000    742.0906      5.9438     87.0392
   376.7500      0.0000    741.5757      5.8448     83.7840
   377.0000      0.0000    740.9651      5.6849     81.8169
   377.2500      0.0000    740.1603      5.5168     82.3620
   377.5000      0.0000    739.1983      5.4107     85.4292
   377.7500      0.0000    738.1937      5.4224     90.0868
   378.0000      0.0000    737.3062      5.5634     95.2101
   378.2500      0.0000    736.6733      5.7907     99.8340
   378.5000      0.0000    736.3275      6.0301    103.1023
   378.7500      0.0000    736.1980      6.2202    104.3337
   379.0000      0.0000    736.1868      6.3400    103.4015
   379.2500      0.0000    736.2173      6.4009    100.9369
   379.5000      0.0000    736.2260      6.4245     97.9552
   379.7500      0.0000    736.2010      6.4304     95.3742
   380.0000      0.0000    736.3698      6.4386     93.8461
   380.2500      0.0000    737.4667      6.4761     93.6184
   380.5000      0.0000    740.8016      6.5734     94.3541
   380.7500      0.0000    747.6539      6.7457     95.2978
   381.0000      0.0000    757.8640      6.9739     95.7949
   381.2500      0.0000    768.7606      7.2076     95.7101
   381.5000      0.0000    775.9466      7.3868     95.3000
   381.7500      0.0000    775.6617      7.4698     94.6951
   382.0000      0.0000    766.3674      7.4492     93.6959
   382.2500      0.0000    748.9348      7.3461     92.1195
   382.5000      0.0000    726.9736      7.1827     90.0847
   382.7500      0.0000    706.8517      6.9584     87.7997
   383.0000      0.0000    694.2795      6.6579     85.4482
   383.2500      0.0000    689.2202      6.2890     83.4849
   383.5000      0.0000    686.5930      5.9031     82.5688
   383.7500      0.0000    684.0103      5.5690     82.8753
   384.0000      0.0000    686.0921      5.3265     83.8805
   384.2500      0.0000    698.5024      5.1693     85.1993
   384.5000      0.0000    719.8914      5.0657     87.1566
   384.7500      0.0000    742.5265      4.9934     89.8899
   385.0000      0.0000    759.6467      4.9630     92.2288
   385.2500      0.0000    769.8660      5.0203     92.4542
   385.5000      0.0000    775.2857      5.2184     90.3386
   385.7500      0.0000    777.9627      5.5703     87.8032
   386.0000      0.0000    778.4503      6.0216     87.3352
   386.2500      0.0000    776.1040      6.4743     89.9603
   386.5000      0.0000    770.4614      6.8436     94.6070
   386.7500      0.0000    763.5940      7.0996     99.0817
   387.0000      0.0000    760.9041      7.2643    101.7621
   387.2500      0.0000    767.6772      7.3763    102.5380
   387.5000      0.0000    783.9139      7.4584    102.1716
   387.7500      0.0000    803.8590      7.5102    101.1591
   388.0000      0.0000    821.0366      7.5266     99.6686
   388.2500      0.0000    832.6197      7.5155     98.1554
   388.5000      0.0000    838.9531      7.5007     97.3756
   388.7500      0.0000    840.8485      7.5111     97.8648
   389.0000      0.0000    838.4354      7.5631     99.6146
   389.2500      0.0000    831.7056      7.6523    102.1421
   389.5000      0.0000    821.4481      7.7627    104.7821
   389.7500      0.0000    810.2255      7.8815    106.9835
   390.0000      0.0000    802.3887      7.9970    108.4778
   390.2500      0.0000    801.5836      8.0860    109.1245
   390.5000      0.0000    807.4409      8.1119    108.4308
   390.7500      0.0000    815.2180      8.0466    105.5420
   391.0000      0.0000    818.6371      7.8987    100.3188
   391.2500      0.0000    812.0729      7.7217     94.2797
   391.5000      0.0000    790.7425      7.5850     89.7763
   391.7500      0.0000    752.0380      7.5266     88.0326
   392.0000      0.0000    699.7899      7.5332     88.2803
   392.2500      0.0000    646.2504      7.5657     88.7892
   392.5000      0.0000    605.1701      7.5968     88.4001
   392.7500      0.0000    580.4213      7.6194     87.0918
   393.0000      0.0000    563.9641      7.6331     85.5899
   393.2500      0.0000    546.6220      7.6354     84.6534
   393.5000      0.0000    527.9593      7.6277     84.3746
   393.7500      0.0000    514.2221      7.6230     83.9831
   394.0000      0.0000    510.8111      7.6420     82.6311
   394.2500      0.0000    519.5126      7.6972     80.4094
   394.5000      0.0000    539.9612      7.7807     78.2669
   394.7500      0.0000    570.3434      7.8698     76.9939
   395.0000      0.0000    607.2899      7.9454     76.7017
   395.2500      0.0000    646.3152      8.0027     77.3002
   395.5000      0.0000    681.3600      8.0476     79.0264
   395.7500      0.0000    704.5117      8.0873     82.1647
   396.0000      0.0000    709.8418      8.1282     86.3380
   396.2500      0.0000    699.5375      8.1730     90.4304
   396.5000      0.0000    684.8314      8.2123     93.3644
   396.7500      0.0000    679.2593      8.2159     94.8081
   397.0000      0.0000    690.2759      8.1423     95.2055
   397.2500      0.0000    715.8576      7.9628     95.4203
   397.5000      0.0000    747.3923      7.6826     96.3009
   397.7500      0.0000    775.6575      7.3436     98.0976
   398.0000      0.0000    795.3533      7.0129    100.0486
   398.2500      0.0000    805.8195      6.7621    100.7361
