~Version Information
VERS.                      2.0: CWLS Log ASCII Standard - VERSION 2.0
WRAP.                       NO: One line per depth step
~Well Information Block
STRT.FT               483.5000: 
STOP.FT              2348.7500: 
STEP.FT                 0.2500: 
NULL.                -999.2500: 
COMP.          Pioneer Natural Resources: COMPANY
WELL.          Hill Climb 22-2: WELL
FLD.           Purgatoire River: FIELD
LOC.           1820' FNL & 2193' FWL: LOCATION
PROV.                 Colorado: PROVINCE
CNTY.               Las Animas: COUNTRY
SRVC.                Patterson: SERVICE COMPANY
DATE.          Wed Oct 20 08:57:51 2004: LOG DATE
UWI.           05 071 08175 00: UNIQUE WELL ID
~Curve Information Block
DEPT.FT            0 000 00 00: Depth
DIR.Ohm-m                     : IEL Induction Resistivity
SN.Ohm-m                      : IEL Short Normal
SP.mV                         : IEL Spontaneous Potential
GR.GAPI                       : Gamma Ray
~Parameter Information Block
~A  Depth       DIR          SN          SP          GR     
# ...
  1220.5000      8.8087     17.0608    134.8604    114.0127
  1220.7500      4.9267     17.3563    135.0466    111.9387
  1221.0000      3.7192     17.7129    135.0044    110.8316
  1221.2500      3.5753     18.1532    134.7533    111.1221
  1221.5000      4.4281     18.6865    134.3098    111.3532
  1221.7500      8.1104     19.3642    133.6973    109.9885
  1222.0000    218.0801     20.3380    132.9533    104.0726
  1222.2500 100000.0000     21.9070    132.1314     97.7044
  1222.5000 100000.0000     24.5196    131.2976     86.0642
  1222.7500 100000.0000     28.6721    130.5209     77.5739
  1223.0000 100000.0000     34.6731    129.8612     63.7652
  1223.2500 100000.0000     42.3374    129.3613     53.8643
  1223.5000 100000.0000     50.8041    129.0441     39.1810
  1223.7500 100000.0000     58.7009    128.9178     30.6329
  1224.0000 100000.0000     64.6624    128.9840     21.0536
  1224.2500 100000.0000     67.8791    129.2450     17.0325
  1224.5000 100000.0000     68.3043    129.7052     14.2035
  1224.7500 100000.0000     66.4608    130.3672     14.0945
  1225.0000 100000.0000     63.0903    131.2234     15.8576
  1225.2500 100000.0000     58.8709    132.2494     17.8145
  1225.5000 100000.0000     54.2789    133.4022     21.1251
  1225.7500     59.3899     49.5715    134.6250     23.4136
  1226.0000     19.6817     44.8384    135.8565     27.6144
  1226.2500     13.9534     40.0748    137.0402     31.7356
  1226.5000     12.1199     35.2584    138.1318     41.0523
  1226.7500     11.4966     30.4273    139.1007     49.3509
  1227.0000     11.3667     25.7324    139.9273     63.7030
  1227.2500     11.4240     21.4167    140.5990     73.5597
  1227.5000     11.4808     17.7174    141.1055     87.2570
  1227.7500     11.4142     14.7637    141.4378     94.8403
  1228.0000     11.1799     12.5449    141.5903    102.7485
  1228.2500     10.8119     10.9504    141.5650    105.4736
  1228.5000     10.3835      9.8302    141.3761    106.0013
  1228.7500      9.9604      9.0437    141.0516    104.1885
  1229.0000      9.5794      8.4921    140.6325     98.8111
  1229.2500      9.2534      8.1278    140.1676     94.2586
  1229.5000      8.9820      7.9353    139.7069     87.7625
  1229.7500      8.7597      7.8992    139.2948     84.2150
  1230.0000      8.5768      7.9788    138.9636     79.6948
  1230.2500      8.4188      8.1029    138.7300     79.4306
  1230.5000      8.2677      8.1874    138.5930     78.0300
  1230.7500      8.1086      8.1655    138.5360     77.1131
  1231.0000      7.9353      8.0130    138.5314     74.9838
  1231.2500      7.7515      7.7501    138.5485     73.1976
  1231.5000      7.5669      7.4260    138.5606     71.2091
  1231.7500      7.3930      7.1001    138.5498     70.9966
  1232.0000      7.2415      6.8301    138.5085     72.1386
  1232.2500      7.1255      6.6671    138.4367     73.0474
  1232.5000      7.0577      6.6540    138.3383     73.0580
  1232.7500      7.0486      6.8186    138.2169     71.5453
  1233.0000      7.1027      7.1574    138.0746     66.7699
  1233.2500      7.2172      7.6206    137.9112     62.4796
  1233.5000      7.3831      8.1177    137.7261     56.4230
  1233.7500      7.5883      8.5481    137.5200     53.8253
  1234.0000      7.8239      8.8384    137.2955     53.0022
  1234.2500      8.0881      8.9669    137.0575     54.4336
  1234.5000      8.3886      8.9681    136.8126     59.3865
  1234.7500      8.7396      8.9189    136.5684     64.6150
  1235.0000      9.1572      8.9101    136.3338     74.8435
  1235.2500      9.6519      9.0125    136.1185     82.2657
  1235.5000     10.2225      9.2530    135.9343     92.2953
  1235.7500     10.8510      9.6125    135.7948     97.6299
  1236.0000     11.5023     10.0484    135.7148    103.6599
  1236.2500     12.1322     10.5247    135.7083    106.7431
  1236.5000     12.7019     11.0332    135.7845    110.9631
  1236.7500     13.1926     11.5882    135.9443    114.1163
  1237.0000     13.6124     12.1989    136.1780    119.6590
  1237.2500     13.9897     12.8405    136.4655    123.5137
  1237.5000     14.3576     13.4575    136.7804    128.6218
  1237.7500     14.7388     14.0001    137.0961    131.2163
  1238.0000     15.1347     14.4534    137.3918    133.6052
  1238.2500     15.5230     14.8273    137.6568    134.1831
  1238.5000     15.8619     15.1284    137.8903    133.6242
  1238.7500     16.0992     15.3483    138.0989    132.3002
  1239.0000     16.1886     15.4770    138.2919    128.9658
  1239.2500     16.1083     15.5180    138.4782    126.2807
  1239.5000     15.8740     15.4886    138.6643    122.8198
  1239.7500     15.5344     15.4083    138.8540    121.2621
  1240.0000     15.1497     15.2848    139.0489    119.4465
  1240.2500     14.7674     15.1078    139.2489    118.0642
  1240.5000     14.4079     14.8531    139.4525    116.0308
  1240.7500     14.0653     14.4958    139.6575    115.4363
  1241.0000     13.7190     14.0303    139.8627    116.1660
  1241.2500     13.3480     13.4829    140.0693    117.0919
  1241.5000     12.9438     12.9046    140.2824    117.8828
  1241.7500     12.5174     12.3481    140.5099    118.1029
  1242.0000     12.0983     11.8511    140.7601    119.0123
  1242.2500     11.9150     11.4371    141.0387    120.1317
  1242.5000     11.6108     11.1210    141.3463    121.7161
  1242.7500     11.4034     10.9032    141.6790    122.3633
  1243.0000     11.2850     10.7570    142.0300    123.2871
  1243.2500     11.2287     10.6265    142.3926    124.5171
  1243.5000     11.1996     10.4492    142.7612    127.7162
  1243.7500     11.1698     10.1939    143.1314    130.3160
  1244.0000     11.1282      9.8796    143.4973    133.6903
  1244.2500     11.0847      9.5583    143.8499    135.3216
  1244.5000     11.0721      9.2835    144.1753    137.3106
  1244.7500     11.1566      9.0928    144.4572    138.4252
  1245.0000     11.4609      9.0045    144.6799    138.8651
  1245.2500     12.2054      9.0163    144.8342    137.5912
  1245.5000     13.7985      9.1094    144.9201    132.8813
  1245.7500     16.6446      9.2608    144.9480    128.4228
  1246.0000     23.4608      9.4526    144.9367    121.6854
  1246.2500     41.3021      9.6677    144.9103    118.1259
  1246.5000    129.2102      9.8815    144.8949    114.4664
  1246.7500 100000.0000     10.0658    144.9144    112.6586
  1247.0000 100000.0000     10.1992    144.9860    109.8051
  1247.2500 100000.0000     10.2763    145.1156    107.2656
  1247.5000 100000.0000     10.3087    145.2883    102.2369
  1247.7500 100000.0000     10.3195    145.4738     98.7534
  1248.0000 100000.0000     10.3310    145.6123     95.5220
  1248.2500 100000.0000     10.3509    145.5940     95.5819
  1248.5000 100000.0000     10.3659    145.2109     98.6333
  1248.7500 100000.0000     10.3465    144.0825    101.8996
  1249.0000 100000.0000     10.2585    141.5864    107.8593
  1249.2500 100000.0000     10.0745    136.8642    112.1311
  1249.5000 100000.0000      9.7728    128.9825    117.1526
  1249.7500 100000.0000      9.3078    117.2726    118.2656
  1250.0000 100000.0000      8.5488    101.7414    116.0845
  1250.2500 100000.0000      7.2485     83.3328    113.0239
  1250.5000 100000.0000      5.1606     63.8251    107.8800
  1250.7500 100000.0000      2.3132     45.3380    104.3559
  1251.0000 100000.0000     -0.8225     29.6675     98.1030
  1251.2500 100000.0000     -3.5530     17.7851     92.8122
  1251.5000 100000.0000     -5.4169      9.7246     83.9765
  1251.7500 100000.0000     -6.4109      4.8326     79.1597
  1252.0000 100000.0000     -6.8244      2.1762     77.0404
  1252.2500 100000.0000     -6.9585      0.8856     79.9238
  1252.5000 100000.0000     -6.9923      0.3245     88.7917
  1252.7500 100000.0000     -6.9990      0.1062     95.3720
  1253.0000 100000.0000      0.0000      0.0303    103.0092
  1253.2500   2895.4490      0.0000      0.0066    106.0331
  1253.5000   1299.8876      0.0000      0.0000    108.1337
  1253.7500    988.8708      0.0000      0.0000    108.6752
