~Version Information
 VERS.                                  2.0 : CWLS LAS VERSION
 WRAP.                                   NO : WRAPING MODE
 SWARE .                 MController 2.5.0I : SOFTWARE VERSION
~Well Information
 WELL.                       Montoya 12-41v : WELL
 COMP.                       Petrogulf Corp : COMPANY
 FLD.                      Purgatoire River : FIELD
 LOC.                NE/NE Sec 12 T33S R68W : LOCATION
 DATE.                              8/10/04 : DATE(S) LOGGED
 SRVC.       Blanco Geological Services LLc : SERVICE COMPANY
 STAT.                                   CO : STATE
 CNTY.                           Las Animas : COUNTY
 CTRY.                                  USA : COUNTRY
 API.                       05-071-08139-00 : API NUMBER
 STRT.FT                            698.00 : START DEPTH
 STOP.FT                            2660.00 : STOP DEPTH
 STEP.FT                               1.00 : DEPTH INCREMENT
 NULL.                                 9999 : NULL VALUE
~Curve information
 DEPTH.FT                                   :
 ROP.MIN/FT                                 :
 GAS.UNITS                                  :
~ASCII Log data
# ...
      1490.0          0.3          1.2 
      1491.0          0.3          1.2 
      1492.0          0.3          1.0 
      1493.0          0.3          1.3 
      1494.0          0.3          1.3 
      1495.0          0.3          1.4 
      1496.0          7.2         10.3 
      1497.0          0.6          3.7 
      1498.0          0.5          2.6 
      1499.0          0.8          2.4 
      1500.0          0.5          2.4 
      1501.0          0.5          2.4 
      1502.0          0.6          2.1 
      1503.0          0.7          2.1 
      1504.0          0.4          2.2 
      1505.0          0.3          1.9 
      1506.0          0.3          1.8 
      1507.0          0.3          1.9 
      1508.0          0.3          1.9 
      1509.0          0.3          2.0 
      1510.0          0.4          1.9 
      1512.0          0.5          1.9 
      1512.0          0.5          2.0 
      1513.0          0.6          1.6 
      1514.0          0.6          1.6 
      1515.0          0.6          1.7 
      1516.0          0.5          1.6 
      1517.0          0.5          1.5 
      1518.0          0.6          1.5 
      1519.0          0.5          1.6 
      1520.0          0.4          1.6 
      1521.0          0.4          1.5 
      1522.0          0.4          1.4 
      1523.0          0.4          1.3 
      1524.0          0.4          1.2 
      1525.0          0.4          1.1 
      1526.0         13.2         13.5 
      1527.0        120.3         35.4 
      1528.0         92.8          2.5 
      1529.0         36.4          2.6 
      1530.0         29.0          2.5 
      1531.0         27.6          2.5 
      1532.0         19.6       3566.1 
      1533.0          0.1          3.3 
      1534.0          0.5          2.1 
      1535.0          0.1          1.1 
      1536.0          0.5          1.3 
      1537.0          0.6          1.5 
      1538.0          0.5          1.6 
      1539.0          0.5          2.2 
      1540.0          0.6          2.0 
      1541.0          0.7          2.4 
      1542.0          0.6          2.3 
      1543.0          0.5          2.3 
      1544.0          0.6          2.6 
      1545.0          0.5          2.0 
      1546.0          0.4          2.0 
      1547.0          0.4          2.1 
      1548.0          0.5          2.1 
      1549.0          0.5          2.1 
      1550.0          0.5          2.2 
      1551.0          0.6          2.3 
      1552.0          0.5          2.1 
      1553.0          0.4          2.0 
      1554.0          0.3          2.0 
      1555.0          0.3          2.0 
      1556.0          0.3          1.7 
      1557.0          0.3          2.0 
      1558.0          0.3          2.2 
      1559.0          0.3          1.7 
      1560.0          0.3          1.8 
      1561.0          0.4          1.9 
      1562.0          0.1          1.7 
      1563.0          4.6         18.9 
      1564.0          0.1         23.9 
      1565.0          0.8         23.3 
      1566.0          0.5          4.6 
      1567.0          0.5          7.5 
      1568.0          0.4          5.6 
      1569.0          0.5          3.5 
      1570.0          1.1          1.4 
      1571.0          0.3          1.3 
      1572.0          0.3          6.2 
      1573.0          0.3         10.3 
      1574.0          0.3          9.9 
      1575.0          0.3          3.5 
      1576.0          0.3          2.2 
      1577.0          0.3          4.4 
      1578.0          0.3          3.6 
      1579.0          0.3          3.3 
      1580.0          0.3          1.7 
      1581.0          0.3          1.3 
      1582.0          0.3          2.0 
      1583.0          0.2          2.7 
      1584.0          0.3          3.6 
      1585.0          0.2          3.6 
      1586.0          0.2          2.7 
      1587.0          0.2          2.7 
      1588.0          0.3          2.3 
      1589.0          0.3          3.7 
      1590.0          0.3          3.2 
      1591.0          0.3          2.9 
      1592.0          0.4          3.0 
      1593.0          5.9         55.6 
      1594.0          0.5         10.0 
      1595.0          0.5          4.6 
      1596.0          0.5          4.4 
      1597.0          0.5          3.3 
      1598.0          0.4          2.3 
      1599.0          0.4          2.7 
      1600.0          0.4          6.7 
      1601.0          0.5          4.3 
      1602.0          0.6          2.6 
      1603.0          0.8          2.8 
      1604.0          0.8          1.7 
      1605.0          0.5          2.0 
      1606.0          0.4          1.8 
      1607.0          0.4          2.0 
      1608.0          0.5          1.2 
      1609.0          0.5          1.3 
      1610.0          0.5          1.3 
      1612.0          0.3          1.2 
      1612.0          0.6          1.2 
      1613.0          0.7          1.2 
      1614.0          0.3          1.0 
      1615.0          0.7          1.3 
      1616.0          0.5          1.0 
      1617.0          0.5          0.8 
      1618.0          0.4          0.2 
      1619.0          0.2          0.3 
      1620.0          0.2          0.2 
      1621.0          0.3          0.4 
      1622.0          0.3          3.7 
      1623.0          5.3         50.3 
      1624.0          0.4         16.9 
      1625.0          0.6          8.5 
      1626.0          0.6          9.3 
      1627.0          0.7          6.1 
      1628.0          0.4          3.9 
      1629.0          0.4          3.6 
      1630.0          0.5          4.0 
      1631.0          0.5          3.1 
      1632.0          0.5          2.4 
      1633.0          0.3          1.4 
      1634.0          0.3          1.7 
      1635.0          0.5          3.2 
      1636.0          0.5          2.4 
      1637.0          0.4          2.0 
      1638.0          0.5          2.3 
      1639.0          0.3          2.1 
      1640.0          0.3          1.9 
      1641.0          0.3          1.8 
      1642.0          0.7          1.7 
      1643.0          0.6          1.7 
      1644.0          0.6          2.0 
      1645.0          0.7          1.9 
      1646.0          0.6          1.6 
      1647.0          0.2          1.4 
      1648.0          0.9          1.1 
      1649.0          0.4          1.7 
      1650.0          0.3          1.0 
      1651.0          0.2          1.3 
      1652.0          0.5          2.4 
      1653.0         10.6         63.8 
      1654.0          0.2         17.8 
      1655.0          0.2         22.6 
      1656.0          0.3         19.4 
      1657.0          0.3          6.5 
      1658.0          0.3          3.9 
      1659.0          0.3          1.8 
      1660.0          0.6          2.3 
      1661.0          0.6          9.3 
      1662.0          0.6          9.6 
      1663.0          0.5          7.7 
      1664.0          0.3          7.0 
      1665.0          0.4          3.8 
      1666.0          0.3          3.8 
      1667.0          0.3          3.3 
      1668.0          0.3          4.0 
      1669.0          0.3          3.8 
      1670.0          0.3          7.3 
      1671.0          0.3          7.5 
      1672.0          0.3          7.4 
      1673.0          0.3          5.8 
      1674.0          0.3          5.1 
      1675.0          0.4          6.5 
      1676.0          0.3          6.8 
      1677.0          0.2          5.8 
      1678.0          0.2          6.1 
      1679.0          2.0          9.9 
      1680.0          0.2          2.2 
      1681.0          0.1          0.9 
      1682.0          0.4          0.6 
      1683.0          2.5         78.9 
      1684.0          0.3         38.7 
      1685.0          0.4         16.5 
      1686.0          0.4          5.2 
      1687.0          0.6          4.3 
      1688.0          0.6          8.5 
      1689.0          0.5          8.2 
