~Version Information
VERS.                      2.0: CWLS Log ASCII Standard - VERSION 2.0
WRAP.                       NO: One line per depth step
~Well Information Block
STRT.FT               433.5000: 
STOP.FT              1880.2500: 
STEP.FT                 0.2500: 
NULL.                -999.2500: 
COMP.          Pioneer Natural Resources: COMPANY
WELL.           Buckhorn 12-21: WELL
FLD.           Purgatorie River: FIELD
LOC.           2450' FNL & 608' FWL--: LOCATION
PROV.                       CO: PROVINCE
CNTY.               Las Animas: COUNTRY
SRVC.                         : SERVICE COMPANY
DATE.          Fri Dec 03 14:13:08 2004: LOG DATE
UWI.          005 071 08129 : UNIQUE WELL ID
~Curve Information Block
DEPT.FT            0 000 00 00: Depth
NPOR.pu                       : Neutron Porosity
CCL.                          : Casing Collar Locator
TT3.usec                      : CBL 3' Travel Time
AMP3.mV                       : CBL 3' Amplitude
GR.GAPI                       : Gamma Ray
~Parameter Information Block
~A  Depth       NPOR        CCL         TT3         AMP3         GR     
# ...
  1777.5000     16.9024      0.0000    699.3214      3.2342     66.7475
  1777.7500     16.7716      0.0000    701.4938      3.3467     65.0915
  1778.0000     16.5714      0.0000    700.9675      3.4318     63.8193
  1778.2500     16.5083      0.0000    698.4974      3.5125     62.9417
  1778.5000     16.7669      0.0000    693.9104      3.5983     62.6040
  1778.7500     17.2473      0.0000    687.6805      3.6951     62.6379
  1779.0000     17.6270      0.0000    681.8553      3.8148     62.7012
  1779.2500     17.7069      0.0000    679.1884      3.9650     62.7751
  1779.5000     17.5834      0.0000    681.0643      4.1332     63.2361
  1779.7500     17.4412      0.0000    686.4285      4.2927     64.4089
  1780.0000     17.3285      0.0000    692.9261      4.4187     66.3016
  1780.2500     17.2074      0.0000    698.7536      4.5003     68.5901
  1780.5000     17.0748      0.0000    703.1624      4.5418     70.4993
  1780.7500     16.9281      0.0000    705.7069      4.5573     70.9713
  1781.0000     16.7287      0.0000    705.8782      4.5602     69.4190
  1781.2500     16.5093      0.0000    703.6081      4.5494     66.3456
  1781.5000     16.4279      0.0000    699.5801      4.5018     63.1850
  1781.7500     16.6036      0.0000    694.7709      4.3863     61.5309
  1782.0000     16.9336      0.0000    689.9000      4.1970     62.2205
  1782.2500     17.1554      0.0000    685.3089      3.9700     64.7483
  1782.5000     17.0951      0.0000    681.0545      3.7533     67.5000
  1782.7500     16.8329      0.0000    677.0536      3.5601     68.7601
  1783.0000     16.6321      0.0000    672.9868      3.3644     67.6935
  1783.2500     16.7180      0.0000    667.5651      3.1422     64.6154
  1783.5000     17.0935      0.0000    657.5229      2.9018     60.6504
  1783.7500     17.5306      0.0000    637.8423      2.6740     57.1645
  1784.0000     17.7538      0.0000    604.5610      2.4863     55.1378
  1784.2500     17.6805      0.0000    559.0790      2.3507     54.8167
  1784.5000     17.4847      0.0000    509.7215      2.2661     56.0320
  1784.7500     17.4079      0.0000    467.4418      2.2269     58.6710
  1785.0000     17.5136      0.0000    439.1788      2.2272     62.3704
  1785.2500     17.6421      0.0000    425.6693      2.2596     66.0018
  1785.5000     17.5935      0.0000    425.0318      2.3136     68.2745
  1785.7500     17.3526      0.0000    436.5745      2.3799     68.8610
  1786.0000     17.1447      0.0000    459.4362      2.4549     68.4470
  1786.2500     17.2701      0.0000    487.3358      2.5408     67.9999
  1786.5000     17.8748      0.0000    507.2924      2.6378     68.6772
  1786.7500     18.8592      0.0000    507.6467      2.7367     71.9336
  1787.0000     19.9648      0.0000    488.2992      2.8228     78.3522
  1787.2500     20.9095      0.0000    460.6946      2.8902     86.0843
  1787.5000     21.4833      0.0000    437.4421      2.9459     91.4191
  1787.7500     21.6091      0.0000    424.0400      3.0000     91.4724
  1788.0000     21.3623      0.0000    419.9244      3.0540     86.1175
  1788.2500     20.9094      0.0000    424.3047      3.0986     77.5171
  1788.5000     20.3912      0.0000    439.3643      3.1213     68.5175
  1788.7500     19.8558      0.0000    467.7004      3.1142     61.4820
  1789.0000     19.3014      0.0000    505.9007      3.0747     57.6232
  1789.2500     18.7395      0.0000    541.1596      3.0073     56.6506
  1789.5000     18.1814      0.0000    557.8474      2.9276     57.1393
  1789.7500     17.6300      0.0000    551.0516      2.8605     57.6139
  1790.0000     17.1573      0.0000    533.5837      2.8310     57.4379
  1790.2500     16.9427      0.0000    527.2299      2.8543     56.7945
  1790.5000     17.1639      0.0000    545.5873      2.9326     56.1028
  1790.7500     17.8658      0.0000    584.9811      3.0565     55.6420
  1791.0000     18.9588      0.0000    630.5265      3.2083     55.8071
  1791.2500     20.3267      0.0000    668.5846      3.3660     57.6759
  1791.5000     21.9284      0.0000    693.5863      3.5093     62.7626
  1791.7500     23.8026      0.0000    706.9341      3.6232     71.6109
  1792.0000     25.9395      0.0000    713.0703      3.6986     82.8915
  1792.2500     28.1411      0.0000    716.6324      3.7315     94.5002
  1792.5000     26.0704      0.0000    720.9829      3.7262    105.3020
  1792.7500     27.4622      0.0000    727.2615      3.7049    115.2566
  1793.0000     28.2466      0.0000    733.7889      3.7062    124.3861
  1793.2500     28.5018      0.0000    737.0198      3.7639    132.4734
  1793.5000     28.3993      0.0000    734.6708      3.8788    139.4966
  1793.7500     28.2058      0.0000    728.5316      4.0121    145.4921
  1794.0000     28.2075      0.0000    723.2366      4.1148    149.9729
  1794.2500     28.5231      0.0000    721.6494      4.1674    152.2979
  1794.5000     28.9890      0.0000    722.2539      4.1892    152.8648
  1794.7500     29.2691      0.0000    721.6625      4.2104    153.1465
  1795.0000     29.1007      0.0000    718.6323      4.2373    154.0452
  1795.2500     28.4569      0.0000    714.6074      4.2473    154.7914
  1795.5000     27.5234      0.0000    711.2509      4.2097    154.0744
  1795.7500     26.5592      0.0000    708.7933      4.1058    151.8108
  1796.0000     25.7475      0.0000    706.4963      3.9370    148.9766
  1796.2500     25.1191      0.0000    703.4973      3.7234    146.0318
  1796.5000     24.6108      0.0000    698.5400      3.4942    142.4932
  1796.7500     24.2067      0.0000    688.8119      3.2731    137.8857
  1797.0000     23.9867      0.0000    669.4896      3.0729    132.4378
  1797.2500     23.9913      0.0000    636.2092      2.8997    127.1774
  1797.5000     24.0677      0.0000    590.5554      2.7566    123.6877
  1797.7500     23.9234      0.0000    543.9688      2.6417    122.9121
  1798.0000     23.3802      0.0000    514.2352      2.5455    123.8254
  1798.2500     22.5783      0.0000    515.0826      2.4560    124.0642
  1798.5000     21.9108      0.0000    546.7344      2.3653    121.9291
  1798.7500     21.7632      0.0000    595.2757      2.2778    117.4807
  1799.0000     22.3135      0.0000    641.7014      2.2101    112.3771
  1799.2500     23.5107      0.0000    673.3346      2.1789    109.0631
  1799.5000     25.1466      0.0000    688.5278      2.1844    109.3638
  1799.7500     26.9143      0.0000    692.9304      2.2064    113.4394
  1800.0000     28.4488      0.0000    693.0533      2.2180    120.1967
  1800.2500     29.4131      0.0000    692.5331      2.2032    128.1504
  1800.5000     29.6314      0.0000    692.2421      2.1653    135.5888
  1800.7500     29.1792      0.0000    692.4133      2.1255    140.9397
  1801.0000     28.3313      0.0000    694.1811      2.1173    143.8693
  1801.2500     27.3979      0.0000    699.3038      2.1818    145.4586
  1801.5000     26.5954      0.0000    708.9100      2.3615    146.6858
  1801.7500     26.0495      0.0000    722.4218      2.6865    147.1879
  1802.0000     25.8732      0.0000    736.8260      3.1498    145.7691
  1802.2500     26.1815      0.0000    747.1054      3.6855    141.4521
  1802.5000     26.9995      0.0000    748.8171      4.1813    133.8367
  1802.7500     28.1774      0.0000    741.4619      4.5335    123.2734
  1803.0000     29.4353      0.0000    729.4099      4.7076    111.1027
  1803.2500     30.5100      0.0000    719.1617      4.7472     99.3579
  1803.5000     31.2733      0.0000    715.4317      4.7321     89.8319
  1803.7500     31.7562      0.0000    719.1614      4.7290     83.1929
  1804.0000     32.0879      0.0000    728.0289      4.7655     78.7457
  1804.2500     32.3827      0.0000    738.1126      4.8304     75.0518
  1804.5000     32.6462      0.0000    745.6703      4.9010     71.1081
  1804.7500     32.7981      0.0000    748.6106      4.9897     67.1366
  1805.0000     32.7865      0.0000    747.0378      5.1696     64.4329
  1805.2500     32.6764      0.0000    742.2127      5.5437     64.5037
