~Version Information
VERS.                      2.0: CWLS Log ASCII Standard - VERSION 2.0
WRAP.                       NO: One line per depth step
~Well Information Block
STRT.FT               -14.2500: 
STOP.FT              2177.5000: 
STEP.FT                 0.2500: 
NULL.                -999.2500: 
COMP.          Evergreen Operating Corp.: COMPANY
WELL.            Triumph 13-10: WELL
FLD.           Purgatorie River: FIELD
LOC.           1551' FSL & 522' FWL--: LOCATION
PROV.                       CO: PROVINCE
CNTY.               Las Animas: COUNTRY
SRVC.                         : SERVICE COMPANY
DATE.          Sat Aug 21 09:27:32 2004: LOG DATE
UWI.           005 071 08108 : UNIQUE WELL ID
~Curve Information Block
DEPT.FT            0 000 00 00: Depth
CCL.                          : Casing Collar Locator
TT3.usec                      : CBL 3' Travel Time
AMP3.mV                       : CBL 3' Amplitude
GR.GAPI                       : Gamma Ray
~Parameter Information Block
~A  Depth       CCL         TT3         AMP3         GR     
# ...
  2129.7500      0.0000    617.9174      3.5708    123.3866
  2130.0000      0.0000    605.5717      3.5684    128.5451
  2130.2500      0.0000    594.9990      3.5010    133.6360
  2130.5000      0.0000    591.9474      3.4491    136.5773
  2130.7500      0.0000    599.0371      3.4620    136.0546
  2131.0000      0.0000    614.8462      3.5123    132.4374
  2131.2500      0.0000    635.7777      3.5216    127.5027
  2131.5000      0.0000    658.4503      3.4350    123.0459
  2131.7500      0.0000    680.3740      3.2704    119.6095
  2132.0000      0.0000    699.1891      3.0919    116.7416
  2132.2500      0.0000    712.5697      2.9480    114.2911
  2132.5000      0.0000    719.3810      2.8473    112.8470
  2132.7500      0.0000    720.5312      2.7809    112.9094
  2133.0000      0.0000    718.4119      2.7401    114.1316
  2133.2500      0.0000    715.4430      2.7068    115.5555
  2133.5000      0.0000    712.9539      2.6521    116.4062
  2133.7500      0.0000    711.0581      2.5577    116.4456
  2134.0000      0.0000    709.2357      2.4386    115.5698
  2134.2500      0.0000    707.1536      2.3399    113.4988
  2134.5000      0.0000    705.2162      2.3110    110.2494
  2134.7500      0.0000    704.3159      2.3807    106.5732
  2135.0000      0.0000    704.8238      2.5521    103.4522
  2135.2500      0.0000    705.9562      2.8056    101.1203
  2135.5000      0.0000    706.4169      3.0930     98.7126
  2135.7500      0.0000    705.6418      3.3423     94.9253
  2136.0000      1.9727    704.3120      3.4993     89.2123
  2136.2500      0.0000    703.5817      3.5673     82.3861
  2136.5000      0.0000    703.6982      3.5946     75.9052
  2136.7500      0.0000    703.4718      3.6310     70.6241
  2137.0000      0.0000    701.3193      3.6974     66.4270
  2137.2500      0.0000    696.8135      3.7772     63.0129
  2137.5000      0.0000    691.1129      3.8312     60.7120
  2137.7500      0.0000    685.9749      3.8311     60.3149
  2138.0000      0.0000    682.5558      3.7888     62.0937
  2138.2500      0.0000    681.1759      3.7504     65.1367
  2138.5000      0.0000    681.8087      3.7587     67.9022
  2138.7500      0.0000    684.2578      3.8149     69.5889
  2139.0000      0.0000    687.7811      3.8824     70.8248
  2139.2500      0.0000    690.9821      3.9304     72.7912
  2139.5000      0.0000    692.5126      3.9684     75.7165
  2139.7500      0.0000    692.0592      4.0277     78.5232
  2140.0000      0.0000    690.6579      4.1204     80.0615
  2140.2500      0.0000    689.8903      4.2254     80.3290
  2140.5000      0.0000    690.6281      4.3029     80.3107
  2140.7500      0.0000    692.7336      4.3182     81.0559
  2141.0000      0.0000    696.0080      4.2628     83.3790
  2141.2500      0.0000    700.8408      4.1628     88.1061
  2141.5000      0.0000    707.7620      4.0621     95.6280
  2141.7500      0.0000    717.0106      3.9928    104.6076
  2142.0000      0.0000    728.6600      3.9597    111.6894
  2142.2500      0.0000    742.3360      3.9552    113.6130
  2142.5000      0.0000    756.4999      3.9815    110.0525
  2142.7500      0.0000    768.5390      4.0494    103.8904
  2143.0000      0.0000    775.8715      4.1556     98.3719
  2143.2500      0.0000    777.3156      4.2741     94.4266
  2143.5000      0.0000    774.1719      4.3743     90.9587
  2143.7500      0.0000    769.7810      4.4448     87.0018
  2144.0000      0.0000    766.7571      4.4958     82.7968
  2144.2500      0.0000    764.1711      4.5417     79.1473
  2144.5000      0.0000    758.5903      4.5878     76.6290
  2144.7500      0.0000    748.7705      4.6262     75.3266
  2145.0000      0.0000    738.7247      4.6335     74.6312
  2145.2500      0.0000    734.6473      4.5814     73.3205
  2145.5000      0.0000    738.2398      4.4682     70.3598
  2145.7500      0.0000    744.2654      4.3341     65.7119
  2146.0000      0.0000    745.4771      4.2317     60.2299
  2146.2500      0.0000    738.6996      4.1889     54.8995
  2146.5000      0.0000    725.8252      4.2037     50.4149
  2146.7500      0.0000    711.0225      4.2598     47.3635
  2147.0000      0.0000    698.0584      4.3320     46.3563
  2147.2500      0.0000    688.9135      4.3869     47.5281
  2147.5000      0.0000    683.5686      4.3996     49.9563
  2147.7500      0.0000    680.8226      4.3773     52.2321
  2148.0000      0.0000    679.3981      4.3510     53.8838
  2148.2500      0.0000    678.3503      4.3382     55.7718
  2148.5000      0.0000    676.8558      4.3261     58.7377
  2148.7500      0.0000    674.0071      4.2988     62.3135
  2149.0000      0.0000    669.1746      4.2674     65.1644
  2149.2500      0.0000    662.6550      4.2539     66.4704
  2149.5000      0.0000    655.5965      4.2550     66.4175
  2149.7500      0.0000    648.7452      4.2348     65.5333
  2150.0000      0.0000    641.5200      4.1574     64.0462
  2150.2500      0.0000    633.1350      4.0168     62.0338
  2150.5000      0.0000    624.9030      3.8384     59.8695
  2150.7500      0.0000    620.7788      3.6634     58.2361
  2151.0000      0.0000    624.7058      3.5353     57.6764
  2151.2500      0.0000    636.8394      3.4865     58.2518
  2151.5000      0.0000    652.5894      3.5248     59.7265
  2151.7500      0.0000    665.9572      3.6265     62.1092
  2152.0000      0.0000    673.8206      3.7491     65.8559
  2152.2500      0.0000    676.9100      3.8564     71.2830
  2152.5000      0.0000    677.5537      3.9376     77.5793
  2152.7500      0.0000    677.3892      3.9955     82.4946
  2153.0000      0.0000    676.8137      4.0191     83.5957
  2153.2500      0.0000    675.4841      3.9798     80.4443
  2153.5000      0.0000    672.8143      3.8618     75.2801
  2153.7500      0.0000    668.1978      3.6916     70.9624
  2154.0000      0.0000    661.0765      3.5319     68.5529
  2154.2500      0.0000    651.1125      3.4446     67.5178
  2154.5000      0.0000    638.9404      3.4561     67.7129
  2154.7500      0.0000    627.1257      3.5419     69.8925
  2155.0000      0.0000    619.4750      3.6441     74.0088
  2155.2500      0.0000    618.1768      3.7112     77.9500
  2155.5000      0.0000    621.9376      3.7333     78.8407
  2155.7500      0.0000    627.7344      3.7390     75.7238
  2156.0000      0.0000    633.8770      3.7576     70.5999
  2156.2500      0.0000    640.6879      3.7895     66.6149
  2156.5000      0.0000    648.7584      3.8236     65.4425
  2156.7500      0.0000    657.4192      3.8692     66.4784
  2157.0000      0.0000    665.0948      3.9461     67.8727
  2157.2500      0.0000    670.7915      4.0497     67.8614
  2157.5000      0.0000    674.9827      4.1435     65.7376
  2157.7500      0.0000    679.1885      4.1909     62.3304
  2158.0000      0.0000    684.8246      4.1857     59.4932
  2158.2500      0.0000    692.1750      4.1571     58.7613
  2158.5000      0.0000    700.1088      4.1505     60.2576
  2158.7500      0.0000    706.8629      4.1934     62.5979
  2159.0000      0.0000    711.2996      4.2806     63.8004
  2159.2500      0.0000    713.4395      4.3880     62.6338
  2159.5000      0.0000    713.8937      4.4842     59.4217
  2159.7500      0.0000    712.9014      4.5352     55.6328
  2160.0000      0.0000    709.6602      4.5182     52.8772
  2160.2500      0.0000    702.0030      4.4327     52.2066
  2160.5000      0.0000    686.3267      4.2951     53.7976
  2160.7500      0.0000    658.4407      4.1289     56.8918
  2161.0000      0.0000    616.5765      3.9564     60.2701
  2161.2500      0.0000    565.4607      3.7985     63.2308
  2161.5000      0.0000    516.9468      3.6700     66.1320
  2161.7500      0.0000    483.9296      3.5684     69.7575
  2162.0000      0.0000    471.2680      3.4857     74.2461
  2162.2500      0.0000    471.8686      3.4459     78.7872
  2162.5000      0.0000    472.5078      3.5015     82.1783
  2162.7500      0.0000    465.1401      3.6704     83.5519
  2163.0000      0.0000    453.7383      3.8943     82.5600
