~Version Information
VERS.                      2.0: CWLS Log ASCII Standard - VERSION 2.0
WRAP.                       NO: One line per depth step
~Well Information Block
STRT.FT                -8.2500: 
STOP.FT              1795.0000: 
STEP.FT                 0.2500: 
NULL.                -999.2500: 
COMP.          Petrogulf Corporation: COMPANY
WELL.           Montoya 7-21 R: WELL
FLD.           Purgatoire River: FIELD
LOC.           445' FNL & 1942' FWL----: LOCATION
PROV.                 Colorado: PROVINCE
CNTY.               Las Animas: COUNTRY
SRVC.                         : SERVICE COMPANY
DATE.          Fri Sep 30 15:33:54 2005: LOG DATE
UWI.                          : UNIQUE WELL ID
~Curve Information Block
DEPT.FT            0 000 00 00: Depth
GR.GAPI                       : Gamma Ray
CCL.                          : Casing Collar Locator
TT3.usec                      : CBL 3' Travel Time
AMP3.mV                       : CBL 3' Amplitude
~Parameter Information Block
~A  Depth        GR         CCL         TT3         AMP3    
# ...
   125.7500     61.1074      0.0000    320.8036     14.5718
   126.0000     55.6656      0.0000    320.6681     14.6037
   126.2500     49.3254      0.0000    320.3764     14.5361
   126.5000     43.9683      0.0000    319.9908     14.4812
   126.7500     41.2189      0.0000    319.6123     14.4968
   127.0000     41.7420      0.0000    319.3285     14.5694
   127.2500     45.1520      0.0000    319.1804     14.6481
   127.5000     50.2644      0.0000    319.1605     14.6891
   127.7500     55.5509      0.0000    319.2296     14.6761
   128.0000     59.7361      0.0000    319.3362     14.6137
   128.2500     62.3260      0.0000    319.4363     14.5058
   128.5000     63.7821      0.0000    319.5133     14.3389
   128.7500     65.1858      0.0000    319.5842     14.0882
   129.0000     67.5510      0.0000    319.6844     13.7433
   129.2500     71.2239      0.0000    319.8443     13.3297
   129.5000     75.7867      0.0000    320.0682     12.9018
   129.7500     80.5095      0.0000    320.3293     12.5127
   130.0000     84.8836      0.0000    320.5896     12.1878
   130.2500     88.7725      0.0000    320.8602     11.9274
   130.5000     92.2115      0.0000    321.2910     11.7269
   130.7500     95.1018      0.0000    322.2887     11.5838
   131.0000     96.9901      0.0000    324.5534     11.4798
   131.2500     97.2701      0.0000    328.7764     11.3692
   131.5000     95.8175      0.0000    334.9677     11.2042
   131.7500     93.3696      0.0000    342.0392     10.9733
   132.0000     91.1787      0.0000    348.3297     10.7073
   132.2500     90.2484      0.0000    352.7027     10.4515
   132.5000     90.7221      0.0000    355.0995     10.2374
   132.7500     91.9210      0.0000    356.1544     10.0736
   133.0000     93.1228      0.0000    356.5372      9.9506
   133.2500     94.2259      0.0000    356.6569      9.8561
   133.5000     95.4871      0.0000    356.7068      9.7943
   133.7500     96.8651      0.0000    356.7646      9.7843
   134.0000     98.0561      0.0000    356.8351      9.8299
   134.2500     99.1827      0.0000    356.8797      9.8973
   134.5000    101.0020      0.0000    356.8534      9.9348
   134.7500    104.1733      0.0000    356.7031      9.9129
   135.0000    108.5572      0.0000    356.2818      9.8437
   135.2500    113.3685      0.0000    355.2031      9.7667
   135.5000    117.7611      0.0000    352.7942      9.7227
   135.7500    121.0353      0.0000    348.4318      9.7303
   136.0000    122.4749      0.0000    342.2934      9.7768
   136.2500    121.4321      0.0000    335.8828      9.8254
   136.5000    117.9104      0.0000    331.4956      9.8322
   136.7500    113.0096      0.0000    330.7095      9.7675
   137.0000    108.4819      0.0000    333.1574      9.6325
   137.2500    105.6831      0.0000    336.7992      9.4610
   137.5000    104.9908      0.0000    339.5975      9.2991
   137.7500    105.9714      0.0000    341.0361      9.1797
   138.0000    107.7310      0.0000    341.9995      9.1222
   138.2500    109.3007      0.0000    343.2852      9.1506
   138.5000    110.0746      0.0000    344.3850      9.2891
   138.7500    109.9452      0.0000    343.7610      9.5187
   139.0000    109.1141      0.0000    340.3513      9.7539
   139.2500    108.0141      0.0000    334.7589      9.8943
   139.5000    107.2333      0.0000    328.8427      9.9115
   139.7500    107.1076      0.0000    324.2402      9.8682
   140.0000    107.4394      0.0000    321.4371      9.8475
   140.2500    107.6955      0.0000    320.0370      9.8775
   140.5000    107.2380      0.0000    319.5185      9.9294
   140.7500    105.4260      0.0000    319.6864      9.9721
   141.0000    102.0280      0.0000    320.7488     10.0136
   141.2500     97.7298      0.0000    323.1696     10.0829
   141.5000     93.9000      0.0000    327.2361     10.1749
   141.7500     91.5308      0.0000    332.4695     10.2258
   142.0000     90.5935      0.0000    337.6302     10.1580
   142.2500     90.7414      0.0000    341.7063      9.9518
   142.5000     92.2200      0.0000    344.9031      9.6644
   142.7500     95.2932      0.0000    348.4320      9.3824
   143.0000     98.9976      0.0000    353.6368      9.1709
   143.2500    101.5328      0.0000    361.3632      9.0586
   143.5000    102.0236      0.0000    371.1118      9.0304
   143.7500    101.0704      0.0000    380.0529      9.0049
   144.0000     99.4513      0.0000    384.0273      8.8392
   144.2500     97.1378      0.0000    381.0021      8.4110
   144.5000     93.9003      0.0000    373.1920      7.7304
   144.7500     90.1803      0.0000    364.9696      6.9521
   145.0000     86.8473      0.0000    359.2692      6.2593
   145.2500     84.4109      0.0000    356.5771      5.7490
   145.5000     82.8364      0.0000    356.6020      5.4290
   145.7500     81.9421      1.6919    360.1516      5.2834
   146.0000     81.7017      0.0000    369.4016      5.3084
   146.2500     82.1893      0.0000    385.7925      5.5000
   146.5000     83.2370      0.0000    406.4680      5.8387
   146.7500     84.1546      0.0000    423.1297      6.3009
   147.0000     84.1415      0.0000    426.8947      6.8709
   147.2500     83.3182      0.0000    415.7462      7.5248
   147.5000     83.0773      0.0000    396.3145      8.1982
   147.7500     84.9427      0.0000    377.8900      8.7908
   148.0000     89.0831      0.0000    365.7257      9.2218
   148.2500     94.0712      0.0000    359.8023      9.4821
   148.5000     97.8739      0.0000    357.7048      9.6312
   148.7500     99.0849      0.0000    357.2711      9.7479
   149.0000     97.7294      0.0000    357.3412      9.8804
   149.2500     95.2535      0.0000    357.4683     10.0215
   149.5000     93.5906      0.0000    357.5333     10.1165
   149.7500     93.9000      0.0000    357.5381     10.1093
   150.0000     95.8612      0.0000    357.5447     10.0050
   150.2500     98.0368      0.0000    357.6600      9.8861
   150.5000     99.1088      0.0000    357.9754      9.8556
   150.7500     99.0429      0.0000    358.4490      9.9630
   151.0000     99.0297      0.0000    358.8594     10.1870
   151.2500    100.1559      0.0000    358.9411     10.4770
   151.5000    102.2844      0.0000    358.6184     10.7971
   151.7500    104.5378      0.0000    358.1148     11.1301
   152.0000    106.5612      0.0000    357.9198     11.4539
   152.2500    108.6314      0.0000    358.8589     11.7361
   152.5000    110.7296      0.0000    362.3488     11.9668
   152.7500    112.2659      0.0000    370.1975     12.1951
   153.0000    112.8036      0.0000    382.8408     12.5178
   153.2500    112.5716      0.0000    396.6514     13.0184
   153.5000    112.0472      0.0000    404.0569     13.7084
   153.7500    111.3010      0.0000    399.0350     14.5189
   154.0000    110.1236      0.0000    383.2920     15.3422
   154.2500    108.7655      0.0000    365.2502     16.0919
   154.5000    108.0937      0.0000    352.3146     16.7432
   154.7500    108.7598      0.0000    345.4310     17.3236
   155.0000    110.4879      0.0000    341.0753     17.8654
   155.2500    112.3663      0.0000    336.3856     18.3715
   155.5000    113.5412      0.0000    331.3087     18.8278
   155.7500    113.6363      0.0000    327.1076     19.2253
   156.0000    112.8752      0.0000    324.4606     19.5504
   156.2500    111.8035      0.0000    323.1143     19.7670
   156.5000    110.7397      0.0000    322.5085     19.8342
   156.7500    109.6081      0.0000    322.2628     19.7425
   157.0000    108.2862      0.0000    322.2217     19.5245
   157.2500    106.7781      0.0000    322.3252     19.2420
   157.5000    105.1130      0.0000    322.5119     18.9789
   157.7500    103.4377      0.0000    322.7109     18.8169
   158.0000    102.1531      0.0000    322.8703     18.7802
   158.2500    101.5935      0.0000    322.9695     18.8113
   158.5000    101.5524      0.0000    323.0228     18.8318
   158.7500    101.4357      0.0000    323.0825     18.8247
   159.0000    101.0823      0.0000    323.2123     18.8417
