~Version Information
VERS.                      2.0: CWLS Log ASCII Standard - VERSION 2.0
WRAP.                       NO: One line per depth step
~Well Information Block
STRT.FT                 0.0000: 
STOP.FT              2234.2500: 
STEP.FT                 0.2500: 
NULL.                -999.2500: 
COMP.          Pioner Natural Resources: COMPANY
WELL.          Casablanca 11-28 Tr: WELL
FLD.           Purgatoire River: FIELD
LOC.           422' FNL & 215' FWL--: LOCATION
PROV.                 Colorado: PROVINCE
CNTY.               Las Animas: COUNTRY
SRVC.                         : SERVICE COMPANY
DATE.          Fri Mar 11 13:02:46 2005: LOG DATE
UWI.           005 071 08314  : UNIQUE WELL ID
~Curve Information Block
DEPT.FT            0 000 00 00: Depth
CCL.                          : Casing Collar Locator
TT3.usec                      : CBL 3' Travel Time
AMP3.mV                       : CBL 3' Amplitude
AMP5.mV                       : CBL 5' Amplitude
GR.GAPI                       : Gamma Ray
~Parameter Information Block
~A  Depth       CCL         TT3         AMP3        AMP5         GR     
# ...
  1036.0000      0.0000    769.9091      6.1135     -0.6575    111.7009
  1036.2500      0.0000    768.0472      6.1062      0.2129    110.5748
  1036.5000      0.0000    768.2327      6.1393      0.3000    110.1961
  1036.7500      0.0000    769.3719      6.2344      0.5611    109.4055
  1037.0000      0.0000    769.9371      6.4029      0.5611    106.3667
  1037.2500      0.0000    769.1559      6.6269      0.5611    100.1942
  1037.5000      0.0000    767.4711      6.8635      0.0389     91.9446
  1037.7500      0.0000    765.8331      7.0657      0.2129     84.2174
  1038.0000      0.0000    764.8405      7.2016      0.5611     79.6422
  1038.2500      0.0000    764.6804      7.2614      0.2129     79.1759
  1038.5000      0.0000    765.4777      7.2618      0.4741     81.6680
  1038.7500      0.0000    767.2017      7.2400      0.4741     85.3673
  1039.0000      0.0000    769.2473      7.2319      0.3000     89.7121
  1039.2500      0.0000    770.6058      7.2537      0.9093     95.1750
  1039.5000      0.0000    770.9068      7.3037      0.6482    101.5976
  1039.7500      0.0000    771.1794      7.3716      0.3000    107.4631
  1040.0000      0.0000    773.1362      7.4379      0.1259    111.1017
  1040.2500      0.0000    777.4702      7.4761      0.0389    112.3591
  1040.5000      0.0000    782.8875      7.4634     -0.3093    112.9808
  1040.7500      0.0000    786.7523      7.3898      0.4741    115.5179
  1041.0000      0.0000    786.6640      7.2598      0.9093    121.5924
  1041.2500      0.0000    781.6365      7.0914      2.2150    130.5844
  1041.5000      0.0000    772.5128      6.9158     -0.8316    139.7999
  1041.7500      0.0000    762.1226      6.7642      0.2129    146.1256
  1042.0000      0.0000    754.9614      6.6478      0.8223    147.6921
  1042.2500      0.0000    755.0926      6.5573      1.2575    144.2881
  1042.5000      0.0000    762.7711      6.4910      0.9964    136.8548
  1042.7500      0.0000    773.4180      6.4662      0.6482    127.0877
  1043.0000      0.0000    780.9733      6.4905      0.8223    117.3734
  1043.2500      5.0000    782.4761      6.5412      0.3000    110.3423
  1043.5000     -5.0000    779.6531      6.5870      0.7352    107.6228
  1043.7500      0.0000    776.7670      6.6226      0.7352    108.6171
  1044.0000      0.0000    776.8018      6.6825      2.0409    110.8433
  1044.2500      0.0000    779.0653      6.8323      1.4316    112.2296
  1044.5000      0.0000    780.3028      7.1327      1.6927    113.0523
  1044.7500      0.0000    778.0574      7.5706      1.9539    115.0062
  1045.0000      0.0000    772.7695      8.0229      1.3446    118.5337
  1045.2500      0.0000    766.8740      8.3242      1.1705    122.0830
  1045.5000      0.0000    762.5269      8.3869     -0.1352    124.1600
  1045.7500      0.0000    760.3246      8.2433     -1.0927    124.9809
  1046.0000      0.0000    759.6404      7.9916      2.5632    125.4930
  1046.2500      0.0000    759.5792      7.7300      1.4316    125.7346
  1046.5000      0.0000    759.5767      7.5238      1.9539    124.9630
  1046.7500      0.0000    759.4590      7.3967      1.3446    122.8535
  1047.0000      0.0000    759.2667      7.3326      1.5186    120.0329
  1047.2500      0.0000    759.1100      7.2913      0.7352    117.6595
  1047.5000      0.0000    759.1185      7.2316      1.1705    116.5944
  1047.7500      0.0000    759.4093      7.1294      1.4316    116.8916
  1048.0000      0.0000    760.0137      6.9857      0.9093    118.0971
  1048.2500      0.0000    760.8174      6.8219      0.7352    119.8385
  1048.5000      0.0000    761.5972      6.6667      1.0834    121.8162
  1048.7500      0.0000    762.1384      6.5426      1.2575    123.4991
  1049.0000      0.0000    762.3492      6.4629      1.1705    124.3407
  1049.2500      0.0000    762.3023      6.4367      2.0409    124.4571
  1049.5000      0.0000    762.1829      6.4747      2.5632    124.7759
  1049.7500      0.0000    762.1574      6.5825      2.3021    126.0395
  1050.0000      0.0000    762.1851      6.7483      2.0409    127.8596
  1050.2500      0.0000    761.8722      6.9414      2.1280    129.5056
  1050.5000      0.0000    760.4686      7.1281      2.1280    131.3579
  1050.7500      0.0000    757.2285      7.2899      2.3891    134.4590
  1051.0000      0.0000    752.2762      7.4268      2.3891    138.6950
  1051.2500      0.0000    747.3370      7.5433      2.2150    142.3912
  1051.5000      0.0000    744.9932      7.6351      1.6057    143.7782
  1051.7500      0.0000    746.3632      7.6916      1.8668    142.3025
  1052.0000      0.0000    749.4672      7.7075      2.1280    138.7382
  1052.2500      0.0000    749.9706      7.6878      1.9539    134.7679
  1052.5000      0.0000    743.3490      7.6391      2.1280    132.4752
  1052.7500      0.0000    727.1823      7.5609      1.6057    133.4290
  1053.0000      0.0000    703.3428      7.4504      1.7798    137.5680
  1053.2500      0.0000    678.4423      7.3190      1.6927    143.1194
  1053.5000      0.0000    660.7399      7.1964      1.5186    147.9902
  1053.7500      0.0000    655.3571      7.1128      1.8668    151.1456
  1054.0000      0.0000    661.8466      7.0771      1.3446    152.6393
  1054.2500      0.0000    675.2542      7.0734      2.1280    152.8399
  1054.5000      0.0000    689.3522      7.0774      2.1280    151.9369
  1054.7500      0.0000    700.4878      7.0732      1.6057    149.8956
  1055.0000      0.0000    709.4398      7.0602      1.9539    146.7031
  1055.2500      0.0000    719.2695      7.0490      1.6057    142.8012
  1055.5000      0.0000    731.2870      7.0534      1.8668    139.1926
  1055.7500      0.0000    743.5535      7.0834      2.3891    136.6969
  1056.0000      0.0000    753.1083      7.1418      2.5632    134.9649
  1056.2500      0.0000    758.7429      7.2258      2.1280    132.7209
  1056.5000      0.0000    761.4653      7.3236      1.3446    129.4332
  1056.7500      0.0000    763.1707      7.4120      2.3891    126.3990
  1057.0000      0.0000    765.4139      7.4672      2.3021    125.6467
  1057.2500      0.0000    768.8879      7.4837      1.7798    128.0231
  1057.5000      0.0000    773.3799      7.4778      2.3021    132.8381
  1057.7500      0.0000    778.0463      7.4680      1.9539    139.0226
  1058.0000      0.0000    781.9638      7.4564      1.8668    145.7326
  1058.2500      0.0000    784.5377      7.4318      1.2575    151.6936
  1058.5000      0.0000    785.5807      7.3851      1.6927    154.8081
  1058.7500      0.0000    785.0825      7.3175      1.6927    153.4072
  1059.0000      0.0000    782.9094      7.2345      1.9539    148.2056
  1059.2500      0.0000    778.9704      7.1420      1.3446    142.4580
  1059.5000      0.0000    773.8475      7.0476      0.5611    139.3955
  1059.7500      0.0000    768.8710      6.9550     -0.1352    139.4823
  1060.0000      0.0000    765.2349      6.8553      0.3870    140.4583
  1060.2500      0.0000    763.2463      6.7314      0.3870    139.8026
  1060.5000      0.0000    762.5238      6.5795      0.4741    136.7540
  1060.7500      0.0000    762.6137      6.4168      0.0389    132.1428
  1061.0000      0.0000    763.2534      6.2640      0.6482    126.9322
  1061.2500      0.0000    764.2823      6.1305      0.0389    121.3624
  1061.5000      0.0000    765.5597      6.0193      0.3000    115.2169
  1061.7500      0.0000    767.0582      5.9375     -0.2223    108.3913
  1062.0000      0.0000    768.9891      5.8900     -0.3964    101.2312
  1062.2500      0.0000    771.6811      5.8687      0.2129     94.8362
  1062.5000      0.0000    775.2098      5.8524     -0.3093     91.1375
  1062.7500      0.0000    779.1700      5.8225     -0.1352     92.0196
  1063.0000      0.0000    782.8783      5.7785     -0.1352     97.6955
  1063.2500      0.0000    785.8235      5.7384     -0.0482    106.0108
  1063.5000      0.0000    788.0168      5.7260     -0.3093    113.8342
  1063.7500      0.0000    789.9485      5.7546     -0.2223    119.2839
