~Version Information
VERS.                      2.0: CWLS Log ASCII Standard - VERSION 2.0
WRAP.                       NO: One line per depth step
~Well Information Block
STRT.FT                -8.0000: 
STOP.FT              1540.2500: 
STEP.FT                 0.2500: 
NULL.                -999.2500: 
COMP.          Pioneer Natural Resources: COMPANY
WELL.           Telna 24-22 Tr: WELL
FLD.           Purgatorie River: FIELD
LOC.           748' FSL & 1931' FWL--: LOCATION
PROV.                       CO: PROVINCE
CNTY.               Las Animas: COUNTRY
SRVC.          Patterson Wireline: SERVICE COMPANY
DATE.          Fri May 06 12:29:21 2005: LOG DATE
UWI.           05 071 08304 00: UNIQUE WELL ID
~Curve Information Block
DEPT.FT            0 000 00 00: Depth
CCL.                          : Casing Collar Locator
TT3.usec                      : CBL 3' Travel Time
AMP3.mV                       : CBL 3' Amplitude
GR.GAPI                       : Gamma Ray
~Parameter Information Block
~A  Depth       CCL         TT3         AMP3         GR     
# ...
   695.5000      0.0000    862.8167      5.2417    123.0426
   695.7500      0.0000    862.7309      5.2257    124.3335
   696.0000      0.0000    862.6081      5.2557    125.6889
   696.2500      0.0000    862.4813      5.3159    127.1253
   696.5000      0.0000    862.2781      5.3771    128.3499
   696.7500      0.0000    861.6056      5.4156    128.9215
   697.0000      0.0000    859.5572      5.4334    128.4644
   697.2500      0.0000    855.0450      5.4496    126.9000
   697.5000      0.0000    847.9763      5.4762    124.5483
   697.7500      0.0000    840.3083      5.5139    122.1117
   698.0000      0.0000    834.9425      5.5522    120.5817
   698.2500      0.0000    832.8472      5.5695    120.8951
   698.5000      0.0000    832.3572      5.5538    123.4329
   698.7500      0.0000    832.2161      5.5184    127.6646
   699.0000      0.0000    833.7694      5.4753    132.0962
   699.2500      0.0000    838.7136      5.4112    134.7749
   699.5000      0.0000    846.0544      5.3178    134.3483
   699.7500      0.0000    852.8661      5.2243    130.8441
   700.0000      0.0000    857.2064      5.1676    125.5562
   700.2500      0.0000    859.1938      5.1446    120.5728
   700.5000      0.0000    859.9037      5.1176    118.3904
   700.7500      0.0000    860.1922      5.0574    120.9726
   701.0000      0.0000    860.3937      4.9635    128.1405
   701.2500      0.0000    860.5299      4.8483    136.7921
   701.5000      0.0000    860.5312      4.7233    142.5086
   701.7500      0.0000    860.3725      4.6051    142.6859
   702.0000      0.0000    860.1088      4.5208    138.1599
   702.2500      0.0000    859.8503      4.4987    131.6553
   702.5000      0.0000    859.6794      4.5553    125.1997
   702.7500      0.0000    859.5878      4.6897    119.4670
   703.0000      0.0000    859.5068      4.8815    114.7583
   703.2500      0.0000    859.3978      5.0932    111.5182
   703.5000      0.0000    859.2980      5.2786    110.0723
   703.7500      0.0000    859.2853      5.3976    110.5999
   704.0000      0.0000    859.4225      5.4299    113.3319
   704.2500      0.0000    859.7231      5.3838    118.2215
   704.5000      0.0000    860.1337      5.2967    124.3500
   704.7500      0.0000    860.5560      5.2164    130.2035
   705.0000      0.0000    860.9109      5.1771    134.7100
   705.2500      0.0000    861.1837      5.1938    137.6797
   705.5000      0.0000    861.3853      5.2729    139.4310
   705.7500      0.0000    861.4659      5.4160    140.3251
   706.0000      0.0000    861.1628      5.6128    140.2849
   706.2500      0.0000    859.6504      5.8362    138.4696
   706.5000      0.0000    855.0601      6.0448    133.9998
   706.7500      0.0000    844.5518      6.1951    127.5437
   707.0000      0.0000    826.2928      6.2653    121.9013
   707.2500      0.0000    802.9514      6.2686    120.3046
   707.5000      0.0000    782.7595      6.2342    123.6495
   707.7500      0.0000    774.7316      6.1765    129.5069
   708.0000      0.0000    781.5475      6.0925    134.1369
   708.2500      0.0000    797.2524      5.9856    135.4205
   708.5000      0.0000    810.6693      5.8813    133.7921
   708.7500      0.0000    809.9915      5.8126    130.8954
   709.0000      0.0000    787.0005      5.7888    127.9563
   709.2500      0.0000    741.7045      5.7866    125.4043
   709.5000      0.0000    684.3169      5.7780    123.6304
   709.7500      0.0000    630.2641      5.7583    123.5715
   710.0000      0.0000    590.9113      5.7434    126.0792
   710.2500      0.0000    568.4426      5.7436    130.8862
   710.5000      0.0000    558.4622      5.7531    136.6883
   710.7500      0.0000    555.6147      5.7653    142.0276
   711.0000      0.0000    556.5769      5.7862    145.7148
   711.2500      0.0000    559.2784      5.8220    147.0288
   711.5000      0.0000    560.5039      5.8606    146.3048
   711.7500      0.0000    554.7311      5.8769    145.0074
   712.0000      0.0000    536.4251      5.8626    144.5043
   712.2500      0.0000    505.0968      5.8421    144.9261
   712.5000      0.0000    468.3891      5.8499    145.3419
   712.7500      0.0000    439.0091      5.8938    144.3213
   713.0000      0.0000    427.5901      5.9463    140.2654
   713.2500      0.0000    437.2930      5.9720    132.4346
   713.5000      0.0000    463.4270      5.9641    122.1557
   713.7500      0.0000    497.2632      5.9506    112.1635
   714.0000      0.0000    530.9452      5.9673    104.3509
   714.2500      0.0000    559.6970      6.0262     98.6793
   714.5000      0.0000    581.3710      6.1132     94.3556
   714.7500      0.0000    597.2037      6.2090     91.3213
   715.0000      0.0000    612.8841      6.3025     89.9935
   715.2500      0.0000    634.8876      6.3795     89.8547
   715.5000      0.0000    664.3170      6.4090     89.1627
   715.7500      0.0000    696.4973      6.3612     86.3362
   716.0000      0.0000    726.8639      6.2396     81.2062
   716.2500      0.0000    754.9314      6.0860     74.9821
   716.5000      0.0000    781.7360      5.9621     69.5485
   716.7500      0.0000    805.2904      5.9257     66.6457
   717.0000      0.0000    820.5297      5.9921     66.8756
   717.2500      0.0000    824.1082      6.1071     69.2170
   717.5000      0.0000    818.9462      6.1834     71.9359
   717.7500      0.0000    813.4535      6.1751     74.1584
   718.0000      0.0000    815.4009      6.0994     76.3821
   718.2500      0.0000    825.9946      5.9948     79.5079
   718.5000      0.0000    840.1100      5.8901     83.6365
   718.7500      0.0000    851.7773      5.8104     87.8244
   719.0000      0.0000    858.5426      5.7774     90.7786
   719.2500      0.0000    861.3275      5.7926     91.6326
   719.5000      0.0000    862.0473      5.8462     90.2746
   719.7500      0.0000    862.0570      5.9454     87.3825
   720.0000      0.0000    861.9592      6.1012     84.1548
   720.2500      0.0000    861.9438      6.2789     81.4612
   720.5000      0.0000    862.0772      6.3966     79.0852
   720.7500      0.0000    862.4006      6.3949     76.2418
   721.0000      0.0000    862.8668      6.2958     72.9201
   721.2500      0.0000    863.2323      6.1742     70.3111
   721.5000      0.0000    862.9219      6.0821     69.9105
   721.7500      0.0000    860.8826      6.0227     72.6030
   722.0000      0.0000    855.4892      5.9825     78.5593
   722.2500      0.0000    845.0006      5.9503     87.4742
   722.5000      0.0000    829.1969      5.9033     98.5717
   722.7500      0.0000    811.3875      5.8165    110.4356
   723.0000      0.0000    797.6761      5.6975    121.0274
   723.2500      0.0000    792.1105      5.5888    128.1318
   723.5000      0.0000    792.4282      5.5215    130.2486
   723.7500      0.0000    791.7704      5.4833    127.5350
   724.0000      0.0000    783.9661      5.4404    121.9692
   724.2500      0.0000    767.2785      5.3811    116.3345
   724.5000      0.0000    746.6995      5.3220    112.8475
   724.7500      2.0000    733.8236      5.2715    112.4798
   725.0000      0.0000    739.2844      5.2162    115.0745
   725.2500      0.0000    761.8621      5.1709    119.8400
   725.5000      0.0000    787.9128      5.2167    125.8117
   725.7500      0.0000    803.4573      5.4275    131.8956
   726.0000      0.0000    805.0417      5.7526    136.7542
   726.2500      0.0000    799.2165      6.0292    139.1758
   726.5000      0.0000    794.6685      6.1350    138.8022
   726.7500      0.0000    795.7932      6.0873    136.4132
   727.0000      0.0000    801.5089      5.9819    133.5588
   727.2500      0.0000    807.9260      5.8855    132.0403
   727.5000      0.0000    811.4787      5.8171    133.3465
   727.7500      0.0000    810.3831      5.7852    137.7360
   728.0000      0.0000    804.7653      5.7900    143.5821
   728.2500      0.0000    796.6656      5.7996    148.1054
   728.5000      0.0000    789.7065      5.7729    149.1905
   728.7500      0.0000    787.7341      5.7037    146.6009
