~Version Information
 VERS.                                  2.0 : CWLS LAS VERSION
 WRAP.                                   NO : WRAPING MODE
 SWARE .                 MController 2.5.0J : SOFTWARE VERSION
~Well Information
 WELL.                      Victory 12-14Tr : WELL
 COMP.    Pioneer Natural Resources USA Inc : COMPANY
 FLD.                      Purgatoire River : FIELD
 LOC.                SW/NW Sec 14 T32S R66W : LOCATION
 DATE.                           7/16-17/05 : DATE(S) LOGGED
 SRVC.       BLANCO Geological Services LLC : SERVICE COMPANY
 STAT.                                   CO : STATE
 CNTY.                           Las Animas : COUNTY
 CTRY.                                  USA : COUNTRY
 API.                       05-071-08433-00 : API NUMBER
 STRT.FT                             797.00 : START DEPTH
 STOP.FT                            1900.00 : STOP DEPTH
 STEP.FT                               1.00 : DEPTH INCREMENT
 NULL.                                -9999 : NULL VALUE
~Curve information
 DEPTH.FT                                   :
 ROP.MIN/FT                                 :
 GAS.UNITS                                  :
~ASCII Log data
# ...
      1197.0         0.27         46.2 
      1198.0         0.13         44.1 
      1199.0         0.27         38.3 
      1200.0         0.33         37.2 
      1201.0         0.28         26.8 
      1202.0         0.50         18.7 
      1203.0         0.40         17.0 
      1204.0         0.23         15.5 
      1205.0         0.20         16.5 
      1206.0         0.23         16.3 
      1207.0         0.27         16.1 
      1208.0         0.23         15.6 
      1209.0         0.27         15.8 
      1210.0         0.27         16.4 
      1211.0         0.33         16.6 
      1212.0         0.28         16.1 
      1213.0         0.23         17.0 
      1214.0         0.23         16.0 
      1215.0         0.23         15.4 
      1216.0         0.20         15.3 
      1217.0         0.23         16.2 
      1218.0         0.33         16.5 
      1219.0         0.33         15.1 
      1220.0         0.23         16.2 
      1221.0         0.23         15.5 
      1222.0         0.23         16.0 
      1223.0         0.20         16.0 
      1224.0         0.23         15.2 
      1225.0         0.20         14.7 
      1226.0         2.55         48.9 
      1227.0         0.43         34.2 
      1228.0         0.33         23.1 
      1229.0         0.32         20.3 
      1230.0         0.20         16.6 
      1231.0         0.27         15.8 
      1232.0         0.23         17.2 
      1233.0         0.20         16.7 
      1234.0         0.17         16.5 
      1235.0         0.20         16.9 
      1236.0         0.23         16.1 
      1237.0         0.13         16.1 
      1238.0         0.13         17.1 
      1239.0         0.20         15.8 
      1240.0         0.27         16.1 
      1241.0         0.20         15.8 
      1242.0         0.20         15.1 
      1243.0         0.20         15.0 
      1244.0         0.23         15.1 
      1245.0         0.35         15.7 
      1246.0         0.27         15.0 
      1247.0         0.20         14.3 
      1248.0         0.20         14.6 
      1249.0         0.23         14.3 
      1250.0         0.20         14.2 
      1251.0         0.23         14.2 
      1252.0         0.23         14.0 
      1253.0         0.33         14.1 
      1254.0         0.30         14.3 
      1255.0         0.20         13.6 
      1256.0         1.52         25.7 
      1257.0         0.50         25.9 
      1258.0         0.37         22.9 
      1259.0         0.30         20.2 
      1260.0         0.27         16.7 
      1261.0         0.23         16.2 
      1262.0         0.20         14.5 
      1263.0         0.23         13.9 
      1264.0         0.23         14.0 
      1265.0         0.20         13.6 
      1266.0         0.22         14.2 
      1267.0         0.20         13.9 
      1268.0         0.20         14.3 
      1269.0         0.20         13.9 
      1270.0         0.23         14.5 
      1271.0         0.23         15.8 
      1272.0         0.17         16.9 
      1273.0         0.13         17.9 
      1274.0         0.13         20.7 
      1275.0         0.13         20.7 
      1276.0         0.13         21.6 
      1277.0         0.13         21.6 
      1278.0         0.13         22.0 
      1279.0         0.17         20.3 
      1280.0         0.13         20.3 
      1281.0         0.20         19.1 
      1282.0         0.17         19.1 
      1283.0         0.13         18.6 
      1284.0         0.17         16.6 
      1285.0         0.13         16.0 
      1286.0         4.80        151.9 
      1287.0         0.17         37.6 
      1288.0         0.13         39.6 
      1289.0         0.13         39.6 
      1290.0         0.17         37.0 
      1291.0         0.23         33.4 
      1292.0         0.20         30.5 
      1293.0         0.17         30.5 
      1294.0         0.27         29.9 
      1295.0         0.48         20.4 
      1296.0         0.27         18.6 
      1297.0         0.27         18.9 
      1298.0         0.47         22.5 
      1299.0         0.27         23.2 
      1300.0         0.30         23.7 
      1301.0         1.50         24.8 
      1302.0         0.32         26.1 
      1303.0         0.27         25.4 
      1304.0         0.27         25.8 
      1305.0         0.17         24.6 
      1306.0         0.13         24.9 
      1307.0         0.20         23.9 
      1308.0         0.13         23.9 
      1309.0         0.20         22.3 
      1310.0         0.23         22.1 
      1311.0         0.27         19.2 
      1312.0         0.23         19.2 
      1313.0         0.23         19.5 
      1314.0         0.17         19.6 
      1315.0         0.23         18.6 
      1316.0         2.48         31.3 
      1317.0         0.63         34.9 
      1318.0         0.37         29.8 
      1319.0         0.27         27.7 
      1320.0         0.32         25.0 
      1321.0         0.27         23.4 
      1322.0         0.30         22.9 
      1323.0         0.27         21.2 
      1324.0         0.27         21.6 
      1325.0         0.23         20.3 
      1326.0         0.20         20.1 
      1327.0         0.47         19.4 
      1328.0         0.43         18.9 
      1329.0         0.47         18.2 
      1330.0         0.48         17.4 
      1331.0         0.23         17.4 
      1332.0         0.17         17.2 
      1333.0         0.20         17.2 
      1334.0         0.17         17.1 
      1335.0         0.20         17.9 
      1336.0         0.20         16.8 
      1337.0         0.13         16.5 
      1338.0         0.20         16.3 
      1339.0         0.20         16.3 
      1340.0         0.23         17.8 
      1341.0         0.17         17.8 
      1342.0         0.17         20.5 
      1343.0         0.30         20.4 
      1344.0         0.23         19.9 
      1345.0         0.10         19.9 
      1346.0         2.05         51.8 
      1347.0         0.43         54.0 
      1348.0         0.27         51.2 
      1349.0         0.23         60.7 
      1350.0         0.27        148.6 
      1351.0         0.28        146.7 
      1352.0         0.20         76.0 
      1353.0         0.30         59.3 
      1354.0         0.17         44.2 
      1355.0         0.27         40.4 
      1356.0         0.23         35.8 
      1357.0         0.10         33.6 
      1358.0         0.27         32.2 
      1359.0         0.30         31.2 
      1360.0         0.30         29.0 
      1361.0         0.27         27.0 
      1362.0         0.23         25.8 
      1363.0         0.23         25.4 
      1364.0         0.23         23.2 
      1365.0         0.22         23.9 
      1366.0         0.10         23.9 
      1367.0         0.20         23.5 
      1368.0         0.17         22.6 
      1369.0         0.23         23.3 
      1370.0         0.23         21.6 
      1371.0         0.23         22.3 
      1372.0         0.23         21.0 
      1373.0         0.23         20.8 
      1374.0         0.23         18.5 
      1375.0         0.63         18.2 
      1376.0         1.75         47.6 
      1377.0         0.37         45.7 
      1378.0         0.30         36.1 
      1379.0         0.30         36.5 
      1380.0         0.23         32.6 
      1381.0         0.27         49.8 
      1382.0         0.33         80.7 
      1383.0         0.20         94.6 
      1384.0         0.17         95.9 
      1385.0         0.32        102.9 
      1386.0         0.27        105.6 
      1387.0         0.30        110.1 
      1388.0         0.23        112.6 
      1389.0         0.20        112.6 
      1390.0         0.20        111.0 
      1391.0         0.17        110.2 
      1392.0         0.23        110.3 
      1393.0         0.47        111.0 
      1394.0         0.40        110.9 
      1395.0         0.27        106.6 
      1396.0         0.17        106.6 
