~Version Information
VERS.                      2.0: CWLS Log ASCII Standard - VERSION 2.0
WRAP.                       NO: One line per depth step
~Well Information Block
STRT.FT               -12.5000: 
STOP.FT              2487.7500: 
STEP.FT                 0.2500: 
NULL.                -999.2500: 
COMP.          Petrogulf Corporation: COMPANY
WELL.             Royal 8-33 V: WELL
FLD.           Purgatorie River: FIELD
LOC.           2365' FSL & 2336' FEL--: LOCATION
CNTY.               Las Animas: COUNTY
SRVC.                         : SERVICE COMPANY
DATE.          Sat Jan 17 11:43:49 2004: LOG DATE
UWI.           05 071 07934 00: UNIQUE WELL ID
STAT.                       CO: STATE
~Curve Information Block
DEPT.FT            0 000 00 00: Depth
CCL.                          : Casing Collar Locator
TT3.usec                      : CBL 3' Travel Time
AMP3.mV                       : CBL 3' Amplitude
GR.GAPI                       : Gamma Ray
~Parameter Information Block
~A  Depth       CCL         TT3         AMP3         GR     
# ...
  1160.0000      0.0000    375.8427      4.0007     84.8775
  1160.2500      0.0000    375.5892      3.9881     80.3180
  1160.5000      0.0000    375.5368      3.9180     76.6602
  1160.7500      0.0000    375.7049      3.8466     75.3318
  1161.0000      0.0000    376.0080      3.7952     76.7409
  1161.2500      0.0000    376.2840      3.7618     80.3632
  1161.5000      0.0000    376.3632      3.7404     85.2179
  1161.7500      0.0000    376.1568      3.7128     90.2297
  1162.0000      0.0000    375.7133      3.6522     94.5197
  1162.2500      0.0000    375.1908      3.5585     97.6407
  1162.5000      0.0000    374.7601      3.4744     99.6106
  1162.7500      0.0000    374.5139      3.4521    100.7505
  1163.0000      0.0000    374.4350      3.5063    101.3693
  1163.2500      0.0000    374.4357      3.6086    101.3804
  1163.5000      0.0000    374.4382      3.7189    100.2505
  1163.7500      0.0000    374.4601      3.8127     97.5684
  1164.0000      0.0000    374.6581      3.8825     93.9182
  1164.2500      0.0000    375.4891      3.9258     91.1308
  1164.5000      0.0000    378.2386      3.9378     91.1661
  1164.7500      0.0000    385.9563      3.9083     94.2616
  1165.0000      0.0000    403.7903      3.8280     98.2874
  1165.2500      0.0000    436.7914      3.7089    100.3058
  1165.5000      0.0000    484.8513      3.5939     98.7523
  1165.7500      0.0000    538.8420      3.5312     94.1312
  1166.0000      0.0000    583.1901      3.5405     88.2176
  1166.2500      0.0000    604.3297      3.6145     83.0502
  1166.5000      0.0000    599.2520      3.7438     80.2707
  1166.7500      0.0000    579.1156      3.9180     80.5320
  1167.0000      0.0000    564.5056      4.0975     83.1636
  1167.2500      0.0000    572.0293      4.2031     86.6993
  1167.5000      0.0000    601.7147      4.1553     90.0944
  1167.7500      0.0000    638.4891      3.9312     93.3936
  1168.0000      0.0000    666.4821      3.5912     97.2577
  1168.2500      0.0000    680.5129      3.2589    102.2470
  1168.5000      0.0000    685.2659      3.0568    108.7021
  1168.7500      0.0000    687.3669      3.0295    116.6146
  1169.0000      0.0000    689.6292      3.1192    124.8720
  1169.2500      0.0000    691.2299      3.2287    130.8926
  1169.5000      0.0000    691.3750      3.3164    132.0311
  1169.7500      0.0000    691.7521      3.4217    127.7216
  1170.0000      0.0000    695.4351      3.6013    119.6851
  1170.2500      0.0000    704.0934      3.8613    109.9930
  1170.5000      0.0000    716.8318      4.1580     99.6479
  1170.7500      0.0000    731.4202      4.4392     89.1043
  1171.0000      0.0000    745.6871      4.6714     79.4935
  1171.2500      0.0000    757.1879      4.8444     72.9298
  1171.5000      0.0000    762.7419      4.9678     71.4673
  1171.7500     -4.0000    760.5164      5.0547     75.4600
  1172.0000      0.0000    752.8516      5.1082     82.8078
  1172.2500      0.0000    745.1567      5.1226     90.0730
  1172.5000      0.0000    741.5563      5.0740     94.6985
  1172.7500      0.0000    742.9125      4.9103     96.3305
  1173.0000      0.0000    748.7200      4.6058     96.1817
  1173.2500      0.0000    758.8215      4.2482     95.4422
  1173.5000      0.0000    772.8474      4.0193     94.4424
  1173.7500      0.0000    789.9527      4.0418     93.1018
  1174.0000      0.0000    810.0953      4.2616     91.8029
  1174.2500      0.0000    833.7805      4.5023     91.5972
  1174.5000      0.0000    858.8093      4.6239     93.5040
  1174.7500      0.0000    878.2924      4.6210     97.7536
  1175.0000      0.0000    884.1285      4.5945    103.9061
  1175.2500      0.0000    873.0790      4.6499    111.5851
  1175.5000      0.0000    849.3016      4.8202    120.6508
  1175.7500      0.0000    821.5317      5.0528    130.5097
  1176.0000      0.0000    797.5305      5.2451    139.6747
  1176.2500      0.0000    779.6907      5.2968    146.4412
  1176.5000      0.0000    764.9494      5.1555    149.8403
  1176.7500      0.0000    748.2193      4.8354    149.6608
  1177.0000      0.0000    724.8311      4.4065    145.8916
  1177.2500      0.0000    690.1862      3.9721    138.8076
  1177.5000      0.0000    640.2011      3.6363    129.5473
  1177.7500      0.0000    575.4312      3.4521    119.9309
  1178.0000      0.0000    504.8254      3.3851    111.4545
  1178.2500      0.0000    442.6568      3.3428    104.7417
  1178.5000      0.0000    399.8831      3.2529     99.9520
  1178.7500      0.0000    378.2928      3.1133     97.3255
  1179.0000      0.0000    372.0553      2.9797     96.9973
  1179.2500      0.0000    373.2694      2.9190     98.3575
  1179.5000      0.0000    376.2483      2.9682    100.0236
  1179.7500      0.0000    378.6131      3.1115    100.7203
  1180.0000      0.0000    380.2776      3.2813    100.0993
  1180.2500      0.0000    382.2494      3.3904     98.6849
  1180.5000      0.0000    386.4259      3.3887     97.2567
  1180.7500      0.0000    396.4673      3.3010     96.3768
  1181.0000      0.0000    418.1819      3.2011     96.3169
  1181.2500      0.0000    456.9699      3.1476     97.3196
  1181.5000      0.0000    512.2614      3.1458     99.8794
  1181.7500      0.0000    574.2565      3.1607    104.5584
  1182.0000      0.0000    628.4796      3.1582    111.3405
  1182.2500      0.0000    664.9069      3.1395    119.2472
  1182.5000      0.0000    682.4966      3.1358    126.5316
  1182.7500      0.0000    686.2988      3.1653    131.2521
  1183.0000      0.0000    682.7086      3.2008    132.2890
  1183.2500      0.0000    677.3049      3.1918    130.3054
  1183.5000      0.0000    674.3007      3.1130    127.2971
  1183.7500      0.0000    675.8418      2.9859    124.9100
  1184.0000      0.0000    681.7678      2.8602    123.5420
  1184.2500      0.0000    690.6088      2.7789    122.9145
  1184.5000      0.0000    700.9816      2.7544    122.7236
  1184.7500      0.0000    712.4450      2.7702    122.5010
  1185.0000      0.0000    725.5658      2.7942    121.2382
  1185.2500      0.0000    740.9403      2.7947    117.4252
  1185.5000      0.0000    757.5461      2.7622    109.8810
  1185.7500      0.0000    772.3657      2.7223     99.1361
  1186.0000      0.0000    782.0895      2.7118     87.8424
  1186.2500      0.0000    784.8235      2.7340     79.2024
  1186.5000      0.0000    780.0766      2.7533     74.9686
  1186.7500      0.0000    768.0874      2.7387     75.0429
  1187.0000      0.0000    749.8221      2.7056     78.3312
  1187.2500      0.0000    727.3831      2.7037     83.5088
  1187.5000      0.0000    703.6222      2.7667     89.4434
  1187.7500      0.0000    680.7329      2.8813     95.3578
  1188.0000      0.0000    659.3679      3.0076    100.4933
  1188.2500      0.0000    639.1923      3.1189    103.6920
  1188.5000      0.0000    619.1041      3.2092    103.8980
  1188.7500      0.0000    596.6369      3.2735    101.4088
  1189.0000      0.0000    570.8506      3.3023     98.2713
  1189.2500     -4.0000    548.3601      3.2997     96.8440
  1189.5000      0.0000    542.4542      3.2947     97.8212
  1189.7500      0.0000    561.5715      3.3189     99.9489
  1190.0000      0.0000    599.8028      3.3694    101.7318
  1190.2500      0.0000    641.2496      3.4003    102.9810
  1190.5000      0.0000    672.3477      3.3603    104.5213
  1190.7500      0.0000    688.4363      3.2447    106.8730
  1191.0000      0.0000    690.6758      3.1070    109.6611
  1191.2500      0.0000    680.7460      3.0133    112.0780
  1191.5000      0.0000    660.3360      2.9911    113.4769
  1191.7500      0.0000    634.3530      3.0216    113.7188
  1192.0000      0.0000    610.8438      3.0588    113.4571
  1192.2500      0.0000    594.6097      3.0467    113.9695
  1192.5000      0.0000    581.6486      2.9501    116.0197
  1192.7500      0.0000    562.5933      2.7931    118.5626
  1193.0000      0.0000    532.3143      2.6512    118.9597
  1193.2500      0.0000    495.1257      2.5828    115.0247
