~Version Information
VERS.                      2.0: CWLS Log ASCII Standard - VERSION 2.0
WRAP.                       NO: One line per depth step
~Well Information Block
STRT.FT                -9.2500: 
STOP.FT              2685.7500: 
STEP.FT                 0.2500: 
NULL.                -999.2500: 
COMP.          Pioneer Natural Resources: COMPANY
WELL.          Beacon 11-18 Tr: WELL
FLD.           Purgatorie River: FIELD
LOC.           409' FNL & 203' FWL--: LOCATION
PROV.                       CO: PROVINCE
CNTY.               Las Animas: COUNTRY
SRVC.                         : SERVICE COMPANY
DATE.          Fri Jan 21 09:45:44 2005: LOG DATE
UWI.        005 071 08251  : UNIQUE WELL ID
~Curve Information Block
DEPT.FT            0 000 00 00: Depth
CCL.                          : Casing Collar Locator
TT3.usec                      : CBL 3' Travel Time
AMP3.mV                       : CBL 3' Amplitude
GR.GAPI                       : Gamma Ray
~Parameter Information Block
~A  Depth       CCL         TT3         AMP3         GR     
# ...
   359.2500      0.0000    264.0236     67.5893     59.7996
   359.5000      0.0000    264.0352     67.5714     60.4957
   359.7500      0.0000    264.0378     67.4339     59.1931
   360.0000      0.0000    264.0802     66.9241     56.6770
   360.2500      0.0000    264.2833     65.5931     53.6342
   360.5000      0.0000    264.8278     62.9780     50.7640
   360.7500      0.0000    265.8615     58.9814     48.7956
   361.0000      0.0000    267.3530     54.1628     47.9126
   361.2500      0.0000    269.0316     49.5613     47.3419
   361.5000      0.0000    270.5152     46.1048     46.0577
   361.7500      0.0000    271.5373     44.1390     43.9605
   362.0000      0.0000    272.0716     43.4256     41.9180
   362.2500      0.0000    272.2755     43.4423     40.6637
   362.5000      2.0000    272.3429     43.7171     40.3045
   362.7500     -2.0000    272.3947     44.0606     40.8455
   363.0000      0.0000    272.4512     44.6796     42.2565
   363.2500      0.0000    272.4488     46.1554     43.8132
   363.5000      0.0000    272.2647     49.1395     44.2144
   363.7500      0.0000    271.7603     53.6950     42.8839
   364.0000      0.0000    270.8588     58.8376     40.7703
   364.2500      0.0000    269.6190     63.0496     39.4443
   364.5000      0.0000    268.2397     65.4450     39.5728
   364.7500      0.0000    266.9802     66.2726     40.5952
   365.0000      0.0000    266.0397     66.3359     41.7514
   365.2500      0.0000    265.4727     66.2325     42.9039
   365.5000      0.0000    265.1996     66.1596     44.1240
   365.7500      0.0000    265.0916     66.1133     44.9421
   366.0000      0.0000    265.0502     66.0648     44.5719
   366.2500      0.0000    265.0309     66.0017     42.8132
   366.5000      0.0000    265.0255     65.9227     40.3500
   366.7500      0.0000    265.0351     65.8298     38.0746
   367.0000      0.0000    265.0545     65.7286     36.3378
   367.2500      0.0000    265.0724     65.6268     35.0533
   367.5000      0.0000    265.0783     65.5322     34.3403
   367.7500      0.0000    265.0688     65.4498     34.6816
   368.0000      0.0000    265.0468     65.3811     36.4627
   368.2500      0.0000    265.0194     65.3265     39.6700
   368.5000      0.0000    264.9942     65.2869     44.0422
   368.7500      0.0000    264.9771     65.2598     49.2231
   369.0000      0.0000    264.9713     65.2341     54.8575
   369.2500      0.0000    264.9786     65.1913     60.8342
   369.5000      0.0000    264.9998     65.1167     67.3147
   369.7500      0.0000    265.0308     65.0109     74.1437
   370.0000      0.0000    265.0608     64.8962     80.3339
   370.2500      0.0000    265.0762     64.8083     84.7141
   370.5000      0.0000    265.0705     64.7680     87.3385
   370.7500      0.0000    265.0512     64.7564     89.8835
   371.0000      0.0000    265.0330     64.7249     94.1101
   371.2500      0.0000    265.0254     64.6332     99.6415
   371.5000      0.0000    265.0265     64.4775    103.4653
   371.7500      0.0000    265.0285     64.2870    102.3167
   372.0000      0.0000    265.0260     64.0962     95.9522
   372.2500      0.0000    265.0204     63.9175     87.7896
   372.5000      0.0000    265.0174     63.7350     82.0970
   372.7500      0.0000    265.0199     63.5265     80.8087
   373.0000      0.0000    265.0253     63.2888     83.0469
   373.2500      0.0000    265.0298     63.0330     86.8184
   373.5000      0.0000    265.0363     62.7576     90.4719
   373.7500      0.0000    265.0534     62.4416     93.0469
   374.0000      0.0000    265.0865     62.0774     94.1156
   374.2500      0.0000    265.1303     61.6984     93.4036
   374.5000      0.0000    265.1730     61.3551     90.5859
   374.7500      0.0000    265.2068     61.0639     85.8827
   375.0000      0.0000    265.2326     60.7959     80.7630
   375.2500      0.0000    265.2544     60.5206     77.3598
   375.5000      0.0000    265.2726     60.2457     76.9133
   375.7500      0.0000    265.2870     60.0085     78.9583
   376.0000      0.0000    265.3010     59.8412     81.9917
   376.2500      0.0000    265.3201     59.7476     84.7152
   376.5000      0.0000    265.3478     59.6938     86.5559
   376.7500      0.0000    265.3859     59.6090     87.2900
   377.0000      0.0000    265.4359     59.4104     86.7870
   377.2500      0.0000    265.4972     59.0578     85.4009
   377.5000      0.0000    265.5629     58.5973     84.1274
   377.7500      0.0000    265.6217     58.1443     83.8905
   378.0000      0.0000    265.6645     57.8170     84.9002
   378.2500      0.0000    265.6922     57.6749     87.0263
   378.5000      0.0000    265.7128     57.6992     90.4501
   378.7500      0.0000    265.7312     57.8169     95.3569
   379.0000      0.0000    265.7425     57.9458    100.9242
   379.2500      0.0000    265.7374     58.0264    105.1093
   379.5000      0.0000    265.7167     58.0294    106.0297
   379.7500      0.0000    265.6973     57.9591    103.7266
   380.0000      0.0000    265.7013     57.8505    100.5317
   380.2500      0.0000    265.7378     57.7460     99.7604
   380.5000      0.0000    265.7942     57.6657    103.9731
   380.7500      0.0000    265.8445     57.6020    113.8084
   381.0000      0.0000    265.8665     57.5387    127.4854
   381.2500      0.0000    265.8553     57.4639    141.0541
   381.5000      0.0000    265.8266     57.3672    149.9762
   381.7500      0.0000    265.8053     57.2395    151.6210
   382.0000      0.0000    265.8080     57.0815    146.6780
   382.2500      0.0000    265.8303     56.9151    138.2385
   382.5000      0.0000    265.8546     56.7835    129.6780
   382.7500      0.0000    265.8676     56.7323    123.1517
   383.0000      0.0000    265.8690     56.7771    119.2862
   383.2500      0.0000    265.8643     56.8827    117.6576
   383.5000      0.0000    265.8557     56.9761    117.2886
   383.7500      0.0000    265.8413     56.9918    116.8089
   384.0000      0.0000    265.8214     56.9148    114.9723
   384.2500      0.0000    265.8016     56.7833    111.6460
   384.5000      0.0000    265.7910     56.6476    107.8514
   384.7500      0.0000    265.7965     56.5302    104.2982
   385.0000      0.0000    265.8172     56.4264    100.5134
   385.2500      0.0000    265.8421     56.3333     96.0541
   385.5000      0.0000    265.8571     56.2653     91.9203
   385.7500      0.0000    265.8554     56.2440     89.8013
   386.0000      0.0000    265.8429     56.2793     90.3241
   386.2500      0.0000    265.8306     56.3603     92.7572
   386.5000      0.0000    265.8216     56.4650     96.0012
   386.7500      0.0000    265.8087     56.5757     99.1233
   387.0000      0.0000    265.7842     56.6891    101.3665
   387.2500      0.0000    265.7492     56.8148    102.6042
   387.5000      0.0000    265.7145     56.9650    103.6922
   387.7500      0.0000    265.6937     57.1423    105.5552
   388.0000      0.0000    265.6926     57.3442    107.8741
   388.2500      0.0000    265.7026     57.5732    109.3367
   388.5000      0.0000    265.7052     57.8292    109.1744
   388.7500      0.0000    265.6877     58.0905    107.7227
   389.0000      0.0000    265.6556     58.3178    105.5138
   389.2500      0.0000    265.6232     58.4882    102.6546
   389.5000      0.0000    265.5947     58.6188     99.3440
   389.7500      0.0000    265.5588     58.7522     96.3951
   390.0000      0.0000    265.5046     58.9210     94.8298
   390.2500      0.0000    265.4369     59.1234     94.9896
   390.5000      0.0000    265.3755     59.3238     96.0976
   390.7500      0.0000    265.3409     59.4764     96.7168
   391.0000      0.0000    265.3393     59.5677     96.0173
   391.2500      0.0000    265.3579     59.6425     94.7085
   391.5000      0.0000    265.3739     59.7676     94.1610
   391.7500      0.0000    265.3720     59.9628     94.3446
   392.0000      0.0000    265.3532     60.1845     93.3294
   392.2500      0.0000    265.3275     60.3849     89.6569
   392.5000      0.0000    265.3014     60.5684     84.7153
