~Version Information
VERS.                      2.0: CWLS Log ASCII Standard - VERSION 2.0
WRAP.                       NO: One line per depth step
~Well Information Block
STRT.FT                10.0000: 
STOP.FT              1066.5000: 
STEP.FT                 0.2500: 
NULL.                -999.2500: 
COMP.          Pioneer Natural Resources: COMPANY
WELL.            Redland 23-24: WELL
FLD.           Purgatoire River: FIELD
LOC.           2356' FSL & 1880' FWL----: LOCATION
PROV.                 Colorado: PROVINCE
CNTY.               Las Animas: COUNTRY
SRVC.                         : SERVICE COMPANY
DATE.          Thu Mar 24 10:01:02 2005: LOG DATE
UWI.           05 071 08221   : UNIQUE WELL ID
~Curve Information Block
DEPT.FT            0 000 00 00: Depth
CCL.                          : Casing Collar Locator
TT3.usec                      : CBL 3' Travel Time
AMP3.mV                       : CBL 3' Amplitude
AMP5.mV                       : CBL 5' Amplitude
GR.GAPI                       : Gamma Ray
~Parameter Information Block
~A  Depth       CCL         TT3         AMP3        AMP5         GR     
# ...
   766.0000      0.0000    794.5642      5.5031      3.6948     63.1188
   766.2500      0.0000    804.0013      5.7599      2.6503     63.1009
   766.5000      0.0000    814.5200      6.0698      2.2150     62.6563
   766.7500      0.0000    822.1064      6.3537      2.0409     62.4068
   767.0000      0.0000    822.3755      6.5226      1.7798     63.0537
   767.2500      0.0000    813.8629      6.5180      2.3891     64.4346
   767.5000      0.0000    799.5886      6.3410      2.8244     65.7277
   767.7500      0.0000    786.2231      6.0491      1.8668     66.5352
   768.0000      0.0000    780.2803      5.7301      1.7798     67.2570
   768.2500      0.0000    784.4541      5.4773      3.4337     68.3167
   768.5000      0.0000    798.1931      5.3675      2.9114     69.5628
   768.7500      0.0000    819.9317      5.4359      2.6503     70.5769
   769.0000      0.0000    846.1744      5.6518      1.6057     71.1029
   769.2500      0.0000    870.2653      5.9253      1.6057     71.0360
   769.5000      0.0000    885.0031      6.1506      1.6927     70.2735
   769.7500      0.0000    886.7753      6.2560      1.5187     68.7093
   770.0000      0.0000    877.4380      6.2298      1.0834     66.3477
   770.2500      0.0000    863.7599      6.1111      1.9539     63.5277
   770.5000      0.0000    853.9934      5.9544      2.4762     61.0416
   770.7500      0.0000    851.8944      5.7949      2.9984     59.7683
   771.0000      0.0000    853.2198      5.6466      3.2596     60.0509
   771.2500      0.0000    849.7129      5.5285      3.4337     61.6291
   771.5000      0.0000    837.0376      5.4784      3.5207     64.2463
   771.7500      0.0000    817.9114      5.5383      3.3466     68.0139
   772.0000      0.0000    797.2488      5.7243      2.6503     72.8448
   772.2500      0.0000    776.1733      6.0058      2.6503     77.5846
   772.5000      0.0000    753.1572      6.3057      2.3891     80.2307
   772.7500      0.0000    730.1305      6.5229      2.3021     79.4559
   773.0000      0.0000    714.4389      6.5701      2.6503     75.9039
   773.2500      0.0000    713.6544      6.4147      2.2150     71.8593
   773.5000      0.0000    728.7822      6.1037      3.2596     69.6922
   773.7500      0.0000    752.7872      5.7485      3.1725     70.6080
   774.0000      0.0000    775.9518      5.4731      3.0855     74.5397
   774.2500      0.0000    793.0426      5.3551      3.5207     80.5960
   774.5000      0.0000    805.1769      5.3961      2.7373     87.3144
   774.7500      0.0000    815.8883      5.5311      3.3466     93.0446
   775.0000      0.0000    827.4872      5.6698      3.1725     96.8301
   775.2500      0.0000    840.8062      5.7487      2.6503     98.7885
   775.5000      0.0000    855.4153      5.7621      2.8244     99.3225
   775.7500      0.0000    868.4977      5.7490      3.2596     98.3876
   776.0000      0.0000    874.5208      5.7526      3.2596     95.7889
   776.2500      0.0000    867.8615      5.7934      3.5207     91.8305
   776.5000      0.0000    847.0873      5.8758      3.1725     87.6086
   776.7500      0.0000    817.4827      6.0024      2.9114     84.7685
   777.0000      0.0000    789.6914      6.1751      3.9560     84.6437
   777.2500      0.0000    774.9078      6.3838      2.5632     87.2629
   777.5000      0.0000    778.7713      6.5996      2.9114     91.1660
   777.7500      0.0000    797.4506      6.7809      3.0855     94.3753
   778.0000      0.0000    820.0703      6.8956      2.8244     95.8588
   778.2500      0.0000    837.4310      6.9391      2.5632     96.1727
   778.5000      0.0000    848.8405      6.9211      2.6503     96.5916
   778.7500      0.0000    859.5743      6.8379      3.2596     97.6736
   779.0000      0.0000    872.8094      6.6740      2.9114     98.8276
   779.2500      0.0000    886.0483      6.4345      2.5632     99.1204
   779.5000      0.0000    894.4181      6.1589      2.8244     98.2016
   779.7500      0.0000    895.1415      5.8972      2.9114     96.3303
   780.0000      0.0000    889.2014      5.6776      2.9114     93.8156
   780.2500      0.0000    880.5779      5.4975      2.7373     90.9001
   780.5000      0.0000    873.2615      5.3396      3.1725     88.1710
   780.7500      0.0000    867.1134      5.1990      3.2596     86.4987
   781.0000      0.0000    857.2196      5.0975      2.9114     86.1612
   781.2500      0.0000    839.3464      5.0642      3.1725     86.3924
   781.5000      0.0000    815.9235      5.0978      3.4337     86.2705
   781.7500      0.0000    795.4923      5.1530      3.4337     85.7601
   782.0000      0.0000    786.5757      5.1719      2.3891     85.3808
   782.2500      0.0000    792.0240      5.1333      2.3891     85.2825
   782.5000      0.0000    807.2020      5.0707      2.4762     85.4595
   782.7500      0.0000    822.6224      5.0446      2.5632     86.6316
   783.0000      0.0000    830.7181      5.0945      2.2150     90.0261
   783.2500      0.0000    832.2462      5.2147      2.3891     96.1369
   783.5000      0.0000    835.1437      5.3721      2.1280    104.0879
   783.7500      0.0000    845.9706      5.5433      2.5632    112.1435
   784.0000      0.0000    863.1647      5.7334      2.3891    118.4997
   784.2500      0.0000    878.6704      5.9589      2.5632    121.7502
   784.5000      0.0000    884.3654      6.2066      2.5632    121.2668
   784.7500      0.0000    876.6695      6.4099      2.8244    117.5096
   785.0000      0.0000    857.8314      6.4836      3.6948    111.8898
   785.2500      0.0000    834.8831      6.3914      2.8244    106.2758
   785.5000      0.0000    815.6571      6.1796      3.3466    102.4621
   785.7500      0.0000    803.2911      5.9436      3.6078    101.4417
   786.0000      0.0000    794.8792      5.7728      4.9135    102.4539
   786.2500      0.0000    786.5583      5.7216      4.3912    102.9070
   786.5000      0.0000    778.8301      5.8087      4.2171    100.1129
   786.7500      0.0000    775.3979      6.0212      5.3487     93.5285
   787.0000      0.0000    777.3973      6.3191      4.7394     85.1605
   787.2500      0.0000    780.2615      6.6480      4.9135     77.7987
   787.5000      0.0000    777.3730      6.9541      4.5653     72.9905
   787.7500      0.0000    767.2379      7.1918      4.8264     70.5028
   788.0000      0.0000    756.4151      7.3224      3.7819     69.2609
   788.2500      0.0000    754.4747      7.3271      3.8689     68.6038
   788.5000      0.0000    766.1159      7.2372      4.3912     68.8527
   788.7500      0.0000    787.5357      7.1423      5.1746     70.9111
   789.0000      0.0000    808.8617      7.1443      5.7839     75.3260
   789.2500      0.0000    820.1114      7.2879      5.5228     81.6349
   789.5000      0.0000    817.5736      7.5344      3.5207     88.4314
   789.7500      0.0000    806.8663      7.7962      4.1301     93.9640
   790.0000      0.0000    799.4645      7.9875      3.8689     96.9194
   790.2500      0.0000    804.0978      8.0507      4.5653     96.9840
   790.5000      0.0000    820.0919      7.9603      4.5653     94.7574
   790.7500      0.0000    838.2242      7.7248      4.7394     91.2663
   791.0000      0.0000    847.2740      7.3879      4.3041     87.6266
   791.2500      0.0000    841.2921      7.0174      5.0005     84.6984
   791.5000      0.0000    824.3967      6.6810      4.0430     82.5520
   791.7500      0.0000    809.3768      6.4201      5.0005     80.4229
   792.0000      0.0000    808.1514      6.2313      4.0430     77.6118
   792.2500      0.0000    821.1626      6.0672      4.2171     74.4998
   792.5000      0.0000    837.0019      5.8723      3.9560     72.5331
   792.7500      0.0000    842.9033      5.6368      3.3466     73.1216
   793.0000      0.0000    835.2704      5.4111      3.5207     76.4149
   793.2500      0.0000    821.1467      5.2567      3.2596     81.0416
   793.5000      0.0000    810.4523      5.1843      3.6078     85.0999
   793.7500      0.0000    806.1716      5.1436      2.9984     87.4203
