~Version Information
VERS.                      2.0: CWLS Log ASCII Standard - VERSION 2.0
WRAP.                       NO: One line per depth step
~Well Information Block
STRT.FT               240.0000: 
STOP.FT              1453.0000: 
STEP.FT                 0.2500: 
NULL.                -999.2500: 
COMP.          Petrogulf Corporation: COMPANY
WELL.          Robinson 15-12R: WELL
FLD.           Purgatorie River: FIELD
LOC.           1752' FNL & 561' FWL: LOCATION
PROV.                 Colorado: PROVINCE
CNTY.               Las Animas: COUNTRY
SRVC.                Patterson: SERVICE COMPANY
DATE.          Tue Sep 13 15:11:42 2005: LOG DATE
UWI.                          : UNIQUE WELL ID
~Curve Information Block
DEPT.FT            0 000 00 00: Depth
SP.mV                         : DIL Spontaneous Potential
RILD.Ohm-m                    : DIL Deep Resistivity
RILM.Ohm-m                    : DIL Medium Resistivity
RLL3.Ohm-m                    : DIL Shallow Resistivity
GR.GAPI                       : Gamma Ray
~Parameter Information Block
~A  Depth        SP         RILD        RILM        RLL3         GR     
# ...
  1192.0000    212.1582     11.3403     12.5851     15.7190    108.8338
  1192.2500    211.9311     11.4798     13.4857     19.1828    112.1776
  1192.5000    211.8457     11.7248     13.2646     19.4356    106.1811
  1192.7500    211.8493     11.9753     13.7340     17.5339     92.3673
  1193.0000    211.8339     11.8618     14.1061     16.4085    100.5493
  1193.2500    211.8055     12.5582     14.4863     15.9197    119.2940
  1193.5000    211.7822     12.9586     15.1781     16.1904    135.9026
  1193.7500    211.9198     13.2274     15.9034     17.6245    122.9177
  1194.0000    212.1323     13.4553     16.2026     18.3001    100.5187
  1194.2500    212.1558     13.6800     16.4228     17.5336     97.9193
  1194.5000    212.4307     13.6128     15.8357     17.4367    102.5753
  1194.7500    212.8105     13.2925     15.6735     16.6223     92.6627
  1195.0000    213.1352     13.3186     15.3297     15.0953    105.2462
  1195.2500    213.1594     13.0148     15.2119     14.1322    118.7280
  1195.5000    212.9301     12.8028     14.7449     14.0233    103.2952
  1195.7500    212.7069     12.5122     14.1546     13.4540    115.0270
  1196.0000    212.4400     12.3137     13.8172     13.1853    120.1895
  1196.2500    212.1560     11.6317     13.2826     13.7861    136.5333
  1196.5000    211.7530     11.5617     12.7414     13.4130    144.5795
  1196.7500    211.3695     11.5261     12.6809     12.2667    135.4059
  1197.0000    210.7871     11.4978     12.0450     11.6541    127.1219
  1197.2500    210.5538     11.2699     11.7693     11.2878    117.4338
  1197.5000    210.4198     11.1737     11.7404     11.1292    115.2321
  1197.7500    210.1287     10.9446     11.5493     11.3384    120.1030
  1198.0000    209.8819     11.3455     11.5192     11.7569    126.6276
  1198.2500    209.8413     11.3919     11.5461     12.0432    119.2967
  1198.5000    209.9501     11.4335     12.0788     12.0329    122.5938
  1198.7500    209.9249     11.3705     12.0991     12.5158    109.3934
  1199.0000    210.1872     11.7943     12.4455     12.8687    112.0155
  1199.2500    210.5923     11.6588     12.6619     13.5942    117.2879
  1199.5000    210.8096     12.0856     12.8624     14.8535    118.2371
  1199.7500    211.2932     12.6335     13.2783     15.2032    108.1732
  1200.0000    211.5026     12.7094     14.2543     14.7916    102.1968
  1200.2500    211.3920     13.0626     14.5498     14.8942    106.5721
  1200.5000    211.2766     13.3004     14.7044     17.2499     93.2276
  1200.7500    211.0595     13.7559     15.1362     20.4951     86.3006
  1201.0000    210.5693     14.2423     15.4028     21.3029     89.0315
  1201.2500    210.4388     14.6907     15.8625     18.9105    102.2678
  1201.5000    210.4625     15.1535     16.6247     16.6178     87.8571
  1201.7500    210.4877     15.7771     17.1049     15.8935    103.6810
  1202.0000    210.3424     16.0677     17.7373     17.1540    112.6588
  1202.2500    209.9312     16.7598     18.8456     19.4985     91.0948
  1202.5000    209.1605     17.6074     20.5509     21.9614     93.4887
  1202.7500    208.3454     17.9352     21.5775     24.8673     87.2592
  1203.0000    207.5880     17.9359     23.5003     27.2078     81.9833
  1203.2500    206.9157     18.7146     23.5571     29.5232     73.8738
  1203.5000    206.7484     19.0213     24.2742     31.8199     74.4617
  1203.7500    206.5676     18.8624     26.0166     34.4198     70.8689
  1204.0000    206.5641     19.8163     27.7582     36.3920     84.2940
  1204.2500    206.6976     20.9263     29.1034     33.9224     89.4848
  1204.5000    206.9895     20.8229     30.0236     31.3838     97.1908
  1204.7500    206.9453     20.1939     31.1819     33.4633     79.9566
  1205.0000    206.8213     20.6160     31.3978     39.2244     66.8903
  1205.2500    206.9807     19.7624     32.0819     43.4189     73.9159
  1205.5000    207.1804     18.3814     30.4349     42.7660     66.9561
  1205.7500    207.5086     19.1735     29.0043     38.4223     75.3804
  1206.0000    207.9839     18.4163     25.7895     32.6834    109.4325
  1206.2500    208.2368     17.7894     23.0508     26.5673    118.8795
  1206.5000    208.4781     17.1860     21.5971     21.6428    123.1810
  1206.7500    208.8670     16.5748     19.5200     17.9824    132.6060
  1207.0000    209.2010     16.0106     17.8782     14.1060    128.3879
  1207.2500    209.5450     15.7033     17.4966     13.4246    126.3099
  1207.5000    209.8594     15.7086     16.9506     15.0089    130.0316
  1207.7500    210.0295     15.6365     15.7568     15.1445    143.5266
  1208.0000    210.4973     15.1450     15.2093     13.0351    141.7361
  1208.2500    211.0105     15.0780     15.6342     11.3885    154.5727
  1208.5000    211.5866     15.3069     16.4925     11.8466    137.0190
  1208.7500    212.1136     14.7448     16.9770     16.7407    123.6038
  1209.0000    212.3013     14.4702     18.0326     26.5794    107.5320
  1209.2500    212.7095     14.5672     20.3567     33.2425    115.7636
  1209.5000    213.1516     14.5100     19.1893     34.2127    113.3735
  1209.7500    213.2847     14.6422     18.9141     30.2301    110.5005
  1210.0000    213.1818     14.0841     18.7142     25.6479    113.1250
  1210.2500    213.3668     14.0865     18.6899     22.7397    120.2472
  1210.5000    213.3943     14.3970     18.1665     20.2231    133.2302
  1210.7500    213.2721     14.3470     17.5258     19.7974    128.8014
  1211.0000    213.5423     14.4714     17.1742     18.4580    113.1279
  1211.2500    213.9036     14.4601     17.2801     15.1305    132.6990
  1211.5000    213.8540     13.8036     16.9218     15.2897    121.7288
  1211.7500    214.0960     13.5943     16.8962     17.8887    125.7677
  1212.0000    214.2333     13.3322     16.3475     18.2238    126.1072
  1212.2500    214.2349     13.1800     15.2900     17.5726    115.6133
  1212.5000    214.3930     13.1683     14.3188     16.7100    112.5222
  1212.7500    214.7436     13.0285     13.6394     13.3159    140.6866
  1213.0000    214.7649     13.0904     13.3097     11.0070    146.2722
  1213.2500    215.1904     12.9380     13.1855     10.4691    144.8396
  1213.5000    215.5694     12.8907     13.2495     11.4313    130.6243
  1213.7500    215.8094     12.7374     13.7845     13.2383    135.9227
  1214.0000    215.6737     12.7018     14.1324     13.7046    120.1024
  1214.2500    215.6987     12.3156     14.8803     13.3967    125.6157
  1214.5000    215.6570     12.0793     15.1959     15.8322    125.2775
  1214.7500    215.4020     11.8696     15.0409     20.9172    126.5245
  1215.0000    215.3489     11.5947     14.8951     23.7680    117.9689
  1215.2500    215.2154     11.5890     15.0144     22.5327    122.5275
  1215.5000    214.7833     11.6334     13.9514     19.7397    131.1379
  1215.7500    214.1130     11.4824     13.2229     16.1223    142.3972
  1216.0000    213.8518     11.5019     12.7176     12.2832    134.8854
  1216.2500    213.5308     11.3311     12.3152      9.9119    147.6269
  1216.5000    213.1363     11.2375     12.2322      8.7284    153.2843
  1216.7500    212.7105     11.1121     12.4331      9.5351    148.7025
  1217.0000    212.5647     10.7598     12.7572     13.3062    119.0894
  1217.2500    212.7707     10.4262     12.8012     17.0283    122.6302
  1217.5000    213.0099      9.8151     12.3989     16.1622    124.2941
  1217.7500    213.1420      9.5081     11.6183     13.5332    141.7106
  1218.0000    213.6791      9.1742     11.0489     12.2103    152.0198
  1218.2500    213.5956      8.8719     10.3935     10.9623    160.3895
  1218.5000    213.5500      8.5678      9.5952      9.8230    152.3982
  1218.7500    213.3533      8.3798      9.2665      8.8960    160.4466
  1219.0000    213.2055      8.1981      8.8804      8.4480    209.5317
  1219.2500    213.1777      7.8934      8.5510      8.5313    180.9301
  1219.5000    213.1226      7.7624      8.2287      8.7014    183.3219
  1219.7500    212.9235      7.6414      7.8036      8.4920    195.3412
