~Version Information
VERS.                      2.0: CWLS Log ASCII Standard - VERSION 2.0
WRAP.                       NO: One line per depth step
~Well Information Block
STRT.FT               550.0000: 
STOP.FT              1577.7000: 
STEP.FT                 0.1000: 
NULL.                -999.2500: 
COMP.          Pioneer Natural Resources: COMPANY
WELL.          Kristin 22-23 Tr: WELL
FLD.           Purgatoire River: FIELD
LOC.           2273' FNL & 2029' FWL: LOCATION
PROV.                 Colorado: PROVINCE
CNTY.               Las Animas: COUNTRY
SRVC.                Patterson: SERVICE COMPANY
DATE.          Fri Jan 21 06:58:50 2005: LOG DATE
UWI.           05 071 08259 00: UNIQUE WELL ID
~Curve Information Block
DEPT.FT            0 000 00 00: Depth
DCAL.in                       : CDL Caliper
RHOB.g/cc                     : CDL Bulk Density
RHOC.g/cc                     : CDL Density Correction
DPOR.pu                       : CDL Density Porosity
NPOR.pu                       : Neutron Porosity
GR.GAPI                       : Gamma Ray
~Parameter Information Block
~A  Depth       DCAL        RHOB        RHOC        DPOR        NPOR         GR     
# ...
   751.6000      7.9823      2.5938      0.0426      3.4077     16.3774     83.9378
   751.7000      7.9823      2.5955      0.1055      3.3007     15.5902     83.1798
   751.8000      7.9898      2.6066      0.0965      2.6331     15.3082     83.8086
   751.9000      7.9898      2.6081      0.0997      2.5411     15.3487     85.0231
   752.0000      8.0020      2.6051      0.0595      2.7211     15.4298     82.6643
   752.1000      8.0020      2.6149      0.0808      2.1256     15.3824     76.3045
   752.2000      8.0020      2.6372      0.1130      0.7753     15.4442     70.0193
   752.3000      8.0043      2.6518      0.1313     -0.1110     15.8960     67.4039
   752.4000      8.0043      2.6482      0.1240      0.1099     16.5368     69.1746
   752.5000      7.9996      2.6427      0.1059      0.4442     16.9258     74.0360
   752.6000      7.9996      2.6510      0.1035     -0.0634     16.8133     78.5157
   752.7000      7.9996      2.6652      0.1048     -0.9189     16.6670     76.5293
   752.8000      8.0027      2.6750      0.0860     -1.5160     17.0843     68.3700
   752.9000      8.0027      2.6802      0.0883     -1.8324     17.7756     63.2957
   753.0000      8.0130      2.6723      0.0868     -1.3505     18.0793     65.9810
   753.1000      8.0130      2.6491      0.0497      0.0564     17.9998     71.5455
   753.2000      8.0130      2.6286      0.0264      1.2983     17.6175     73.7388
   753.3000      8.0186      2.6244      0.0176      1.5508     17.0096     71.8672
   753.4000      8.0186      2.6307      0.0297      1.1709     16.7138     69.2439
   753.5000      8.0198      2.6311      0.0319      1.1460     17.3766     69.7027
   753.6000      8.0198      2.6207      0.0300      1.7777     18.9701     75.9341
   753.7000      8.0198      2.6081      0.0666      2.5365     20.1098     80.4849
   753.8000      8.0198      2.6016      0.0085      2.9351     19.6309     77.5999
   753.9000      8.0198      2.6041      0.0701      2.7832     18.2712     75.0899
   754.0000      8.0195      2.6111      0.0443      2.3546     17.4847     74.2361
   754.1000      8.0195      2.6172      0.0586      1.9869     17.8601     69.9837
   754.2000      8.0195      2.6127      0.1039      2.2605     19.1946     65.1794
   754.3000      8.0195      2.5957      0.0490      3.2913     20.5863     64.1944
   754.4000      8.0195      2.5815      0.0545      4.1499     21.0504     65.1135
   754.5000      8.0207      2.5726      0.0849      4.6915     20.6688     65.5881
   754.6000      8.0207      2.5593      0.0677      5.4958     20.0169     66.9253
   754.7000      8.0207      2.5426      0.0668      6.5094     19.3437     69.6777
   754.8000      8.0277      2.5299      0.0900      7.2788     18.9651     69.9288
   754.9000      8.0277      2.5309      0.0586      7.2167     18.9552     64.6180
   755.0000      8.0398      2.5460      0.1005      6.3030     18.8661     59.0554
   755.1000      8.0398      2.5563      0.1120      5.6772     18.7210     57.9547
   755.2000      8.0398      2.5528      0.0726      5.8905     18.6616     57.3887
   755.3000      8.0457      2.5500      0.0942      6.0624     18.5060     54.7303
   755.4000      8.0457      2.5529      0.1154      5.8871     18.3395     52.9357
   755.5000      8.0428      2.5557      0.0833      5.7155     18.5180     53.4507
   755.6000      8.0428      2.5578      0.0663      5.5906     19.5724     54.0017
   755.7000      8.0428      2.5482      0.1091      6.1680     21.2961     51.0410
   755.8000      8.0410      2.5111      0.0944      8.4179     22.7806     44.1636
   755.9000      8.0410      2.4484      0.0377     12.2210     23.9307     38.9449
   756.0000      8.0421      2.3657      0.0424     17.2301     25.4031     39.4248
   756.1000      8.0421      2.2522      0.0346     24.1112     27.4471     43.6981
   756.2000      8.0421      2.1060     -0.0535     32.9684     29.6924     46.9032
   756.3000      8.0476      1.9488     -0.0890     42.4961     31.7384     45.6681
   756.4000      8.0476      1.7986     -0.1309     51.6010     33.2917     42.1043
   756.5000      8.0868      1.6602     -0.1606     59.9858     34.4613     39.0568
   756.6000      8.0868      1.5321     -0.1584     67.7507     35.6624     35.6495
   756.7000      8.0868      1.4183     -0.1556     74.6468     36.8952     31.6470
   756.8000      8.2191      1.3376     -0.1586     79.5416     37.6956     28.4095
   756.9000      8.2191      1.3042     -0.0785     81.5625     37.8258     26.1379
   757.0000      8.4509      1.3067      0.0547     81.4105     37.6666     26.6342
   757.1000      8.4509      1.3222      0.0670     80.4713     37.4881     31.2444
   757.2000      8.4509      1.3376      0.1232     79.5421     37.2316     36.3750
   757.3000      8.6567      1.3464      0.1158     79.0070     37.0908     38.7723
   757.4000      8.6567      1.3530      0.1025     78.6042     37.1360     39.4586
   757.5000      8.7083      1.3728      0.1013     77.4041     37.0901     38.3434
   757.6000      8.7083      1.4157      0.1219     74.8038     36.6824     35.9838
   757.7000      8.7083      1.4815      0.1092     70.8175     36.1528     36.0656
   757.8000      8.6323      1.5649      0.1410     65.7652     35.9245     40.5552
   757.9000      8.6323      1.6520      0.2100     60.4863     35.7781     48.3402
   758.0000      8.5120      1.7305      0.1978     55.7274     35.4621     57.7857
   758.1000      8.5120      1.8094      0.2205     50.9448     35.1190     69.0275
   758.2000      8.5120      1.9069      0.2119     45.0368     34.6031     81.5501
   758.3000      8.3896      2.0244      0.2591     37.9180     33.3631     92.2445
   758.4000      8.3896      2.1443      0.2635     30.6491     31.5546     98.9230
   758.5000      8.2548      2.2468      0.2670     24.4335     30.3360    104.0416
   758.6000      8.2548      2.3193      0.2344     20.0403     30.4524    109.7515
   758.7000      8.2548      2.3633      0.1954     17.3765     31.1317    113.1368
   758.8000      8.1058      2.3993      0.1632     15.1956     31.0435    112.7965
   758.9000      8.1058      2.4492      0.1616     12.1711     30.0648    111.1559
   759.0000      8.0169      2.5091      0.2113      8.5398     29.3620    112.0836
   759.1000      8.0169      2.5535      0.2142      5.8508     29.1160    116.9626
   759.2000      8.0169      2.5647      0.1619      5.1695     28.6285    124.5141
   759.3000      7.9953      2.5510      0.0983      5.9988     28.2900    134.2767
   759.4000      7.9953      2.5365      0.0578      6.8803     28.3764    142.9275
   759.5000      7.9939      2.5304      0.0735      7.2477     28.3688    148.6656
   759.6000      7.9939      2.5246      0.0536      7.5993     28.3702    154.8163
   759.7000      7.9939      2.5177      0.0597      8.0203     28.7560    160.1859
   759.8000      7.9937      2.5136      0.0854      8.2683     29.0396    160.9058
   759.9000      7.9937      2.5169      0.0224      8.0648     28.7308    157.2016
   760.0000      7.9938      2.5308      0.1006      7.2233     28.2693    151.8855
   760.1000      7.9938      2.5481      0.0807      6.1781     28.3482    146.6700
   760.2000      7.9938      2.5575      0.0995      5.6067     28.6014    139.5434
   760.3000      7.9924      2.5490      0.1249      6.1237     28.2142    130.2561
   760.4000      7.9924      2.5306      0.0281      7.2374     27.1555    123.6368
   760.5000      7.9902      2.5273      0.0494      7.4362     26.1302    120.4928
   760.6000      7.9902      2.5448      0.0527      6.3770     25.4974    118.6469
   760.7000      7.9902      2.5623      0.1042      5.3136     24.6897    119.4394
   760.8000      7.9912      2.5601      0.0981      5.4461     23.4264    122.0352
   760.9000      7.9912      2.5437      0.0616      6.4404     22.4448    124.1583
   761.0000      7.9934      2.5327      0.0588      7.1098     22.4185    123.6774
   761.1000      7.9934      2.5342      0.0795      7.0195     22.9090    118.6991
