~Version Information
VERS.                      2.0: CWLS Log ASCII Standard - VERSION 2.0
WRAP.                       NO: One line per depth step
~Well Information Block
STRT.FT               275.0000: 
STOP.FT              1682.2000: 
STEP.FT                 0.1000: 
NULL.                -999.2500: 
COMP.          Pioneer Natural Resources: COMPANY
WELL.               Elmo 14-21: WELL
FLD.           Purgatoire River: FIELD
LOC.           623' FSL & 450' FWL----: LOCATION
PROV.                 Colorado: PROVINCE
CNTY.               Las Animas: COUNTRY
SRVC.                Patterson: SERVICE COMPANY
DATE.          Wed May 18 08:17:30 2005: LOG DATE
UWI.           05 071 08360 00: UNIQUE WELL ID
~Curve Information Block
DEPT.FT            0 000 00 00: Depth
DCAL.in                       : CDL Caliper
RHOB.g/cc                     : CDL Bulk Density
RHOC.g/cc                     : CDL Density Correction
DPOR.pu                       : CDL Density Porosity
NPOR.pu                       : Neutron Porosity
GR.GAPI                       : Gamma Ray
~Parameter Information Block
~A  Depth       DCAL        RHOB        RHOC        DPOR        NPOR         GR     
# ...
   553.4000      8.4506      2.4936     -0.0081      9.4760     23.8118    125.2252
   553.5000      8.4572      2.5025      0.0201      8.9410     24.8465    125.3201
   553.6000      8.4572      2.5231      0.0780      7.6931     25.2424    122.1950
   553.7000      8.4572      2.5221      0.0439      7.7544     25.0875    116.2602
   553.8000      8.4662      2.4912      0.0398      9.6246     24.7699    111.4566
   553.9000      8.4662      2.4479     -0.0092     12.2493     24.2316    112.8717
   554.0000      8.4719      2.4171     -0.0248     14.1133     23.4778    115.6944
   554.1000      8.4719      2.4095     -0.0155     14.5767     22.6376    112.9814
   554.2000      8.4719      2.4133      0.0145     14.3473     21.8792    106.3172
   554.3000      8.4758      2.4139      0.0121     14.3068     21.4029    103.1219
   554.4000      8.4758      2.4128     -0.0183     14.3780     21.1545    110.2229
   554.5000      8.4846      2.4179     -0.0021     14.0690     20.7909    125.3345
   554.6000      8.4846      2.4216      0.0493     13.8418     20.4838    135.8467
   554.7000      8.4846      2.4149      0.0516     14.2485     20.5010    136.4450
   554.8000      8.5009      2.4057      0.0048     14.8058     20.6043    134.8033
   554.9000      8.5009      2.3954      0.0499     15.4276     20.7445    134.4456
   555.0000      8.5153      2.3810      0.0242     16.3032     20.8751    133.7508
   555.1000      8.5153      2.3796     -0.0105     16.3869     20.6566    132.9824
   555.2000      8.5153      2.3997      0.0502     15.1704     20.4239    130.0905
   555.3000      8.5235      2.4208      0.0821     13.8891     20.8322    125.9619
   555.4000      8.5235      2.4304      0.0527     13.3090     21.4787    126.3643
   555.5000      8.5286      2.4366      0.0536     12.9333     21.6483    132.1673
   555.6000      8.5286      2.4389      0.0993     12.7933     21.3911    137.0175
   555.7000      8.5286      2.4253      0.0715     13.6194     21.0519    137.0918
   555.8000      8.5355      2.3872      0.0843     15.9263     20.9307    139.3889
   555.9000      8.5355      2.3170      0.0443     20.1835     20.8720    146.7162
   556.0000      8.5435      2.2149      0.0023     26.3722     20.1983    148.7387
   556.1000      8.5435      2.0955     -0.0669     33.6081     18.7082    139.6432
   556.2000      8.5435      1.9793     -0.0825     40.6481     16.8781    128.0306
   556.3000      8.5483      1.8826     -0.1265     46.5104     15.3486    123.3510
   556.4000      8.5483      1.8130     -0.1395     50.7267     14.4587    122.8033
   556.5000      8.5499      1.7665     -0.1217     53.5480     13.9423    118.9590
   556.6000      8.5499      1.7355     -0.0791     55.4242     13.3531    111.5666
   556.7000      8.5499      1.7296     -0.0899     55.7841     12.5637    105.8020
   556.8000      8.5478      1.7667      0.0149     53.5327     11.7417    102.7403
   556.9000      8.5478      1.8439      0.1126     48.8517     11.2368     99.5735
   557.0000      8.5446      1.9442      0.1974     42.7773     11.3828     97.0220
   557.1000      8.5446      2.0546      0.2855     36.0842     12.2063     99.2017
   557.2000      8.5446      2.1643      0.2817     29.4388     13.4934    107.4187
   557.3000      8.5464      2.2563      0.3003     23.8596     15.0155    113.6101
   557.4000      8.5464      2.3133      0.2179     20.4068     16.4033    111.4496
   557.5000      8.5507      2.3313      0.1918     19.3158     17.4980    107.5541
   557.6000      8.5507      2.3150      0.1211     20.3057     18.5822    109.9577
   557.7000      8.5507      2.2731      0.0677     22.8429     19.7729    117.6578
   557.8000      8.5533      2.2133      0.0433     26.4690     20.8727    124.5068
   557.9000      8.5533      2.1410      0.0065     30.8486     21.7688    127.7198
   558.0000      8.5539      2.0781     -0.0675     34.6601     22.3895    127.2367
   558.1000      8.5539      2.0499     -0.0439     36.3726     22.4851    123.6885
   558.2000      8.5539      2.0404      0.0132     36.9484     21.6688    120.8299
   558.3000      8.5534      2.0118     -0.0299     38.6762     20.0795    121.5218
   558.4000      8.5534      1.9600     -0.0296     41.8180     18.3200    123.7668
   558.5000      8.5537      1.9091     -0.0321     44.9002     16.8859    125.6247
   558.6000      8.5537      1.8729      0.0441     47.0940     15.7623    127.2080
   558.7000      8.5537      1.8376      0.0866     49.2343     14.7230    127.5103
   558.8000      8.5587      1.7904      0.0443     52.0970     13.7225    124.4251
   558.9000      8.5587      1.7422      0.0087     55.0208     12.6953    116.7144
   559.0000      8.5714      1.6983      0.0091     57.6816     11.6344    106.8532
   559.1000      8.5714      1.6381     -0.0193     61.3245     10.4269     99.3163
   559.2000      8.5714      1.5503     -0.1020     66.6502      8.8227     94.4688
   559.3000      8.6018      1.4598     -0.1128     72.1308      7.0962     89.2496
   559.4000      8.6018      1.4007     -0.0721     75.7154      5.8586     81.6681
   559.5000      8.6741      1.3781      0.0279     77.0852      5.2332     75.8902
   559.6000      8.6741      1.3734      0.0856     77.3727      4.9246     75.7569
   559.7000      8.6741      1.3734      0.0911     77.3688      4.7078     76.0130
   559.8000      8.7463      1.3828      0.0939     76.8012      4.5724     71.2329
   559.9000      8.7463      1.4120      0.1422     75.0320      4.6282     65.2069
   560.0000      8.7024      1.4692      0.1330     71.5664      4.9269     61.9745
   560.1000      8.7024      1.5574      0.1715     66.2196      5.4205     60.3994
   560.2000      8.7024      1.6707      0.1910     59.3511      6.0817     60.7769
   560.3000      8.5520      1.8021      0.1986     51.3887      6.8882     62.5657
   560.4000      8.5520      1.9341      0.3194     43.3871      7.8098     62.0899
   560.5000      8.4124      2.0261      0.3521     37.8123      8.6966     60.0884
   560.6000      8.4124      2.0455      0.3571     36.6384      9.4381     58.9734
   560.7000      8.4124      1.9947      0.2768     39.7161     10.0288     59.0346
   560.8000      8.3369      1.9043      0.1543     45.1917     10.3980     59.6264
   560.9000      8.3369      1.8063      0.0744     51.1349     10.4528     58.4176
   561.0000      8.3133      1.7098     -0.0469     56.9820     10.2433     56.0719
   561.1000      8.3133      1.6082     -0.1451     63.1373      9.8769     54.5254
   561.2000      8.3133      1.4991     -0.2153     69.7515      9.3684     52.9376
   561.3000      8.3165      1.3918     -0.2277     76.2517      8.6195     50.2759
   561.4000      8.3165      1.3023     -0.2008     81.6763      7.6454     47.2627
   561.5000      8.3419      1.2558     -0.1261     84.4980      6.6798     45.7736
   561.6000      8.3419      1.2711      0.0107     83.5700      5.8855     46.8172
   561.7000      8.3419      1.3263      0.1937     80.2255      5.3661     49.9512
   561.8000      8.4026      1.3767      0.2404     77.1723      5.2640     53.1121
   561.9000      8.4026      1.4122      0.2122     75.0166      5.4404     55.1923
   562.0000      8.4712      1.4598      0.2270     72.1304      5.5358     58.1416
   562.1000      8.4712      1.5373      0.2477     67.4393      5.5822     61.2878
   562.2000      8.4712      1.6381      0.2604     61.3267      5.9611     62.4472
   562.3000      8.4921      1.7477      0.2831     54.6869      6.6679     63.9582
   562.4000      8.4921      1.8525      0.3231     48.3347      7.2877     70.3008
   562.5000      8.4884      1.9427      0.3483     42.8650      7.7982     80.4200
   562.6000      8.4884      2.0179      0.3405     38.3087      8.6056     86.8992
   562.7000      8.4884      2.0911      0.3297     33.8757      9.9267     89.2993
   562.8000      8.4848      2.1767      0.3037     28.6865     11.6233     93.0242
   562.9000      8.4848      2.2683      0.3362     23.1321     13.3429    100.5183
