~Version Information
 VERS.                                  2.0 : CWLS LAS VERSION
 WRAP.                                   NO : WRAPING MODE
 SWARE .                  MController 2.6.3 : SOFTWARE VERSION
~Well Information
 WELL.                       Stampede 42-18 : WELL
 COMP.    Pioneer Natural Resources USA Inc : COMPANY
 FLD.                      Purgatoire River : FIELD
 LOC.                SE/NE Sec 18 T32S R65W : LOCATION
 DATE.                           6/8-9/2007 : DATE(S) LOGGED
 SRVC.       Blanco Geological Services LLC : SERVICE COMPANY
 STAT.                                   CO : STATE
 CNTY.                           Las Animas : COUNTY
 CTRY.                                  USA : COUNTRY
 API.                       05-071-08237-00 : API NUMBER
 STRT.FT                             561.00 : START DEPTH
 STOP.FT                            1934.00 : STOP DEPTH
 STEP.FT                               1.00 : DEPTH INCREMENT
 NULL.                                -9999 : NULL VALUE
~Curve information
 DEPTH.FT                                   :
 ROP.MIN/FT                                 :
 GAS.UNITS                                  :
~ASCII Log data
# ...
     1761.00         0.35       2330.6 
     1762.00         5.28       2959.5 
     1763.00         0.63       3183.6 
     1764.00         0.88       3041.6 
     1765.00         0.83       2874.7 
     1766.00         0.70       2445.2 
     1767.00         0.47       2516.7 
     1768.00         0.20       2485.2 
     1769.00         0.60       2471.9 
     1770.00         0.68       2422.1 
     1771.00         0.70       2473.3 
     1772.00         0.73       2533.2 
     1773.00         0.73       2387.7 
     1774.00         0.77       1947.4 
     1775.00         0.38       1274.9 
     1776.00         0.37        984.3 
     1777.00         0.37        506.4 
     1778.00         0.47        440.0 
     1779.00         0.53        415.1 
     1780.00         0.37        276.4 
     1781.00         0.63        379.7 
     1782.00         0.45        410.7 
     1783.00         0.47        390.2 
     1784.00         0.27        409.6 
     1785.00         0.27        446.6 
     1786.00         0.27        500.5 
     1787.00         0.17        555.2 
     1788.00         0.47        620.2 
     1789.00         0.47        578.0 
     1790.00         0.27        440.0 
     1791.00         0.37        422.9 
     1792.00         5.10       1427.8 
     1793.00         0.67       2150.8 
     1794.00         0.33       2734.5 
     1795.00         0.27       3043.4 
     1796.00         0.75       3028.9 
     1797.00         0.87       1662.3 
     1798.00         0.73        440.0 
     1799.00         0.80        410.9 
     1800.00         0.88        474.0 
     1801.00         0.80        477.6 
     1802.00         0.67        454.7 
     1803.00         0.73        589.4 
     1804.00         0.67        642.6 
     1805.00         0.68        631.5 
     1806.00         0.60        664.7 
     1807.00         0.67        672.7 
     1808.00         0.63        768.8 
     1809.00         0.60        870.8 
     1810.00         0.72        946.2 
     1811.00         0.73       1008.1 
     1812.00         0.67       1054.1 
     1813.00         0.70       1153.7 
     1814.00         0.63       1287.8 
     1815.00         0.65       1442.7 
     1816.00         0.63       1667.9 
     1817.00         0.53       1785.1 
     1818.00         0.50       1894.7 
     1819.00         0.60       1952.1 
     1820.00         0.63       1971.8 
     1821.00         0.65       2004.3 
     1822.00         3.62       2065.8 
     1823.00         1.50       3019.5 
     1824.00         1.38       2711.5 
     1825.00         1.13       2681.4 
     1826.00         1.07       2575.9 
     1827.00         0.85       2878.8 
     1828.00         0.67       2969.4 
     1829.00         0.70       2877.8 
     1830.00         0.70       2426.6 
     1831.00         0.80       1921.9 
     1832.00         0.82       1183.1 
     1833.00         0.70        481.3 
     1834.00         0.70        377.4 
     1835.00         0.83        338.9 
     1836.00         0.70        352.4 
     1837.00         0.68        356.0 
     1838.00         0.67        374.0 
     1839.00         0.73        413.2 
     1840.00         0.67        416.4 
     1841.00         0.57        402.7 
     1842.00         0.68        388.7 
     1843.00         0.60        393.2 
     1844.00         0.50        412.7 
     1845.00         0.60        441.9 
     1846.00         0.73        452.8 
     1847.00         1.02        563.9 
     1848.00         9.68       1778.0 
     1849.00         0.60        440.0 
     1850.00         0.50         93.7 
     1851.00         0.57         59.5 
     1852.00         3.72         84.4 
     1853.00       571.10       2367.6 
     1854.00         0.33         29.7 
     1855.00         0.20         25.8 
     1856.00         0.23         28.3 
     1857.00         0.30         31.2 
     1858.00         2.38         31.9 
     1859.00         8.00         44.3 
     1860.00         4.27         31.5 
     1861.00         0.50        120.0 
     1862.00         0.83        110.5 
     1863.00         0.63         34.1 
     1864.00         0.78         37.0 
     1865.00         0.77         24.9 
     1866.00         0.80         27.7 
     1867.00         0.67         32.5 
     1868.00         0.67         37.7 
     1869.00         0.68         41.9 
     1870.00         0.67         41.4 
     1871.00         0.57         33.6 
     1872.00         0.53         29.8 
     1873.00         0.60         27.7 
     1874.00         0.60         31.4 
     1875.00         0.62         30.2 
     1876.00         0.57         29.1 
     1877.00         0.57         29.6 
     1878.00         0.53         30.9 
     1879.00         0.60         32.1 
     1880.00         0.62         30.1 
     1881.00         0.60         31.6 
     1882.00         0.57         30.7 
     1883.00         0.60         29.5 
     1884.00         0.60         27.3 
     1885.00         0.63         32.3 
     1886.00         0.52         33.0 
     1887.00         0.47         29.6 
     1888.00         2.30         33.6 
     1889.00         8.25        109.5 
     1890.00         0.73         32.9 
     1891.00         0.70         41.8 
     1892.00         0.57         43.9 
     1893.00         1.12         47.0 
     1894.00         0.27         41.4 
     1895.00         0.67         46.7 
     1896.00         0.60         49.4 
     1897.00         0.57         50.2 
     1898.00         0.58         50.1 
     1899.00         0.57         47.4 
     1900.00         0.67         49.4 
     1901.00         0.60         52.8 
     1902.00         0.57         50.3 
     1903.00         0.65         42.7 
     1904.00         0.57         48.4 
     1905.00         0.57         49.4 
     1906.00         0.63         45.3 
     1907.00         0.87         45.8 
     1908.00         0.63         47.4 
     1909.00         0.52         47.1 
     1910.00         0.53         40.4 
     1911.00         0.63         46.5 
     1912.00         0.43         45.0 
     1913.00         0.83         46.4 
     1914.00         1.02         90.4 
     1915.00         0.43         86.6 
     1916.00         0.67         65.2 
     1917.00         0.67         60.0 
     1918.00         2.32         55.3 
     1919.00         5.22        179.7 
     1920.00         1.42         41.7 
     1921.00         2.52         66.6 
     1922.00         1.33         61.0 
     1923.00         1.50         58.4 
     1924.00         1.45         59.2 
     1925.00         0.83         56.5 
     1926.00         0.47         50.4 
     1927.00         0.82         62.5 
     1928.00         0.67         56.6 
     1929.00         0.67         57.7 
     1930.00         0.63         61.2
