~Version Information
VERS.                      2.0: CWLS Log ASCII Standard - VERSION 2.0
WRAP.                       NO: One line per depth step
~Well Information Block
STRT.FT               750.6000: 
STOP.FT              2495.5000: 
STEP.FT                 0.1000: 
NULL.                -999.2500: 
COMP.                         : COMPANY
WELL.                         : WELL
FLD.                          : FIELD
LOC.                          : LOCATION
CNTY.                         : COUNTY
SRVC.                         : SERVICE COMPANY
DATE.          Sat Feb 28 14:05:57 2004: LOG DATE
UWI.                          : UNIQUE WELL ID
STAT.                         : STATE
~Curve Information Block
DEPT.FT            0 000 00 00: Depth
DCAL.in                       : CDL Caliper
RHOB.g/cc                     : CDL Bulk Density
RHOC.g/cc                     : CDL Density Correction
DPOR.pu                       : CDL Density Porosity
GR.GAPI                       : Gamma Ray
NPOR.pu                       : Neutron Porosity
~Parameter Information Block
~A  Depth       DCAL        RHOB        RHOC        DPOR         GR         NPOR    
# ...
  1691.4000      8.0479      2.6392      0.0871      0.6540     92.1474     22.1565
  1691.5000      8.0042      2.6458      0.1263      0.2541     93.8716     20.6961
  1691.6000      8.0042      2.6123      0.1058      2.2868     93.6041     20.2205
  1691.7000      8.0042      2.5648      0.0621      5.1626     93.5726     20.5521
  1691.8000      7.9996      2.5339      0.0989      7.0382     98.5434     20.7927
  1691.9000      7.9996      2.5211      0.0205      7.8117    102.9588     20.8270
  1692.0000      7.9990      2.5114      0.1450      8.4003     97.8911     21.3633
  1692.1000      7.9990      2.4870      0.0394      9.8789     84.1499     22.5385
  1692.2000      7.9990      2.4599      0.0277     11.5215     70.1987     23.6877
  1692.3000      8.0131      2.4500      0.0208     12.1203     61.8220     24.1894
  1692.4000      8.0131      2.4527      0.0295     11.9557     54.9279     24.0003
  1692.5000      8.0134      2.4610      0.0342     11.4535     46.1122     23.4086
  1692.6000      8.0134      2.4772      0.0602     10.4743     41.8838     22.7666
  1692.7000      8.0134      2.5000      0.0366      9.0933     45.0935     22.2656
  1692.8000      8.0149      2.5204      0.0846      7.8542     50.3048     21.9221
  1692.9000      8.0149      2.5200      0.1301      7.8809     54.4076     21.7133
  1693.0000      8.0215      2.4889      0.0447      9.7636     56.1241     21.3643
  1693.1000      8.0215      2.4509     -0.0537     12.0658     53.8805     20.7383
  1693.2000      8.0215      2.4365     -0.0267     12.9377     48.8072     20.1561
  1693.3000      8.0232      2.4453      0.0238     12.4078     41.9446     19.5376
  1693.4000      8.0232      2.4655      0.0330     11.1806     33.7431     18.3256
  1693.5000      8.0287      2.4856      0.1018      9.9665     25.6617     16.8628
  1693.6000      8.0287      2.4880      0.0600      9.8207     20.1758     15.7969
  1693.7000      8.0287      2.4771      0.0571     10.4770     18.5220     14.7981
  1693.8000      8.0225      2.4704      0.0946     10.8872     19.2673     13.9677
  1693.9000      8.0225      2.4681      0.0822     11.0271     19.7876     13.9055
  1694.0000      8.0237      2.4655      0.0777     11.1805     19.3920     13.9330
  1694.1000      8.0237      2.4615      0.1004     11.4259     21.4038     13.4783
  1694.2000      8.0237      2.4518      0.0995     12.0098     26.1144     13.5104
  1694.3000      8.0198      2.4432      0.0192     12.5317     29.5642     14.5755
  1694.4000      8.0198      2.4428      0.1228     12.5587     30.4302     15.8050
  1694.5000      8.0222      2.4411      0.0580     12.6614     30.4923     16.3622
  1694.6000      8.0222      2.4343      0.0584     13.0755     31.8356     16.6320
  1694.7000      8.0222      2.4224      0.0751     13.7933     33.1989     17.2649
  1694.8000      8.0247      2.4065      0.0363     14.7570     31.3127     18.0863
  1694.9000      8.0247      2.3988      0.0664     15.2257     26.1828     18.4628
  1695.0000      8.0253      2.4067      0.0836     14.7435     21.6675     18.0794
  1695.1000      8.0253      2.4197      0.0673     13.9572     20.4766     17.5752
  1695.2000      8.0253      2.4194      0.1151     13.9740     21.3280     17.4470
  1695.3000      8.0154      2.4005      0.0882     15.1227     20.7605     17.4510
  1695.4000      8.0154      2.3828      0.0237     16.1926     19.4666     17.5369
  1695.5000      8.0197      2.3889      0.0354     15.8236     19.9877     17.7373
  1695.6000      8.0197      2.4198      0.0717     13.9488     20.8587     17.8177
  1695.7000      8.0197      2.4570      0.0881     11.6973     21.3101     17.5866
  1695.8000      8.0157      2.4748      0.1547     10.6180     22.4224     17.1434
  1695.9000      8.0157      2.4709      0.0815     10.8567     22.8831     16.6664
  1696.0000      8.0136      2.4708      0.1062     10.8583     23.0266     16.4960
  1696.1000      8.0136      2.4753      0.1327     10.5882     24.5552     16.8766
  1696.2000      8.0136      2.4557      0.1109     11.7762     24.9245     17.5170
  1696.3000      8.0156      2.4120      0.0920     14.4218     21.1943     17.9858
  1696.4000      8.0156      2.3820      0.0363     16.2404     15.9332     18.0022
  1696.5000      8.0126      2.3899      0.1032     15.7636     13.2131     17.9347
  1696.6000      8.0126      2.4148      0.0883     14.2540     15.0466     18.4610
  1696.7000      8.0126      2.4310      0.0534     13.2709     20.3028     19.4015
  1696.8000      8.0144      2.4431      0.0764     12.5386     24.7679     19.9155
  1696.9000      8.0144      2.4541      0.1047     11.8726     26.6167     19.3718
  1697.0000      8.0173      2.4523      0.1027     11.9821     27.9347     18.0453
  1697.1000      8.0173      2.4390      0.0903     12.7901     29.0585     17.2735
  1697.2000      8.0173      2.4289      0.0866     13.4022     28.4754     17.6352
  1697.3000      8.0099      2.4271      0.1039     13.5087     26.3748     18.1951
  1697.4000      8.0099      2.4257      0.0957     13.5960     25.2956     18.5562
  1697.5000      8.0052      2.4196      0.0698     13.9643     26.0296     19.3999
  1697.6000      8.0052      2.4057      0.0922     14.8060     25.3427     20.8660
  1697.7000      8.0052      2.3847      0.0172     16.0771     21.4119     22.2719
  1697.8000      8.0120      2.3817     -0.0236     16.2632     18.4107     22.7703
  1697.9000      8.0120      2.4144      0.0651     14.2813     20.3779     22.3512
  1698.0000      8.0198      2.4565      0.1259     11.7272     24.2609     21.8339
  1698.1000      8.0198      2.4748      0.0947     10.6154     25.3504     21.6023
  1698.2000      8.0198      2.4691      0.1286     10.9613     23.9168     21.4643
  1698.3000      8.0179      2.4527      0.1036     11.9558     22.0066     21.3857
  1698.4000      8.0179      2.4351      0.0882     13.0267     19.3882     21.4944
  1698.5000      8.0149      2.4268      0.0607     13.5298     17.3914     21.7147
  1698.6000      8.0149      2.4329      0.0789     13.1561     18.8687     21.8335
  1698.7000      8.0149      2.4409      0.1095     12.6749     22.2275     21.9006
  1698.8000      8.0023      2.4350      0.0513     13.0301     23.2255     22.1849
  1698.9000      8.0023      2.4178      0.0636     14.0711     21.4682     22.4454
  1699.0000      8.0057      2.3932      0.0539     15.5643     18.8737     22.0533
  1699.1000      8.0057      2.3521      0.0586     18.0525     17.5031     21.3256
  1699.2000      8.0057      2.3075      0.0691     20.7589     20.0109     20.9206
  1699.3000      8.0241      2.3112     -0.0311     20.5304     25.3054     20.8553
  1699.4000      8.0241      2.3798      0.0590     16.3782     28.5457     21.2885
  1699.5000      8.0311      2.4462      0.1839     12.3505     28.8372     21.8849
  1699.6000      8.0311      2.4594      0.0450     11.5514     28.5258     22.1219
  1699.7000      8.0311      2.4400      0.0816     12.7245     28.0598     22.4652
  1699.8000      8.0314      2.4212      0.0116     13.8658     27.8963     23.3139
  1699.9000      8.0314      2.4247     -0.0922     13.6564     28.5144     24.3528
  1700.0000      8.0306      2.4496      0.0613     12.1441     29.1041     24.9714
  1700.1000      8.0306      2.4686      0.0987     10.9925     28.6656     24.8271
  1700.2000      8.0306      2.4767      0.0602     10.5017     27.9839     24.4055
  1700.3000      8.0383      2.4871      0.1159      9.8743     29.3106     24.2043
  1700.4000      8.0383      2.4924      0.0671      9.5521     32.8084     24.2148
  1700.5000      8.0433      2.4871      0.0615      9.8720     36.9576     24.3699
  1700.6000      8.0433      2.4859      0.0048      9.9475     39.0733     24.7540
  1700.7000      8.0433      2.4925      0.0784      9.5484     35.9127     25.3009
  1700.8000      8.0408      2.4951      0.0483      9.3870     30.4531     25.4704
  1700.9000      8.0408      2.4928      0.1083      9.5272     27.8238     25.2303
