~Version Information
VERS.                      2.0: CWLS Log ASCII Standard - VERSION 2.0
WRAP.                       NO: One line per depth step
~Well Information Block
STRT.FT               870.0000: 
STOP.FT              2519.5000: 
STEP.FT                 0.2500: 
NULL.                -999.2500: 
COMP.          Pioneer Natural Resources: COMPANY
WELL.              Tiaga 23-14: WELL
FLD.           Purgatoire River: FIELD
LOC.           2168' FSL & 2030' FWL: LOCATION
PROV.                 Colorado: PROVINCE
CNTY.               Las Animas: COUNTRY
SRVC.                         : SERVICE COMPANY
DATE.          Sat May 07 08:44:43 2005: LOG DATE
UWI.           05 071 08329 00: UNIQUE WELL ID
~Curve Information Block
DEPT.FT            0 000 00 00: Depth
LTEN.lb                       : Surface Line Tension
SN.Ohm-m                      : IEL Short Normal
SP.mV                         : IEL Spontaneous Potential
DIR.Ohm-m                     : IEL Induction Resistivity
GR.GAPI                       : Gamma Ray
~Parameter Information Block
~A  Depth       LTEN         SN          SP         DIR          GR     
# ...
  1626.0000    700.4982     23.9134    -67.2205     18.5862    127.1036
  1626.2500    702.4786     22.4942    -67.1674     18.2434    131.2728
  1626.5000    705.2495     21.3514    -67.0879     18.0321    136.2206
  1626.7500    708.4449     20.4757    -66.9893     17.9140    138.4740
  1627.0000    711.4663     19.8672    -66.8789     17.8557    140.2245
  1627.2500    713.5829     19.5759    -66.7611     17.8307    140.4385
  1627.5000    714.2510     19.6484    -66.6365     17.8272    139.5925
  1627.7500    713.4258     20.0447    -66.5018     17.8524    138.2087
  1628.0000    711.5601     20.6257    -66.3517     17.9316    134.3737
  1628.2500    709.2338     21.2738    -66.1811     18.1002    130.3071
  1628.5000    706.7831     22.0015    -65.9882     18.3937    122.1331
  1628.7500    704.3022     22.8569    -65.7778     18.8401    116.1051
  1629.0000    701.9204     23.7985    -65.5615     19.4530    108.2083
  1629.2500    699.9968     24.7248    -65.3522     20.2258    104.6665
  1629.5000    699.0135     25.5546    -65.1593     21.1247    102.4755
  1629.7500    699.2730     26.2485    -64.9871     22.0898    102.6596
  1630.0000    700.6887     26.7885    -64.8367     23.0475    103.7408
  1630.2500    702.7397     27.1751    -64.7070     23.9317    104.0242
  1630.5000    704.5822     27.4405    -64.5938     24.6993    103.2433
  1630.7500    705.5070     27.6352    -64.4896     25.3283    102.4065
  1631.0000    705.5215     27.8079    -64.3866     25.8063    101.8411
  1631.2500    705.3468     28.0046    -64.2811     26.1252    102.0196
  1631.5000    705.7799     28.2507    -64.1762     26.2842    102.0357
  1631.7500    707.1637     28.5210    -64.0797     26.3000    101.1881
  1632.0000    709.3523     28.7580    -63.9987     26.2181     98.6252
  1632.2500    711.9661     28.9358    -63.9331     26.1165     96.7237
  1632.5000    714.6315     29.0985    -63.8741     26.0909     94.8555
  1632.7500    716.9691     29.3335    -63.8107     26.2241     94.6016
  1633.0000    718.4742     29.7036    -63.7377     26.5582     95.4570
  1633.2500    718.6895     30.1883    -63.6595     27.0811     96.3899
  1633.5000    717.5608     30.6926    -63.5871     27.7278     97.3465
  1633.7500    715.5039     31.1427    -63.5310     28.3957     97.1716
  1634.0000    713.0974     31.5579    -63.4962     28.9755     95.1978
  1634.2500    710.7538     32.0088    -63.4808     29.3982     92.7562
  1634.5000    708.7161     32.5396    -63.4767     29.6716     88.0338
  1634.7500    707.2917     33.1426    -63.4749     29.8779     84.9302
  1635.0000    706.8475     33.7699    -63.4699     30.1260     81.9652
  1635.2500    707.4824     34.3938    -63.4627     30.4957     81.7959
  1635.5000    708.8867     35.0530    -63.4593     31.0027     84.1721
  1635.7500    710.5719     35.7670    -63.4690     31.6002     86.6856
  1636.0000    712.1279     36.4594    -63.5031     32.2064     89.8006
  1636.2500    713.3151     37.0720    -63.5742     32.7421     90.4795
  1636.5000    714.0918     37.6920    -63.6954     33.1627     88.9690
  1636.7500    714.6442     38.5128    -63.8770     33.4837     86.6775
  1637.0000    715.3151     39.6955    -64.1217     33.8004     82.3834
  1637.2500    716.2938     41.2324    -64.4229     34.2801     79.5039
  1637.5000    717.3142     42.9448    -64.7665     35.1010     75.8217
  1637.7500    717.8276     44.6818    -65.1368     36.3605     73.8944
  1638.0000    717.4999     46.4952    -65.5195     37.9993     71.2396
  1638.2500    716.4082     48.5397    -65.9040     39.7984     68.9839
  1638.5000    714.8823     50.8500    -66.2831     41.4708     63.9986
  1638.7500    713.3286     53.2413    -66.6513     42.7967     59.7135
  1639.0000    712.0283     55.3648    -67.0022     43.6865     53.2981
  1639.2500    710.9631     56.8905    -67.3299     44.1311     50.1941
  1639.5000    709.9487     57.6465    -67.6324     44.1343     48.6608
  1639.7500    708.8951     57.5775    -67.9150     43.7300     49.8460
  1640.0000    707.8820     56.7018    -68.1895     43.0431     54.3029
  1640.2500    707.1544     55.1648    -68.4697     42.2815     58.4672
  1640.5000    707.0370     53.2187    -68.7678     41.6314     65.3246
  1640.7500    707.6768     51.1019    -69.0893     41.1579     69.6185
  1641.0000    708.9675     49.0001    -69.4292     40.7936     74.7855
  1641.2500    710.8090     47.1072    -69.7694     40.4164     77.1439
  1641.5000    713.2315     45.6183    -70.0829     39.9501     78.9246
  1641.7500    716.1703     44.6469    -70.3429     39.4152     78.9513
  1642.0000    719.2113     44.1895    -70.5311     38.9094     77.3722
  1642.2500    721.6044     44.1602    -70.6405     38.5502     75.2794
  1642.5000    722.5843     44.4384    -70.6727     38.4226     70.5447
  1642.7500    721.7944     44.9099    -70.6337     38.5579     66.4381
  1643.0000    719.4798     45.5050    -70.5331     38.9413     59.5856
  1643.2500    716.3577     46.2353    -70.3856     39.5410     55.1740
  1643.5000    713.3209     47.1829    -70.2098     40.3357     49.7211
  1643.7500    711.1066     48.4074    -70.0209     41.3195     47.1430
  1644.0000    710.0699     49.8519    -69.8245     42.4768     44.7208
  1644.2500    710.1782     51.3621    -69.6191     43.7378     43.7220
  1644.5000    711.1000     52.7914    -69.4027     44.9521     42.6752
  1644.7500    712.2686     54.0885    -69.1766     45.9047     42.3257
  1645.0000    713.1260     55.2899    -68.9452     46.3790     42.7940
  1645.2500    713.5056     56.4297    -68.7138     46.2447     43.9095
  1645.5000    713.6833     57.4733    -68.4841     45.5390     46.2886
  1645.7500    714.0283     58.3378    -68.2507     44.4920     47.6866
  1646.0000    714.6976     58.9155    -68.0041     43.4482     48.5249
  1646.2500    715.5856     59.0622    -67.7377     42.7101     48.2788
  1646.5000    716.4758     58.6083    -67.4555     42.4026     48.1618
  1646.7500    717.3281     57.4476    -67.1721     42.4305     49.5847
  1647.0000    718.3497     55.6421    -66.9063     42.5380     55.7991
  1647.2500    719.6276     53.3655    -66.6717     42.4243     62.8113
  1647.5000    720.8391     50.7760    -66.4721     41.8554     75.7635
  1647.7500    721.4888     48.0673    -66.3013     40.7177     83.9728
  1648.0000    721.2792     45.5004    -66.1484     39.0184     92.1991
  1648.2500    720.2239     43.2201    -66.0042     36.8530     94.0260
  1648.5000    718.5815     41.1902    -65.8636     34.3573     92.1965
  1648.7500    716.6817     39.3803    -65.7241     31.6693     89.3614
  1649.0000    714.7634     37.8200    -65.5837     28.9187     85.0614
  1649.2500    713.0045     36.4255    -65.4400     26.2309     83.0377
  1649.5000    711.6009     34.9203    -65.2916     23.7220     82.1191
  1649.7500    710.7222     32.9815    -65.1384     21.4767     83.3742
  1650.0000    710.4753     30.4663    -64.9825     19.5303     88.8272
  1650.2500    710.9056     27.5347    -64.8260     17.8716     94.9473
  1650.5000    711.9731     24.5528    -64.6680     16.4631    106.8699
  1650.7500    713.5563     21.8672    -64.5030     15.2633    115.4588
  1651.0000    715.4520     19.6529    -64.3238     14.2385    126.9651
  1651.2500    717.4047     17.8978    -64.1300     13.3619    132.6870
  1651.5000    719.3104     16.4926    -63.9334     12.6079    137.9141
  1651.7500    721.2994     15.3462    -63.7536     11.9493    139.7727
  1652.0000    723.3885     14.4244    -63.6044     11.3612    141.8565
  1652.2500    725.2068     13.7104    -63.4839     10.8255    143.5683
  1652.5000    726.2892     13.1663    -63.3763     10.3341    147.0587
  1652.7500    726.4851     12.7418    -63.2618      9.8865    149.8145
  1653.0000    725.8910     12.3915    -63.1270      9.4856    153.7547
  1653.2500    724.4963     12.0689    -62.9709      9.1336    155.5364
  1653.5000    722.1804     11.7393    -62.8037      8.8310    155.8514
  1653.7500    719.1812     11.4155    -62.6410      8.5767    154.4051
