~Version Information
VERS.                      2.0: CWLS Log ASCII Standard - VERSION 2.0
WRAP.                       NO: One line per depth step
~Well Information Block
STRT.FT               870.0000: 
STOP.FT              2517.5000: 
STEP.FT                 0.1000: 
NULL.                -999.2500: 
COMP.          Pioneer Natural Resources: COMPANY
WELL.              Tiaga 23-14: WELL
FLD.           Purgatoire River: FIELD
LOC.           2168' FSL & 2030' FWL: LOCATION
PROV.                 Colorado: PROVINCE
CNTY.               Las Animas: COUNTRY
SRVC.                         : SERVICE COMPANY
DATE.          Sat May 07 09:09:05 2005: LOG DATE
UWI.           05 071 08329 00: UNIQUE WELL ID
~Curve Information Block
DEPT.FT            0 000 00 00: Depth
LTEN.lb                       : Surface Line Tension
DCAL.in                       : CDL Caliper
RHOC.g/cc                     : CDL Density Correction
DPOR.pu                       : CDL Density Porosity
GR.GAPI                       : Gamma Ray
NPOR.pu                       : Neutron Porosity
~Parameter Information Block
~A  Depth       LTEN        DCAL        RHOC        DPOR         GR         NPOR    
# ...
  1954.8000   1044.7769      8.1184      0.1777      9.2850    124.3498     29.1957
  1954.9000   1044.7769      8.1184      0.1292      8.4382    124.5578     29.5189
  1955.0000   1062.4613      8.1111      0.1187      8.5914    124.7510     30.4492
  1955.1000   1062.4613      8.1111      0.1474      9.8494    122.4603     31.5462
  1955.2000   1062.4613      8.1111      0.0741     12.1415    119.6579     32.5154
  1955.3000   1026.3931      8.0530      0.0484     14.5274    118.7587     32.4120
  1955.4000   1026.3931      8.0530      0.0616     16.9148    120.1005     30.9959
  1955.5000   1070.9200      8.0134      0.0164     19.8449    123.1274     29.5896
  1955.6000   1070.9200      8.0134     -0.0347     22.3625    125.7190     29.2131
  1955.7000   1070.9200      8.0134     -0.0702     22.8646    125.8991     29.3615
  1955.8000   1005.9995      8.0010     -0.0011     21.3389    124.7926     29.4027
  1955.9000   1005.9995      8.0010      0.0307     19.2354    127.2741     29.6658
  1956.0000   1106.9534      8.1019      0.0829     17.5914    132.9989     30.5752
  1956.1000   1106.9534      8.1019      0.0679     16.3018    135.0766     31.3851
  1956.2000   1106.9534      8.1019      0.2040     15.4930    132.5709     31.0548
  1956.3000   1040.4717      8.1473      0.1719     15.8609    130.7945     30.0788
  1956.4000   1040.4717      8.1473      0.0580     16.5604    131.8290     29.8222
  1956.5000   1120.0500      8.0545      0.0948     16.0926    133.1238     30.4843
  1956.6000   1120.0500      8.0545      0.0656     14.4930    134.7235     31.1707
  1956.7000   1120.0500      8.0545      0.1151     12.3637    138.1097     31.8546
  1956.8000   1045.7784      8.0733      0.1557     10.8465    141.0420     32.7410
  1956.9000   1045.7784      8.0733      0.1497     11.2168    139.8456     32.9451
  1957.0000   1120.8901      8.1712      0.0700     12.5035    132.5663     32.0333
  1957.1000   1120.8901      8.1712      0.1521     12.9116    122.6942     31.2268
  1957.2000   1120.8901      8.1712      0.1727     13.0200    115.8254     31.8061
  1957.3000   1098.1730      8.0055      0.1084     13.9913    115.3344     32.9641
  1957.4000   1098.1730      8.0055      0.1353     15.8824    123.0457     32.9305
  1957.5000   1104.2355      7.9232      0.0769     18.2271    133.0719     31.6617
  1957.6000   1104.2355      7.9232      0.0534     19.6319    136.9541     30.4461
  1957.7000   1104.2355      7.9232      0.0807     19.3063    134.0416     29.9875
  1957.8000   1046.1554      7.9465      0.1360     18.4470    127.2704     29.9691
  1957.9000   1046.1554      7.9465      0.0944     18.2763    119.4337     29.7833
  1958.0000   1081.7338      8.0945      0.1918     19.5379    112.3510     29.4854
  1958.1000   1081.7338      8.0945      0.1341     22.8061    105.0331     29.5421
  1958.2000   1081.7338      8.0945      0.0955     26.8244     96.7915     29.7521
  1958.3000   1003.2742      8.1293      0.0551     29.6128     90.8595     29.9366
  1958.4000   1003.2742      8.1293      0.0267     30.3094     90.2655     30.4897
  1958.5000   1152.4858      8.0369      0.0285     28.5683     91.8952     30.9586
  1958.6000   1152.4858      8.0369      0.1384     24.9196     89.4226     30.7200
  1958.7000   1152.4858      8.0369      0.1333     20.8511     85.1433     29.9923
  1958.8000   1084.0566      7.9984      0.1322     16.9496     85.9530     29.2122
  1958.9000   1084.0566      7.9984      0.1428     13.0812     90.5666     28.8463
  1959.0000   1089.9637      7.9626      0.1941     10.0943     93.3688     28.8379
  1959.1000   1089.9637      7.9626      0.2306      9.4524     92.0724     28.7627
  1959.2000   1089.9637      7.9626      0.1083     11.2858     89.5004     29.0020
  1959.3000   1056.0303      7.9465      0.0427     14.0093     90.5667     29.6259
  1959.4000   1056.0303      7.9465      0.0715     16.4932     94.8926     29.3050
  1959.5000   1081.8615      7.9406     -0.0270     18.5858     99.1515     27.7310
  1959.6000   1081.8615      7.9406     -0.0005     19.9148    104.3680     26.2078
  1959.7000   1081.8615      7.9406      0.0256     20.5458    112.1466     25.5231
  1959.8000   1056.9404      7.9716     -0.0153     21.0146    119.4854     25.5747
  1959.9000   1056.9404      7.9716     -0.0005     21.5194    121.2009     25.9472
  1960.0000   1090.9274      8.0226      0.0317     21.9881    117.9142     25.8672
  1960.1000   1090.9274      8.0226     -0.0068     21.8960    116.4186     25.3652
  1960.2000   1090.9274      8.0226      0.0550     20.2939    116.8560     25.9454
  1960.3000   1036.6523      8.0477      0.1492     17.0699    112.2038     27.9519
  1960.4000   1036.6523      8.0477      0.2806     13.7059    104.4664     29.6126
  1960.5000   1121.1547      7.9538      0.2696     11.9504    102.7355     30.0858
  1960.6000   1121.1547      7.9538      0.2205     11.4416    108.8677     30.4535
  1960.7000   1121.1547      7.9538      0.2303     11.1406    116.3938     31.0977
  1960.8000   1089.2535      7.9196      0.2334     11.2690    119.8386     31.5476
  1960.9000   1089.2535      7.9196      0.1958     11.8220    119.7533     31.5858
  1961.0000   1102.8115      7.9959      0.1871     12.4395    120.6973     31.3607
  1961.1000   1102.8115      7.9959      0.1454     13.5783    125.6700     31.0222
  1961.2000   1102.8115      7.9959      0.0979     15.7039    131.4462     30.4560
  1961.3000   1025.9240      8.0111      0.0695     18.2758    131.1452     29.8216
  1961.4000   1025.9240      8.0111      0.0849     20.5115    123.5832     29.5661
  1961.5000   1130.7101      8.0312      0.0672     22.4989    114.0680     30.3501
  1961.6000   1130.7101      8.0312      0.0830     24.4914    107.7912     32.0891
  1961.7000   1130.7101      8.0312      0.0545     26.0997    105.2939     33.0626
  1961.8000   1096.3606      8.1225      0.0859     27.3542    103.7741     32.2437
  1961.9000   1096.3606      8.1225      0.0425     29.1693    103.7855     30.8027
  1962.0000   1152.8115      8.1676     -0.0357     31.2835    104.8782     29.9896
  1962.1000   1152.8115      8.1676      0.0101     32.2117    103.7428     30.0354
  1962.2000   1152.8115      8.1676      0.0568     31.7141    100.7075     31.0847
  1962.3000   1092.0009      8.1678      0.0613     30.7269     97.9317     32.5429
  1962.4000   1092.0009      8.1678      0.0153     29.3437     96.3639     32.9420
  1962.5000   1094.1011      8.0741      0.0353     26.6181     97.7537     31.9692
  1962.6000   1094.1011      8.0741      0.0766     22.2440    103.1335     30.8934
  1962.7000   1094.1011      8.0741      0.1397     17.6313    110.2259     30.7834
  1962.8000   1069.2775      8.0282      0.1566     14.4469    112.6145     31.3963
  1962.9000   1069.2775      8.0282      0.1265     12.5707    106.7708     31.3912
  1963.0000   1041.4126      8.0318      0.1022     10.9622    101.0551     29.9872
  1963.1000   1041.4126      8.0318      0.0809      9.5873    102.0364     28.3705
  1963.2000   1041.4126      8.0318      0.0583      8.7314    104.7873     28.0548
  1963.3000   1151.1942      8.0414      0.0897      8.2772    105.0601     28.7980
  1963.4000   1151.1942      8.0414      0.0435      8.2272    105.6367     29.3654
  1963.5000   1063.6167      8.0911      0.0064      8.5800    107.9141     29.1987
  1963.6000   1063.6167      8.0911      0.0279      9.4641    108.9721     28.5146
  1963.7000   1063.6167      8.0911     -0.0181     10.8724    109.3036     28.1693
  1963.8000   1095.8115      8.1022     -0.0267     12.2016    111.1551     28.3210
  1963.9000   1095.8115      8.1022     -0.0607     12.5070    113.7919     27.9830
  1964.0000   1004.6519      8.1210     -0.0081     11.1337    116.4839     27.0828
  1964.1000   1004.6519      8.1210      0.0452      9.4726    116.9215     26.5522
  1964.2000   1004.6519      8.1210     -0.0679      9.1285    112.6966     26.8198
  1964.3000   1126.2878      8.1219      0.0354      9.3888    106.3449     27.4929
