~Version Information
VERS.                      2.0: CWLS Log ASCII Standard - VERSION 2.0
WRAP.                       NO: One line per depth step
~Well Information Block
STRT.FT                -7.5000: 
STOP.FT              1877.2500: 
STEP.FT                 0.2500: 
NULL.                -999.2500: 
COMP.          Pioneer Natural Resources: COMPANY
WELL.            Nova 11-14 Tr: WELL
FLD.           Purgatorie River: FIELD
LOC.           706' FNL & 1109' FWL--: LOCATION
PROV.                       CO: PROVINCE
CNTY.               Las Animas: COUNTRY
SRVC.          Patterson Wireline: SERVICE COMPANY
DATE.          Tue Jul 26 15:08:01 2005: LOG DATE
UWI.           05 071 08434 00: UNIQUE WELL ID
~Curve Information Block
DEPT.FT            0 000 00 00: Depth
CCL.                          : Casing Collar Locator
TT3.usec                      : CBL 3' Travel Time
AMP3.mV                       : CBL 3' Amplitude
GR.GAPI                       : Gamma Ray
~Parameter Information Block
~A  Depth       CCL         TT3         AMP3         GR     
    -7.5000   -999.2500   -999.2500   -999.2500     69.7577
    -7.2500   -999.2500   -999.2500   -999.2500     68.9000
    -7.0000   -999.2500   -999.2500   -999.2500     69.6708
    -6.7500   -999.2500   -999.2500   -999.2500     71.4521
    -6.5000   -999.2500   -999.2500   -999.2500     73.1522
    -6.2500   -999.2500   -999.2500   -999.2500     73.7170
    -6.0000   -999.2500   -999.2500   -999.2500     72.7039
    -5.7500   -999.2500   -999.2500   -999.2500     70.5843
    -5.5000   -999.2500   -999.2500   -999.2500     68.3438
    -5.2500   -999.2500   -999.2500   -999.2500     66.6095
    -5.0000   -999.2500   -999.2500   -999.2500     65.4635
    -4.7500   -999.2500   -999.2500   -999.2500     65.0990
    -4.5000   -999.2500   -999.2500   -999.2500     65.9207
    -4.2500   -999.2500   -999.2500   -999.2500     67.7298
    -4.0000   -999.2500   -999.2500   -999.2500     69.5339
    -3.7500   -999.2500   -999.2500   -999.2500     70.6682
    -3.5000   -999.2500   -999.2500   -999.2500     71.7213
    -3.2500   -999.2500   -999.2500   -999.2500     73.8899
    -3.0000   -999.2500   -999.2500   -999.2500     77.5473
    -2.7500   -999.2500   1149.0000      1.9659     81.6292
    -2.5000   -999.2500   1149.0000      1.9761     84.2276
    -2.2500   -999.2500   1149.0000      1.9868     83.7601
    -2.0000   -999.2500   1149.0000      1.9951     79.9957
    -1.7500   -999.2500   1149.0000      1.9983     74.2433
    -1.5000   -999.2500   1149.0000      1.9958     68.3678
    -1.2500   -999.2500   1149.0000      1.9891     63.4452
    -1.0000   -999.2500   1149.0000      1.9817     59.3555
    -0.7500   -999.2500   1149.0000      1.9765     55.4388
    -0.5000   -999.2500   1149.0000      1.9751     51.2173
    -0.2500   -999.2500   1149.0000      1.9773     46.6241
     0.0000   -999.2500   1149.0000      1.9896     37.6344
     0.2500   -999.2500   1149.0000      2.0003     34.1053
     0.5000   -999.2500   1149.0000      2.0136     31.5536
     0.7500   -999.2500   1149.0000      2.0260     29.9332
     1.0000   -999.2500   1149.0000      2.0328     28.9202
     1.2500   -999.2500   1149.0000      2.0329     28.0227
     1.5000   -999.2500   1149.0000      2.0294     27.0465
     1.7500   -999.2500   1149.0000      2.0261     26.5693
     2.0000   -999.2500   1149.0000      2.0230     27.6505
     2.2500   -999.2500   1149.0000      2.0165     30.7973
     2.5000      0.0000   1149.0000      2.0042     35.3702
     2.7500      0.0000   1149.0000      1.9869     40.2235
     3.0000      0.0000   1149.0000      1.9674     44.6449
     3.2500      0.0000   1149.0000      1.9494     48.4462
     3.5000      0.0000   1149.0000      1.9369     51.6529
     3.7500      0.0000   1149.0000      1.9323     54.5240
     4.0000      0.0000   1149.0000      1.9349     57.3916
     4.2500      0.0000   1149.0000      1.9425     60.2418
     4.5000      0.0000   1149.0000      1.9537     62.8885
     4.7500      0.0000   1149.0000      1.9684     65.4447
     5.0000      0.0000   1149.0000      1.9853     67.9423
     5.2500      0.0000   1149.0000      2.0007     69.6279
     5.5000      0.0000   1149.0000      2.0090     69.3043
     5.7500      0.0000   1149.0000      2.0053     66.5438
     6.0000      0.0000   1149.0000      1.9895     62.4011
     6.2500      0.0000   1149.0000      1.9669     58.8112
     6.5000      0.0000   1149.0000      1.9463     57.1348
     6.7500      0.0000   1148.9407      1.9398     57.2154
     7.0000      0.0000   1148.5535      1.9711     57.8463
     7.2500      0.0000   1146.5873      2.1297     57.9924
     7.5000      0.0000   1138.8107      2.7048     57.4676
     7.7500      0.0000   1114.8573      4.3915     56.6724
     8.0000      0.0000   1057.3958      8.3393     55.9431
     8.2500      0.0000    950.0429     15.6270     55.1603
     8.5000      0.0000    793.8440     26.1768     53.9150
     8.7500      0.0000    616.8447     38.1184     52.1442
     9.0000      0.0000    460.6394     48.6766     50.6477
     9.2500      0.0000    353.2768     55.9694     50.8581
     9.5000      0.0000    295.8064     59.9130     53.9062
     9.7500      0.0000    271.8475     61.5961     59.6634
    10.0000      0.0000    264.0681     62.1828     66.3979
    10.2500      0.0000    262.0995     62.3765     71.4855
    10.5000      0.0000    261.7079     62.4679     73.0745
    10.7500      0.0000    261.6399     62.5473     71.5296
    11.0000      0.0000    261.6262     62.6378     69.2541
    11.2500      0.0000    261.6126     62.7396     68.7818
    11.5000      0.0000    261.6170     62.8345     70.7675
    11.7500      0.0000    261.7018     62.8790     73.6866
    12.0000      0.0000    262.0657     62.7602     75.4831
    12.2500      0.0000    263.2001     62.2108     75.4246
    12.5000      0.0000    265.9535     60.7583     74.3438
    12.7500      0.0000    271.1833     57.9099     73.4636
    13.0000      0.0000    278.9438     53.6212     73.4056
    13.2500      0.0000    287.9167     48.6339     74.1054
    13.5000      0.0000    295.9707     44.1482     75.0665
    13.7500      0.0000    301.5496     41.0380     75.4618
    14.0000      0.0000    304.5007     39.4332     74.3445
    14.2500      0.0000    305.6631     38.9506     71.1725
    14.5000      0.0000    305.9631     39.0982     66.2571
    14.7500      2.0000    305.9077     39.5093     60.7709
    15.0000     -2.0000    305.5344     40.0670     56.3090
    15.2500      0.0000    304.4810     40.9753     54.0270
    15.5000      0.0000    302.1125     42.6774     53.8729
    15.7500      0.0000    297.9412     45.5148     54.8625
    16.0000      0.0000    292.2305     49.2808     56.2266
    16.2500      0.0000    286.0611     53.1591     58.0436
    16.5000      0.0000    280.4749     56.2961     60.6631
    16.7500      0.0000    275.6699     58.4349     63.8347
    17.0000      0.0000    271.3410     59.8658     66.6836
    17.2500      0.0000    267.5273     60.9071     68.5117
    17.5000      0.0000    264.6582     61.6477     69.3602
    17.7500      0.0000    262.9518     62.0891     69.6024
    18.0000      0.0000    262.1678     62.2962     69.2841
    18.2500      0.0000    261.8867     62.3788     68.2841
    18.5000      0.0000    261.8021     62.4206     66.9075
    18.7500      0.0000    261.7748     62.4553     65.8402
    19.0000      0.0000    261.7635     62.4805     65.5219
    19.2500      0.0000    261.7610     62.4832     65.8116
    19.5000      0.0000    261.7650     62.4562     66.2644
    19.7500      0.0000    261.7751     62.3990     66.6291
    20.0000      0.0000    261.7903     62.3146     67.0130
    20.2500      0.0000    261.8085     62.2072     67.6041
    20.5000      0.0000    261.8268     62.0828     68.3195
    20.7500      0.0000    261.8440     61.9495     68.8773
    21.0000      0.0000    261.8608     61.8179     69.2466
    21.2500      0.0000    261.8775     61.7028     69.8240
    21.5000      0.0000    261.8919     61.6210     71.0610
    21.7500      0.0000    261.9001     61.5843     73.1740
    22.0000      0.0000    261.8990     61.5934     76.1915
    22.2500      0.0000    261.8892     61.6362     79.9003
    22.5000      0.0000    261.8753     61.6919     83.7186
    22.7500      0.0000    261.8625     61.7434     86.8280
    23.0000      0.0000    261.8526     61.7894     88.3273
    23.2500      0.0000    261.8431     61.8451     87.3996
    23.5000      0.0000    261.8302     61.9277     83.8777
    23.7500      0.0000    261.8134     62.0411     78.8090
    24.0000      0.0000    261.7953     62.1726     74.0473
    24.2500      0.0000    261.7781     62.3037     70.9830
    24.5000      0.0000    261.7619     62.4202     69.6312
    24.7500      0.0000    261.7461     62.5143     68.9732
    25.0000      0.0000    261.7315     62.5814     68.1309
    25.2500      0.0000    261.7202     62.6205     67.1833
    25.5000      0.0000    261.7125     62.6396     66.9917
    25.7500      0.0000    261.7059     62.6555     68.4859
