~Version Information
VERS.                      2.0: CWLS Log ASCII Standard - VERSION 2.0
WRAP.                       NO: One line per depth step
~Well Information Block
STRT.FT               -12.2500: 
STOP.FT              2183.0000: 
STEP.FT                 0.2500: 
NULL.                -999.2500: 
COMP.          Petrogulf Corporation: COMPANY
WELL.            Montoya 6-14R: WELL
FLD.           Purgatorie River: FIELD
LOC.           867' FSL & 751' FWL: LOCATION
CNTY.               Las Animas: COUNTY
SRVC.                         : SERVICE COMPANY
DATE.          Mon Nov 22 13:07:31 2004: LOG DATE
UWI.           05-071-08242-00: UNIQUE WELL ID
STAT.                 Colorado: STATE
~Curve Information Block
DEPT.FT            0 000 00 00: Depth
TT3.usec                      : CBL 3' Travel Time
AMP3.mV                       : CBL 3' Amplitude
GR.GAPI                       : Gamma Ray
CCL.                          : Casing Collar Locator
~Parameter Information Block
~A  Depth       TT3         AMP3         GR         CCL     
# ...
  1260.7500    285.3731     75.5509    131.5355      0.0000
  1261.0000    285.3550     75.7919    140.5726      0.0000
  1261.2500    285.3418     76.0060    144.4482      0.0000
  1261.5000    285.3340     76.0954    143.1904      0.0000
  1261.7500    285.3308     76.0254    137.9535      0.0000
  1262.0000    285.3318     75.8457    130.4184      0.0000
  1262.2500    285.3382     75.6541    122.2087      0.0000
  1262.5000    285.3512     75.5310    114.5142      0.0000
  1262.7500    285.3711     75.5010    108.3156      0.0000
  1263.0000    285.3959     75.5516    105.0556      0.0000
  1263.2500    285.4208     75.6757    106.4730      0.0000
  1263.5000    285.4409     75.8786    113.1076      0.0000
  1263.7500    285.4556     76.1422    123.0920      0.0000
  1264.0000    285.4691     76.3994    133.0472      0.0000
  1264.2500    285.4872     76.5652    140.5835      0.0000
  1264.5000    285.5107     76.5978    145.8155      0.0000
  1264.7500    285.5333     76.5222    150.1806      0.0000
  1265.0000    285.5444     76.3937    154.2073      0.0000
  1265.2500    285.5349     76.2506    157.0470      0.0000
  1265.5000    285.5027     76.1058    157.9619      0.0000
  1265.7500    285.4549     75.9703    157.4933      0.0000
  1266.0000    285.4064     75.8653    156.8855      0.0000
  1266.2500    285.3734     75.8119    156.6505      0.0000
  1266.5000    285.3657     75.8141    156.0389      0.0000
  1266.7500    285.3841     75.8545    153.9745      0.0000
  1267.0000    285.4220     75.9020    150.3644      0.0000
  1267.2500    285.4693     75.9232    146.3488      0.0000
  1267.5000    285.5154     75.8912    143.3306      0.0000
  1267.7500    285.5507     75.7968    142.0588      0.0000
  1268.0000    285.5694     75.6564    142.6447      0.0000
  1268.2500    285.5718     75.5094    144.8930      0.0000
  1268.5000    285.5634     75.4044    148.3045      0.0000
  1268.7500    285.5515     75.3741    152.1865      0.0000
  1269.0000    285.5428     75.4174    156.0053      0.0000
  1269.2500    285.5429     75.5086    159.2749      0.0000
  1269.5000    285.5547     75.6216    161.2801      0.0000
  1269.7500    285.5773     75.7353    161.6097      0.0000
  1270.0000    285.6069     75.8189    160.8784      0.0000
  1270.2500    285.6383     75.8230    160.2537      0.0000
  1270.5000    285.6660     75.6983    160.3221      0.0000
  1270.7500    285.6840     75.4287    160.6390      0.0000
  1271.0000    285.6859     75.0490    160.0912      0.0000
  1271.2500    285.6689     74.6283    157.7415      0.0000
  1271.5000    285.6370     74.2374    153.8201      0.0000
  1271.7500    285.5988     73.9310    150.0153      0.0000
  1272.0000    285.5641     73.7504    148.5654      0.0000
  1272.2500    285.5404     73.7283    150.8990      0.0000
  1272.5000    285.5309     73.8793    156.7797      0.0000
  1272.7500    285.5348     74.1818    164.3117      0.0000
  1273.0000    285.5479     74.5705    170.7904      0.0000
  1273.2500    285.5637     74.9546    174.2384      0.0000
  1273.5000    285.5764     75.2570    174.7197      0.0000
  1273.7500    285.5822     75.4437    173.9495      0.0000
  1274.0000    285.5809     75.5194    173.1912      0.0000
  1274.2500    285.5746     75.4972    171.9095      0.0000
  1274.5000    285.5667     75.3829    169.1684      0.0000
  1274.7500    285.5608     75.1852    165.6994      0.0000
  1275.0000    285.5611     74.9269    163.2743      0.0000
  1275.2500    285.5715     74.6348    162.2691      0.0000
  1275.5000    285.5938     74.3321    160.9868      0.0000
  1275.7500    285.6261     74.0481    157.4748      0.0000
  1276.0000    285.6636     73.8285    151.3781      0.0000
  1276.2500    285.6999     73.7214    144.0715      0.0000
  1276.5000    285.7279     73.7487    137.5419      0.0000
  1276.7500    285.7405     73.8830    133.2686      0.0000
  1277.0000    285.7332     74.0459    131.8503      0.0000
  1277.2500    285.7067     74.1361    133.2211      0.0000
  1277.5000    285.6664     74.0800    136.7193      0.0000
  1277.7500    285.6201     73.8699    141.0013      0.0000
  1278.0000    285.5761     73.5538    144.6894      0.0000
  1278.2500    285.5426     73.1871    147.6232      0.0000
  1278.5000    285.5260     72.8073    151.0239      0.0000
  1278.7500    285.5269     72.4596    155.8900      0.0000
  1279.0000    285.5398     72.2238    161.6385      0.0000
  1279.2500    285.5568     72.1885    166.9165      0.0000
  1279.5000    285.5712     72.3912    171.3418      0.0000
  1279.7500    285.5797     72.7853    175.4884      0.0000
  1280.0000    285.5809     73.2608    179.2366      0.0000
  1280.2500    285.5746     73.6915    181.2787      0.0000
  1280.5000    285.5607     73.9733    180.7380      0.0000
  1280.7500    285.5390     74.0488    178.5529      0.0000
  1281.0000    285.5097     73.9160    176.5590      0.0000
  1281.2500    285.4752     73.6131    175.3253      0.0000
  1281.5000    285.4417     73.1934    173.4348      0.0000
  1281.7500    285.4168     72.7163    168.9980      0.0000
  1282.0000    285.4052     72.2549    161.6506      0.0000
  1282.2500    285.4081     71.8971    153.0895      0.0000
  1282.5000    285.4231     71.7275    145.8557      0.0000
  1282.7500    285.4443     71.7982    141.5733      0.0000
  1283.0000    285.4648     72.1044    140.1539      0.0000
  1283.2500    285.4802     72.5702    140.4234      0.0000
  1283.5000    285.4904     73.0647    141.2806      0.0000
  1283.7500    285.4965     73.4539    142.2461      0.0000
  1284.0000    285.4981     73.6548    143.3638      0.0000
  1284.2500    285.4957     73.6502    144.9602      0.0000
  1284.5000    285.4918     73.4726    147.3934      0.0000
  1284.7500    285.4889     73.1881    150.8052      0.0000
  1285.0000    285.4851     72.8811    155.0405      0.0000
  1285.2500    285.4766     72.6282    159.5524      0.0000
  1285.5000    285.4619     72.4771    163.2256      0.0000
  1285.7500    285.4439     72.4502    164.7162      0.0000
  1286.0000    285.4279     72.5503    163.3577      0.0000
  1286.2500    285.4173     72.7557    159.6018      0.0000
  1286.5000    285.4113     73.0177    154.5027      0.0000
  1286.7500    285.4071     73.2700    148.9615      0.0000
  1287.0000    285.4034     73.4386    143.4261      0.0000
  1287.2500    285.4017     73.4530    137.9769      0.0000
  1287.5000    285.4033     73.2823    132.2825      0.0000
  1287.7500    285.4059     72.9834    125.3806      0.0000
  1288.0000    285.4041     72.6993    116.1588      0.0000
  1288.2500    285.3948     72.5755    104.7756      0.0000
  1288.5000    285.3802     72.6659     93.5071      0.0000
  1288.7500    285.3654     72.9176     85.5610      0.0000
  1289.0000    285.3566     73.2280     82.7724      0.0000
  1289.2500    285.3595     73.4861     84.4570      0.0000
  1289.5000    285.3867     73.5356     88.4069      0.0000
  1289.7500    285.4696     73.0966     92.9446      0.0000
  1290.0000    285.7085     71.7616     98.2058      0.0000
  1290.2500    286.3511     69.2247    105.6058      0.0000
  1290.5000    287.8417     65.6294    115.9695      0.0000
  1290.7500    290.6383     61.5722    128.0863      0.0000
  1291.0000    294.6630     57.6182    139.2303      0.0000
  1291.2500    298.7993     53.9910    147.1855      0.0000
  1291.5000    301.3200     50.8951    151.5220      0.0000
  1291.7500    301.2639     48.7900    152.8552      0.0000
  1292.0000    299.2853     48.0046    151.4477      0.0000
  1292.2500    296.9585     48.2699    147.1073     -4.2999
  1292.5000    295.5190     48.8760    140.4033      3.1342
  1292.7500    295.4581     49.2075    133.4690      0.0000
  1293.0000    296.8060     49.1395    129.2256      0.0000
  1293.2500    299.1299     49.1163    129.7419      0.0000
  1293.5000    301.2375     49.8435    135.2833      0.0000
  1293.7500    301.5471     51.6832    144.6200      0.0000
  1294.0000    299.3109     54.3479    155.9182      0.0000
