~Version Information
VERS.                      2.0: CWLS Log ASCII Standard - VERSION 2.0
WRAP.                       NO: One line per depth step
~Well Information Block
STRT.FT               300.0000: 
STOP.FT               871.2000: 
STEP.FT                 0.1000: 
NULL.                -999.2500: 
COMP.          Pioneer Natural Resources: COMPANY
WELL.            Hustler 12-17: WELL
FLD.           Purgatoire River: FIELD
LOC.           2150' FNL & 450' FWL: LOCATION
PROV.                 Colorado: PROVINCE
CNTY.               Las Animas: COUNTRY
SRVC.                Patterson: SERVICE COMPANY
DATE.          Mon Dec 20 11:14:19 2004: LOG DATE
UWI.           05 071 08236 00: UNIQUE WELL ID
~Curve Information Block
DEPT.FT            0 000 00 00: Depth
DCAL.in                       : CDL Caliper
RHOB.g/cc                     : CDL Bulk Density
RHOC.g/cc                     : CDL Density Correction
DPOR.pu                       : CDL Density Porosity
NPOR.pu                       : Neutron Porosity
GR.GAPI                       : Gamma Ray
~Parameter Information Block
~A  Depth       DCAL        RHOB        RHOC        DPOR        NPOR         GR     
# ...
   655.2000      7.8974      2.5038      0.0231      8.8599     22.6977    128.4767
   655.3000      7.9007      2.5214      0.0882      7.7960     22.0024    122.0826
   655.4000      7.9007      2.5306      0.0875      7.2378     21.3652    118.3861
   655.5000      7.9016      2.5272      0.0686      7.4441     20.8713    115.4643
   655.6000      7.9016      2.5138      0.0507      8.2559     20.6951    113.6900
   655.7000      7.9016      2.4998      0.0110      9.1035     21.0986    111.8593
   655.8000      7.9008      2.4967      0.0067      9.2881     21.6627    108.2902
   655.9000      7.9008      2.5024      0.0097      8.9473     21.7916    106.0669
   656.0000      7.9057      2.5093      0.0039      8.5297     21.5115    108.1838
   656.1000      7.9057      2.5166      0.0227      8.0835     21.2697    110.8335
   656.2000      7.9057      2.5250      0.0267      7.5767     21.3087    111.0999
   656.3000      7.9170      2.5356      0.0389      6.9348     21.4599    111.0106
   656.4000      7.9170      2.5463      0.0403      6.2827     21.6299    112.0777
   656.5000      7.9239      2.5583      0.0209      5.5577     21.8612    112.2685
   656.6000      7.9239      2.5718      0.0776      4.7404     21.8356    108.5747
   656.7000      7.9239      2.5742      0.0562      4.5943     21.2672    102.3069
   656.8000      7.9243      2.5627     -0.0084      5.2930     20.6474     96.6756
   656.9000      7.9243      2.5540      0.0131      5.8190     20.7000     93.6024
   657.0000      7.9232      2.5603     -0.0002      5.4362     21.2948     93.1495
   657.1000      7.9232      2.5717      0.0280      4.7459     21.8710     93.1844
   657.2000      7.9232      2.5627      0.0317      5.2905     22.3209     92.0176
   657.3000      7.9244      2.5264      0.0218      7.4889     22.7330     90.5834
   657.4000      7.9244      2.4932     -0.0378      9.5018     23.1064     88.2955
   657.5000      7.9272      2.4929     -0.0141      9.5204     23.4105     84.8547
   657.6000      7.9272      2.5132      0.0304      8.2889     23.4564     83.8220
   657.7000      7.9272      2.5241      0.0458      7.6280     23.2252     85.5127
   657.8000      7.9278      2.5241      0.0042      7.6318     23.3113     87.4026
   657.9000      7.9278      2.5293      0.0365      7.3172     23.8850     88.5871
   658.0000      7.9249      2.5381      0.0401      6.7827     24.3004     89.2957
   658.1000      7.9249      2.5369      0.0483      6.8566     24.3067     90.7723
   658.2000      7.9249      2.5251      0.0520      7.5702     24.0568     91.3626
   658.3000      7.9220      2.5171      0.0110      8.0562     23.6062     88.6801
   658.4000      7.9220      2.5219      0.0359      7.7619     23.1670     87.3311
   658.5000      7.9227      2.5289      0.0547      7.3383     22.9925     91.4612
   658.6000      7.9227      2.5262      0.0583      7.5060     22.9699     97.2545
   658.7000      7.9227      2.5119      0.0613      8.3693     22.7297     99.9625
   658.8000      7.9233      2.4892      0.0323      9.7428     22.1269     99.6351
   658.9000      7.9233      2.4736     -0.0112     10.6895     21.4635     99.0615
   659.0000      7.9208      2.4865      0.0120      9.9114     21.0403    100.1442
   659.1000      7.9208      2.5255      0.0600      7.5480     20.8426    101.1540
   659.2000      7.9208      2.5627      0.1352      5.2895     20.8750    102.0451
   659.3000      7.9188      2.5753      0.1134      4.5275     21.0489    106.8905
   659.4000      7.9188      2.5644      0.0905      5.1850     21.2631    113.4293
   659.5000      7.9220      2.5442      0.0600      6.4140     21.6749    114.2046
   659.6000      7.9220      2.5324      0.0272      7.1303     22.3176    111.4754
   659.7000      7.9220      2.5383      0.0631      6.7679     23.0169    109.9185
   659.8000      7.9264      2.5521      0.0665      5.9329     23.7811    108.2503
   659.9000      7.9264      2.5673      0.0360      5.0146     24.5708    106.9631
   660.0000      7.9279      2.5850      0.0704      3.9379     25.0239    108.2295
   660.1000      7.9279      2.5912      0.0554      3.5638     25.1045    111.5540
   660.2000      7.9279      2.5720      0.0704      4.7303     24.8509    112.1342
   660.3000      7.9264      2.5407      0.0022      6.6244     24.1593    105.1880
   660.4000      7.9264      2.5222      0.0020      7.7429     23.2288     96.2250
   660.5000      7.9259      2.5239      0.0053      7.6410     22.5657     95.9700
   660.6000      7.9259      2.5326      0.0623      7.1160     22.6091    104.7633
   660.7000      7.9259      2.5390     -0.0123      6.7267     23.3015    112.3381
   660.8000      7.9266      2.5524      0.0396      5.9138     24.2148    113.1039
   660.9000      7.9266      2.5747      0.0631      4.5631     24.7626    111.2422
   661.0000      7.9266      2.5928      0.0559      3.4693     24.5893    112.7802
   661.1000      7.9266      2.5968      0.0504      3.2252     24.0588    119.7213
   661.2000      7.9266      2.5821      0.0719      4.1154     23.7058    129.0252
   661.3000      7.9264      2.5405      0.0637      6.6349     23.5625    135.2436
   661.4000      7.9264      2.4784      0.0230     10.4007     23.4350    136.4975
   661.5000      7.9276      2.4379     -0.0464     12.8524     23.2252    133.9013
   661.6000      7.9276      2.4511     -0.0084     12.0552     23.1020    130.1533
   661.7000      7.9276      2.4856      0.0265      9.9623     23.1998    127.7477
   661.8000      7.9300      2.5047     -0.0006      8.8069     23.1975    123.9584
   661.9000      7.9300      2.5200     -0.0198      7.8817     22.8039    117.8258
   662.0000      7.9313      2.5432      0.0744      6.4746     22.1447    114.3186
   662.1000      7.9313      2.5591      0.0932      5.5077     21.4388    112.7998
   662.2000      7.9313      2.5588      0.1007      5.5248     20.9856    109.4853
   662.3000      7.9269      2.5546      0.0500      5.7824     20.9779    106.4318
   662.4000      7.9269      2.5627      0.0229      5.2890     21.0570    104.6847
   662.5000      7.9155      2.5793      0.0828      4.2843     20.8708    102.6278
   662.6000      7.9155      2.5940      0.0912      3.3912     20.7365     99.3522
   662.7000      7.9155      2.6108      0.0606      2.3763     20.9516     94.7629
   662.8000      7.9050      2.6204      0.1004      1.7945     21.2944     92.5286
   662.9000      7.9050      2.6067      0.0310      2.6258     21.5675     94.2426
   663.0000      7.9039      2.5855     -0.0015      3.9087     21.7384     97.9103
   663.1000      7.9039      2.5716      0.0392      4.7502     21.8260    102.6808
   663.2000      7.9039      2.5463      0.0304      6.2835     21.8515    103.9591
   663.3000      7.9056      2.5070     -0.0321      8.6673     21.9019     97.3522
   663.4000      7.9056      2.4884     -0.0332      9.7931     21.8944     90.2371
   663.5000      7.9038      2.5082     -0.0093      8.5927     21.5876     92.2289
   663.6000      7.9038      2.5419      0.0448      6.5498     20.8613     97.8879
   663.7000      7.9038      2.5583      0.0541      5.5550     20.0033     99.5735
   663.8000      7.9013      2.5503      0.0297      6.0445     19.5550    101.8471
   663.9000      7.9013      2.5319      0.0360      7.1553     19.7199    105.7785
   664.0000      7.9036      2.5201      0.0194      7.8735     20.3056    103.6894
   664.1000      7.9036      2.5198      0.0032      7.8895     20.9535     96.0267
   664.2000      7.9036      2.5253      0.0009      7.5577     21.4981     90.0698
   664.3000      7.9042      2.5271      0.0257      7.4469     22.1612     87.6297
   664.4000      7.9042      2.5177      0.0208      8.0168     22.7050     87.6872
   664.5000      7.9007      2.4991      0.0231      9.1464     22.6750     87.2051
   664.6000      7.9007      2.4858     -0.0408      9.9488     22.5018     83.1185
   664.7000      7.9007      2.4873      0.0307      9.8577     22.9086     76.4641
