~Version Information
VERS.                      2.0: CWLS Log ASCII Standard - VERSION 2.0
WRAP.                       NO: One line per depth step
~Well Information Block
STRT.FT                15.0000: 
STOP.FT              1891.7500: 
STEP.FT                 0.2500: 
NULL.                -999.2500: 
COMP.          Pioneer Natural Resources: COMPANY
WELL.          Oink Oink 14-36 Tr: WELL
FLD.           Purgatoire River: FIELD
LOC.           236' FSL & 164' FWL: LOCATION
PROV.                 Colorado: PROVINCE
CNTY.               Las Animas: COUNTRY
SRVC.                Patterson: SERVICE COMPANY
DATE.          Wed Jun 22 11:40:13 2005: LOG DATE
UWI.           05 071 08393 00: UNIQUE WELL ID
~Curve Information Block
DEPT.FT            0 000 00 00: Depth
GR.GAPI                       : Gamma Ray
CCL.                          : Casing Collar Locator
TT3.usec                      : CBL 3' Travel Time
AMP3.mV                       : CBL 3' Amplitude
~Parameter Information Block
~A  Depth        GR         CCL         TT3         AMP3    
# ...
   517.5000    131.8900     -3.0000    593.8789      4.6833
   517.7500    127.8468      0.0000    620.1261      4.7910
   518.0000    123.6461      0.0000    646.5651      4.9580
   518.2500    119.3640      0.0000    668.9632      5.2209
   518.5000    115.6333      0.0000    689.6198      5.5659
   518.7500    113.0292      0.0000    710.1770      5.9014
   519.0000    111.4477      0.0000    727.5048      6.1123
   519.2500    110.3430      0.0000    737.0605      6.1482
   519.5000    109.2444      0.0000    738.0303      6.0490
   519.7500    107.9035      0.0000    733.7245      5.8931
   520.0000    106.3194      0.0000    728.3042      5.7377
   520.2500    105.0135      0.0000    724.8029      5.6043
   520.5000    105.0589      0.0000    725.1865      5.4921
   520.7500    107.2928      0.0000    729.7825      5.3937
   521.0000    111.3713      0.0000    736.0510      5.3058
   521.2500    115.8768      0.0000    738.8200      5.2359
   521.5000    119.4131      0.0000    732.2317      5.1984
   521.7500    121.4480      0.0000    712.6004      5.1983
   522.0000    122.2577      0.0000    681.5677      5.2200
   522.2500    122.4152      0.0000    646.9501      5.2364
   522.5000    122.3007      0.0000    618.9414      5.2312
   522.7500    121.8949      0.0000    604.3679      5.2112
   523.0000    121.0897      0.0000    604.3191      5.1985
   523.2500    120.2138      0.0000    616.0690      5.2129
   523.5000    119.9090      0.0000    635.3098      5.2619
   523.7500    120.2838      0.0000    656.1923      5.3374
   524.0000    120.5595      0.0000    671.5493      5.4172
   524.2500    120.0306      0.0000    676.2603      5.4712
   524.5000    119.1199      0.0000    671.0597      5.4747
   524.7500    118.9044      0.0000    661.4468      5.4223
   525.0000    119.7458      0.0000    652.5864      5.3303
   525.2500    120.9671      0.0000    646.3427      5.2255
   525.5000    121.7394      0.0000    642.5682      5.1295
   525.7500    121.6117      0.0000    641.1555      5.0527
   526.0000    120.2775      0.0000    642.2715      5.0003
   526.2500    117.6281      0.0000    645.8321      4.9812
   526.5000    114.4006      0.0000    651.3826      5.0056
   526.7500    112.3549      0.0000    657.6957      5.0732
   527.0000    113.1074      0.0000    662.0732      5.1675
   527.2500    116.4876      0.0000    661.3708      5.2645
   527.5000    120.3742      0.0000    655.0910      5.3457
   527.7500    122.4606      0.0000    646.8541      5.4034
   528.0000    121.9528      0.0000    641.4997      5.4336
   528.2500    119.5155      0.0000    641.0795      5.4329
   528.5000    116.1017      0.0000    644.5273      5.4044
   528.7500    112.0921      0.0000    650.5940      5.3673
   529.0000    107.2847      0.0000    659.7629      5.3541
   529.2500    101.5824      0.0000    672.6335      5.3933
   529.5000     95.7591      0.0000    686.6327      5.4884
   529.7500     91.3808      0.0000    695.6168      5.6150
   530.0000     89.8892      0.0000    694.5233      5.7397
   530.2500     91.8206      0.0000    684.7251      5.8434
   530.5000     96.6348      0.0000    673.5195      5.9250
   530.7500    102.9059      0.0000    667.9818      5.9887
   531.0000    108.7736      0.0000    669.7304      6.0322
   531.2500    112.7683      0.0000    675.1747      6.0527
   531.5000    114.6249      0.0000    680.0206      6.0603
   531.7500    115.3081      0.0000    683.5189      6.0804
   532.0000    116.0201      0.0000    688.4970      6.1349
   532.2500    117.1284      0.0000    697.4578      6.2201
   532.5000    118.1310      0.0000    709.4592      6.3063
   532.7500    118.5369      0.0000    721.1813      6.3602
   533.0000    118.4004      0.0000    729.9646      6.3655
   533.2500    117.8239      0.0000    735.0560      6.3234
   533.5000    116.4999      0.0000    736.9767      6.2408
   533.7500    114.3062      0.0000    737.0152      6.1252
   534.0000    112.1452      0.0000    737.0944      5.9916
   534.2500    111.6074      0.0000    739.0649      5.8654
   534.5000    113.5779      0.0000    743.4700      5.7737
   534.7500    117.2170      0.0000    748.7744      5.7302
   535.0000    120.2904      0.0000    751.6444      5.7323
   535.2500    120.6758      0.0000    748.5250      5.7733
   535.5000    117.9683      0.0000    737.9896      5.8497
   535.7500    113.8124      0.0000    722.1158      5.9514
   536.0000    110.6032      0.0000    705.2609      6.0479
   536.2500    109.8176      0.0000    691.3065      6.0950
   536.5000    111.3181      0.0000    682.2741      6.0628
   536.7500    113.8763      0.0000    678.9664      5.9558
   537.0000    116.3877      0.0000    681.6365      5.8069
   537.2500    118.8428      0.0000    689.6387      5.6535
   537.5000    122.1834      0.0000    701.1440      5.5170
   537.7500    127.0659      0.0000    713.6018      5.3995
   538.0000    132.7198      0.0000    724.3516      5.2953
   538.2500    137.1281      0.0000    731.2800      5.2002
   538.5000    138.4462      0.0000    733.7589      5.1104
   538.7500    136.4513      0.0000    732.9142      5.0217
   539.0000    132.7898      0.0000    730.3143      4.9352
   539.2500    129.6991      0.0000    726.4023      4.8643
   539.5000    128.2854      0.0000    720.5762      4.8261
   539.7500    128.0383      0.0000    712.7623      4.8276
   540.0000    127.8861      0.0000    704.7075      4.8610
   540.2500    127.3927      0.0000    699.8431      4.9168
   540.5000    126.9767      0.0000    701.5095      4.9941
   540.7500    127.3663      0.0000    710.5421      5.0984
   541.0000    128.9107      0.0000    724.4631      5.2286
   541.2500    131.1351      0.0000    739.5886      5.3697
   541.5000    133.1470      0.0000    754.0140      5.4960
   541.7500    134.8938      0.0000    768.0806      5.5833
   542.0000    137.6927      0.0000    782.0372      5.6185
   542.2500    142.6784      0.0000    794.0536      5.6023
   542.5000    148.6602      0.0000    800.9041      5.5439
   542.7500    152.3039      0.0000    800.5035      5.4571
   543.0000    150.9003      0.0000    793.7256      5.3559
   543.2500    144.6945      0.0000    784.0923      5.2484
   543.5000    136.2982      0.0000    776.0266      5.1325
   543.7500    128.2422      0.0000    772.8352      5.0035
   544.0000    121.5971      0.0000    774.8236      4.8669
   544.2500    116.5227      0.0000    778.5364      4.7420
   544.5000    113.0536      0.0000    778.8516      4.6499
   544.7500    111.0649      0.0000    773.0093      4.6007
   545.0000    110.1956      0.0000    762.1733      4.5918
   545.2500    110.3209      0.0000    748.5717      4.6116
   545.5000    111.9187      0.0000    732.5381      4.6419
   545.7500    115.5686      0.0000    713.9104      4.6618
   546.0000    120.9469      0.0000    695.4577      4.6596
   546.2500    126.5369      0.0000    682.5594      4.6401
   546.5000    130.6050      0.0000    678.7946      4.6189
   546.7500    132.3979      0.0000    683.2593      4.6114
   547.0000    132.4379      0.0000    692.3378      4.6299
   547.2500    131.9275      0.0000    702.2502      4.6822
   547.5000    131.9249      0.0000    709.0164      4.7651
   547.7500    132.8047      0.0000    707.4891      4.8603
   548.0000    134.2617      0.0000    692.7353      4.9438
   548.2500    135.6595      0.0000    664.0895      5.0002
   548.5000    136.4089      0.0000    628.0655      5.0308
   548.7500    136.2371      0.0000    595.7552      5.0486
   549.0000    135.3673      0.0000    575.8315      5.0648
   549.2500    134.5359      0.0000    569.8453      5.0792
   549.5000    134.6841      0.0000    574.2672      5.0866
   549.7500    136.3483      0.0000    585.8981      5.0866
   550.0000    139.2048      0.0000    604.2789      5.0834
   550.2500    142.3546      0.0000    629.1179      5.0780
   550.5000    145.1741      0.0000    656.4968      5.0684
   550.7500    147.7625      0.0000    678.7990      5.0565
