~Version Information
VERS.                      2.0: CWLS Log ASCII Standard - VERSION 2.0
WRAP.                       NO: One line per depth step
~Well Information Block
STRT.FT               823.7000: 
STOP.FT              2444.0000: 
STEP.FT                 0.1000: 
NULL.                -999.2500: 
COMP.          Petrogulf Corporation: COMPANY
WELL.            Kraft 17-23 V: WELL
FLD.           Purgatorie River: FIELD
LOC.           1500' FSL & 1773' FWL: LOCATION
CNTY.               Las Animas: COUNTY
SRVC.                         : SERVICE COMPANY
DATE.          Thu Nov 20 07:09:00 2003: LOG DATE
UWI.                          : UNIQUE WELL ID
STAT.                 Colorado: STATE
~Curve Information Block
DEPT.FT            0 000 00 00: Depth
DCAL.in                       : CDL Caliper
RHOB.g/cc                     : CDL Bulk Density
RHOC.g/cc                     : CDL Density Correction
DPOR.pu                       : CDL Density Porosity
GR.GAPI                       : Gamma Ray
NPOR.pu                       : Neutron Porosity
~Parameter Information Block
~A  Depth       DCAL        RHOB        RHOC        DPOR         GR         NPOR    
# ...
  1793.3000      8.1253      2.3712      0.0143     16.8978    127.3111     30.3038
  1793.4000      8.1253      2.3765     -0.0154     16.5775    129.7917     30.0278
  1793.5000      8.1427      2.3960      0.0333     15.3937    126.3236     29.6203
  1793.6000      8.1427      2.4223      0.0860     13.7983    121.8395     29.3136
  1793.7000      8.1427      2.4490      0.1164     12.1804    124.3446     28.8459
  1793.8000      8.1510      2.4688      0.1100     10.9842    127.0870     28.0344
  1793.9000      8.1510      2.4774      0.1125     10.4594    125.3650     27.3954
  1794.0000      8.1528      2.4733      0.2025     10.7115    124.3533     27.3582
  1794.1000      8.1528      2.4676      0.0420     11.0523    123.0729     27.7629
  1794.2000      8.1528      2.4818      0.1064     10.1940    118.9556     27.9060
  1794.3000      8.2016      2.5045      0.1011      8.8205    117.5915     27.3969
  1794.4000      8.2016      2.5125      0.0843      8.3330    124.4492     26.6143
  1794.5000      8.2185      2.5029      0.0987      8.9160    131.9577     25.9582
  1794.6000      8.2185      2.4856      0.0376      9.9651    130.0482     25.5506
  1794.7000      8.2185      2.4731      0.0523     10.7222    122.4479     25.4285
  1794.8000      8.1111      2.4653      0.0443     11.1916    117.1163     25.5186
  1794.9000      8.1111      2.4689     -0.0031     10.9736    118.1595     25.3766
  1795.0000      8.0538      2.4944      0.0103      9.4308    124.5810     24.7141
  1795.1000      8.0538      2.5197      0.1003      7.8992    129.5191     23.8685
  1795.2000      8.0538      2.5159      0.0703      8.1281    129.5402     23.1985
  1795.3000      8.0511      2.4958      0.0410      9.3453    128.1643     22.6753
  1795.4000      8.0511      2.4933      0.0566      9.4945    127.9386     21.8928
  1795.5000      8.0585      2.5176      0.0768      8.0259    129.9708     20.6204
  1795.6000      8.0585      2.5534      0.0862      5.8516    133.1801     19.2885
  1795.7000      8.0585      2.5823      0.1351      4.1010    131.0145     18.4644
  1795.8000      8.0780      2.5931      0.1328      3.4506    121.3463     18.0669
  1795.9000      8.0780      2.5981      0.0860      3.1426    112.0318     17.7616
  1796.0000      8.0960      2.6136      0.1322      2.2071    108.0566     17.5928
  1796.1000      8.0960      2.6239      0.1327      1.5802    105.5561     17.6227
  1796.2000      8.0960      2.6131      0.1005      2.2382    103.1185     17.7053
  1796.3000      8.0892      2.5947      0.0907      3.3532    103.3191     17.4612
  1796.4000      8.0892      2.5870      0.0624      3.8183    107.2055     17.0497
  1796.5000      8.0694      2.5846      0.1414      3.9609    112.1953     17.1636
  1796.6000      8.0694      2.5720      0.0909      4.7292    112.2783     17.6540
  1796.7000      8.0694      2.5576      0.0473      5.6026    107.0353     17.8718
  1796.8000      8.0767      2.5592      0.0499      5.5042    101.7224     17.5863
  1796.9000      8.0767      2.5705      0.0629      4.8184     98.8831     16.9277
  1797.0000      8.0949      2.5689      0.0960      4.9167     98.1173     16.6084
  1797.1000      8.0949      2.5474      0.0632      6.2183     98.7319     17.0534
  1797.2000      8.0949      2.5234      0.0261      7.6735     98.9468     17.5102
  1797.3000      8.1074      2.5076      0.0859      8.6291     96.5889     17.3705
  1797.4000      8.1074      2.4989      0.0006      9.1571     89.7359     17.3567
  1797.5000      8.1133      2.4956      0.0515      9.3558     80.6562     18.2815
  1797.6000      8.1133      2.4784      0.0323     10.3998     74.7748     19.8930
  1797.7000      8.1133      2.4285      0.0371     13.4247     74.3030     21.4677
  1797.8000      8.0985      2.3599     -0.0277     17.5829     75.8581     22.5113
  1797.9000      8.0985      2.3007     -0.0504     21.1692     75.8272     23.1403
  1798.0000      8.0832      2.2622     -0.0498     23.5058     75.8653     23.9459
  1798.1000      8.0832      2.2430     -0.0559     24.6640     79.2482     24.8596
  1798.2000      8.0832      2.2389     -0.0189     24.9170     86.6637     25.2647
  1798.3000      8.1115      2.2595     -0.1065     23.6645     97.7882     25.0988
  1798.4000      8.1115      2.3333     -0.0498     19.1911    109.0413     24.7501
  1798.5000      8.1365      2.4406      0.2203     12.6933    113.9575     24.3518
  1798.6000      8.1365      2.5173      0.2073      8.0396    111.8834     23.9527
  1798.7000      8.1365      2.5458      0.1591      6.3172    111.5155     23.6591
  1798.8000      8.1282      2.5388      0.2462      6.7400    118.0608     23.5842
  1798.9000      8.1282      2.5057      0.1327      8.7428    128.4063     23.7001
  1799.0000      8.1125      2.4779      0.0230     10.4296    139.6885     23.8884
  1799.1000      8.1125      2.4780      0.0491     10.4258    145.1843     23.9381
  1799.2000      8.1125      2.4873      0.0474      9.8584    141.3714     23.7782
  1799.3000      8.0948      2.4894      0.0688      9.7337    137.8458     23.7126
  1799.4000      8.0948      2.4928      0.0079      9.5261    142.5594     23.9740
  1799.5000      8.0809      2.4971      0.0546      9.2680    149.2990     24.3465
  1799.6000      8.0809      2.4837      0.0796     10.0776    149.1846     24.4481
  1799.7000      8.0809      2.4553      0.0053     11.7970    143.1571     24.0772
  1799.8000      8.1024      2.4387      0.0023     12.8039    141.8561     23.3773
  1799.9000      8.1024      2.4502      0.0206     12.1085    148.6406     22.7745
  1800.0000      8.1439      2.4830      0.0446     10.1219    152.5875     22.7328
  1800.1000      8.1439      2.5193      0.0913      7.9235    150.3164     23.0300
  1800.2000      8.1439      2.5461      0.1208      6.2992    146.4305     22.8868
  1800.3000      8.1587      2.5455      0.1420      6.3361    142.4333     22.3792
  1800.4000      8.1587      2.5075      0.1110      8.6368    138.4158     22.2543
  1800.5000      8.1192      2.4707      0.0090     10.8649    133.7985     22.6797
  1800.6000      8.1192      2.4836      0.0046     10.0874    129.2066     23.0053
  1800.7000      8.1192      2.5387      0.1348      6.7476    125.5355     22.6730
  1800.8000      8.0781      2.5923      0.1576      3.4969    120.8666     22.0608
  1800.9000      8.0781      2.6126      0.1241      2.2645    116.3336     22.0220
  1801.0000      8.0698      2.5920      0.1421      3.5145    117.8770     22.4214
  1801.1000      8.0698      2.5450      0.0953      6.3644    124.3485     22.6206
  1801.2000      8.0698      2.4997      0.0431      9.1074    128.8563     22.3278
  1801.3000      8.0866      2.4798     -0.0311     10.3144    126.1602     21.4165
  1801.4000      8.0866      2.4913      0.0474      9.6174    118.6586     20.2842
  1801.5000      8.0871      2.5243     -0.0109      7.6167    114.9286     19.5933
  1801.6000      8.0871      2.5600      0.0990      5.4529    116.7900     19.5237
  1801.7000      8.0871      2.5810      0.0858      4.1797    115.1193     19.9209
  1801.8000      8.0756      2.5899      0.0873      3.6447    106.8242     20.7371
  1801.9000      8.0756      2.5900      0.1396      3.6346     98.0752     21.8536
  1802.0000      8.0862      2.5680      0.1092      4.9710     91.0684     22.6118
  1802.1000      8.0862      2.5272      0.0117      7.4411     88.0238     22.6750
  1802.2000      8.0862      2.4927      0.0310      9.5348     89.7651     22.4243
  1802.3000      8.1008      2.4781      0.0042     10.4161     87.8884     22.3686
  1802.4000      8.1008      2.4769      0.0407     10.4910     80.6069     22.5991
  1802.5000      8.0899      2.4756      0.0209     10.5685     77.2116     22.8302
  1802.6000      8.0899      2.4771     -0.0161     10.4766     79.3785     22.8314
  1802.7000      8.0899      2.4906      0.0193      9.6576     81.3691     22.5960
  1802.8000      8.0610      2.5101      0.1182      8.4760     80.1923     22.1614
