~Version Information
VERS.                      2.0: CWLS Log ASCII Standard - VERSION 2.0
WRAP.                       NO: One line per depth step
~Well Information Block
STRT.FT               440.0000: 
STOP.FT              1001.5000: 
STEP.FT                 0.1000: 
NULL.                -999.2500: 
COMP.          Pioneer Natural Resources: COMPANY
WELL.              Dylan 42-25: WELL
FLD.           Purgatoire River: FIELD
LOC.           2160' FNL & 855' FEL: LOCATION
PROV.                 Colorado: PROVINCE
CNTY.               Las Animas: COUNTRY
SRVC.                Patterson: SERVICE COMPANY
DATE.          Mon Apr 25 09:31:16 2005: LOG DATE
UWI.           05 071 08229 00: UNIQUE WELL ID
~Curve Information Block
DEPT.FT            0 000 00 00: Depth
DCAL.in                       : CDL Caliper
RHOB.g/cc                     : CDL Bulk Density
RHOC.g/cc                     : CDL Density Correction
DPOR.pu                       : CDL Density Porosity
GR.GAPI                       : Gamma Ray
NPOR.pu                       : Neutron Porosity
~Parameter Information Block
~A  Depth       DCAL        RHOB        RHOC        DPOR         GR         NPOR    
# ...
   516.8000      7.9615      2.5707      0.0418      4.8065    161.8476     26.2583
   516.9000      7.9615      2.5569      0.0834      5.6435    156.7954     26.1945
   517.0000      7.9590      2.5716      0.0585      4.7523    154.2437     26.1078
   517.1000      7.9590      2.6063      0.1084      2.6455    152.1468     25.5091
   517.2000      7.9590      2.6357      0.1074      0.8654    146.9397     24.8083
   517.3000      7.9579      2.6473      0.1508      0.1622    137.3516     24.5941
   517.4000      7.9579      2.6414      0.1681      0.5229    127.0253     24.7259
   517.5000      7.9503      2.6220      0.1395      1.6948    118.7808     24.7962
   517.6000      7.9503      2.5906      0.1438      3.5985    111.1131     24.8220
   517.7000      7.9503      2.5532      0.0343      5.8692    105.6007     24.5237
   517.8000      7.8977      2.5312      0.0347      7.1990    105.8871     23.6595
   517.9000      7.8977      2.5354     -0.0094      6.9457    108.9710     22.9136
   518.0000      7.8930      2.5482      0.0422      6.1694    108.8237     22.5927
   518.1000      7.8930      2.5444      0.0921      6.3997    103.6962     22.1315
   518.2000      7.8930      2.5333      0.0058      7.0710     98.9015     21.3019
   518.3000      7.9172      2.5370      0.0963      6.8511    100.1219     20.4955
   518.4000      7.9172      2.5398      0.0514      6.6786    105.8558     20.3202
   518.5000      7.9381      2.5347      0.0146      6.9902    108.5324     20.8849
   518.6000      7.9381      2.5394      0.0658      6.7052    102.7300     21.5769
   518.7000      7.9381      2.5486      0.0755      6.1453     93.0144     21.9662
   518.8000      7.9303      2.5516      0.0319      5.9624     88.0586     22.1946
   518.9000      7.9303      2.5567      0.0354      5.6540     89.9216     22.4713
   519.0000      7.9446      2.5690      0.1025      4.9090     92.6228     22.5843
   519.1000      7.9446      2.5767      0.1385      4.4404     91.8969     22.4744
   519.2000      7.9446      2.5742      0.0721      4.5930     91.2364     22.4547
   519.3000      7.9399      2.5721      0.1027      4.7202     93.2240     22.5441
   519.4000      7.9399      2.5678      0.1018      4.9793     94.5510     22.7150
   519.5000      7.9110      2.5514      0.0484      5.9737     93.6481     22.9289
   519.6000      7.9110      2.5324      0.0189      7.1301     90.3267     23.0171
   519.7000      7.9110      2.5257      0.0569      7.5330     84.2222     23.0043
   519.8000      7.9248      2.5296      0.0502      7.2961     79.0340     22.9209
   519.9000      7.9248      2.5373      0.0390      6.8286     78.0363     22.9042
   520.0000      7.9265      2.5492      0.0640      6.1119     81.3554     23.3663
   520.1000      7.9265      2.5597      0.0955      5.4748     88.8052     24.4023
   520.2000      7.9265      2.5544      0.1298      5.7942     98.1489     25.8712
   520.3000      7.9350      2.5337      0.0695      7.0488    105.3529    -14.1879
   520.4000      7.9350      2.5127      0.0831      8.3213    110.8536     -6.3578
   520.5000      7.9416      2.4969      0.0885      9.2781    120.0117     -1.4124
   520.6000      7.9416      2.4950      0.0517      9.3951    133.2012      1.8355
   520.7000      7.9416      2.5199      0.1062      7.8859    144.3506      4.8153
   520.8000      7.9141      2.5569      0.2156      5.6450    152.1897      8.0252
   520.9000      7.9141      2.5762      0.2159      4.4708    161.0314     11.7161
   521.0000      7.9015      2.5735      0.2123      4.6347    167.7704     15.9858
   521.1000      7.9015      2.5600      0.1641      5.4524    167.8334     19.9046
   521.2000      7.9015      2.5421      0.1343      6.5394    168.6939     22.6156
   521.3000      7.8998      2.5299      0.1224      7.2793    177.1035     24.6058
   521.4000      7.8998      2.5338      0.1139      7.0421    187.0725     26.3703
   521.5000      7.9488      2.5486      0.1391      6.1432    192.5186     27.4424
   521.6000      7.9488      2.5601      0.1097      5.4488    193.2545     27.3399
   521.7000      7.9488      2.5596      0.1175      5.4789    190.7620     26.8935
   521.8000      7.9810      2.5511      0.1105      5.9920    185.1469     26.7629
   521.9000      7.9810      2.5459      0.1223      6.3121    177.1095     26.6030
   522.0000      8.0394      2.5422      0.1424      6.5359    170.1065     26.4983
   522.1000      8.0394      2.5305      0.0971      7.2441    166.6121     26.6703
   522.2000      8.0394      2.5123      0.0707      8.3443    167.9961     26.5194
   522.3000      8.0758      2.4955      0.0468      9.3641    174.5701     25.9269
   522.4000      8.0758      2.4826      0.0739     10.1428    181.4801     25.5551
   522.5000      8.0868      2.4701      0.0445     10.9005    182.7516     25.4273
   522.6000      8.0868      2.4597      0.0344     11.5314    178.3340     25.3144
   522.7000      8.0868      2.4631      0.0243     11.3289    173.4801     25.1686
   522.8000      8.0449      2.4829      0.0670     10.1267    173.2114     25.0841
   522.9000      8.0449      2.4989      0.1124      9.1546    176.4808     25.0746
   523.0000      8.0125      2.4956      0.0559      9.3597    178.6358     25.1947
   523.1000      8.0125      2.4837      0.0716     10.0807    178.6881     25.9460
   523.2000      8.0125      2.4716      0.1007     10.8129    176.4303     27.4943
   523.3000      7.9858      2.4556      0.0783     11.7812    171.9853     28.7148
   523.4000      7.9858      2.4365      0.0836     12.9411    171.6598     28.6160
   523.5000      7.9744      2.4116      0.0957     14.4456    177.6495     28.1334
   523.6000      7.9744      2.3661      0.0688     17.2082    183.1212     28.4689
   523.7000      7.9744      2.2892      0.0084     21.8683    181.5927     28.8018
   523.8000      8.0031      2.1870     -0.0269     28.0584    174.4684     28.0631
   523.9000      8.0031      2.0703     -0.0132     35.1308    169.2209     27.0438
   524.0000      8.0972      1.9491     -0.0857     42.4792    168.5584     26.8002
   524.1000      8.0972      1.8347     -0.0995     49.4148    167.4586     27.3009
   524.2000      8.0972      1.7387     -0.1631     55.2297    162.2368     28.0030
   524.3000      8.1141      1.6713     -0.1197     59.3123    154.2942     28.8400
   524.4000      8.1141      1.6288     -0.0900     61.8883    145.2288     30.1157
   524.5000      8.1091      1.6011     -0.0235     63.5678    136.6541     31.7549
   524.6000      8.1091      1.5862      0.0303     64.4724    133.1927     32.9654
   524.7000      8.1091      1.5740      0.0905     65.2144    133.2141     32.7989
   524.8000      8.1007      1.5404      0.1112     67.2485    128.6973     31.7219
   524.9000      8.1007      1.4913     -0.0342     70.2241    118.1097     31.1543
   525.0000      8.0982      1.4714     -0.0689     71.4290    107.2339     31.3029
   525.1000      8.0982      1.4998      0.0028     69.7102    101.0737     31.6359
   525.2000      8.0982      1.5493      0.0204     66.7092     98.4675     31.8948
   525.3000      8.1052      1.5926      0.0736     64.0850     95.2998     32.1888
   525.4000      8.1052      1.6285      0.0757     61.9081     89.9042     32.9156
   525.5000      8.1365      1.6773      0.0802     58.9519     85.3676     33.7822
   525.6000      8.1365      1.7533      0.1125     54.3483     86.2288     33.9646
   525.7000      8.1365      1.8510      0.0969     48.4223     92.4399     33.5998
   525.8000      8.1334      1.9569      0.1074     42.0040     98.5834     33.3766
   525.9000      8.1334      2.0541      0.1185     36.1141    104.1239     33.2376
   526.0000      8.1505      2.1314      0.1098     31.4284    114.1055     32.7550
   526.1000      8.1505      2.1958      0.0706     27.5243    128.7164     32.0968
   526.2000      8.1505      2.2610      0.1308     23.5728    141.4690     31.7757
   526.3000      8.1341      2.3196      0.1638     20.0220    146.7730     31.9072
