~Version Information
VERS.                      2.0: CWLS Log ASCII Standard - VERSION 2.0
WRAP.                       NO: One line per depth step
~Well Information Block
STRT.FT               -12.2500: 
STOP.FT              2183.0000: 
STEP.FT                 0.2500: 
NULL.                -999.2500: 
COMP.          Petrogulf Corporation: COMPANY
WELL.            Montoya 6-14R: WELL
FLD.           Purgatorie River: FIELD
LOC.           867' FSL & 751' FWL: LOCATION
CNTY.               Las Animas: COUNTY
SRVC.                         : SERVICE COMPANY
DATE.          Mon Nov 22 13:07:31 2004: LOG DATE
UWI.           05-071-08242-00: UNIQUE WELL ID
STAT.                 Colorado: STATE
~Curve Information Block
DEPT.FT            0 000 00 00: Depth
TT3.usec                      : CBL 3' Travel Time
AMP3.mV                       : CBL 3' Amplitude
GR.GAPI                       : Gamma Ray
CCL.                          : Casing Collar Locator
~Parameter Information Block
~A  Depth       TT3         AMP3         GR         CCL     
# ...
  1428.2500    284.7472     76.1791    149.4124      0.0000
  1428.5000    284.7592     76.0939    147.5562      0.0000
  1428.7500    284.7693     76.0450    148.1406      0.0000
  1429.0000    284.7745     76.0448    149.4502      0.0000
  1429.2500    284.7745     76.0795    148.8541      0.0000
  1429.5000    284.7734     76.1056    144.8690      0.0000
  1429.7500    284.7792     76.0761    138.5128      0.0000
  1430.0000    284.7979     75.9783    132.2367      0.0000
  1430.2500    284.8288     75.8445    127.5343      0.0000
  1430.5000    284.8642     75.7211    123.8406      0.0000
  1430.7500    284.8951     75.6333    119.5366      0.0000
  1431.0000    284.9160     75.5824    113.5280      0.0000
  1431.2500    284.9268     75.5641    105.7773      0.0000
  1431.5000    284.9306     75.5742     96.7299      0.0000
  1431.7500    284.9304     75.5988     86.8586      0.0000
  1432.0000    284.9285     75.6119     77.0152      0.0000
  1432.2500    284.9276     75.5863     68.6487      0.0000
  1432.5000    284.9308     75.5073     62.8636      0.0000
  1432.7500    284.9398     75.3778     59.2725      0.0000
  1433.0000    284.9535     75.2139     56.2383      0.0000
  1433.2500    284.9687     75.0363     52.2301      0.0000
  1433.5000    284.9816     74.8663     46.8598      0.0000
  1433.7500    284.9886     74.7307     41.0763      0.0000
  1434.0000    284.9866     74.6645     36.8164      0.0000
  1434.2500    284.9749     74.6976     36.2212      0.0000
  1434.5000    284.9565     74.8290     40.6628      0.0000
  1434.7500    284.9368     75.0115     50.2882      0.0000
  1435.0000    284.9220     75.1692     64.3185      0.0000
  1435.2500    284.9156     75.2400     81.4690      0.0000
  1435.5000    284.9166     75.2075    100.0244      0.0000
  1435.7500    284.9210     75.0948    118.0284      0.0000
  1436.0000    284.9250     74.9329    134.0287      0.0000
  1436.2500    284.9277     74.7378    147.5416      0.0000
  1436.5000    284.9288     74.5198    158.3486      0.0000
  1436.7500    284.9284     74.3093    165.6778      0.0000
  1437.0000    284.9262     74.1608    168.8199      0.0000
  1437.2500    284.9217     74.1211    168.4809      0.0000
  1437.5000    284.9142     74.1903    166.7294      0.0000
  1437.7500    284.9039     74.3173    165.3286      0.0000
  1438.0000    284.8937     74.4371    164.5180      0.0000
  1438.2500    284.8882     74.5154    163.5667      0.0000
  1438.5000    284.8903     74.5616    162.0531      0.0000
  1438.7500    284.8987     74.6090    160.2043      0.0000
  1439.0000    284.9084     74.6841    158.2431      0.0000
  1439.2500    284.9138     74.7883    155.8867      0.0000
  1439.5000    284.9127     74.9023    152.5509      0.0000
  1439.7500    284.9068     75.0022    147.8657      0.0000
  1440.0000    284.8997     75.0699    142.1703      0.0000
  1440.2500    284.8947     75.0929    136.6921      0.0000
  1440.5000    284.8922     75.0657    133.0459      0.0000
  1440.7500    284.8918     74.9982    132.1896      0.0000
  1441.0000    284.8934     74.9167    133.7669      0.0000
  1441.2500    284.8974     74.8535    136.5063      0.0000
  1441.5000    284.9032     74.8341    139.2530      0.0000
  1441.7500    284.9086     74.8720    141.8217      0.0000
  1442.0000    284.9101     74.9661    145.0480      0.0000
  1442.2500    284.9062     75.0970    149.8458      0.0000
  1442.5000    284.8978     75.2290    155.9249      0.0000
  1442.7500    284.8889     75.3207    161.6080      0.0000
  1443.0000    284.8839     75.3419    165.1864      0.0000
  1443.2500    284.8856     75.2868    166.3183      0.0000
  1443.5000    284.8944     75.1751    165.9735      0.0000
  1443.7500    284.9089     75.0363    165.2512      0.0000
  1444.0000    284.9259     74.8886    164.4791      0.0000
  1444.2500    284.9425     74.7313    163.4124      0.0000
  1444.5000    284.9568     74.5546    162.0026      0.0000
  1444.7500    284.9680     74.3548    160.4700      0.0000
  1445.0000    284.9759     74.1404    158.5614      0.0000
  1445.2500    284.9806     73.9245    155.2412      0.0000
  1445.5000    284.9838     73.7111    149.2769      0.0000
  1445.7500    284.9881     73.4952    139.7078      0.0000
  1446.0000    284.9946     73.2825    125.9904      0.0000
  1446.2500    285.0013     73.1054    108.7120      0.0000
  1446.5000    285.0034     73.0103     90.3863      0.0000
  1446.7500    284.9975     73.0217     74.7427      0.0000
  1447.0000    284.9842     73.1172     64.7280      0.0000
  1447.2500    284.9683     73.2398     61.3232      0.0000
  1447.5000    284.9549     73.3370     64.0438      0.0000
  1447.7500    284.9464     73.3899     71.8958      0.0000
  1448.0000    284.9413     73.4062     83.5568      0.0000
  1448.2500    284.9372     73.3932     97.1113      0.0000
  1448.5000    284.9309     73.3509    110.2010      0.0000
  1448.7500    284.9190     73.2876    120.6092      0.0000
  1449.0000    284.8991     73.2311    126.8335      0.0000
  1449.2500    284.8718     73.2193    128.6141      0.0000
  1449.5000    284.8411     73.2760    127.3100      0.0000
  1449.7500    284.8123     73.3917    125.4483      0.0000
  1450.0000    284.7896     73.5304    125.2569      0.0000
  1450.2500    284.7748     73.6614    127.2722      0.0000
  1450.5000    284.7673     73.7877    130.3138      0.0000
  1450.7500    284.7647     73.9363    132.7039      0.0000
  1451.0000    284.7647     74.1202    133.5701      0.0000
  1451.2500    284.7646     74.3187    133.3639      0.0000
  1451.5000    284.7617     74.4976    133.2826      0.0000
  1451.7500    284.7539     74.6379    134.0152      0.0000
  1452.0000    284.7416     74.7407    134.9800      0.0000
  1452.2500    284.7275     74.8132    134.6381      0.0000
  1452.5000    284.7157     74.8596    131.4867      0.0000
  1452.7500    284.7097     74.8804    125.2544      0.0000
  1453.0000    284.7112     74.8797    117.6275      0.0000
  1453.2500    284.7190     74.8702    111.3325      0.0000
  1453.5000    284.7302     74.8720    107.8637      0.0000
  1453.7500    284.7417     74.8987    106.3124      0.0000
  1454.0000    284.7520     74.9435    104.6043      0.0000
  1454.2500    284.7614     74.9841    101.4567      0.0000
  1454.5000    284.7713     75.0073     97.0372      0.0000
  1454.7500    284.7828     75.0234     92.2577      0.0000
  1455.0000    284.7955     75.0525     87.8983      0.0000
  1455.2500    284.8072     75.1018     84.3220      0.0000
  1455.5000    284.8156     75.1636     81.4903      0.0000
  1455.7500    284.8210     75.2310     78.8866      0.0000
  1456.0000    284.8259     75.3031     75.6746      0.0000
  1456.2500    284.8328     75.3770     71.3033      0.0000
  1456.5000    284.8413     75.4419     66.0777      0.0000
  1456.7500    284.8485     75.4844     61.1261      0.0000
  1457.0000    284.8521     75.4984     57.7664      0.0000
  1457.2500    284.8536     75.4887     56.7010      0.0000
  1457.5000    284.8578     75.4597     57.7021      0.0000
  1457.7500    284.8705     75.3972     60.0157      0.0000
  1458.0000    284.8951     75.2512     62.9215      0.0000
  1458.2500    284.9370     74.9141     65.9307      0.0000
  1458.5000    285.0166     74.1966     68.6997      0.0000
  1458.7500    285.2219     72.8449     70.9262      0.0000
  1459.0000    285.7984     70.6840     72.4121      0.0000
  1459.2500    287.2145     67.7797     73.2708      0.0000
  1459.5000    289.9785     64.3470     73.9359      0.0000
  1459.7500    294.0519     60.4697     74.7945      0.0000
  1460.0000    298.3069     56.1832     75.7023      0.0000
  1460.2500    300.9621     51.9727     75.7880      0.0000
  1460.5000    301.0078     48.8076     73.8405      0.0000
  1460.7500    299.0887     47.3730     69.2717      0.0000
  1461.0000    296.7955     47.4426     63.1026      0.0000
  1461.2500    295.3776     48.1574     57.9309      2.2842
  1461.5000    295.3232     48.7565     56.3324      0.0000
