~Version Information
VERS.                      2.0: CWLS Log ASCII Standard - VERSION 2.0
WRAP.                       NO: One line per depth step
~Well Information Block
STRT.FT                 6.5000: 
STOP.FT              1054.0000: 
STEP.FT                 0.2500: 
NULL.                -999.2500: 
COMP.          Pioneer Natural Resources: COMPANY
WELL.            Galileo 21-11: WELL
FLD.           Purgatoire River: FIELD
LOC.           407' FNL & 2394' FWL: LOCATION
PROV.                 Colorado: PROVINCE
CNTY.               Las Animas: COUNTRY
SRVC.                Patterson: SERVICE COMPANY
DATE.          Sat Apr 16 10:31:00 2005: LOG DATE
UWI.           05 071 08353 00: UNIQUE WELL ID
~Curve Information Block
DEPT.FT            0 000 00 00: Depth
GR.GAPI                       : Gamma Ray
CCL.                          : Casing Collar Locator
TT3.usec                      : CBL 3' Travel Time
AMP3.mV                       : CBL 3' Amplitude
~Parameter Information Block
~A  Depth        GR         CCL         TT3         AMP3    
# ...
   274.5000     77.6535      0.0000   1350.0000      9.1025
   274.7500     76.7199      0.0000   1350.0000      9.1054
   275.0000     78.9991      0.0000   1350.0000      9.1710
   275.2500     84.0562      0.0000   1350.0000      9.2848
   275.5000     90.1996      0.0000   1350.0000      9.4132
   275.7500     94.8668      0.0000   1350.0000      9.5223
   276.0000     95.9361      0.0000   1349.9833      9.5967
   276.2500     93.1638      0.0000   1349.8909      9.6413
   276.5000     88.3233      0.0000   1349.4457      9.6680
   276.7500     83.7811      0.0000   1347.8076      9.6826
   277.0000     80.7793      0.0000   1343.2469      9.6849
   277.2500     78.9718      0.0000   1333.8002      9.6792
   277.5000     77.4751      0.0000   1319.7347      9.6815
   277.7500     76.1300      0.0000   1305.9445      9.7120
   278.0000     75.6375      0.0000   1299.9713      9.7770
   278.2500     76.6636      0.0000   1305.2656      9.8589
   278.5000     78.9425      0.0000   1316.8689      9.9260
   278.7500     81.2879      0.0000   1324.4548      9.9466
   279.0000     82.4861      0.0000   1318.7800      9.8914
   279.2500     82.1398      0.0000   1295.7877      9.7271
   279.5000     80.7564      0.0000   1258.6208      9.4282
   279.7500     79.4004      0.0000   1218.6946      9.0117
   280.0000     79.2449      0.0000   1193.0582      8.5449
   280.2500     80.9958      0.0000   1195.5240      8.0877
   280.5000     84.4565      0.0000   1226.1702      7.6420
   280.7500     88.7582      0.0000   1270.1017      7.1933
   281.0000     93.1613      0.0000   1308.9246      6.7831
   281.2500     97.6531      0.0000   1333.3047      6.4906
   281.5000    102.6114      0.0000   1344.6641      6.3540
   281.7500    107.8352      0.0000   1348.6638      6.3457
   282.0000    112.1175      0.0000   1349.7408      6.4166
   282.2500    113.8936      0.0000   1349.9602      6.5616
   282.5000    112.3011      0.0000   1350.0000      6.8544
   282.7500    107.8654      0.0000   1350.0000      7.4033
   283.0000    102.3069      0.0000   1350.0000      8.2227
   283.2500     97.4820      0.0000   1350.0000      9.1498
   283.5000     94.3649      0.0000   1350.0000      9.9503
   283.7500     93.0235      0.0000   1350.0000     10.5028
   284.0000     93.2336      0.0000   1350.0000     10.8404
   284.2500     94.6084      0.0000   1350.0000     11.0543
   284.5000     96.1245      0.0000   1350.0000     11.2203
   284.7500     96.2500      0.0000   1350.0000     11.3878
   285.0000     94.2472      0.0000   1350.0000     11.5762
   285.2500     91.2998      0.0000   1350.0000     11.7682
   285.5000     89.8663      0.0000   1349.9662     11.9197
   285.7500     91.5954      0.0000   1349.7792     11.9896
   286.0000     95.6835      0.0000   1348.8787     11.9702
   286.2500     99.1870      0.0000   1345.5314     11.8959
   286.5000     99.2125      0.0000   1336.0861     11.8173
   286.7500     95.1164      0.0000   1315.8938     11.7644
   287.0000     88.7276      0.0000   1283.2446     11.7367
   287.2500     82.7205      0.0000   1242.9020     11.7264
   287.5000     78.8889      0.0000   1202.8300     11.7433
   287.7500     77.4068      0.0000   1167.3494     11.8111
   288.0000     77.1134      0.0000   1139.1465     11.9426
   288.2500     76.5854      0.0000   1127.9257     12.1186
   288.5000     75.2384      0.0000   1146.1810     12.2906
   288.7500     73.4293      0.0000   1191.6106     12.4068
   289.0000     71.8109      0.0000   1241.5159     12.4439
   289.2500     71.0281      0.0000   1269.5509     12.4215
   289.5000     71.7045      0.0000   1265.2603     12.3851
   289.7500     73.9255      0.0000   1237.2224     12.3748
   290.0000     76.6599      0.0000   1200.2511     12.4083
   290.2500     78.3143      0.0000   1161.6069     12.4844
   290.5000     78.1711      0.0000   1121.1062     12.5925
   290.7500     76.9533      0.0000   1081.8722     12.7163
   291.0000     75.7667      0.0000   1053.7461     12.8339
   291.2500     74.8069      0.0000   1046.6005     12.9170
   291.5000     73.3426      0.0000   1066.5140     12.9355
   291.7500     70.6641      0.0000   1114.7310     12.8709
   292.0000     66.8578      0.0000   1182.5538     12.7311
   292.2500     62.9171      0.0000   1251.0129     12.5521
   292.5000     60.2571      0.0000   1302.4849     12.3802
   292.7500     59.8559      0.0000   1331.7440     12.2421
   293.0000     61.6088      0.0000   1344.4373     12.1260
   293.2500     64.5210      0.0000   1348.6642     11.9933
   293.5000     67.6000      0.0000   1349.7230     11.8129
   293.7500     70.7074      0.0000   1349.8130     11.5850
   294.0000     74.8872      0.0000   1349.2218     11.3300
   294.2500     81.8447      0.0000   1346.9220     11.0624
   294.5000     92.3179      0.0000   1340.5192     10.7838
   294.7500    104.4046      0.0000   1327.2275     10.4993
   295.0000    114.0175      0.0000   1307.2971     10.2314
   295.2500    117.7129      0.0000   1287.0403     10.0165
   295.5000    115.1354      0.0000   1275.2175      9.8918
   295.7500    108.8336      0.0000   1272.6276      9.8769
   296.0000    102.2824      0.0000   1266.8715      9.9570
   296.2500     98.0274      0.0000   1242.4376     10.0804
   296.5000     96.8201      0.0000   1198.0767     10.1822
   296.7500     97.8815      0.0000   1152.3915     10.2218
   297.0000     99.8747      0.0000   1129.2551     10.2059
   297.2500    101.6707      0.0000   1136.6140     10.1798
   297.5000    102.6779      0.0000   1161.2371     10.1917
   297.7500    103.2514      0.0000   1183.8923     10.2584
   298.0000    104.9016      0.0000   1195.7010     10.3562
   298.2500    109.3179      0.0000   1199.8961     10.4433
   298.5000    116.5959      0.0000   1205.2140     10.4925
   298.7500    124.6955      0.0000   1220.5964     10.5018
   299.0000    130.9874      0.0000   1249.4103     10.4797
   299.2500    134.1251      0.0000   1285.1639     10.4309
   299.5000    134.2956      0.0000   1316.3702     10.3620
   299.7500    132.3902      0.0000   1336.1902     10.2916
   300.0000    129.5220      0.0000   1345.5149     10.2444
   300.2500    126.6866      0.0000   1348.6617     10.2318
   300.5000    124.0509      0.0000   1348.6624     10.2381
   300.7500    120.8121      0.0000   1345.5464     10.2325
   301.0000    116.2273      0.0000   1336.3522     10.1997
   301.2500    110.7786      0.0000   1317.1215     10.1627
   301.5000    106.1456      0.0000   1287.8684     10.1693
   301.7500    103.9066      0.0000   1256.8055     10.2547
   302.0000    104.1302      0.0000   1235.7583     10.4109
   302.2500    105.1794      0.0000   1228.3162     10.5875
   302.5000    105.1370      0.0000   1226.6406     10.7241
   302.7500    103.7110      0.0000   1223.0382     10.7905
   303.0000    102.6085      0.0000   1217.7662     10.8011
   303.2500    103.8998      0.0000   1210.5403     10.7945
   303.5000    108.1351      0.0000   1194.2021     10.8023
   303.7500    114.1029      0.0000   1167.3423     10.8359
   304.0000    119.9165      0.0000   1146.9768     10.8935
   304.2500    123.9980      0.0000   1156.0822     10.9715
   304.5000    125.6229      0.0000   1198.3364     11.0711
   304.7500    125.2351      0.0000   1253.0239     11.1997
   305.0000    124.0978      0.0000   1294.1416     11.3664
   305.2500    123.2798      0.0000   1309.0269     11.5732
   305.5000    122.9565      0.0000   1301.5978     11.8101
   305.7500    122.5527      0.0000   1286.2922     12.0612
   306.0000    121.2281      0.0000   1279.0710     12.3168
   306.2500    118.2743      0.0000   1287.5956     12.5725
   306.5000    113.6573      0.0000   1307.1333     12.8117
   306.7500    108.6437      0.0000   1327.0551     12.9950
   307.0000    105.4227      0.0000   1340.4352     13.0788
   307.2500    105.4525      0.0000   1346.8948     13.0499
   307.5000    108.3015      0.0000   1349.2148     12.9444
   307.7500    112.3618      0.0000   1349.8455     12.8350
