~Version Information
 VERS.                                  2.0 : CWLS LAS VERSION
 WRAP.                                   NO : WRAPING MODE
 SWARE .                 MController 2.5.0J : SOFTWARE VERSION
~Well Information
 WELL.                     Kristin 22-23 TR : WELL
 COMP.        Pioneer Natural Resources Inc : COMPANY
 FLD.                      Purgatoire River : FIELD
 LOC.                SE/NW Sec 23 T33S R67W : LOCATION
 DATE.                           1/19-20/05 : DATE(S) LOGGED
 SRVC.       Blanco Geological Services LLC : SERVICE COMPANY
 STAT.                                   CO : STATE
 CNTY.                           Las Animas : COUNTY
 CTRY.                                  USA : COUNTRY
 API.                       05-071-08259-00 : API NUMBER
 STRT.FT                             499.00 : START DEPTH
 STOP.FT                            1575.00 : STOP DEPTH
 STEP.FT                               1.00 : DEPTH INCREMENT
 NULL.                                -9999 : NULL VALUE
~Curve information
 DEPTH.FT                                   :
 ROP.MIN/FT                                 :
 GAS.UNITS                                  :
~ASCII Log data
# ...
       899.0         0.27       1570.6 
       900.0         0.23       1321.1 
       901.0         0.23       1137.8 
       902.0         0.30       1022.7 
       903.0         0.27        975.0 
       904.0         0.20        912.2 
       905.0         0.20        876.4 
       906.0         0.20        817.7 
       907.0         0.17        790.3 
       908.0         0.20        769.7 
       909.0         0.20        762.6 
       910.0         0.20        758.4 
       911.0         0.20        750.1 
       912.0         0.25        749.1 
       913.0         0.20        746.5 
       914.0         0.17        744.9 
       915.0         0.23        741.4 
       916.0         0.20        739.4 
       917.0         0.17        738.8 
       918.0         0.23        735.2 
       919.0         0.20        735.9 
       920.0         0.17        717.5 
       921.0         0.13        684.3 
       922.0         0.17        674.3 
       923.0         0.17        676.6 
       924.0         0.17        802.9 
       925.0         0.17        992.7 
       926.0         0.37       1412.0 
       927.0         0.30       1962.4 
       928.0         0.30       1992.1 
       929.0         0.27       1926.7 
       930.0         0.27       1644.0 
       931.0         0.30       1471.3 
       932.0         0.30       1211.2 
       933.0         0.27       1033.7 
       934.0         0.23        973.7 
       935.0         0.20        927.6 
       936.0         0.20        843.5 
       937.0         0.22        829.0 
       938.0         0.20        772.6 
       939.0         0.17        750.4 
       940.0         0.17        744.9 
       941.0         0.17        724.6 
       942.0         0.17        734.3 
       943.0         0.23        756.8 
       944.0         0.17        753.0 
       945.0         0.17        739.4 
       946.0         0.17        739.4 
       947.0         0.20        737.5 
       948.0         0.17        743.9 
       949.0         0.23        745.6 
       950.0         0.20        743.9 
       951.0         0.20        739.4 
       952.0         0.20        958.3 
       953.0         0.23       1307.3 
       954.0         0.32       1818.4 
       955.0         0.27       2128.1 
       956.0         0.38       2159.3 
       957.0         0.30       1870.9 
       958.0         0.27       1547.0 
       959.0         0.17       1243.1 
       960.0         0.13       1175.5 
       961.0         0.10       1131.3 
       962.0         0.13       1027.9 
       963.0         0.13       1008.8 
       964.0         0.17        902.2 
       965.0         0.20        892.8 
       966.0         0.17        871.6 
       967.0         0.17        865.8 
       968.0         0.17        840.3 
       969.0         0.17        811.6 
       970.0         0.17        811.6 
       971.0         0.17        785.2 
       972.0         0.17        759.4 
       973.0         0.13        739.1 
       974.0         0.13        729.1 
       975.0         0.18        724.3 
       976.0         0.23        709.1 
       977.0         0.20        710.1 
       978.0         0.20        725.3 
       979.0         0.17        738.1 
       980.0         0.17        736.2 
       981.0         0.17        734.6 
       982.0         0.17       1758.8 
       983.0         0.17       1758.8 
       984.0         0.20       2357.5 
       985.0         0.30       2500.9 
       986.0         0.27       2102.0 
       987.0         0.27       2046.5 
       988.0         0.30       1496.1 
       989.0         0.27       1463.6 
       990.0         0.27       1107.1 
       991.0         0.23        995.6 
       992.0         0.23        919.6 
       993.0         0.23        836.1 
       994.0         0.23        829.0 
       995.0         0.20        771.3 
       996.0         0.22        748.5 
       997.0         0.20        735.9 
       998.0         0.23        728.8 
       999.0         0.20        724.3 
      1000.0         0.20        718.8 
      1001.0         0.23        716.2 
      1002.0         0.20        712.4 
      1003.0         0.20        706.9 
      1004.0         0.20        704.6 
      1005.0         0.20        705.6 
      1006.0         0.20        705.6 
      1007.0         0.23        706.2 
      1008.0         0.23        707.8 
      1009.0         0.27        709.1 
      1010.0         0.30        717.2 
      1011.0         0.32        715.3 
      1012.0         0.30        710.4 
      1013.0         0.27       2301.8 
      1014.0         0.33       2301.8 
      1015.0         0.30       2172.9 
      1016.0         0.23       2033.3 
      1017.0         0.23       1628.2 
      1018.0         0.27       1304.0 
      1019.0         0.27       1068.8 
      1020.0         0.27        819.4 
      1021.0         0.23        807.1 
      1022.0         0.27        798.1 
      1023.0         0.20        801.0 
      1024.0         0.20        796.5 
      1025.0         0.23        781.6 
      1026.0         0.20        769.1 
      1027.0         0.20        752.3 
      1028.0         0.22        735.9 
      1029.0         0.20        724.6 
      1030.0         0.20        715.6 
      1031.0         0.20        709.5 
      1032.0         0.20        702.7 
      1033.0         0.23        693.0 
      1034.0         0.20        690.4 
      1035.0         0.20        687.2 
      1036.0         0.17        685.9 
      1037.0         0.17        685.9 
      1038.0         0.17        683.4 
      1039.0         0.20        683.0 
      1040.0         0.20        681.7 
      1041.0         0.20        684.3 
      1042.0         0.23        687.2 
      1043.0         0.20        621.2 
      1044.0         0.23        844.5 
      1045.0         0.22       1270.8 
      1046.0         0.30       1850.3 
      1047.0         0.27       2053.3 
      1048.0         0.30       2060.7 
      1049.0         0.40       1799.0 
      1050.0         0.35       1299.5 
      1051.0         0.33       1079.7 
      1052.0         0.20        852.2 
      1053.0         0.27        804.2 
      1054.0         0.40        780.7 
      1055.0         0.23        764.2 
      1056.0         0.27        749.1 
      1057.0         0.20        726.9 
      1058.0         0.33        709.8 
      1059.0         0.20        689.8 
      1060.0         0.27        685.6 
      1061.0         0.27        673.4 
      1062.0         0.25        674.0 
      1063.0         0.27        660.2 
      1064.0         0.27        653.7 
      1065.0         0.17        653.7 
      1066.0         0.17        668.9 
      1067.0         0.17        676.9 
      1068.0         0.23        672.7 
      1069.0         0.20        672.7 
      1070.0         0.27        669.8 
      1071.0         0.23        667.9 
      1072.0         0.27       1989.5 
      1073.0         0.27       1989.5 
      1074.0         0.17       2150.6 
      1075.0         0.17       2150.6 
      1076.0         0.27       1931.2 
      1077.0         0.27       1820.0 
      1078.0         0.23       1544.1 
      1079.0         0.27       1285.7 
      1080.0         0.23       1069.4 
      1081.0         0.35        918.0 
      1082.0         0.17        804.5 
      1083.0         0.17        767.1 
      1084.0         0.17        753.3 
      1085.0         0.20        739.1 
      1086.0         0.23        733.6 
      1087.0         0.27        711.7 
      1088.0         0.27        715.3 
      1089.0         0.17        751.4 
      1090.0         0.23        759.1 
      1091.0         0.27        717.2 
      1092.0         0.17        667.2 
      1093.0         0.20        660.2 
      1094.0         0.20        633.1 
      1095.0         0.20        631.5 
      1096.0         0.25        631.5 
      1097.0         0.30        634.7 
      1098.0         0.23        638.9 
