~Version Information
VERS.                      2.0: CWLS Log ASCII Standard - VERSION 2.0
WRAP.                       NO: One line per depth step
~Well Information Block
STRT.FT               360.0000: 
STOP.FT              2515.2000: 
STEP.FT                 0.1000: 
NULL.                -999.2500: 
COMP.          Pioneer Natural Resources: COMPANY
WELL.            Rancher 12-35: WELL
FLD.           Purgatoire River: FIELD
LOC.           2131' FNL & 297' FWL: LOCATION
PROV.                 Colorado: PROVINCE
CNTY.               Las Animas: COUNTRY
SRVC.                Patterson: SERVICE COMPANY
DATE.          Tue Oct 12 09:11:02 2004: LOG DATE
UWI.           05 071 08179 00: UNIQUE WELL ID
~Curve Information Block
DEPT.FT            0 000 00 00: Depth
DCAL.in                       : CDL Caliper
RHOB.g/cc                     : CDL Bulk Density
RHOC.g/cc                     : CDL Density Correction
DPOR.pu                       : CDL Density Porosity
NPOR.pu                       : Neutron Porosity
GR.GAPI                       : Gamma Ray
~Parameter Information Block
~A  Depth       DCAL        RHOB        RHOC        DPOR        NPOR         GR     
# ...
  1636.8000      8.4771      2.5183      0.0733      7.9795     20.2074    144.9810
  1636.9000      8.4771      2.5583      0.1377      5.5570     17.7108    146.9455
  1637.0000      8.5930      2.5836      0.1391      4.0251     16.9437    154.2537
  1637.1000      8.5930      2.5980      0.1491      3.1493     17.1060    160.3934
  1637.2000      8.5930      2.6185      0.1710      1.9068     18.0274    163.9801
  1637.3000      8.5903      2.6402      0.2053      0.5968     20.3643    162.7653
  1637.4000      8.5903      2.6496      0.1994      0.0246     22.2849    154.4794
  1637.5000      8.4742      2.6436      0.1210      0.3897     21.7814    144.3609
  1637.6000      8.4742      2.6205      0.1216      1.7871     19.8077    141.3956
  1637.7000      8.4742      2.5872      0.0036      3.8063     18.6830    147.9357
  1637.8000      8.3608      2.5669      0.0061      5.0370     19.0736    159.1005
  1637.9000      8.3608      2.5733      0.0040      4.6461     20.1222    166.8116
  1638.0000      8.2810      2.5935      0.0507      3.4221     20.9369    166.1260
  1638.1000      8.2810      2.6013      0.0579      2.9488     20.9620    162.8114
  1638.2000      8.2810      2.5914      0.0409      3.5498     20.6145    163.5501
  1638.3000      8.2154      2.5790      0.0268      4.3010     20.5316    166.9838
  1638.4000      8.2154      2.5725      0.0303      4.6951     20.4353    167.9875
  1638.5000      8.1713      2.5718      0.0150      4.7376     20.1221    163.7821
  1638.6000      8.1713      2.5746      0.0318      4.5706     19.8423    160.4588
  1638.7000      8.1713      2.5778      0.0740      4.3739     19.9049    160.0339
  1638.8000      8.1548      2.5849      0.0312      3.9471     20.3122    157.4940
  1638.9000      8.1548      2.5975      0.0842      3.1830     20.2222    156.4954
  1639.0000      8.1519      2.6045      0.0588      2.7589     19.0192    159.3148
  1639.1000      8.1519      2.5966      0.0745      3.2348     18.1154    163.1963
  1639.2000      8.1519      2.5745      0.0288      4.5785     19.1944    168.7137
  1639.3000      8.1505      2.5492      0.0223      6.1110     21.0880    174.6501
  1639.4000      8.1505      2.5320      0.0336      7.1541     22.0944    176.9263
  1639.5000      8.1494      2.5253      0.0350      7.5550     22.1100    174.2567
  1639.6000      8.1494      2.5246      0.0844      7.5996     21.2692    166.4734
  1639.7000      8.1494      2.5173      0.0650      8.0401     19.6539    157.9486
  1639.8000      8.1489      2.5029      0.0211      8.9176     18.1475    154.5295
  1639.9000      8.1489      2.4982      0.0258      9.1971     17.4474    151.7634
  1640.0000      8.1481      2.5104      0.0228      8.4608     17.0728    141.6885
  1640.1000      8.1481      2.5316      0.0397      7.1746     16.8388    128.0059
  1640.2000      8.1481      2.5519      0.0831      5.9475     16.2459    119.2641
  1640.3000      8.1457      2.5664      0.0829      5.0653     14.2372    113.8559
  1640.4000      8.1457      2.5808      0.0847      4.1914     11.8531    110.0490
  1640.5000      8.1433      2.5954      0.0839      3.3109     10.7876    109.9229
  1640.6000      8.1433      2.6044      0.0687      2.7612     10.3769    109.4614
  1640.7000      8.1433      2.6105      0.0485      2.3923      9.9724    105.9829
  1640.8000      8.1441      2.6140      0.0634      2.1820     10.1107    101.6483
  1640.9000      8.1441      2.6057      0.0594      2.6856     10.1933     98.1579
  1641.0000      8.1456      2.5833      0.0135      4.0439      9.8477     98.1940
  1641.1000      8.1456      2.5548      0.0161      5.7669      9.6289    101.8423
  1641.2000      8.1456      2.5315     -0.0213      7.1842      9.4527    105.8435
  1641.3000      8.1487      2.5225      0.0000      7.7269      8.4764    109.3562
  1641.4000      8.1487      2.5236      0.0241      7.6612      7.0766    112.3529
  1641.5000      8.1573      2.5256      0.0341      7.5422      6.4746    112.3725
  1641.6000      8.1573      2.5318      0.0419      7.1625      6.0635    107.6597
  1641.7000      8.1573      2.5521      0.0431      5.9345      5.2957    101.2385
  1641.8000      8.1673      2.5848      0.0779      3.9524      5.3784     97.5288
  1641.9000      8.1673      2.6122      0.1043      2.2934      6.3732     98.6821
  1642.0000      8.1726      2.6162      0.1001      2.0485      7.2075    102.0372
  1642.1000      8.1726      2.5959      0.0618      3.2776      7.6000    102.4645
  1642.2000      8.1726      2.5716      0.0492      4.7533      7.3295     99.8233
  1642.3000      8.1735      2.5654      0.0536      5.1270      6.7817     97.5640
  1642.4000      8.1735      2.5818      0.0541      4.1329      7.6282     97.4543
  1642.5000      8.1725      2.6120      0.0517      2.3056      9.9341     98.9340
  1642.6000      8.1725      2.6369      0.0995      0.7958     11.8751     99.4084
  1642.7000      8.1725      2.6346      0.0922      0.9344     12.6553     97.0877
  1642.8000      8.1712      2.6043      0.0742      2.7721     12.4451     94.6800
  1642.9000      8.1712      2.5713      0.0226      4.7699     11.1690     93.4549
  1643.0000      8.1709      2.5582      0.0514      5.5621      8.9468     92.0022
  1643.1000      8.1709      2.5636      0.0545      5.2368      6.6111     89.8165
  1643.2000      8.1709      2.5772      0.0570      4.4103      5.5241     87.1643
  1643.3000      8.1718      2.5898      0.0694      3.6490      6.1009     85.7903
  1643.4000      8.1718      2.5901      0.0708      3.6310      6.9538     86.2682
  1643.5000      8.1716      2.5786      0.0590      4.3257      6.4783     87.3925
  1643.6000      8.1716      2.5746      0.0011      4.5711      5.3886     90.0389
  1643.7000      8.1716      2.5841      0.0777      3.9923      6.0782     92.3427
  1643.8000      8.1699      2.5853      0.0707      3.9194      9.3131     89.1731
  1643.9000      8.1699      2.5711      0.0405      4.7789     13.0179     83.0536
  1644.0000      8.1713      2.5596      0.0173      5.4775     14.7497     78.7163
  1644.1000      8.1713      2.5602      0.0559      5.4409     14.1857     75.1246
  1644.2000      8.1713      2.5703      0.0122      4.8297     12.6575     71.2745
  1644.3000      8.1744      2.5808      0.0924      4.1953     10.9282     71.0133
  1644.4000      8.1744      2.5761      0.0384      4.4811      8.3355     77.9952
  1644.5000      8.1761      2.5604      0.0215      5.4293      6.2417     87.9939
  1644.6000      8.1761      2.5512      0.0504      5.9902      7.7438     93.9713
  1644.7000      8.1761      2.5508      0.0433      6.0105     11.7162     94.8706
  1644.8000      8.1752      2.5512      0.0525      5.9872     14.5428     95.6908
  1644.9000      8.1752      2.5467      0.0178      6.2582     16.1563    100.8787
  1645.0000      8.1725      2.5427      0.0227      6.5016     17.4648    111.0669
  1645.1000      8.1725      2.5473      0.0107      6.2220     17.8661    121.7590
  1645.2000      8.1725      2.5557      0.0605      5.7175     17.3598    130.1777
  1645.3000      8.1710      2.5561      0.0623      5.6928     17.0394    136.8133
  1645.4000      8.1710      2.5572      0.0330      5.6233     16.7804    135.8276
  1645.5000      8.1726      2.5788      0.0735      4.3162     15.4366    127.0278
  1645.6000      8.1726      2.6096      0.1135      2.4478     13.5318    121.1612
  1645.7000      8.1726      2.6255      0.0955      1.4850     12.2765    118.8192
  1645.8000      8.1740      2.6243      0.1012      1.5606     12.0457    112.2874
  1645.9000      8.1740      2.6084      0.0850      2.5203     13.0991    104.0827
  1646.0000      8.1737      2.5773      0.0639      4.4064     14.7536    100.2681
  1646.1000      8.1737      2.5434      0.0150      6.4613     15.6318     99.2703
  1646.2000      8.1737      2.5263     -0.0068      7.4969     15.5558     99.8551
  1646.3000      8.1737      2.5331      0.0038      7.0859     15.3287    104.3230
