~Version Information
VERS.                      2.0: CWLS Log ASCII Standard - VERSION 2.0
WRAP.                       NO: One line per depth step
~Well Information Block
STRT.FT                -7.0500: 
STOP.FT              3072.6000: 
STEP.FT                 0.0500: 
NULL.                -999.2500: 
COMP.          Pioneer Natural Resources: COMPANY
WELL.              Stones 24-8: WELL
FLD.           Purgatoire River: FIELD
LOC.           648' FSL & 2264' FWL--: LOCATION
PROV.                 Colorado: PROVINCE
CNTY.               Las Animas: COUNTRY
SRVC.                Patterson: SERVICE COMPANY
DATE.          Fri Feb 04 12:43:19 2005: LOG DATE
UWI.           05 071 07945 00: UNIQUE WELL ID
~Curve Information Block
DEPT.FT            0 000 00 00: Depth
CCL.                          : Casing Collar Locator
TT3.usec                      : CBL 3' Travel Time
AMP3.mV                       : CBL 3' Amplitude
GR.GAPI                       : Gamma Ray
~Parameter Information Block
~A  Depth       CCL         TT3         AMP3         GR     
# ...
   609.3500      0.0000    697.7045      2.4109     48.0494
   609.4000      0.0000    697.7045      2.4109     48.0494
   609.4500      0.0000    697.7045      2.4109     48.0494
   609.5000      0.0000    697.8794      2.4132     46.7851
   609.5500      0.0000    697.8794      2.4132     46.7851
   609.6000      0.0000    697.8794      2.4132     46.7851
   609.6500      0.0000    697.8794      2.4132     46.7851
   609.7000      0.0000    697.8794      2.4132     46.7851
   609.7500      0.0000    698.5970      2.4162     45.1090
   609.8000      0.0000    698.5970      2.4162     45.1090
   609.8500      0.0000    698.5970      2.4162     45.1090
   609.9000      0.0000    698.5970      2.4162     45.1090
   609.9500      0.0000    698.5970      2.4162     45.1090
   610.0000      0.0000    700.0952      2.4204     44.0142
   610.0500      0.0000    700.0952      2.4204     44.0142
   610.1000      0.0000    700.0952      2.4204     44.0142
   610.1500      0.0000    700.0952      2.4204     44.0142
   610.2000      0.0000    700.0952      2.4204     44.0142
   610.2500      0.0000    702.1989      2.4281     44.3191
   610.3000      0.0000    702.1989      2.4281     44.3191
   610.3500      0.0000    702.1989      2.4281     44.3191
   610.4000      0.0000    702.1989      2.4281     44.3191
   610.4500      0.0000    702.1989      2.4281     44.3191
   610.5000      0.0000    704.0549      2.4375     46.2708
   610.5500      0.0000    704.0549      2.4375     46.2708
   610.6000      0.0000    704.0549      2.4375     46.2708
   610.6500      0.0000    704.0549      2.4375     46.2708
   610.7000      0.0000    704.0549      2.4375     46.2708
   610.7500      0.0000    704.8469      2.4364     49.3185
   610.8000      0.0000    704.8469      2.4364     49.3185
   610.8500      0.0000    704.8469      2.4364     49.3185
   610.9000      0.0000    704.8469      2.4364     49.3185
   610.9500      0.0000    704.8469      2.4364     49.3185
   611.0000      0.0000    705.4566      2.4034     52.0763
   611.0500      0.0000    705.4566      2.4034     52.0763
   611.1000      0.0000    705.4566      2.4034     52.0763
   611.1500      0.0000    705.4566      2.4034     52.0763
   611.2000      0.0000    705.4566      2.4034     52.0763
   611.2500      0.0000    709.0710      2.3257     53.0124
   611.3000      0.0000    709.0710      2.3257     53.0124
   611.3500      0.0000    709.0710      2.3257     53.0124
   611.4000      0.0000    709.0710      2.3257     53.0124
   611.4500      0.0000    709.0710      2.3257     53.0124
   611.5000      0.0000    718.9517      2.2187     51.6476
   611.5500      0.0000    718.9517      2.2187     51.6476
   611.6000      0.0000    718.9517      2.2187     51.6476
   611.6500      0.0000    718.9517      2.2187     51.6476
   611.7000      0.0000    718.9517      2.2187     51.6476
   611.7500      0.0000    735.1202      2.1221     48.9466
   611.8000      0.0000    735.1202      2.1221     48.9466
   611.8500      0.0000    735.1202      2.1221     48.9466
   611.9000      0.0000    735.1202      2.1221     48.9466
   611.9500      0.0000    735.1202      2.1221     48.9466
   612.0000      0.0000    753.8566      2.0702     46.3828
   612.0500      0.0000    753.8566      2.0702     46.3828
   612.1000      0.0000    753.8566      2.0702     46.3828
   612.1500      0.0000    753.8566      2.0702     46.3828
   612.2000      0.0000    753.8566      2.0702     46.3828
   612.2500      0.0000    770.6812      2.0662     44.7946
   612.3000      0.0000    770.6812      2.0662     44.7946
   612.3500      0.0000    770.6812      2.0662     44.7946
   612.4000      0.0000    770.6812      2.0662     44.7946
   612.4500      0.0000    770.6812      2.0662     44.7946
   612.5000      0.0000    783.1339      2.0856     44.1242
   612.5500      0.0000    783.1339      2.0856     44.1242
   612.6000      0.0000    783.1339      2.0856     44.1242
   612.6500      0.0000    783.1339      2.0856     44.1242
   612.7000      0.0000    783.1339      2.0856     44.1242
   612.7500      2.0000    790.9522      2.0988     43.9043
   612.8000      2.0000    790.9522      2.0988     43.9043
   612.8500      2.0000    790.9522      2.0988     43.9043
   612.9000      0.0000    790.9522      2.0988     43.9043
   612.9500     -2.0000    790.9522      2.0988     43.9043
   613.0000     -2.0000    795.2466      2.0875     43.8080
   613.0500      0.0000    795.2466      2.0875     43.8080
   613.1000      0.0000    795.2466      2.0875     43.8080
   613.1500      2.0000    795.2466      2.0875     43.8080
   613.2000      2.0000    795.2466      2.0875     43.8080
   613.2500      0.0000    798.2351      2.0483     43.8113
   613.3000      0.0000    798.2351      2.0483     43.8113
   613.3500      0.0000    798.2351      2.0483     43.8113
   613.4000      0.0000    798.2351      2.0483     43.8113
   613.4500      0.0000    798.2351      2.0483     43.8113
   613.5000      0.0000    802.6730      1.9902     44.0224
   613.5500      0.0000    802.6730      1.9902     44.0224
   613.6000      0.0000    802.6730      1.9902     44.0224
   613.6500      0.0000    802.6730      1.9902     44.0224
   613.7000      0.0000    802.6730      1.9902     44.0224
   613.7500      0.0000    810.6404      1.9345     44.4443
   613.8000      0.0000    810.6404      1.9345     44.4443
   613.8500      0.0000    810.6404      1.9345     44.4443
   613.9000      0.0000    810.6404      1.9345     44.4443
   613.9500      0.0000    810.6404      1.9345     44.4443
   614.0000      0.0000    822.7609      1.9115     44.8814
   614.0500      0.0000    822.7609      1.9115     44.8814
   614.1000      0.0000    822.7609      1.9115     44.8814
   614.1500      0.0000    822.7609      1.9115     44.8814
   614.2000      0.0000    822.7609      1.9115     44.8814
   614.2500      0.0000    837.7629      1.9476     45.1021
   614.3000      0.0000    837.7629      1.9476     45.1021
   614.3500      0.0000    837.7629      1.9476     45.1021
   614.4000      0.0000    837.7629      1.9476     45.1021
   614.4500      0.0000    837.7629      1.9476     45.1021
   614.5000      0.0000    851.3602      2.0463     45.1369
   614.5500      0.0000    851.3602      2.0463     45.1369
   614.6000      0.0000    851.3602      2.0463     45.1369
   614.6500      0.0000    851.3602      2.0463     45.1369
   614.7000      0.0000    851.3602      2.0463     45.1369
   614.7500      0.0000    856.0435      2.1796     45.2760
   614.8000      0.0000    856.0435      2.1796     45.2760
   614.8500      0.0000    856.0435      2.1796     45.2760
   614.9000      0.0000    856.0435      2.1796     45.2760
   614.9500      0.0000    856.0435      2.1796     45.2760
   615.0000      0.0000    844.5971      2.3038     45.6686
   615.0500      0.0000    844.5971      2.3038     45.6686
   615.1000      0.0000    844.5971      2.3038     45.6686
   615.1500      0.0000    844.5971      2.3038     45.6686
   615.2000      0.0000    844.5971      2.3038     45.6686
   615.2500      0.0000    816.0121      2.3887     46.1691
   615.3000      0.0000    816.0121      2.3887     46.1691
   615.3500      0.0000    816.0121      2.3887     46.1691
   615.4000      0.0000    816.0121      2.3887     46.1691
   615.4500      0.0000    816.0121      2.3887     46.1691
   615.5000      0.0000    777.9681      2.4324     46.7257
   615.5500      0.0000    777.9681      2.4324     46.7257
   615.6000      0.0000    777.9681      2.4324     46.7257
   615.6500      0.0000    777.9681      2.4324     46.7257
   615.7000      0.0000    777.9681      2.4324     46.7257
   615.7500      0.0000    742.2346      2.4494     47.5267
   615.8000      0.0000    742.2346      2.4494     47.5267
   615.8500      0.0000    742.2346      2.4494     47.5267
   615.9000      0.0000    742.2346      2.4494     47.5267
   615.9500      0.0000    742.2346      2.4494     47.5267
   616.0000      0.0000    716.9659      2.4532     48.4720
