~Version Information
VERS.                      2.0: CWLS Log ASCII Standard - VERSION 2.0
WRAP.                       NO: One line per depth step
~Well Information Block
STRT.FT               745.0000: 
STOP.FT              2945.7500: 
STEP.FT                 0.2500: 
NULL.                -999.2500: 
COMP.          Pioneer Natural Resources: COMPANY
WELL.          Old Yeller 31-32: WELL
FLD.           Purgatoire River: FIELD
LOC.           1832' FEL & 793' FNL--: LOCATION
STAT.                 Colorado: State
CNTY.               Las Animas: COUNTY
CTRY. USA : Country
SECT. 32 : Section
TOWN. 32S : Township
RANG. 67W : Range
SRVC.                Patterson: SERVICE COMPANY
DATE.          Sun Aug 28 20:20:00 2005: LOG DATE
API.           05 071 08356 00: UNIQUE WELL ID
~Curve Information Block
DEPT.FT            0 000 00 00: Depth
SN.Ohm-m                      : IEL Short Normal
SP.mV                         : IEL Spontaneous Potential
DIR.Ohm-m                     : IEL Induction Resistivity
GR.GAPI                       : Gamma Ray
~Parameter Information Block
~A  Depth        SN          SP         DIR          GR     
# ...
  1750.0000    101.0160     90.7383     58.1281     89.4277
  1750.2500     96.5519     91.7980     56.2453     93.6215
  1750.5000     91.9163     92.8157     54.4547     97.6450
  1750.7500     87.1066     93.8513     52.7611     98.6470
  1751.0000     82.1266     94.9731     51.0975     97.5542
  1751.2500     77.0036     96.2473     49.3523     95.4578
  1751.5000     71.8154     97.7267     47.4016     91.7578
  1751.7500     66.7117     99.4408     45.1536     89.9849
  1752.0000     61.8993    101.3889     42.6155     89.5711
  1752.2500     57.5763    103.5377     39.9252     90.9340
  1752.5000     53.8512    105.8248     37.2952     95.2638
  1752.7500     50.7067    108.1667     34.9123     99.6161
  1753.0000     48.0321    110.4706     32.8737    107.9081
  1753.2500     45.6904    112.6480     31.1884    113.7713
  1753.5000     43.5709    114.6256     29.8122    120.9813
  1753.7500     41.6067    116.3541     28.6807    123.8924
  1754.0000     39.7733    117.8116     27.7304    125.3830
  1754.2500     38.0860    119.0028     26.9090    124.8409
  1754.5000     36.5912    119.9539     26.1797    122.1086
  1754.7500     35.3477    120.7057     25.5213    119.2596
  1755.0000     34.4060    121.3043     24.9278    114.9188
  1755.2500     33.7930    121.7925     24.4088    113.4143
  1755.5000     33.4952    122.2022     23.9889    115.1761
  1755.7500     33.4453    122.5494     23.7004    119.0375
  1756.0000     33.5295    122.8325     23.5677    126.9244
  1756.2500     33.6246    123.0349     23.5909    132.0905
  1756.5000     33.6410    123.1301     23.7403    137.9544
  1756.7500     33.5421    123.0907     23.9659    140.1640
  1757.0000     33.3412    122.8961     24.2202    140.4525
  1757.2500     33.0956    122.5409     24.4783    138.3296
  1757.5000     32.9084    122.0392     24.7426    131.6558
  1757.7500     32.9162    121.4256     25.0311    125.5081
  1758.0000     33.2488    120.7523     25.3609    115.8350
  1758.2500     33.9683    120.0829     25.7390    110.4695
  1758.5000     35.0202    119.4837     26.1621    105.7188
  1758.7500     36.2275    119.0146     26.6150    105.0267
  1759.0000     37.3437    118.7215     27.0612    107.0730
  1759.2500     38.1435    118.6297     27.4327    109.7750
  1759.5000     38.4974    118.7422     27.6354    114.6305
  1759.7500     38.3919    119.0389     27.5809    117.9101
  1760.0000     37.9022    119.4802     27.2292    122.3471
  1760.2500     37.1476    120.0111     26.6146    124.7591
  1760.5000     36.2539    120.5668     25.8338    127.5711
  1760.7500     35.3258    121.0786     25.0088    129.3024
  1761.0000     34.4353    121.4802     24.2487    132.4682
  1761.2500     33.6317    121.7130     23.6298    134.8631
  1761.5000     32.9675    121.7307     23.1955    137.3295
  1761.7500     32.5185    121.5021     22.9682    137.0968
  1762.0000     32.3818    121.0110     22.9612    133.3369
  1762.2500     32.6554    120.2545     23.1840    129.3415
  1762.5000     33.4078    119.2395     23.6405    123.2044
  1762.7500     34.6497    117.9793     24.3259    119.6222
  1763.0000     36.3274    116.4911     25.2258    114.3109
  1763.2500     38.3531    114.7944     26.3206    110.0199
  1763.5000     40.6605    112.9122     27.5894    102.2487
  1763.7500     43.2425    110.8723     29.0079     97.0818
  1764.0000     46.1346    108.7093     30.5402     91.5052
  1764.2500     49.3490    106.4650     32.1317     89.7993
  1764.5000     52.8056    104.1880     33.7118     89.2325
  1764.7500     56.3116    101.9326     35.2088     89.0321
  1765.0000     59.6074     99.7556     36.5690     87.8006
  1765.2500     62.4485     97.7143     37.7658     86.3827
  1765.5000     64.6704     95.8634     38.7947     83.9758
  1765.7500     66.2024     94.2538     39.6632     82.6297
  1766.0000     67.0316     92.9315     40.3814     82.0181
  1766.2500     67.1452     91.9357     40.9489     83.1872
  1766.5000     66.4890     91.2979     41.3259     87.5863
  1766.7500     64.9758     91.0393     41.4002     91.5513
  1767.0000     62.5550     91.1672     40.9904     96.6805
  1767.2500     59.3059     91.6725     39.9230     98.4540
  1767.5000     55.4812     92.5270     38.1521     98.9833
  1767.7500     51.4492     93.6837     35.8226     99.4354
  1768.0000     47.5673     95.0784     33.2140    103.1275
  1768.2500     44.0725     96.6352     30.6138    108.1296
  1768.5000     41.0467     98.2728     28.2257    117.7974
  1768.7500     38.4554     99.9130     26.1489    124.0333
  1769.0000     36.2172    101.4871     24.4040    131.0459
  1769.2500     34.2593    102.9424     22.9685    133.9116
  1769.5000     32.5419    104.2451     21.8029    136.1444
  1769.7500     31.0508    105.3814     20.8650    136.6238
  1770.0000     29.7746    106.3549     20.1175    135.7056
  1770.2500     28.6867    107.1839     19.5329    133.5459
  1770.5000     27.7584    107.8969     19.0983    127.1646
  1770.7500     27.0007    108.5274     18.8159    120.6742
  1771.0000     26.4970    109.1095     18.6978    108.5844
  1771.2500     26.3715    109.6736     18.7573    100.4891
  1771.5000     26.6947    110.2426     18.9966     91.8400
  1771.7500     27.3894    110.8302     19.3924     89.7756
  1772.0000     28.2195    111.4395     19.8836     91.1879
  1772.2500     28.8942    112.0646     20.3715     92.7916
  1772.5000     29.2344    112.6927     20.7457     92.6890
  1772.7500     29.2903    113.3059     20.9299     91.0214
  1773.0000     29.3106    113.8830     20.9193     89.5750
  1773.2500     29.5811    114.3994     20.7799     91.4295
  1773.5000     30.2581    114.8269     20.6122     99.2364
  1773.7500     31.3128    115.1327     20.5086    106.5015
  1774.0000     32.5890    115.2795     20.5265    117.2259
  1774.2500     33.8981    115.2282     20.6820    122.8386
  1774.5000     35.0898    114.9418     20.9603    127.8995
  1774.7500     36.0944    114.3910     21.3356    128.8678
  1775.0000     36.9592    113.5614     21.7929    126.5544
  1775.2500     37.8673    112.4608     22.3406    122.5023
  1775.5000     39.1084    111.1241     23.0117    113.1969
  1775.7500     40.9797    109.6168     23.8499    105.5691
  1776.0000     43.6364    108.0351     24.8851     93.6579
  1776.2500     46.9607    106.5024     26.1032     86.1987
  1776.5000     50.5328    105.1617     27.4206     75.9618
  1776.7500     53.7227    104.1652     28.6719     69.2555
  1777.0000     55.8590    103.6602     29.6207     58.6337
  1777.2500     56.4314    103.7719     29.9999     51.6274
  1777.5000     55.2872    104.5862     29.5966     43.6874
  1777.7500     52.7147    106.1322     28.3630     41.7902
  1778.0000     49.2973    108.3719     26.4724     45.7398
  1778.2500     45.6055    111.1970     24.2436     52.8446
  1778.5000     41.9556    114.4392     21.9881     68.6982
  1778.7500     38.4068    117.8897     19.9078     81.3768
  1779.0000     34.9347    121.3274     18.0879    100.7780
  1779.2500     31.5917    124.5472     16.5398    112.2450
  1779.5000     28.5340    127.3836     15.2461    124.9462
  1779.7500     25.9427    129.7236     14.1872    130.0702
  1780.0000     23.9299    131.5089     13.3492    134.0952
  1780.2500     22.4957    132.7284     12.7231    135.5244
  1780.5000     21.5472    133.4060     12.2994    136.9314
  1780.7500     20.9548    133.5884     12.0645    137.5439
  1781.0000     20.6095    133.3353     12.0012    138.1804
  1781.2500     20.4633    132.7145     12.0910    138.3546
  1781.5000     20.5340    131.8002     12.3186    137.1368
  1781.7500     20.8720    130.6742     12.6729    134.4828
  1782.0000     21.5006    129.4273     13.1419    127.5333
  1782.2500     22.3583    128.1596     13.7027    121.7486
  1782.5000     23.2686    126.9794     14.3109    112.8785
  1782.7500     23.9682    125.9985     14.8959    106.9302
  1783.0000     24.2117    125.3266     15.3690     97.1071
  1783.2500     23.9152    125.0608     15.6451     89.9148
