~Version Information
 VERS.                      2.0: CWLS Log ASCII Standard - VERSION 2.0
 WRAP.                       NO: One line per depth step
 ~Well Information Block
 STRT.FT               115.0000: 
 STOP.FT              1768.2500: 
 STEP.FT                 0.2500: 
 NULL.                -999.2500: 
 COMP.          Petrogulf Corporation: COMPANY
 WELL.           Parsons 23-15V: WELL
 FLD.           Purgatorie River: FIELD
 LOC.           2095' FSL & 1817' FWL--API 05 071 07556 00----: LOCATION
 CNTY.               Las Animas: COUNTY
 SRVC.                         : SERVICE COMPANY
 DATE.          Fri Apr 19 16:58:41 2002: LOG DATE
 UWI.                          : UNIQUE WELL ID
 STAT.                       CO: STATE
 PROV.                         :Province
 ~Curve Information Block
 DEPT.FT            0 000 00 00: Depth
 SP.mV                         : DIL Spontaneous Potential
 RILD.Ohm-m                    : DIL Deep Resistivity
 RILM.Ohm-m                    : DIL Medium Resistivity
 RLL3.Ohm-m                    : DIL Shallow Resistivity
 GR.GAPI                       : Gamma Ray
 ~Parameter Information Block
 ~A  Depth        SP         RILD        RILM        RLL3         GR     
# ...
   451.0000   -266.3897     29.4001     31.0027     38.8599     93.4078
   451.2500   -266.2888     29.2000     30.8225     38.0113     87.8503
   451.5000   -266.2445     29.0182     30.6421     38.2082     82.4420
   451.7500   -266.2616     28.8624     30.4643     38.9262     79.4395
   452.0000   -266.3423     28.7363     30.2728     39.2293     80.0410
   452.2500   -266.4818     28.6483     30.0611     38.5248     83.7965
   452.5000   -266.6648     28.6144     29.8539     36.9414     89.1938
   452.7500   -266.8696     28.6544     29.7025     35.0776     94.7207
   453.0000   -267.0758     28.7835     29.6656     33.5568     99.4680
   453.2500   -267.2677     29.0056     29.7983     32.8460    102.9912
   453.5000   -267.4366     29.3089     30.1501     33.2716    104.8965
   453.7500   -267.5824     29.6609     30.7569     34.9402    104.6291
   454.0000   -267.7121     30.0032     31.6242     37.6487    101.6023
   454.2500   -267.8329     30.2541     32.7101     41.1022     95.7156
   454.5000   -267.9484     30.3264     33.9203     45.3242     87.9264
   454.7500   -268.0617     30.1561     35.1134     50.6961     79.9999
   455.0000   -268.1810     29.7222     36.1086     57.4307     73.3540
   455.2500   -268.3168     29.0436     36.6952     65.0093     68.3682
   455.5000   -268.4766     28.1601     36.6632     72.1474     65.1454
   455.7500   -268.6606     27.1168     35.8679     77.2227     64.6165
   456.0000   -268.8647     25.9610     34.2952     78.7728     68.2822
   456.2500   -269.0833     24.7421     32.0795     75.9102     76.7395
   456.5000   -269.3122     23.5093     29.4583     68.6808     88.7549
   456.7500   -269.5460     22.3061     26.7016     58.2267    101.9493
   457.0000   -269.7742     21.1634     24.0492     46.5139    114.3353
   457.2500   -269.9823     20.0973     21.6695     35.6391    125.2365
   457.5000   -270.1574     19.1117     19.6467     27.0760    134.8312
   457.7500   -270.2932     18.2059     17.9926     21.2994    142.9147
   458.0000   -270.3885     17.3818     16.6735     17.9419    148.4027
   458.2500   -270.4431     16.6453     15.6372     16.2488    150.2840
   458.5000   -270.4566     16.0039     14.8329     15.4851    148.9615
   458.7500   -270.4318     15.4632     14.2206     15.1505    146.3941
   459.0000   -270.3777     15.0247     13.7723     15.0263    144.8652
   459.2500   -270.3068     14.6863     13.4682     15.0845    145.6918
   459.5000   -270.2303     14.4417     13.2948     15.3144    148.8628
   459.7500   -270.1579     14.2802     13.2430     15.6216    153.2956
   460.0000   -270.1008     14.1869     13.3077     15.9099    157.2659
   460.2500   -270.0744     14.1438     13.4844     16.2338    159.0923
   460.5000   -270.0969     14.1312     13.7629     16.8138    157.7355
   460.7500   -270.1844     14.1310     14.1194     17.8948    152.8504
   461.0000   -270.3437     14.1291     14.5083     19.6069    144.7264
   461.2500   -270.5656     14.1191     14.8619     21.8961    134.7124
   461.5000   -270.8295     14.1032     15.1027     24.4357    125.5002
   461.7500   -271.1125     14.0907     15.1691     26.5376    120.1060
   462.0000   -271.3942     14.0927     15.0433     27.3028    120.0079
   462.2500   -271.6515     14.1165     14.7611     26.1399    124.3326
   462.5000   -271.8589     14.1620     14.3968     23.2857    130.8161
   462.7500   -271.9992     14.2215     14.0338     19.7608    137.1403
   463.0000   -272.0741     14.2824     13.7382     16.7210    141.6128
   463.2500   -272.0999     14.3298     13.5476     14.8101    143.5800
   463.5000   -272.0929     14.3490     13.4720     14.0329    143.6422
   463.7500   -272.0632     14.3301     13.5003     14.0634    143.0229
   464.0000   -272.0174     14.2727     13.6089     14.5852    142.3548
   464.2500   -271.9622     14.1882     13.7685     15.4182    141.2283
   464.5000   -271.9024     14.0987     13.9491     16.4594    139.1268
   464.7500   -271.8399     14.0299     14.1249     17.5742    136.5653
   465.0000   -271.7783     14.0031     14.2793     18.5482    134.8609
   465.2500   -271.7238     14.0296     14.4083     19.1375    134.9510
   465.5000   -271.6804     14.1077     14.5202     19.1775    136.8616
   465.7500   -271.6433     14.2229     14.6311     18.6829    139.9134
   466.0000   -271.5988     14.3510     14.7554     17.8809    142.8032
   466.2500   -271.5301     14.4640     14.8966     17.1531    143.8947
   466.5000   -271.4247     14.5377     15.0404     16.8868    142.2352
   466.7500   -271.2787     14.5584     15.1533     17.2851    138.3816
   467.0000   -271.0959     14.5237     15.1905     18.2352    134.0260
   467.2500   -270.8832     14.4413     15.1122     19.3183    130.7658
   467.5000   -270.6483     14.3265     14.9037     19.9799    129.2469
   467.7500   -270.4016     14.2005     14.5867     19.8029    129.5276
   468.0000   -270.1564     14.0864     14.2131     18.7482    132.0002
   468.2500   -269.9241     14.0035     13.8450     17.1920    137.2074
   468.5000   -269.7092     13.9621     13.5357     15.6981    144.4349
   468.7500   -269.5110     13.9611     13.3185     14.6957    151.1678
   469.0000   -269.3297     13.9896     13.2061     14.3110    154.5969
   469.2500   -269.1717     14.0320     13.1959     14.4159    153.6390
   469.5000   -269.0510     14.0734     13.2772     14.7738    149.4188
   469.7500   -268.9828     14.1041     13.4376     15.1785    143.9493
   470.0000   -268.9736     14.1209     13.6681     15.5626    138.4624
   470.2500   -269.0136     14.1240     13.9619     16.0577    132.8592
   470.5000   -269.0814     14.1151     14.3071     16.9871    126.2964
   470.7500   -269.1536     14.0954     14.6763     18.8023    118.0407
   471.0000   -269.2132     14.0670     15.0189     21.9139    108.2846
   471.2500   -269.2491     14.0332     15.2675     26.2858     98.7442
   471.5000   -269.2548     13.9988     15.3596     30.9424     92.2830
   471.7500   -269.2284     13.9691     15.2672     34.0473     91.4589
   472.0000   -269.1702     13.9489     15.0120     33.9830     97.0511
   472.2500   -269.0788     13.9413     14.6560     30.6455    107.5542
   472.5000   -268.9520     13.9468     14.2743     25.5692    119.8604
   472.7500   -268.7937     13.9637     13.9296     20.7393    130.8361
   473.0000   -268.6158     13.9892     13.6572     17.3785    138.8262
   473.2500   -268.4318     14.0206     13.4647     15.6777    143.9893
   473.5000   -268.2528     14.0576     13.3408     15.2098    147.3731
   473.7500   -268.0898     14.1036     13.2684     15.3811    149.8564
   474.0000   -267.9549     14.1659     13.2370     15.6860    151.8479
   474.2500   -267.8546     14.2547     13.2494     15.8312    153.5052
   474.5000   -267.7812     14.3796     13.3219     15.7810    154.8541
   474.7500   -267.7122     14.5465     13.4794     15.7166    155.7110
   475.0000   -267.6213     14.7555     13.7470     15.9471    155.5963
   475.2500   -267.4895     15.0018     14.1417     16.8466    153.8087
   475.5000   -267.3088     15.2789     14.6631     18.8324    149.8299
   475.7500   -267.0803     15.5843     15.2847     22.2776    143.9491
   476.0000   -266.8097     15.9240     15.9497     27.2432    137.4431
   476.2500   -266.5070     16.3142     16.5803     33.0862    131.9913
   476.5000   -266.1870     16.7782     17.1052     38.2677    128.8271
   476.7500   -265.8667     17.3407     17.4968     40.8255    128.2291
   477.0000   -265.5612     18.0198     17.7930     39.5524    129.5034
   477.2500   -265.2795     18.8221     18.0872     35.0295    131.5161
   477.5000   -265.0274     19.7412     18.4952     29.4542    133.4365
   477.7500   -264.8131     20.7569     19.1220     25.3428    134.7707
   478.0000   -264.6520     21.8353     20.0412     24.3421    134.5170
   478.2500   -264.5646     22.9277     21.2835     27.0319    130.9019
   478.5000   -264.5717     23.9764     22.8284     33.4104    122.6665
   478.7500   -264.6846     24.9293     24.6035     43.3063    110.4528
