~Version Information
VERS.                      2.0: CWLS Log ASCII Standard - VERSION 2.0
WRAP.                       NO: One line per depth step
~Well Information Block
STRT.FT               -11.0000: 
STOP.FT              2634.5000: 
STEP.FT                 0.2500: 
NULL.                -999.2500: 
COMP.          Evergreen Operating Corporation: COMPANY
WELL.          Sand PebbleS 13-33: WELL
FLD.           Purgatorie River: FIELD
LOC.           1883' FSL & 63' FWL--: LOCATION
PROV.                 Colorado: PROVINCE
CNTY.               Las Animas: COUNTRY
SRVC.          Patterson Wireline: SERVICE COMPANY
DATE.          Fri Mar 18 09:37:20 2005: LOG DATE
UWI.          005 071 08224 : UNIQUE WELL ID
~Curve Information Block
DEPT.FT            0 000 00 00: Depth
CCL.                          : Casing Collar Locator
TT3.usec                      : CBL 3' Travel Time
AMP3.mV                       : CBL 3' Amplitude
GR.GAPI                       : Gamma Ray
~Parameter Information Block
~A  Depth       CCL         TT3         AMP3         GR     
   -11.0000   -999.2500   -999.2500   -999.2500   -999.2500
   -10.7500   -999.2500   -999.2500   -999.2500     64.3553
   -10.5000   -999.2500   -999.2500   -999.2500     69.8371
   -10.2500   -999.2500   -999.2500   -999.2500     74.4134
   -10.0000   -999.2500   -999.2500   -999.2500     77.2732
    -9.7500   -999.2500   -999.2500   -999.2500     78.5214
    -9.5000   -999.2500   -999.2500   -999.2500     79.0545
    -9.2500   -999.2500   -999.2500   -999.2500     79.6608
    -9.0000   -999.2500   -999.2500   -999.2500     80.1351
    -8.7500   -999.2500   -999.2500   -999.2500     79.6321
    -8.5000   -999.2500   -999.2500   -999.2500     77.8708
    -8.2500   -999.2500   -999.2500   -999.2500     75.5745
    -8.0000   -999.2500   -999.2500   -999.2500     73.6516
    -7.7500   -999.2500   -999.2500   -999.2500     72.3157
    -7.5000   -999.2500   -999.2500   -999.2500     71.2935
    -7.2500   -999.2500   -999.2500   -999.2500     70.5888
    -7.0000   -999.2500   -999.2500   -999.2500     70.4584
    -6.7500   -999.2500   -999.2500   -999.2500     70.7036
    -6.5000   -999.2500   -999.2500   -999.2500     70.6895
    -6.2500   -999.2500   -999.2500   -999.2500     70.1376
    -6.0000   -999.2500   -999.2500   -999.2500     69.1817
    -5.7500   -999.2500    834.0000      1.0746     67.5346
    -5.5000   -999.2500    834.0000      1.0823     64.5151
    -5.2500   -999.2500    834.0000      1.0802     60.2281
    -5.0000   -999.2500    834.0000      1.0656     56.0008
    -4.7500   -999.2500    834.0000      1.0447     53.2650
    -4.5000   -999.2500    834.0000      1.0285     52.4552
    -4.2500   -999.2500    834.0000      1.0261     53.0911
    -4.0000   -999.2500    834.0000      1.0392     54.3527
    -3.7500   -999.2500    834.0000      1.0615     55.3615
    -3.5000   -999.2500    834.0000      1.0804     55.5428
    -3.2500   -999.2500    834.0000      1.0838     55.2068
    -3.0000   -999.2500    834.0000      1.0680     55.4772
    -2.7500   -999.2500    834.0000      1.0409     57.1929
    -2.5000   -999.2500    834.0000      1.0180     59.9302
    -2.2500   -999.2500    834.0000      1.0118     62.4069
    -2.0000   -999.2500    834.0000      1.0231     63.8093
    -1.7500   -999.2500    834.0000      1.0397     64.3987
    -1.5000   -999.2500    834.0000      1.0467     64.8083
    -1.2500   -999.2500    834.0000      1.0395     65.1988
    -1.0000   -999.2500    834.0000      1.0280     65.2491
    -0.7500   -999.2500    834.0000      1.0277     64.4863
    -0.5000     -2.0000    834.0000      1.0444     62.2767
    -0.2500      2.0000    834.0000      1.0814     51.7151
     0.0000      2.0000    834.0000      1.0732     44.6167
     0.2500      0.0000    834.0000      1.0504     38.1912
     0.5000      2.0000    834.0000      1.0317     33.3497
     0.7500      0.0000    834.0000      1.0313     30.4114
     1.0000      2.0000    834.0000      1.0463     29.8145
     1.2500      0.0000    834.0000      1.0593     32.4513
     1.5000      0.0000    834.0000      1.0551     39.1716
     1.7500      2.0000    834.0000      1.0352     49.9115
     2.0000     -2.0000    834.0000      1.0153     63.0103
     2.2500     -2.0000    834.0000      1.0092     75.2552
     2.5000      0.0000    834.0000      1.0161     83.1779
     2.7500      0.0000    834.0000      1.0243     85.2041
     3.0000      0.0000    834.0000      1.0246     82.9086
     3.2500      0.0000    834.0000      1.0188     79.9346
     3.5000      0.0000    834.0000      1.0143     79.1968
     3.7500      0.0000    834.0000      1.0141     80.6431
     4.0000      0.0000    834.0000      1.0147     81.8176
     4.2500      0.0000    834.0000      1.0148     80.9249
     4.5000      0.0000    834.0000      1.0179     78.7280
     4.7500      0.0000    834.0000      1.0242     76.8544
     5.0000      0.0000    834.0000      1.0268     75.3123
     5.2500      0.0000    834.0000      1.0214     72.9570
     5.5000     -2.0000    834.0000      1.0150     69.6931
     5.7500     -2.0000    834.0000      1.0192     66.8052
     6.0000      0.0000    834.0000      1.0346     65.3052
     6.2500      0.0000    834.0000      1.0481     65.1024
     6.5000      0.0000    834.0000      1.0461     65.7835
     6.7500      0.0000    834.0000      1.0296     67.0400
     7.0000      0.0000    834.0000      1.0141     67.9326
     7.2500      0.0000    834.0000      1.0144     66.8699
     7.5000      0.0000    834.0000      1.0314     63.2698
     7.7500      0.0000    834.0000      1.0533     58.6147
     8.0000      0.0000    834.0000      1.0695     54.9962
     8.2500      0.0000    834.0000      1.0800     53.1821
     8.5000      0.0000    834.0000      1.0915     52.8699
     8.7500      0.0000    834.0000      1.1076     54.0729
     9.0000      0.0000    834.0000      1.1251     57.0199
     9.2500      0.0000    834.0000      1.1379     61.0277
     9.5000      0.0000    834.0000      1.1404     64.6219
     9.7500      0.0000    834.0000      1.1282     66.9159
    10.0000      0.0000    834.0000      1.0991     68.1359
    10.2500      0.0000    834.0000      1.0603     68.6850
    10.5000      0.0000    834.0000      1.0282     68.4003
    10.7500      0.0000    834.0000      1.0174     67.0525
    11.0000      0.0000    834.0000      1.0276     65.0484
    11.2500      0.0000    833.9615      1.0486     63.1499
    11.5000      0.0000    833.7111      1.0804     61.6293
    11.7500      0.0000    832.4393      1.1701     60.1119
    12.0000      0.0000    827.4098      1.4825     58.3535
    12.2500      0.0000    811.9207      2.4240     56.8550
    12.5000      0.0000    774.7722      4.7141     56.3463
    12.7500      0.0000    705.3888      9.1437     56.7798
    13.0000      0.0000    604.4710     15.9274     57.2611
    13.2500      0.0000    490.1620     24.1525     57.0544
    13.5000     -2.0000    389.3272     32.0749     56.4285
    13.7500     -2.0000    320.0438     38.1889     56.4689
    14.0000      0.0000    282.9430     42.0488     58.0868
    14.2500      0.0000    267.4310     44.1431     61.0559
    14.5000      0.0000    262.3380     45.2163     63.9881
    14.7500      0.0000    261.0056     45.7907     65.5208
    15.0000      0.0000    260.7250     46.1121     65.7251
    15.2500      0.0000    260.6906     46.2877     66.3049
    15.5000      0.0000    260.7164     46.3851     69.5045
    15.7500      0.0000    260.7494     46.4547     76.8179
    16.0000      0.0000    260.7823     46.5225     88.0497
    16.2500      0.0000    260.8131     46.5963    100.8855
    16.5000      0.0000    260.8385     46.6831    111.6389
    16.7500      0.0000    260.8508     46.7955    117.4173
    17.0000      0.0000    260.8456     46.9398    118.1927
    17.2500      0.0000    260.8277     47.1006    116.6336
    17.5000      0.0000    260.8082     47.2477    115.6092
    17.7500      0.0000    260.7960     47.3568    115.8995
    18.0000      0.0000    260.7957     47.4223    116.3477
    18.2500      0.0000    260.8098     47.4577    115.6498
    18.5000      0.0000    260.8359     47.4892    113.5813
    18.7500      0.0000    260.8632     47.5415    111.0460
    19.0000      0.0000    260.8743     47.6211    109.5202
    19.2500      0.0000    260.8564     47.7193    110.0573
    19.5000      0.0000    260.8127     47.8315    112.2134
    19.7500      0.0000    260.7627     47.9642    114.3125
    20.0000      0.0000    260.7292     48.1177    115.2488
    20.2500      0.0000    260.7232     48.2728    115.5199
    20.5000      0.0000    260.7397     48.4034    115.8428
    20.7500      0.0000    260.7645     48.4917    115.2578
    21.0000      0.0000    260.7834     48.5282    111.4098
    21.2500      0.0000    260.7862     48.5083    102.7424
    21.5000      0.0000    260.7697     48.4421     90.2239
    21.7500      0.0000    260.7411     48.3608     77.0739
    22.0000      0.0000    260.7169     48.3015     66.7746
    22.2500      0.0000    260.7140     48.2852     60.9384
