~Version Information
 VERS.                                  2.0 : CWLS LAS VERSION
 WRAP.                                   NO : WRAPING MODE
 SWARE .                 MController 2.5.0J : SOFTWARE VERSION
~Well Information
 WELL.                    Oink-Oink 14-36Tr : WELL
 COMP.    Pioneer Natural Resources USA Inc : COMPANY
 FLD.                      Purgatoire River : FIELD
 LOC.                SW/SW Sec 36 T32S R67W : LOCATION
 DATE.                         6/09-10/2005 : DATE(S) LOGGED
 SRVC.       Blanco Geological Services LLC : SERVICE COMPANY
 STAT.                                   CO : STATE
 CNTY.                           Las Animas : COUNTY
 CTRY.                                  USA : COUNTRY
 API.                       05-071-08393-00 : API NUMBER
 STRT.FT                             231.00 : START DEPTH
 STOP.FT                            1924.00 : STOP DEPTH
 STEP.FT                               1.00 : DEPTH INCREMENT
 NULL.                                -9999 : NULL VALUE
~Curve information
 DEPTH.FT                                   :
 ROP.MIN/FT                                 :
 GAS.UNITS                                  :
~ASCII Log data
# ...
      1431.0         0.20        281.5 
      1432.0         0.28        274.3 
      1433.0         0.23        268.5 
      1434.0         0.23        266.3 
      1435.0         0.27        266.8 
      1436.0         3.88       1744.2 
      1437.0         0.53       2594.4 
      1438.0         0.33       2497.6 
      1439.0         0.30       2046.1 
      1440.0         0.37       1545.0 
      1441.0         0.32       1202.8 
      1442.0         0.27        974.4 
      1443.0         0.23        823.3 
      1444.0         0.20        713.7 
      1445.0         0.10        661.7 
      1446.0         0.17        598.2 
      1447.0         0.17        532.1 
      1448.0         0.07        514.8 
      1449.0         0.20        459.8 
      1450.0         0.20        440.0 
      1451.0         0.23        440.0 
      1452.0         0.20        440.0 
      1453.0         0.23        298.1 
      1454.0         0.27        282.2 
      1455.0         0.23        272.8 
      1456.0         0.27        269.3 
      1457.0         0.28        269.8 
      1458.0         0.23        271.2 
      1459.0         0.27        274.0 
      1460.0         0.27        278.4 
      1461.0         0.23        284.2 
      1462.0         0.30        291.6 
      1463.0         0.27        295.0 
      1464.0         0.27        295.0 
      1465.0         0.33        291.0 
      1466.0         3.55       1237.8 
      1467.0         0.57       2012.8 
      1468.0         0.37       2362.8 
      1469.0         0.35       2199.9 
      1470.0         0.33       1777.2 
      1471.0         0.43       1282.9 
      1472.0         0.37        964.6 
      1473.0         0.57        659.4 
      1474.0         0.47        477.1 
      1475.0         0.23        450.6 
      1476.0         0.23        440.0 
      1477.0         0.30        263.8 
      1478.0         0.32        240.2 
      1479.0         0.33        237.4 
      1480.0         0.30        254.4 
      1481.0         0.23        273.6 
      1482.0         0.20        288.9 
      1483.0         0.10        294.1 
      1484.0         0.13        299.8 
      1485.0         0.17        304.0 
      1486.0         0.30        306.9 
      1487.0         0.27        301.7 
      1488.0         0.20        297.0 
      1489.0         0.27        285.6 
      1490.0         0.30        272.7 
      1491.0         0.20        270.7 
      1492.0         0.18        272.3 
      1493.0         0.13        273.4 
      1494.0         0.23        277.3 
      1495.0         0.37        280.8 
      1496.0         3.58       1385.6 
      1497.0         0.50       2108.0 
      1498.0         0.33       2326.8 
      1499.0         0.63       1705.3 
      1500.0         0.33       1368.6 
      1501.0         0.33       1096.8 
      1502.0         0.32        875.3 
      1503.0         0.27        700.9 
      1504.0         0.27        561.9 
      1505.0         0.27        465.7 
      1506.0         0.30        448.7 
      1507.0         0.27        317.6 
      1508.0         0.33        296.8 
      1509.0         0.27        287.4 
      1510.0         0.30        283.8 
      1511.0         0.23        284.6 
      1512.0         0.23        286.9 
      1513.0         0.30        290.3 
      1514.0         0.25        291.0 
      1515.0         0.30        289.6 
      1516.0         0.27        287.0 
      1517.0         0.27        285.1 
      1518.0         0.23        282.6 
      1519.0         0.23        279.1 
      1520.0         0.27        274.1 
      1521.0         0.27        269.2 
      1522.0         0.30        264.2 
      1523.0         0.23        262.4 
      1524.0         0.23        260.6 
      1525.0         0.33        258.1 
      1526.0         4.90       2876.8 
      1527.0         0.63       4106.9 
      1528.0         0.47       4713.4 
      1529.0         0.37       4087.6 
      1530.0         0.33       2911.5 
      1531.0         0.35       1914.6 
      1532.0         0.30       1340.8 
      1533.0         0.30        971.8 
      1534.0         0.27        763.1 
      1535.0         0.27        609.0 
      1536.0         0.27        493.5 
      1537.0         0.23        485.3 
      1538.0         0.07        465.0 
      1539.0         0.27        440.0 
      1540.0         0.13        306.6 
      1541.0         0.10        299.7 
      1542.0         0.13        291.1 
      1543.0         0.23        281.9 
      1544.0         0.27        277.0 
      1545.0         0.48        271.7 
      1546.0         0.40        274.1 
      1547.0         0.87        286.2 
      1548.0         0.30        276.4 
      1549.0         0.30        262.8 
      1550.0         0.13        248.1 
      1551.0         0.20        222.8 
      1552.0         0.13        210.9 
      1553.0         0.37        214.6 
      1554.0         0.30        239.2 
      1555.0         0.23        256.1 
      1556.0         2.62        253.6 
      1557.0         0.63        944.6 
      1558.0         0.62       1594.0 
      1559.0         0.37       1633.6 
      1560.0         0.37       1395.1 
      1561.0         0.30       1155.3 
      1562.0         0.17       1013.3 
      1563.0         0.20        849.4 
      1564.0         0.33        635.5 
      1565.0         0.30        543.2 
      1566.0         0.30        471.6 
      1567.0         0.27        470.9 
      1568.0         0.23        440.0 
      1569.0         0.25        314.7 
      1570.0         0.27        294.3 
      1571.0         0.23        281.9 
      1572.0         0.23        275.7 
      1573.0         0.20        276.1 
      1574.0         0.23        279.0 
      1575.0         0.23        281.5 
      1576.0         0.23        282.3 
      1577.0         0.20        281.9 
      1578.0         0.20        281.1 
      1579.0         0.23        278.6 
      1580.0         0.20        275.2 
      1581.0         0.20        271.0 
      1582.0         0.23        266.9 
      1583.0         0.23        265.1 
      1584.0         0.25        263.3 
      1585.0         0.20        262.2 
      1586.0         2.13        174.9 
      1587.0         0.53        354.9 
      1588.0         0.42        939.4 
      1589.0         0.27       1248.6 
      1590.0         0.47       1467.1 
      1591.0         0.27       1371.2 
      1592.0         0.23       1224.0 
      1593.0         0.13       1124.9 
      1594.0         0.17       1009.7 
      1595.0         0.20        876.6 
      1596.0         0.17        796.8 
      1597.0         0.13        721.2 
      1598.0         0.13        654.1 
      1599.0         0.17        499.1 
      1600.0         0.13        537.0 
      1601.0         0.13        491.9 
      1602.0         0.20        478.8 
      1603.0         0.20        440.0 
      1604.0         0.22        440.0 
      1605.0         0.23        300.4 
      1606.0         0.20        283.6 
      1607.0         0.37        266.4 
      1608.0         0.30        267.8 
      1609.0         0.30        273.2 
      1610.0         0.27        274.8 
      1611.0         0.20        274.2 
      1612.0         0.20        272.5 
      1613.0         0.20        270.3 
      1614.0         0.33        266.6 
      1615.0         0.27        265.1 
      1616.0         1.98        159.5 
      1617.0         0.60        290.0 
      1618.0         0.30        458.8 
      1619.0         0.57       1260.0 
      1620.0         0.38       1331.7 
      1621.0         0.43       1157.3 
      1622.0         0.40        905.7 
      1623.0         0.23        766.7 
      1624.0         0.20        666.9 
      1625.0         0.23        568.1 
      1626.0         0.23        497.4 
      1627.0         0.20        441.2 
      1628.0         0.20        453.6 
      1629.0         0.20        440.0 
      1630.0         0.20        322.2 
