~Version Information
VERS.                      2.0: CWLS Log ASCII Standard - VERSION 2.0
WRAP.                       NO: One line per depth step
~Well Information Block
STRT.FT               425.0000: 
STOP.FT              2461.0000: 
STEP.FT                 0.1000: 
NULL.                -999.2500: 
COMP.          Evergreen Operating Corporation: COMPANY
WELL.              Nomad 32-10: WELL
FLD.           Purgatorie River: FIELD
LOC.           2281' FNL & 1585' FEL: LOCATION
PROV.                 Colorado: PROVINCE
CNTY.               Las Animas: COUNTRY
SRVC.                Patterson: SERVICE COMPANY
DATE.          Thu Aug 12 11:13:52 2004: LOG DATE
UWI.           05 071 08127 00: UNIQUE WELL ID
~Curve Information Block
DEPT.FT            0 000 00 00: Depth
DCAL.in                       : CDL Caliper
RHOB.g/cc                     : CDL Bulk Density
RHOC.g/cc                     : CDL Density Correction
DPOR.pu                       : CDL Density Porosity
NPOR.pu                       : Neutron Porosity
GR.GAPI                       : Gamma Ray
~Parameter Information Block
~A  Depth       DCAL        RHOB        RHOC        DPOR        NPOR         GR     
# ...
  1625.0000      8.1949      2.4551      0.0316     11.8110     26.9804    148.4422
  1625.1000      8.1949      2.4844      0.0497     10.0383     27.1689    152.4702
  1625.2000      8.1949      2.5003      0.0839      9.0706     27.0431    156.6768
  1625.3000      8.1987      2.5036      0.0557      8.8707     26.8535    154.9966
  1625.4000      8.1987      2.5038      0.0521      8.8622     27.2118    148.3166
  1625.5000      8.2240      2.5068      0.0418      8.6809     28.2396    138.8944
  1625.6000      8.2240      2.5171      0.0264      8.0537     29.3302    127.7367
  1625.7000      8.2240      2.5323      0.0397      7.1346     29.8223    119.8572
  1625.8000      8.2499      2.5374      0.0651      6.8221     29.5349    119.3075
  1625.9000      8.2499      2.5212      0.0787      7.8064     28.9819    122.8585
  1626.0000      8.2671      2.4841      0.0759     10.0521     28.7304    127.2702
  1626.1000      8.2671      2.4381     -0.0172     12.8439     28.7179    132.4857
  1626.2000      8.2671      2.4007     -0.0096     15.1074     28.8448    136.7709
  1626.3000      8.2586      2.3758      0.0152     16.6207     29.0281    139.4113
  1626.4000      8.2586      2.3569      0.0022     17.7616     28.9693    138.3139
  1626.5000      8.3193      2.3394      0.0508     18.8227     28.5505    131.5564
  1626.6000      8.3193      2.3119      0.0202     20.4922     27.6723    121.2884
  1626.7000      8.3193      2.2711     -0.0086     22.9653     26.4951    110.6272
  1626.8000      8.3573      2.2352     -0.0143     25.1415     25.4275    102.6119
  1626.9000      8.3573      2.2233      0.0388     25.8636     24.2950     96.4241
  1627.0000      8.3508      2.2401      0.0365     24.8423     22.7381     89.3818
  1627.1000      8.3508      2.2813      0.0837     22.3458     20.8805     84.1107
  1627.2000      8.3508      2.3350      0.1247     19.0933     19.3845     80.7602
  1627.3000      8.2651      2.3799      0.2038     16.3670     18.7547     79.2236
  1627.4000      8.2651      2.4015      0.1409     15.0615     18.5541     81.0836
  1627.5000      8.1350      2.4049      0.1217     14.8520     18.0534     83.1598
  1627.6000      8.1350      2.3990      0.1044     15.2127     17.1025     81.9518
  1627.7000      8.1350      2.3967      0.0433     15.3543     16.3434     77.5548
  1627.8000      8.0565      2.4207     -0.0353     13.8964     16.4493     73.1645
  1627.9000      8.0565      2.4692      0.0178     10.9587     17.0558     71.9483
  1628.0000      8.0513      2.5100     -0.0324      8.4843     17.5681     74.8422
  1628.1000      8.0513      2.5223      0.0211      7.7382     17.9748     78.4678
  1628.2000      8.0513      2.5005      0.0079      9.0618     18.6858     78.6539
  1628.3000      8.0532      2.4407     -0.0030     12.6874     20.3157     77.7515
  1628.4000      8.0532      2.3531     -0.0676     17.9910     22.5331     78.5780
  1628.5000      8.0756      2.2728     -0.1328     22.8582     23.9783     79.1754
  1628.6000      8.0756      2.2257     -0.1096     25.7164     24.1453     79.1944
  1628.7000      8.0756      2.2017     -0.0351     27.1671     23.9523     82.1874
  1628.8000      8.0639      2.1878     -0.0192     28.0147     24.1880     89.1185
  1628.9000      8.0639      2.1906      0.0331     27.8421     24.5320     95.7152
  1629.0000      8.0484      2.2179      0.0923     26.1892     24.2958     98.3250
  1629.1000      8.0484      2.2639      0.1883     23.3980     23.7081     98.7229
  1629.2000      8.0484      2.3154      0.2128     20.2815     23.4064     99.9961
  1629.3000      8.0490      2.3640      0.2074     17.3341     23.1958    102.2389
  1629.4000      8.0490      2.4103      0.1792     14.5293     22.7877    104.6641
  1629.5000      8.0530      2.4545      0.1669     11.8467     22.0635    107.0122
  1629.6000      8.0530      2.4905      0.1605      9.6666     20.6668    110.8859
  1629.7000      8.0530      2.5131      0.1204      8.2969     19.1546    115.7177
  1629.8000      8.0921      2.5221      0.0925      7.7509     18.6527    117.9981
  1629.9000      8.0921      2.5169      0.0454      8.0647     19.0135    115.9320
  1630.0000      8.0921      2.5030      0.0388      8.9105     19.1542    109.5703
  1630.1000      8.0921      2.4920      0.0188      9.5758     19.0239    102.6019
  1630.2000      8.0921      2.4875      0.0440      9.8464     19.1965     99.3955
  1630.3000      8.1067      2.4893     -0.0176      9.7385     19.5882     99.6495
  1630.4000      8.1067      2.4998      0.0529      9.1054     19.8388    101.5230
  1630.5000      8.1127      2.5141      0.0228      8.2381     19.8919    104.1666
  1630.6000      8.1127      2.5286      0.0327      7.3584     19.8243    108.2220
  1630.7000      8.1127      2.5389      0.0644      6.7362     19.6578    110.8962
  1630.8000      8.1143      2.5368      0.0867      6.8633     19.5181    108.3440
  1630.9000      8.1143      2.5272      0.0619      7.4432     19.6310    103.8446
  1631.0000      8.1065      2.5236      0.0666      7.6612     20.0350    103.2759
  1631.1000      8.1065      2.5211      0.0704      7.8145     20.5698    105.5184
  1631.2000      8.1065      2.5062      0.0632      8.7181     21.1589    108.6701
  1631.3000      8.0895      2.4895      0.0146      9.7268     21.8580    113.8590
  1631.4000      8.0895      2.4904      0.0681      9.6749     22.4754    120.3547
  1631.5000      8.1001      2.5008      0.0707      9.0450     22.5602    125.0497
  1631.6000      8.1001      2.5072      0.0569      8.6518     22.3136    125.1677
  1631.7000      8.1001      2.5156      0.0494      8.1446     22.4099    122.6031
  1631.8000      8.1135      2.5324      0.0698      7.1291     22.5491    125.7317
  1631.9000      8.1135      2.5492      0.0864      6.1104     22.5368    133.7337
  1632.0000      8.1098      2.5558      0.0929      5.7100     23.2025    134.6704
  1632.1000      8.1098      2.5542      0.0781      5.8050     24.2705    128.2581
  1632.2000      8.1098      2.5516      0.0703      5.9613     24.4858    122.9183
  1632.3000      8.1390      2.5504      0.0634      6.0357     23.4688    123.6323
  1632.4000      8.1390      2.5538      0.0494      5.8322     21.6436    128.8060
  1632.5000      8.1505      2.5639      0.0869      5.2196     20.2003    130.1999
  1632.6000      8.1505      2.5736      0.0935      4.6290     20.0777    126.3401
  1632.7000      8.1505      2.5722      0.0784      4.7179     20.7984    125.3090
  1632.8000      8.1398      2.5547      0.0695      5.7738     21.3718    130.0754
  1632.9000      8.1398      2.5333      0.0417      7.0736     21.4508    136.5813
  1633.0000      8.1455      2.5243      0.0581      7.6204     21.2656    139.3009
  1633.1000      8.1455      2.5278      0.0231      7.4037     20.9566    132.1593
  1633.2000      8.1455      2.5352      0.0581      6.9591     20.5128    117.5526
  1633.3000      8.1395      2.5373      0.0691      6.8311     20.0299    105.4315
  1633.4000      8.1395      2.5373      0.0285      6.8278     19.8545    103.6144
  1633.5000      8.1423      2.5418      0.0897      6.5553     20.2506    109.8094
  1633.6000      8.1423      2.5426      0.0854      6.5092     20.7569    112.2448
  1633.7000      8.1423      2.5371      0.0692      6.8420     20.6927    106.9987
  1633.8000      8.1498      2.5399      0.0592      6.6728     20.2194    101.1073
  1633.9000      8.1498      2.5593      0.0925      5.4994     19.7909     98.5695
  1634.0000      8.1481      2.5793      0.1086      4.2824     19.6802    100.0263
  1634.1000      8.1481      2.5783      0.1225      4.3483     20.1423    104.4609
  1634.2000      8.1481      2.5552      0.0696      5.7473     20.9287    107.8571
  1634.3000      8.1478      2.5297      0.0462      7.2910     21.6146    109.4775
  1634.4000      8.1478      2.5167      0.0342      8.0776     22.1600    110.4803
  1634.5000      8.1424      2.5153      0.0669      8.1638     22.4857    109.5594
