~Version Information
VERS.                      2.0: CWLS Log ASCII Standard - VERSION 2.0
WRAP.                       NO: One line per depth step
~Well Information Block
STRT.FT               750.6000: 
STOP.FT              2495.5000: 
STEP.FT                 0.1000: 
NULL.                -999.2500: 
COMP.                         : COMPANY
WELL.                         : WELL
FLD.                          : FIELD
LOC.                          : LOCATION
CNTY.                         : COUNTY
SRVC.                         : SERVICE COMPANY
DATE.          Sat Feb 28 14:05:57 2004: LOG DATE
UWI.                          : UNIQUE WELL ID
STAT.                         : STATE
~Curve Information Block
DEPT.FT            0 000 00 00: Depth
DCAL.in                       : CDL Caliper
RHOB.g/cc                     : CDL Bulk Density
RHOC.g/cc                     : CDL Density Correction
DPOR.pu                       : CDL Density Porosity
GR.GAPI                       : Gamma Ray
NPOR.pu                       : Neutron Porosity
~Parameter Information Block
~A  Depth       DCAL        RHOB        RHOC        DPOR         GR         NPOR    
# ...
  1806.6000      8.0364      2.5608      0.1025      5.4034     73.4910     27.0486
  1806.7000      8.0364      2.5636     -0.0027      5.2357     86.4032     26.7457
  1806.8000      8.0456      2.5881      0.0911      3.7536     99.5906     26.8314
  1806.9000      8.0456      2.6037      0.1913      2.8054    108.0091     27.1739
  1807.0000      8.0547      2.5931      0.0611      3.4466    114.4249     27.4221
  1807.1000      8.0547      2.5799      0.0929      4.2494    127.5618     27.8636
  1807.2000      8.0547      2.5738      0.0728      4.6191    143.2332     28.3818
  1807.3000      8.0614      2.5733      0.0290      4.6513    148.4454     28.3674
  1807.4000      8.0614      2.5782      0.1093      4.3511    143.5615     27.8289
  1807.5000      8.0703      2.5754      0.1210      4.5212    136.0641     27.2883
  1807.6000      8.0703      2.5581      0.0559      5.5711    129.9357     27.1662
  1807.7000      8.0703      2.5387      0.0381      6.7447    127.7780     27.4893
  1807.8000      8.0710      2.5297     -0.0167      7.2920    131.7413     28.2041
  1807.9000      8.0710      2.5369     -0.0238      6.8566    136.5408     29.0978
  1808.0000      8.0681      2.5582      0.0649      5.5636    132.8796     29.4737
  1808.1000      8.0681      2.5843      0.0309      3.9793    122.6496     29.0863
  1808.2000      8.0681      2.6051      0.1193      2.7184    119.4645     28.5639
  1808.3000      8.0671      2.6104      0.1327      2.4000    129.1405     28.2335
  1808.4000      8.0671      2.6070      0.0494      2.6068    139.9698     28.0831
  1808.5000      8.0693      2.6061      0.0673      2.6612    141.8276     28.5195
  1808.6000      8.0693      2.5965      0.0656      3.2451    136.3208     29.6250
  1808.7000      8.0693      2.5694      0.0125      4.8854    130.4043     30.6148
  1808.8000      8.0773      2.5415     -0.0063      6.5756    129.9961     30.6627
  1808.9000      8.0773      2.5309      0.0106      7.2182    133.4634     29.9558
  1809.0000      8.1052      2.5296      0.0785      7.2991    136.0835     29.3593
  1809.1000      8.1052      2.5235      0.0242      7.6652    135.9006     29.3028
  1809.2000      8.1052      2.5158      0.0754      8.1334    133.6107     29.7246
  1809.3000      8.0864      2.5059      0.0521      8.7338    133.0266     30.4110
  1809.4000      8.0864      2.4965      0.0344      9.3033    133.9579     30.9953
  1809.5000      8.0778      2.5078      0.0017      8.6159    132.6938     31.1406
  1809.6000      8.0778      2.5456      0.0546      6.3295    130.8921     30.8510
  1809.7000      8.0778      2.5902      0.1032      3.6220    131.7289     30.3883
  1809.8000      8.0816      2.6197      0.1834      1.8381    132.3821     29.9786
  1809.9000      8.0816      2.6294      0.1324      1.2470    131.2407     29.8015
  1810.0000      8.0704      2.6365      0.2122      0.8200    131.8257     29.8757
  1810.1000      8.0704      2.6389      0.2224      0.6724    137.2078     29.8721
  1810.2000      8.0704      2.6168      0.1291      2.0128    145.0460     29.5990
  1810.3000      8.0723      2.5821      0.0845      4.1131    147.9905     29.2259
  1810.4000      8.0723      2.5790      0.0323      4.3049    139.5640     28.9502
  1810.5000      8.0595      2.6265      0.0576      1.4242    124.8947     29.0490
  1810.6000      8.0595      2.6834      0.1749     -2.0259    117.5984     29.6786
  1810.7000      8.0595      2.6998      0.1481     -3.0168    121.5013     30.3814
  1810.8000      8.0582      2.6690      0.1083     -1.1533    132.5656     30.5928
  1810.9000      8.0582      2.6117      0.0453      2.3199    143.4060     30.4273
  1811.0000      8.0497      2.5621     -0.0195      5.3269    145.0409     30.1646
  1811.1000      8.0497      2.5509      0.0478      6.0054    139.6159     29.6889
  1811.2000      8.0497      2.5754      0.0655      4.5223    135.9571     28.7511
  1811.3000      8.0511      2.6118      0.0891      2.3169    133.7564     27.8529
  1811.4000      8.0511      2.6353      0.0990      0.8905    128.3761     27.7461
  1811.5000      8.0508      2.6304      0.0242      1.1896    120.0934     28.2375
  1811.6000      8.0508      2.6132     -0.0013      2.2312    115.0468     28.6821
  1811.7000      8.0508      2.6050      0.0715      2.7267    119.1622     28.6073
  1811.8000      8.0526      2.5999      0.0550      3.0381    128.0019     28.2227
  1811.9000      8.0526      2.5904      0.0325      3.6097    130.1330     28.2464
  1812.0000      8.0536      2.5752      0.0421      4.5342    124.0427     28.6243
  1812.1000      8.0536      2.5659     -0.0050      5.0991    116.9088     28.8018
  1812.2000      8.0536      2.5864      0.0979      3.8528    112.5940     28.8437
  1812.3000      8.0527      2.6375      0.0602      0.7547    114.9899     29.0406
  1812.4000      8.0527      2.6951      0.1197     -2.7315    124.8683     29.1717
  1812.5000      8.0515      2.7272      0.1625     -4.6792    135.2745     29.0644
  1812.6000      8.0515      2.7116      0.1623     -3.7331    143.1156     28.7839
  1812.7000      8.0515      2.6543      0.0663     -0.2584    146.8285     28.5472
  1812.8000      8.0511      2.5922      0.0383      3.5042    139.9838     28.6924
  1812.9000      8.0511      2.5649      0.0084      5.1599    126.0016     29.2973
  1813.0000      8.0564      2.5804      0.0148      4.2157    118.8134     30.1456
  1813.1000      8.0564      2.6084      0.0805      2.5220    124.3703     30.5503
  1813.2000      8.0564      2.6211      0.1232      1.7530    138.0315     30.2787
  1813.3000      8.0675      2.6286      0.0608      1.2953    150.6207     30.0746
  1813.4000      8.0675      2.6387      0.1166      0.6842    151.9338     30.1829
  1813.5000      8.1074      2.6297      0.1130      1.2320    142.8313     30.1804
  1813.6000      8.1074      2.6080     -0.0080      2.5484    132.5831     30.0799
  1813.7000      8.1074      2.6027      0.1060      2.8692    127.5207     30.0042
  1813.8000      8.1260      2.6025      0.0880      2.8796    126.6939     29.5736
  1813.9000      8.1260      2.5895      0.0593      3.6640    123.1394     28.8790
  1814.0000      8.0909      2.5832      0.0963      4.0484    118.0140     28.5779
  1814.1000      8.0909      2.6061      0.1150      2.6589    118.8300     28.8388
  1814.2000      8.0909      2.6415      0.1616      0.5160    123.7983     29.3461
  1814.3000      8.0655      2.6563      0.1207     -0.3818    127.3767     29.8816
  1814.4000      8.0655      2.6440      0.1454      0.3611    129.9775     30.2612
  1814.5000      8.0591      2.6191      0.0580      1.8744    135.4648     30.1913
  1814.6000      8.0591      2.5928      0.1095      3.4669    142.5190     29.7221
  1814.7000      8.0591      2.5689      0.0498      4.9158    146.4035     29.3150
  1814.8000      8.0637      2.5572      0.0864      5.6244    144.1203     29.2288
  1814.9000      8.0637      2.5673      0.1147      5.0111    136.2779     29.3160
  1815.0000      8.0979      2.5927      0.1599      3.4737    130.0513     29.4376
  1815.1000      8.0979      2.6094      0.1839      2.4590    128.0514     29.6734
  1815.2000      8.0979      2.6054      0.1269      2.7017    126.7151     29.9114
  1815.3000      8.0736      2.5961      0.1039      3.2638    123.6164     29.9174
  1815.4000      8.0736      2.5944      0.1255      3.3717    118.3205     29.7800
  1815.5000      8.0368      2.5879      0.1582      3.7659    116.4873     29.9793
  1815.6000      8.0368      2.5694      0.1077      4.8851    121.5556     30.6327
  1815.7000      8.0368      2.5637      0.0469      5.2291    126.4124     31.1494
  1815.8000      8.0364      2.5944      0.0519      3.3712    125.6203     30.9351
  1815.9000      8.0364      2.6387      0.1479      0.6857    125.4828     30.0438
  1816.0000      8.0409      2.6477      0.1437      0.1403    127.5854     29.2148
  1816.1000      8.0409      2.6102      0.0903      2.4122    124.3310     28.6865
