~Version Information
VERS.                      2.0: CWLS Log ASCII Standard - VERSION 2.0
WRAP.                       NO: One line per depth step
~Well Information Block
STRT.FT               652.0000: 
STOP.FT              1880.0000: 
STEP.FT                 0.1000: 
NULL.                -999.2500: 
COMP.          Pioneer Natural Resources: COMPANY
WELL.          Corkscrew 33-12 Tr: WELL
FLD.           Purgatoire River: FIELD
LOC.           1870' FSL & 1706' FEL: LOCATION
PROV.                 Colorado: PROVINCE
CNTY.               Las Animas: COUNTRY
SRVC.                Patterson: SERVICE COMPANY
DATE.          Tue Mar 29 09:18:51 2005: LOG DATE
UWI.           05 071 08295 00: UNIQUE WELL ID
~Curve Information Block
DEPT.FT            0 000 00 00: Depth
DCAL.in                       : CDL Caliper
RHOB.g/cc                     : CDL Bulk Density
RHOC.g/cc                     : CDL Density Correction
DPOR.pu                       : CDL Density Porosity
GR.GAPI                       : Gamma Ray
NPOR.pu                       : Neutron Porosity
~Parameter Information Block
~A  Depth       DCAL        RHOB        RHOC        DPOR         GR         NPOR    
# ...
  1218.4000      9.4148      1.9944     -0.0310     39.7324    160.3057     33.7152
  1218.5000      9.0487      1.9213     -0.1154     44.1628    150.8497     32.4258
  1218.6000      9.0487      1.8823     -0.0755     46.5245    142.5852     31.3799
  1218.7000      9.0487      1.8757      0.0030     46.9277    141.9870     31.5723
  1218.8000      8.3225      1.8870      0.0101     46.2435    141.0427     32.4327
  1218.9000      8.3225      1.9079      0.0754     44.9738    133.8251     33.3012
  1219.0000      8.2351      1.9211      0.1806     44.1729    124.0578     34.3884
  1219.1000      8.2351      1.9074      0.2152     45.0046    117.7361     35.3660
  1219.2000      8.2351      1.8762      0.2193     46.8979    116.5502     35.8793
  1219.3000      8.3065      1.8440      0.2343     48.8459    112.9831     36.2719
  1219.4000      8.3065      1.8053      0.1935     51.1909    100.7154     36.2410
  1219.5000      8.4830      1.7512      0.0734     54.4734     84.5044     35.4190
  1219.6000      8.4830      1.6892      0.0448     58.2328     72.7074     34.6727
  1219.7000      8.4830      1.6320     -0.0250     61.6950     67.3748     34.6752
  1219.8000      8.6868      1.5764      0.0274     65.0694     66.5798     35.1432
  1219.9000      8.6868      1.5050      0.0285     69.3942     68.6301     35.5091
  1220.0000      8.4938      1.4299     -0.0712     73.9476     68.8005     35.5398
  1220.1000      8.4938      1.3813     -0.0427     76.8938     64.6578     35.6319
  1220.2000      8.4938      1.3513     -0.0463     78.7112     60.4810     35.4874
  1220.3000      8.4636      1.3114     -0.0698     81.1290     58.8359     34.7119
  1220.4000      8.4636      1.2628     -0.0768     84.0742     55.8983     34.2529
  1220.5000      8.4430      1.2314     -0.0855     85.9752     48.8188     34.7668
  1220.6000      8.4430      1.2231     -0.0401     86.4798     40.5035     35.4732
  1220.7000      8.4430      1.2146     -0.0383     86.9926     34.1867     35.8549
  1220.8000      8.4917      1.1952     -0.0387     88.1722     31.8826     36.3620
  1220.9000      8.4917      1.1803     -0.0738     89.0701     34.9612     37.0305
  1221.0000      8.6072      1.1887     -0.0466     88.5615     41.5113     37.1772
  1221.1000      8.6072      1.2248     -0.0006     86.3730     47.0072     36.6731
  1221.2000      8.6072      1.2865      0.0014     82.6376     49.1249     35.7969
  1221.3000      8.5657      1.3717      0.0210     77.4706     50.6095     34.8822
  1221.4000      8.5657      1.4729      0.0611     71.3399     55.7246     34.5147
  1221.5000      8.6434      1.5774      0.0925     65.0090     61.7066     34.7552
  1221.6000      8.6434      1.6750      0.1377     59.0897     65.7695     35.1183
  1221.7000      8.6434      1.7657      0.1605     53.5957     73.1061     35.2112
  1221.8000      8.5878      1.8574      0.1480     48.0376     85.6318     34.8513
  1221.9000      8.5878      1.9449      0.1671     42.7308     95.5952     34.4728
  1222.0000      8.4485      2.0025      0.1478     39.2410     98.2710     34.7181
  1222.1000      8.4485      2.0064      0.0670     39.0059     99.4265     34.8994
  1222.2000      8.4485      1.9537      0.0505     42.2024    103.6391     34.4460
  1222.3000      8.2211      1.8697     -0.0195     47.2904    108.9556     34.2060
  1222.4000      8.2211      1.7945      0.0088     51.8493    112.0782     34.4668
  1222.5000      8.1525      1.7563     -0.0555     54.1661    112.9013     34.5414
  1222.6000      8.1525      1.7678     -0.0360     53.4655    113.4968     34.1337
  1222.7000      8.1525      1.8276     -0.0467     49.8423    114.5679     33.4539
  1222.8000      8.1634      1.9224      0.0177     44.0963    118.2988     33.0765
  1222.9000      8.1634      2.0342      0.0539     37.3193    125.7990     33.1252
  1223.0000      8.1643      2.1516      0.1482     30.2041    131.8921     32.8435
  1223.1000      8.1643      2.2731      0.2493     22.8403    131.8116     32.2849
  1223.2000      8.1643      2.3894      0.2899     15.7936    128.7197     32.0840
  1223.3000      8.1922      2.4816      0.2204     10.2054    126.4296     31.9466
  1223.4000      8.1922      2.5417      0.1452      6.5620    125.2740     31.4664
  1223.5000      8.2111      2.5656      0.0711      5.1154    125.1798     30.9312
  1223.6000      8.2111      2.5537      0.0119      5.8347    124.9049     30.1599
  1223.7000      8.2111      2.5337     -0.0230      7.0472    124.0554     28.6585
  1223.8000      7.9444      2.5319      0.0446      7.1572    124.0388     26.8828
  1223.9000      7.9444      2.5434      0.0061      6.4618    124.4446     25.7859
  1224.0000      7.8231      2.5561      0.0474      5.6926    123.2206     25.6593
  1224.1000      7.8231      2.5687     -0.0403      4.9244    121.1137     26.1342
  1224.2000      7.8231      2.5834     -0.0218      4.0365    120.1434     26.4352
  1224.3000      7.8163      2.5920      0.0178      3.5122    119.3537     26.2592
  1224.4000      7.8163      2.5854      0.0236      3.9146    115.7674     26.2280
  1224.5000      7.8188      2.5761     -0.0444      4.4804    106.1686     26.4887
  1224.6000      7.8188      2.5831      0.0056      4.0569     94.7894     26.7163
  1224.7000      7.8188      2.6037     -0.0287      2.8068     89.4460     26.7881
  1224.8000      7.8198      2.6326      0.0315      1.0531     88.3108     26.6308
  1224.9000      7.8198      2.6661      0.0913     -0.9783     85.5016     26.5994
  1225.0000      7.8048      2.6972      0.0608     -2.8580     82.9177     27.1412
  1225.1000      7.8048      2.7187      0.0560     -4.1626     82.5323     27.6100
  1225.2000      7.8048      2.7156      0.0490     -3.9767     81.0572     27.1158
  1225.3000      7.8012      2.6813      0.0314     -1.8955     77.9192     26.1230
  1225.4000      7.8012      2.6294     -0.0111      1.2468     76.5914     25.6899
  1225.5000      7.7860      2.5812     -0.0290      4.1674     77.5940     25.8007
  1225.6000      7.7860      2.5519     -0.0925      5.9462     74.7713     25.9457
  1225.7000      7.7860      2.5393     -0.0565      6.7117     66.3429     25.8910
  1225.8000      7.7812      2.5342     -0.0695      7.0188     64.1970     25.5776
  1225.9000      7.7812      2.5410     -0.0659      6.6048     73.9729     25.3695
  1226.0000      7.7825      2.5634     -0.0499      5.2467     85.2899     25.9244
  1226.1000      7.7825      2.5903     -0.0055      3.6190     89.7829     26.5667
  1226.2000      7.7825      2.6047      0.0301      2.7469     88.4083     26.0418
  1226.3000      7.7930      2.5996     -0.0101      3.0552     84.6986     24.9143
  1226.4000      7.7930      2.5794      0.0386      4.2800     81.9524     23.9809
  1226.5000      7.8002      2.5519     -0.0292      5.9450     80.1252     23.2352
  1226.6000      7.8002      2.5360     -0.0479      6.9118     75.7807     22.8932
  1226.7000      7.8002      2.5479     -0.0306      6.1890     70.4969     23.1967
  1226.8000      7.8019      2.5754      0.0233      4.5208     70.2461     23.7298
  1226.9000      7.8019      2.5865      0.0748      3.8494     74.3835     23.9799
  1227.0000      7.8012      2.5761      0.0055      4.4794     74.0501     24.1000
  1227.1000      7.8012      2.5656      0.0145      5.1175     67.1071     24.4136
  1227.2000      7.8012      2.5583      0.0015      5.5549     60.4903     24.5176
  1227.3000      7.7994      2.5456     -0.0046      6.3265     58.1480     23.9485
  1227.4000      7.7994      2.5300      0.0205      7.2749     58.9576     23.1355
  1227.5000      7.8043      2.5164      0.0290      8.0961     59.6198     22.5925
  1227.6000      7.8043      2.5105     -0.0062      8.4551     59.1359     22.0566
  1227.7000      7.8043      2.5189      0.0205      7.9454     62.2868     21.5530
  1227.8000      7.8086      2.5370      0.0298      6.8461     68.4453     21.7985
  1227.9000      7.8086      2.5518      0.0317      5.9511     72.0230     22.7587
