~Version Information
VERS.                      2.0: CWLS Log ASCII Standard - VERSION 2.0
WRAP.                       NO: One line per depth step
~Well Information Block
STRT.FT               664.0000: 
STOP.FT              1113.5000: 
STEP.FT                 0.1000: 
NULL.                -999.2500: 
COMP.          Petrogulf Corporation: COMPANY
WELL.          Great Plains 22-21R: WELL
FLD.           Purgatorie River: FIELD
LOC.           73' FNL & 1992' FWL: LOCATION
PROV.                 Colorado: PROVINCE
CNTY.               Las Animas: COUNTRY
SRVC.                Patterson: SERVICE COMPANY
DATE.          Thu Sep 08 08:02:28 2005: LOG DATE
UWI.                          : UNIQUE WELL ID
~Curve Information Block
DEPT.FT            0 000 00 00: Depth
DCAL.in                       : CDL Caliper
RHOB.g/cc                     : CDL Bulk Density
RHOC.g/cc                     : CDL Density Correction
DPOR.pu                       : CDL Density Porosity
GR.GAPI                       : Gamma Ray
NPOR.pu                       : Neutron Porosity
~Parameter Information Block
~A  Depth       DCAL        RHOB        RHOC        DPOR         GR         NPOR    
# ...
   865.6000      8.1824      2.5778      0.0369      4.3758    132.2749     25.7784
   865.7000      8.1824      2.5736      0.0537      4.6312    128.0469     25.4399
   865.8000      8.1838      2.5540      0.0423      5.8166    130.9364     25.4725
   865.9000      8.1838      2.5233      0.0499      7.6807    139.2104     25.7072
   866.0000      8.1750      2.4949      0.0135      9.3974    148.3301     25.7505
   866.1000      8.1750      2.4817      0.0618     10.1975    151.5951     25.6966
   866.2000      8.1750      2.4874      0.0381      9.8535    143.9112     25.5213
   866.3000      8.1609      2.5064      0.0638      8.7007    130.5518     24.9992
   866.4000      8.1609      2.5295      0.0629      7.3036    124.2644     24.5320
   866.5000      8.1601      2.5484      0.0917      6.1564    127.3441     24.7048
   866.6000      8.1601      2.5529      0.1097      5.8847    130.7180     25.3538
   866.7000      8.1601      2.5448      0.1043      6.3777    129.8907     25.7147
   866.8000      8.1526      2.5480      0.0860      6.1846    128.6743     25.5013
   866.9000      8.1526      2.5712      0.1339      4.7736    130.4044     25.2847
   867.0000      8.1479      2.5896      0.1494      3.6585    134.1352     25.5683
   867.1000      8.1479      2.5787      0.1235      4.3220    138.2239     25.9553
   867.2000      8.1479      2.5393      0.1171      6.7096    141.6838     25.7556
   867.3000      8.1488      2.4989      0.0528      9.1549    142.9233     25.0659
   867.4000      8.1488      2.4843      0.0430     10.0420    142.1277     24.6214
   867.5000      8.1362      2.4884      0.0539      9.7958    139.7469     24.6907
   867.6000      8.1362      2.4925      0.0248      9.5441    135.2240     25.0310
   867.7000      8.1362      2.5003      0.0568      9.0723    133.3864     25.4718
   867.8000      8.1303      2.5173      0.1034      8.0398    135.7059     25.8248
   867.9000      8.1303      2.5339      0.1274      7.0343    135.8398     25.9713
   868.0000      8.1281      2.5385      0.1425      6.7601    134.7764     25.9450
   868.1000      8.1281      2.5239      0.1364      7.6436    138.0984     25.8341
   868.2000      8.1281      2.4946      0.0622      9.4163    142.2926     25.8470
   868.3000      8.1231      2.4680      0.0595     11.0311    141.9792     25.9686
   868.4000      8.1231      2.4541      0.0457     11.8738    139.9710     26.0509
   868.5000      8.1167      2.4505      0.0233     12.0923    139.2790     26.2813
   868.6000      8.1167      2.4528      0.0704     11.9494    137.1855     26.6826
   868.7000      8.1167      2.4592      0.0359     11.5629    132.8480     26.7933
   868.8000      8.1112      2.4737      0.0652     10.6870    131.7116     26.5248
   868.9000      8.1112      2.4917      0.1160      9.5962    136.6185     26.3013
   869.0000      8.1131      2.5010      0.0963      9.0297    143.6701     26.2910
   869.1000      8.1131      2.5080      0.1012      8.6086    147.1832     26.4942
   869.2000      8.1131      2.5201      0.1130      7.8708    144.8565     26.9663
   869.3000      8.1101      2.5293      0.1216      7.3157    142.3971     27.4116
   869.4000      8.1101      2.5313      0.0683      7.1915    145.3615     27.5146
   869.5000      8.1195      2.5277      0.0984      7.4092    150.1066     27.5274
   869.6000      8.1195      2.5200      0.0457      7.8762    152.3026     27.7552
   869.7000      8.1195      2.5163      0.0429      8.1043    150.8410     27.9723
   869.8000      8.1583      2.5179      0.0355      8.0090    146.2986     27.9147
   869.9000      8.1583      2.5167      0.0409      8.0793    140.6478     27.7210
   870.0000      8.1853      2.5161      0.0254      8.1158    136.4231     27.4347
   870.1000      8.1853      2.5269      0.0477      7.4578    136.5614     26.9211
   870.2000      8.1853      2.5382      0.0565      6.7777    140.0497     26.5512
   870.3000      8.1902      2.5306      0.0432      7.2368    141.7961     26.8557
   870.4000      8.1902      2.5075      0.0565      8.6390    140.6839     27.6497
   870.5000      8.1759      2.4821      0.0403     10.1750    141.2915     28.1363
   870.6000      8.1759      2.4632      0.0225     11.3182    143.3733     27.9123
   870.7000      8.1759      2.4536      0.0029     11.9022    140.5168     27.4468
   870.8000      8.1866      2.4537     -0.0028     11.8987    132.9340     27.2901
   870.9000      8.1866      2.4606      0.0146     11.4805    127.6190     27.4942
   871.0000      8.1908      2.4650      0.0379     11.2097    130.3584     27.9094
   871.1000      8.1908      2.4627      0.0330     11.3500    136.8341     28.2289
   871.2000      8.1908      2.4559      0.0477     11.7644    139.8639     28.2027
   871.3000      8.1763      2.4485      0.0277     12.2113    142.8432     28.1066
   871.4000      8.1763      2.4454      0.0247     12.3998    149.8405     28.1970
   871.5000      8.1472      2.4467      0.0410     12.3225    155.6063     28.2566
   871.6000      8.1472      2.4500      0.0391     12.1224    156.4013     28.2039
   871.7000      8.1472      2.4571      0.0162     11.6935    156.4757     28.1469
   871.8000      8.1455      2.4727      0.0606     10.7459    158.3535     28.0424
   871.9000      8.1455      2.4868      0.0914      9.8935    159.0166     27.7878
   872.0000      8.1379      2.4810      0.1019     10.2401    156.0475     27.5427
   872.1000      8.1379      2.4625      0.0738     11.3660    150.4082     27.6128
   872.2000      8.1379      2.4534      0.0440     11.9165    145.6368     27.8774
   872.3000      8.1246      2.4565      0.0835     11.7261    144.1937     27.9761
   872.4000      8.1246      2.4615      0.0744     11.4262    144.4862     27.7536
   872.5000      8.0768      2.4706      0.0477     10.8752    145.0010     27.4073
   872.6000      8.0768      2.4882      0.0750      9.8059    146.7591     27.1540
   872.7000      8.0768      2.5098      0.0560      8.4948    149.0513     26.9161
   872.8000      8.0519      2.5286      0.0718      7.3603    150.6161     26.7354
   872.9000      8.0519      2.5367      0.1265      6.8660    152.3293     26.8813
   873.0000      8.0429      2.5434      0.0512      6.4608    153.8599     27.1621
   873.1000      8.0429      2.5620      0.1038      5.3354    155.2629     27.1803
   873.2000      8.0429      2.5712      0.1276      4.7750    156.7500     26.9919
   873.3000      8.0110      2.5543      0.0483      5.8010    156.3574     26.9668
   873.4000      8.0110      2.5303      0.0257      7.2529    154.1156     27.3056
   873.5000      8.0096      2.5125      0.0691      8.3331    151.7337     27.6956
   873.6000      8.0096      2.5037      0.0093      8.8679    149.9677     27.7937
   873.7000      8.0096      2.5120      0.0286      8.3649    150.3375     27.5866
   873.8000      8.0079      2.5322      0.0627      7.1404    152.6465     27.1163
   873.9000      8.0079      2.5504      0.0555      6.0371    153.5048     26.6178
   874.0000      7.9986      2.5547      0.0909      5.7735    152.2429     26.2858
   874.1000      7.9986      2.5368      0.0510      6.8620    153.2253     25.9877
   874.2000      7.9986      2.5165      0.0155      8.0906    155.9942     25.8418
   874.3000      7.9931      2.5238      0.0379      7.6467    154.5628     26.2671
   874.4000      7.9931      2.5488      0.0842      6.1355    150.4415     27.1326
   874.5000      8.0059      2.5597      0.0695      5.4730    148.2343     27.6190
   874.6000      8.0059      2.5466      0.0986      6.2680    147.4884     27.5310
   874.7000      8.0059      2.5161      0.0737      8.1169    147.4783     27.1832
   874.8000      8.0088      2.4816      0.0051     10.2039    147.4406     26.5466
   874.9000      8.0088      2.4613      0.0302     11.4370    146.1166     25.8468
   875.0000      8.0106      2.4695      0.0005     10.9365    143.5633     25.4175
   875.1000      8.0106      2.5010      0.0872      9.0283    140.6096     25.3612
