~Version Information
VERS.                      2.0: CWLS Log ASCII Standard - VERSION 2.0
WRAP.                       NO: One line per depth step
~Well Information Block
STRT.FT               860.0000: 
STOP.FT              2733.7000: 
STEP.FT                 0.1000: 
NULL.                -999.2500: 
COMP.          Pioneer Natural Resources: COMPANY
WELL.          Beacon 11-18 Tr: WELL
FLD.           Purgatoire River: FIELD
LOC.           409' FNL & 203' FWL: LOCATION
PROV.                 Colorado: PROVINCE
CNTY.               Las Animas: COUNTRY
SRVC.                Patterson: SERVICE COMPANY
DATE.          Mon Jan 17 07:36:09 2005: LOG DATE
UWI.           05 071 08251 00: UNIQUE WELL ID
~Curve Information Block
DEPT.FT            0 000 00 00: Depth
DCAL.in                       : CDL Caliper
RHOB.g/cc                     : CDL Bulk Density
RHOC.g/cc                     : CDL Density Correction
DPOR.pu                       : CDL Density Porosity
NPOR.pu                       : Neutron Porosity
GR.GAPI                       : Gamma Ray
~Parameter Information Block
~A  Depth       DCAL        RHOB        RHOC        DPOR        NPOR         GR     
# ...
  1109.6000      8.2964      2.4994      0.1105      9.1276     21.4365     62.3267
  1109.7000      8.2964      2.5048      0.1089      8.8001     21.0593     65.7660
  1109.8000      8.2962      2.5045      0.1051      8.8174     20.9448     72.4704
  1109.9000      8.2962      2.5025      0.0838      8.9390     20.9744     75.2708
  1110.0000      8.2954      2.5006      0.1053      9.0561     20.8875     74.3637
  1110.1000      8.2954      2.4942      0.1144      9.4454     20.6366     75.5680
  1110.2000      8.2954      2.4785      0.1045     10.3931     20.3749     78.9670
  1110.3000      8.2939      2.4559      0.0611     11.7623     20.2289     79.2846
  1110.4000      8.2939      2.4368      0.0524     12.9228     20.1224     74.3651
  1110.5000      8.2908      2.4308      0.0584     13.2837     19.9091     68.5771
  1110.6000      8.2908      2.4408      0.0559     12.6817     19.6200     66.0891
  1110.7000      8.2908      2.4530      0.1230     11.9366     19.3716     66.9737
  1110.8000      8.2896      2.4456      0.0942     12.3868     19.0160     69.4662
  1110.9000      8.2896      2.4197      0.0832     13.9594     18.3140     70.4342
  1111.0000      8.2933      2.3955      0.0724     15.4243     17.3510     67.7954
  1111.1000      8.2933      2.3890      0.0529     15.8176     16.4464     62.9791
  1111.2000      8.2933      2.4034      0.0761     14.9471     16.0224     59.3410
  1111.3000      8.2967      2.4308      0.1037     13.2877     16.1639     60.1098
  1111.4000      8.2967      2.4557      0.1498     11.7756     16.3859     63.5391
  1111.5000      8.2990      2.4638      0.1278     11.2861     16.4026     65.1424
  1111.6000      8.2990      2.4588      0.1086     11.5887     16.2562     63.1316
  1111.7000      8.2990      2.4492      0.1282     12.1678     16.0323     59.2859
  1111.8000      8.3002      2.4356      0.0544     12.9951     15.8087     56.5971
  1111.9000      8.3002      2.4192      0.1109     13.9881     15.7479     56.5521
  1112.0000      8.2981      2.4028      0.0483     14.9828     15.9457     59.3577
  1112.1000      8.2981      2.3890      0.0911     15.8192     16.2595     61.9325
  1112.2000      8.2981      2.3792      0.0532     16.4136     16.6041     61.6766
  1112.3000      8.2929      2.3720      0.0880     16.8455     16.8536     59.4318
  1112.4000      8.2929      2.3585      0.0670     17.6690     16.8204     55.7251
  1112.5000      8.2918      2.3384      0.0574     18.8854     16.6818     51.4215
  1112.6000      8.2918      2.3283      0.0305     19.4993     16.6107     48.1228
  1112.7000      8.2918      2.3418      0.0600     18.6763     16.4199     48.0181
  1112.8000      8.2961      2.3717      0.0940     16.8686     16.1010     51.1191
  1112.9000      8.2961      2.3977      0.1260     15.2933     15.9112     53.9520
  1113.0000      8.2979      2.4122      0.1406     14.4120     15.9737     54.8216
  1113.1000      8.2979      2.4197      0.1189     13.9546     16.3049     55.1134
  1113.2000      8.2979      2.4204      0.1336     13.9123     16.7605     55.8559
  1113.3000      8.2973      2.4148      0.0936     14.2537     17.0537     56.1805
  1113.4000      8.2973      2.4125      0.1265     14.3949     17.1846     55.2840
  1113.5000      8.3032      2.4210      0.1055     13.8778     17.3406     54.3449
  1113.6000      8.3032      2.4402      0.1221     12.7178     17.4064     54.7620
  1113.7000      8.3032      2.4616      0.1402     11.4180     17.2643     56.0817
  1113.8000      8.3119      2.4739      0.1309     10.6702     17.2105     59.5581
  1113.9000      8.3119      2.4665      0.1379     11.1198     17.3813     64.7196
  1114.0000      8.3149      2.4391      0.0874     12.7792     17.6016     66.4560
  1114.1000      8.3149      2.4053      0.0755     14.8280     17.7946     63.7333
  1114.2000      8.3149      2.3775      0.0353     16.5129     17.8246     59.1363
  1114.3000      8.3164      2.3709      0.0280     16.9177     17.5290     55.3497
  1114.4000      8.3164      2.3934      0.0817     15.5493     16.9332     55.2665
  1114.5000      8.3174      2.4292      0.1165     13.3792     16.3536     57.2434
  1114.6000      8.3174      2.4592      0.1116     11.5667     16.2804     58.3430
  1114.7000      8.3174      2.4815      0.1370     10.2148     16.7995     58.3082
  1114.8000      8.3181      2.5013      0.1364      9.0112     17.3405     58.1415
  1114.9000      8.3181      2.5128      0.1590      8.3127     17.3405     60.1060
  1115.0000      8.3202      2.5044      0.1329      8.8220     16.9431     63.2983
  1115.1000      8.3202      2.4818      0.0988     10.1924     16.6411     64.0787
  1115.2000      8.3202      2.4697      0.0512     10.9275     16.6466     62.2380
  1115.3000      8.3267      2.4776      0.1255     10.4477     16.8363     61.6774
  1115.4000      8.3267      2.4861      0.1189      9.9338     17.0491     64.1478
  1115.5000      8.3331      2.4849      0.0896     10.0061     17.3434     65.3825
  1115.6000      8.3331      2.4747      0.0729     10.6230     17.5281     62.8729
  1115.7000      8.3331      2.4514      0.0633     12.0343     17.4453     59.8678
  1115.8000      8.3334      2.4250      0.0351     13.6361     17.4425     60.4225
  1115.9000      8.3334      2.4190      0.0147     13.9999     17.5132     62.5210
  1116.0000      8.3306      2.4359      0.0530     12.9749     17.3967     61.1311
  1116.1000      8.3306      2.4479      0.1003     12.2483     17.0866     57.3267
  1116.2000      8.3306      2.4362      0.0547     12.9603     16.6829     55.6541
  1116.3000      8.3295      2.4151      0.0330     14.2367     16.4412     55.7706
  1116.4000      8.3295      2.4057      0.0359     14.8060     16.5353     55.2527
  1116.5000      8.3293      2.4098      0.0092     14.5596     16.8480     55.4238
  1116.6000      8.3293      2.4183      0.0180     14.0411     17.1142     57.0768
  1116.7000      8.3293      2.4204      0.0708     13.9130     17.0649     57.7007
  1116.8000      8.3298      2.4093      0.0329     14.5865     16.7967     55.7129
  1116.9000      8.3298      2.4002     -0.0018     15.1421     16.5431     53.0229
  1117.0000      8.3322      2.4086      0.0560     14.6320     16.3936     52.1669
  1117.1000      8.3322      2.4164      0.0424     14.1551     16.4701     52.2296
  1117.2000      8.3322      2.4026      0.0110     14.9927     16.6404     53.2969
  1117.3000      8.3352      2.3819     -0.0124     16.2512     16.7034     57.1730
  1117.4000      8.3352      2.3868     -0.0554     15.9526     16.9314     61.3950
  1117.5000      8.3369      2.4191      0.0515     13.9940     17.3325     64.0154
  1117.6000      8.3369      2.4473      0.0656     12.2861     17.4100     65.3719
  1117.7000      8.3369      2.4579      0.0947     11.6443     17.1054     63.3689
  1117.8000      8.3365      2.4599      0.1008     11.5229     16.8580     58.4419
  1117.9000      8.3365      2.4574      0.0858     11.6707     16.8941     55.6359
  1118.0000      8.3358      2.4522      0.0599     11.9888     17.0972     57.1946
  1118.1000      8.3358      2.4476      0.0650     12.2671     17.2552     59.4162
  1118.2000      8.3358      2.4418      0.0631     12.6179     17.3999     59.5475
  1118.3000      8.3350      2.4358      0.0433     12.9810     17.8200     60.5814
  1118.4000      8.3350      2.4342      0.0842     13.0794     18.5595     62.4379
  1118.5000      8.3341      2.4372      0.0904     12.8982     19.4016     62.1765
  1118.6000      8.3341      2.4510      0.0181     12.0612     20.3066     61.1656
  1118.7000      8.3341      2.4772      0.0956     10.4756     21.2021     61.5401
  1118.8000      8.3326      2.4912      0.1191      9.6256     21.9864     62.5139
  1118.9000      8.3326      2.4748      0.1248     10.6207     22.6769     62.8530
  1119.0000      8.3318      2.4416      0.0783     12.6314     23.2683     65.7788
  1119.1000      8.3318      2.4151      0.0342     14.2364     23.8023     74.9931
