~Version Information
VERS.                      2.0: CWLS Log ASCII Standard - VERSION 2.0
WRAP.                       NO: One line per depth step
~Well Information Block
STRT.FT               830.0000: 
STOP.FT              3122.7500: 
STEP.FT                 0.2500: 
NULL.                -999.2500: 
COMP.          Pioneer Natural Resources: COMPANY
WELL.              Stones 24-8: WELL
FLD.           Purgatoire River: FIELD
LOC.           648' FSL & 2264' FWL: LOCATION
PROV.                 Colorado: PROVINCE
CNTY.               Las Animas: COUNTRY
SRVC.                Patterson: SERVICE COMPANY
DATE.          Wed Jan 19 12:44:32 2005: LOG DATE
UWI.           05 071 07945 00: UNIQUE WELL ID
~Curve Information Block
DEPT.FT            0 000 00 00: Depth
SN.Ohm-m                      : IEL Short Normal
SP.mV                         : IEL Spontaneous Potential
DIR.Ohm-m                     : IEL Induction Resistivity
GR.GAPI                       : Gamma Ray
~Parameter Information Block
~A  Depth        SN          SP         DIR          GR     
# ...
  1868.5000      3.1796   -385.2780      1.5914    101.4512
  1868.7500      3.5523   -381.3178      1.6384    108.8300
  1869.0000      4.1075   -377.7835      1.7272    115.6726
  1869.2500      4.9133   -375.0522      1.8594    116.3169
  1869.5000      6.0911   -372.9990      2.0416    112.0913
  1869.7500      7.7133   -371.0515      2.2874    107.4393
  1870.0000      9.7022   -368.4763      2.6188    101.3031
  1870.2500     11.8285   -364.7589      3.0642     99.3679
  1870.5000     13.8176   -359.8383      3.6527     99.9004
  1870.7500     15.4658   -354.0739      4.4020    101.1058
  1871.0000     16.6823   -347.9967      5.2989    101.3309
  1871.2500     17.4609   -342.0356      6.2801    100.1318
  1871.5000     17.8365   -336.3991      7.2314     98.5757
  1871.7500     17.8605   -331.1737      8.0280     99.2241
  1872.0000     17.5939   -326.5299      8.6014    103.0735
  1872.2500     17.1037   -322.8566      8.9739    106.4868
  1872.5000     16.4580   -320.6822      9.2311    111.0263
  1872.7500     15.7224   -320.4308      9.4661    113.5287
  1873.0000     14.9586   -322.1626      9.7425    117.7635
  1873.2500     14.2237   -325.4684     10.0861    121.6444
  1873.5000     13.5656   -329.5683     10.4909    128.7764
  1873.7500     13.0165   -333.5585     10.9292    133.4033
  1874.0000     12.5880   -336.6894     11.3589    138.5624
  1874.2500     12.2714   -338.5647     11.7322    140.5900
  1874.5000     12.0406   -339.2171     12.0055    141.9578
  1874.7500     11.8608   -339.0009     12.1532    142.0221
  1875.0000     11.7006   -338.3737     12.1776    141.1759
  1875.2500     11.5432   -337.6458     12.1065    140.2490
  1875.5000     11.3894   -336.8523     11.9772    138.8737
  1875.7500     11.2491   -335.8126     11.8188    138.1267
  1876.0000     11.1297   -334.3198     11.6443    136.9717
  1876.2500     11.0308   -332.3152     11.4548    135.8599
  1876.5000     10.9494   -329.9427     11.2521    133.5915
  1876.7500     10.8886   -327.4818     11.0479    132.0653
  1877.0000     10.8579   -325.2489     10.8638    130.5306
  1877.2500     10.8633   -323.5422     10.7238    129.9617
  1877.5000     10.8993   -322.6293     10.6453    128.5810
  1877.7500     10.9512   -322.7295     10.6360    126.4433
  1878.0000     11.0056   -323.9524     10.6934    120.7868
  1878.2500     11.0613   -326.2292     10.8071    115.6670
  1878.5000     11.1351   -329.2759     10.9608    107.1349
  1878.7500     11.2623   -332.6495     11.1362    101.7478
  1879.0000     11.4943   -335.8561     11.3191     95.7491
  1879.2500     11.8893   -338.4771     11.5036     93.9815
  1879.5000     12.4819   -340.2594     11.6930     95.3080
  1879.7500     13.2387   -341.1429     11.8931     98.4927
  1880.0000     14.0413   -341.2451     12.1050    105.1283
  1880.2500     14.7303   -340.8207     12.3198    109.8014
  1880.5000     15.1819   -340.2172     12.5217    116.2931
  1880.7500     15.3550   -339.8127     12.6942    120.2596
  1881.0000     15.2822   -339.9261     12.8273    125.7793
  1881.2500     15.0276   -340.7140     12.9206    128.9705
  1881.5000     14.6504   -342.0967     12.9821    132.3382
  1881.7500     14.1952   -343.7603     13.0244    133.3783
  1882.0000     13.7046   -345.2462     13.0594    133.2200
  1882.2500     13.2374   -346.0900     13.0953    132.1191
  1882.5000     12.8690   -345.9522     13.1361    129.1217
  1882.7500     12.6654   -344.7046     13.1824    126.5189
  1883.0000     12.6503   -342.4513     13.2318    123.0983
  1883.2500     12.7970   -339.4965     13.2791    122.1106
  1883.5000     13.0528   -336.2635     13.3170    123.0041
  1883.7500     13.3766   -333.1849     13.3409    124.4787
  1884.0000     13.7536   -330.5937     13.3552    126.4892
  1884.2500     14.1748   -328.6541     13.3760    127.3977
  1884.5000     14.6119   -327.3473     13.4279    128.4810
  1884.7500     15.0180   -326.5289     13.5355    129.1013
  1885.0000     15.3574   -326.0239     13.7161    129.1210
  1885.2500     15.6305   -325.7277     13.9747    127.8310
  1885.5000     15.8724   -325.6538     14.3029    123.4539
  1885.7500     16.1267   -325.9064     14.6803    119.3390
  1886.0000     16.4214   -326.5797     15.0785    112.5965
  1886.2500     16.7604   -327.6429     15.4701    108.1183
  1886.5000     17.1354   -328.8877     15.8380    101.4775
  1886.7500     17.5421   -329.9662     16.1799     97.3004
  1887.0000     17.9779   -330.5082     16.5021     92.6741
  1887.2500     18.4205   -330.2567     16.8055     91.6000
  1887.5000     18.8137   -329.1516     17.0734     93.6314
  1887.7500     19.0832   -327.3498     17.2713     96.8918
  1888.0000     19.1648   -325.1780     17.3615    102.6451
  1888.2500     19.0205   -323.0438     17.3186    105.8057
  1888.5000     18.6481   -321.3083     17.1351    108.4166
  1888.7500     18.0920   -320.1517     16.8181    109.0582
  1889.0000     17.4399   -319.4850     16.3888    110.1311
  1889.2500     16.7939   -318.9918     15.8892    111.8601
  1889.5000     16.2288   -318.2980     15.3821    116.1540
  1889.7500     15.7677   -317.1962     14.9344    119.4053
  1890.0000     15.3870   -315.7788     14.5888    123.2038
  1890.2500     15.0415   -314.3828     14.3448    124.4233
  1890.5000     14.6952   -313.3741     14.1601    124.2761
  1890.7500     14.3415   -312.9344     13.9781    123.2426
  1891.0000     14.0035   -312.9836     13.7617    121.0664
  1891.2500     13.7123   -313.2868     13.5117    119.5969
  1891.5000     13.4837   -313.6501     13.2565    117.8342
  1891.7500     13.3143   -314.0613     13.0272    116.9810
  1892.0000     13.1934   -314.6961     12.8407    115.8256
  1892.2500     13.1102   -315.8182     12.6990    114.9201
  1892.5000     13.0534   -317.6317     12.5954    113.1569
  1892.7500     13.0140   -320.1702     12.5217    111.5045
  1893.0000     12.9913   -323.2613     12.4720    107.8607
  1893.2500     12.9911   -326.5704     12.4429    104.8441
  1893.5000     13.0176   -329.7069     12.4315    101.0633
  1893.7500     13.0692   -332.3529     12.4329    100.1274
  1894.0000     13.1418   -334.3598     12.4397    101.4002
  1894.2500     13.2349   -335.7682     12.4466    103.1439
  1894.5000     13.3538   -336.7450     12.4595    105.3138
  1894.7500     13.5087   -337.4818     12.4997    106.1337
  1895.0000     13.7118   -338.1143     12.5978    107.1230
  1895.2500     13.9704   -338.7037     12.7794    108.1486
  1895.5000     14.2836   -339.2709     13.0526    110.3080
  1895.7500     14.6475   -339.8469     13.4049    111.6859
  1896.0000     15.0674   -340.5022     13.8100    112.6690
  1896.2500     15.5613   -341.3316     14.2406    112.2856
  1896.5000     16.1497   -342.4138     14.6793    110.3570
  1896.7500     16.8422   -343.7677     15.1246    108.7332
  1897.0000     17.6352   -345.3205     15.5923    106.9443
  1897.2500     18.5200   -346.9088     16.1151    106.3413
  1897.5000     19.4915   -348.3052     16.7356    105.1862
  1897.7500     20.5535   -349.2728     17.4951    103.3075
  1898.0000     21.7181   -349.6291     18.4167     98.2847
  1898.2500     22.9973   -349.2915     19.4968     94.0143
  1898.5000     24.3857   -348.2930     20.7098     87.8078
  1898.7500     25.8439   -346.7585     22.0247     84.4715
  1899.0000     27.2984   -344.8459     23.4161     80.7981
  1899.2500     28.6624   -342.6887     24.8512     78.7912
  1899.5000     29.8606   -340.3707     26.2550     75.5695
  1899.7500     30.8384   -337.9622     27.4847     73.1739
  1900.0000     31.5518   -335.6060     28.3579     69.7973
  1900.2500     31.9566   -333.5769     28.7507     68.1273
  1900.5000     32.0117   -332.2567     28.6847     67.0482
  1900.7500     31.6900   -331.9835     28.3083     67.6189
  1901.0000     30.9865   -332.8478     27.7799     70.9908
  1901.2500     29.9265   -334.5546     27.1685     74.9499
  1901.5000     28.5804   -336.4403     26.4505     82.6606
  1901.7500     27.0732   -337.6474     25.5901     88.1641
