~Version Information
VERS.                      2.0: CWLS Log ASCII Standard - VERSION 2.0
WRAP.                       NO: One line per depth step
~Well Information Block
STRT.FT               757.3000: 
STOP.FT              2418.0000: 
STEP.FT                 0.1000: 
NULL.                -999.2500: 
COMP.          Petrogulf Corporation: COMPANY
WELL.            Montoya 7-21V: WELL
FLD.           Purgatorie River: FIELD
LOC.           738' FSL & 2070' FWL: LOCATION
CNTY.               Las Animas: COUNTY
SRVC.                         : SERVICE COMPANY
DATE.          Fri Aug 20 14:08:15 2004: LOG DATE
UWI.           05 071 08018 00: UNIQUE WELL ID
STAT.                 Colorado: STATE
~Curve Information Block
DEPT.FT            0 000 00 00: Depth
DCAL.in                       : CDL Caliper
RHOB.g/cc                     : CDL Bulk Density
RHOC.g/cc                     : CDL Density Correction
DPOR.pu                       : CDL Density Porosity
GR.GAPI                       : Gamma Ray
NPOR.pu                       : Neutron Porosity
~Parameter Information Block
~A  Depth       DCAL        RHOB        RHOC        DPOR         GR         NPOR    
# ...
  1544.5000      8.1792      2.5378      0.0869      6.8015    172.0488     23.2237
  1544.6000      8.1792      2.5421      0.1241      6.5397    170.6047     22.3368
  1544.7000      8.1792      2.5366      0.1811      6.8725    171.8160     21.6626
  1544.8000      8.1171      2.5227      0.2410      7.7143    178.9818     22.1641
  1544.9000      8.1171      2.4887      0.2084      9.7787    184.9767     23.7082
  1545.0000      8.0774      2.4268      0.1488     13.5259    184.1397     24.6468
  1545.1000      8.0774      2.3625     -0.0392     17.4226    177.9523     24.4507
  1545.2000      8.0774      2.3348     -0.0340     19.1014    168.0795     23.9791
  1545.3000      8.0644      2.3453      0.0260     18.4675    159.7132     24.0673
  1545.4000      8.0644      2.3705      0.0243     16.9379    158.3189     25.0648
  1545.5000      8.0762      2.4087      0.0711     14.6212    161.8402     26.3362
  1545.6000      8.0762      2.4721      0.1482     10.7807    165.9915     26.7790
  1545.7000      8.0762      2.5483      0.3015      6.1637    171.1779     26.2301
  1545.8000      8.1249      2.6134      0.3475      2.2163    178.9099     25.6925
  1545.9000      8.1249      2.6601      0.3364     -0.6147    185.7599     26.2545
  1546.0000      8.1681      2.6796      0.3665     -1.7926    188.4070     27.2706
  1546.1000      8.1681      2.6677      0.1947     -1.0739    188.9350     27.0336
  1546.2000      8.1681      2.6502      0.1667     -0.0139    187.9095     25.4457
  1546.3000      8.1440      2.6451      0.1142      0.2995    183.7376     24.1369
  1546.4000      8.1440      2.6380      0.1295      0.7282    176.3029     23.8543
  1546.5000      8.1134      2.6101      0.1182      2.4165    163.7127     23.7152
  1546.6000      8.1134      2.5736      0.0382      4.6310    151.0674     23.0520
  1546.7000      8.1134      2.5552      0.0261      5.7429    147.4725     22.3761
  1546.8000      8.1237      2.5589      0.0499      5.5204    151.1297     22.2206
  1546.9000      8.1237      2.5704      0.0510      4.8235    154.4660     22.3259
  1547.0000      8.1488      2.5787      0.0647      4.3216    153.3756     21.9404
  1547.1000      8.1488      2.5793      0.0571      4.2851    147.9859     20.7187
  1547.2000      8.1488      2.5703      0.0651      4.8303    141.3712     19.4176
  1547.3000      8.1686      2.5549      0.0159      5.7656    137.8160     18.9766
  1547.4000      8.1686      2.5395      0.0151      6.6993    139.2814     19.1140
  1547.5000      8.1777      2.5302     -0.0221      7.2584    143.6136     18.8276
  1547.6000      8.1777      2.5331      0.0131      7.0837    149.2489     18.3574
  1547.7000      8.1777      2.5442     -0.0080      6.4147    152.7909     18.5825
  1547.8000      8.1740      2.5510      0.0173      5.9986    148.0757     19.4197
  1547.9000      8.1740      2.5509     -0.0306      6.0075    136.7269     19.9265
  1548.0000      8.1654      2.5530      0.0254      5.8770    129.6651     19.8966
  1548.1000      8.1654      2.5597     -0.0035      5.4717    134.3519     20.1166
  1548.2000      8.1654      2.5699      0.0117      4.8549    145.3657     20.5436
  1548.3000      8.1682      2.5800      0.0112      4.2426    149.8831     20.8505
  1548.4000      8.1682      2.5833      0.0079      4.0428    147.4326     21.4949
  1548.5000      8.1817      2.5790      0.0397      4.3026    145.2995     22.2624
  1548.6000      8.1817      2.5723      0.0043      4.7079    145.3802     22.1184
  1548.7000      8.1817      2.5693      0.0279      4.8889    145.2204     21.4444
  1548.8000      8.1811      2.5679      0.0054      4.9741    143.2204     21.1299
  1548.9000      8.1811      2.5655      0.0055      5.1185    141.3949     20.9064
  1549.0000      8.1594      2.5630     -0.0099      5.2719    139.3400     20.5958
  1549.1000      8.1594      2.5572     -0.0191      5.6257    135.4854     20.7007
  1549.2000      8.1594      2.5464     -0.0138      6.2759    132.0605     21.3320
  1549.3000      8.1304      2.5322     -0.0026      7.1403    130.8400     21.7492
  1549.4000      8.1304      2.5176      0.0029      8.0239    129.4347     21.6643
  1549.5000      8.0963      2.5129     -0.0155      8.3064    129.3130     21.4934
  1549.6000      8.0963      2.5260     -0.0155      7.5131    132.5304     21.2535
  1549.7000      8.0963      2.5498      0.0407      6.0702    137.1818     20.7718
  1549.8000      8.0738      2.5659      0.0383      5.0980    140.8888     20.1368
  1549.9000      8.0738      2.5577      0.0640      5.5967    143.3103     19.8147
  1550.0000      8.0589      2.5267      0.0008      7.4750    150.4515     19.9617
  1550.1000      8.0589      2.4995     -0.0158      9.1233    163.3735     20.3850
  1550.2000      8.0589      2.4972      0.0296      9.2628    170.4550     20.9475
  1550.3000      8.0489      2.5102      0.0547      8.4704    163.0585     21.1412
  1550.4000      8.0489      2.5232      0.0440      7.6819    146.6992     21.0042
  1550.5000      8.0602      2.5389      0.0174      6.7352    136.6548     20.9774
  1550.6000      8.0602      2.5661      0.0547      5.0845    143.4527     20.8252
  1550.7000      8.0602      2.5992      0.1419      3.0775    160.9953     20.8006
  1550.8000      8.0966      2.6259      0.1472      1.4621    177.7733     21.4108
  1550.9000      8.0966      2.6360      0.1621      0.8515    184.7328     22.0705
  1551.0000      8.1319      2.6132      0.2069      2.2311    182.0344     21.8280
  1551.1000      8.1319      2.5645      0.0550      5.1822    180.2728     21.0614
  1551.2000      8.1319      2.5214      0.0520      7.7957    179.0575     20.8297
  1551.3000      8.1383      2.4921      0.0285      9.5692    171.5045     21.2458
  1551.4000      8.1383      2.4730      0.0390     10.7292    165.1732     21.8601
  1551.5000      8.1095      2.4770     -0.0216     10.4820    170.1385     22.2970
  1551.6000      8.1095      2.5114      0.0392      8.3982    179.8431     22.3967
  1551.7000      8.1095      2.5554      0.0495      5.7336    179.7027     22.3160
  1551.8000      8.0591      2.5828      0.0847      4.0750    166.6277     22.1651
  1551.9000      8.0591      2.5864      0.0535      3.8547    153.6168     21.8218
  1552.0000      8.0336      2.5836      0.1059      4.0235    149.3569     21.0145
  1552.1000      8.0336      2.5934      0.1583      3.4305    150.5615     20.1166
  1552.2000      8.0336      2.6073      0.1609      2.5861    155.3612     20.0726
  1552.3000      8.0444      2.6032      0.1652      2.8387    160.5724     21.0194
  1552.4000      8.0444      2.5750      0.1417      4.5457    165.2680     22.0818
  1552.5000      8.0625      2.5338      0.0907      7.0401    168.5889     22.4149
  1552.6000      8.0625      2.4945      0.0268      9.4233    164.0449     22.3276
  1552.7000      8.0625      2.4735      0.0031     10.6999    151.0562     22.7023
  1552.8000      8.0694      2.4851      0.0097      9.9930    140.3899     23.1523
  1552.9000      8.0694      2.5283      0.0804      7.3779    139.5681     22.7218
  1553.0000      8.0619      2.5850      0.0973      3.9411    141.6213     21.8961
  1553.1000      8.0619      2.6312      0.1478      1.1386    139.9629     21.7638
  1553.2000      8.0619      2.6543      0.1453     -0.2614    134.4990     21.7927
  1553.3000      8.0517      2.6643      0.1419     -0.8660    127.4275     21.1056
  1553.4000      8.0517      2.6654      0.1630     -0.9329    122.5379     20.6314
  1553.5000      8.0473      2.6463      0.1340      0.2221    120.5291     20.8395
  1553.6000      8.0473      2.6157      0.0424      2.0784    118.5425     20.8381
  1553.7000      8.0473      2.5966      0.0723      3.2348    116.2536     20.5374
  1553.8000      8.0423      2.5863      0.1016      3.8602    114.0984     20.6025
  1553.9000      8.0423      2.5701      0.0101      4.8401    110.7276     21.0119
  1554.0000      8.0376      2.5510      0.0309      6.0014    109.4338     21.0892
