~Version Information
VERS.                      2.0: CWLS Log ASCII Standard - VERSION 2.0
WRAP.                       NO: One line per depth step
~Well Information Block
STRT.FT                -9.7500: 
STOP.FT              2612.5000: 
STEP.FT                 0.2500: 
NULL.                -999.2500: 
COMP.                         : COMPANY
WELL.                         : WELL
FLD.                          : FIELD
LOC.                          : LOCATION
CNTY.                         : COUNTY
SRVC.                         : SERVICE COMPANY
DATE.          Mon Nov 17 14:56:03 2003: LOG DATE
UWI.                          : UNIQUE WELL ID
STAT.                         : STATE
~Curve Information Block
DEPT.FT            0 000 00 00: Depth
CCL.                          : Casing Collar Locator
TT3.usec                      : CBL 3' Travel Time
AMP3.mV                       : CBL 3' Amplitude
GR.GAPI                       : Gamma Ray
~Parameter Information Block
~A  Depth       CCL         TT3         AMP3         GR     
# ...
  1363.7500      0.0000    288.5641     64.4853    117.8159
  1364.0000      0.0000    281.3441     68.6934     99.5827
  1364.2500      0.0000    274.6771     71.1197     81.0923
  1364.5000      0.0000    269.3011     72.1171     65.3696
  1364.7500      0.0000    265.6782     72.2674     54.0654
  1365.0000      0.0000    263.7241     72.0496     47.0767
  1365.2500      0.0000    262.9081     71.7642     42.7891
  1365.5000      0.0000    262.6542     71.5468     39.2758
  1365.7500      0.0000    262.6003     71.4395     35.8270
  1366.0000      0.0000    262.5913     71.4540     33.4688
  1366.2500      0.0000    262.5823     71.5599     34.0631
  1366.5000      0.0000    262.5762     71.6696     38.9205
  1366.7500      0.0000    262.5834     71.6996     48.1648
  1367.0000      0.0000    262.6044     71.6320     61.2987
  1367.2500      0.0000    262.6299     71.5019     78.0214
  1367.5000      0.0000    262.6521     71.3589     97.8214
  1367.7500      0.0000    262.6647     71.2640    118.6562
  1368.0000      0.0000    262.6596     71.2761    136.9308
  1368.2500      0.0000    262.6355     71.3984    149.5455
  1368.5000      0.0000    262.6045     71.5665    155.8091
  1368.7500      0.0000    262.5798     71.7177    157.1932
  1369.0000      0.0000    262.5616     71.8402    155.7220
  1369.2500      0.0000    262.5451     71.9376    152.9180
  1369.5000      0.0000    262.5341     71.9930    149.8278
  1369.7500      0.0000    262.5345     72.0022    147.4383
  1370.0000      0.0000    262.5410     72.0003    146.7268
  1370.2500      0.0000    262.5443     72.0099    147.8894
  1370.5000      0.0000    262.5475     71.9964    149.3895
  1370.7500      0.0000    262.5602     71.9199    148.5995
  1371.0000      0.0000    262.5815     71.8019    144.3881
  1371.2500      0.0000    262.6006     71.6925    138.9561
  1371.5000      0.0000    262.6140     71.5960    136.2474
  1371.7500      0.0000    262.6286     71.4869    138.2273
  1372.0000      0.0000    262.6439     71.3872    143.0280
  1372.2500      0.0000    262.6460     71.3689    146.7642
  1372.5000      0.0000    262.6262     71.4630    146.7992
  1372.7500      0.0000    262.5969     71.6110    143.3050
  1373.0000      0.0000    262.5789     71.7337    138.4225
  1373.2500      0.0000    262.5750     71.8162    134.3818
  1373.5000      0.0000    262.5721     71.8848    131.9455
  1373.7500      0.0000    262.5641     71.9282    130.2513
  1374.0000      0.0000    262.5607     71.9000    128.2829
  1374.2500      0.0000    262.5700     71.7918    126.2150
  1374.5000      0.0000    262.5876     71.6415    124.9421
  1374.7500      0.0000    262.6088     71.4660    124.7644
  1375.0000      0.0000    262.6383     71.2488    125.2486
  1375.2500      0.0000    262.6770     71.0222    126.0547
  1375.5000      0.0000    262.7062     70.9076    127.1114
  1375.7500      0.0000    262.6996     71.0136    128.0135
  1376.0000      0.0000    262.6541     71.3046    127.8962
  1376.2500      0.0000    262.5977     71.6108    126.2503
  1376.5000      0.0000    262.5647     71.7749    123.6122
  1376.7500      0.0000    262.5651     71.7674    121.1553
  1377.0000      0.0000    262.5838     71.6627    119.9102
  1377.2500      0.0000    262.6039     71.5382    120.5846
  1377.5000      0.0000    262.6232     71.4240    123.3911
  1377.7500      0.0000    262.6440     71.3384    127.4560
  1378.0000      0.0000    262.6564     71.3282    131.0867
  1378.2500      0.0000    262.6433     71.4322    133.4616
  1378.5000      0.0000    262.6051     71.6114    135.6276
  1378.7500      0.0000    262.5658     71.7669    139.0383
  1379.0000      0.0000    262.5496     71.8436    143.5059
  1379.2500      0.0000    262.5533     71.8857    147.3997
  1379.5000      0.0000    262.5533     71.9674    149.6030
  1379.7500      0.0000    262.5354     72.0902    150.6163
  1380.0000      0.0000    262.5118     72.1796    151.8170
  1380.2500      0.0000    262.5029     72.1861    153.8369
  1380.5000      0.0000    262.5080     72.1649    155.6247
  1380.7500      0.0000    262.5040     72.2239    155.4416
  1381.0000      0.0000    262.4784     72.3893    153.0586
  1381.2500      0.0000    262.4550     72.5566    150.3683
  1381.5000      0.0000    262.5095     72.5915    149.2106
  1381.7500      0.0000    262.7987     72.4474    148.9711
  1382.0000      0.0000    263.6511     72.1049    147.1210
  1382.2500      0.0000    265.6080     71.3668    142.3227
  1382.5000      0.0000    269.2245     69.7616    136.3128
  1382.7500      0.0000    274.6712     66.7665    132.3465
  1383.0000      0.0000    281.5258     62.2525    132.4192
  1383.2500      0.0000    288.9390     56.8125    136.3214
  1383.5000      0.0000    295.8994     51.6232    142.3521
  1383.7500      0.0000    301.4727     47.7894    148.0855
  1384.0000      0.0000    305.1524     45.6772    151.1181
  1384.2500      0.0000    307.0986     44.8732    150.2937
  1384.5000      0.0000    307.9265     44.7050    146.4852
  1384.7500     -2.0000    308.2479     44.6491    141.6366
  1385.0000      0.0000    308.3906     44.3737    136.7572
  1385.2500      0.0000    308.3391     43.7861    131.0692
  1385.5000      0.0000    307.7323     43.2548    123.4146
  1385.7500      0.0000    305.8876     43.6475    114.3205
  1386.0000      0.0000    302.0019     45.9135    106.3339
  1386.2500      0.0000    295.6107     50.4797    102.3215
  1386.5000      0.0000    287.1653     56.8385    103.6722
  1386.7500      0.0000    278.1905     63.6027    109.9847
  1387.0000      0.0000    270.5816     69.1783    119.8027
  1387.2500      0.0000    265.4865     72.6867    131.2190
  1387.5000      0.0000    262.8253     74.3188    142.1486
  1387.7500      0.0000    261.7645     74.8734    150.6888
  1388.0000      0.0000    261.4496     75.0743    155.6209
  1388.2500      0.0000    261.3624     75.2421    157.0112
  1388.5000      0.0000    261.3003     75.3694    156.6668
  1388.7500      0.0000    261.2405     75.3503    157.6038
  1389.0000      0.0000    261.2219     75.1653    162.0135
  1389.2500      0.0000    261.2675     74.9264    168.9791
  1389.5000      0.0000    261.3513     74.7949    174.4425
  1389.7500      0.0000    261.4141     74.8513    174.3073
  1390.0000      0.0000    261.4128     75.0242    167.9830
  1390.2500      0.0000    261.3587     75.1432    158.6951
  1390.5000      0.0000    261.3079     75.0782    150.6362
  1390.7500      0.0000    261.3124     74.8466    146.3270
  1391.0000      0.0000    261.3777     74.6015    146.0475
  1391.2500      0.0000    261.4590     74.5130    148.3692
  1391.5000      0.0000    261.4957     74.6384    150.8787
  1391.7500      0.0000    261.4562     74.8819    151.4961
  1392.0000      0.0000    261.3637     75.0666    149.9674
  1392.2500      0.0000    261.2821     75.0611    147.9934
  1392.5000      0.0000    261.2706     74.8698    147.7405
  1392.7500      0.0000    261.3414     74.6297    150.1961
  1393.0000      0.0000    261.4514     74.5170    154.5016
  1393.2500      0.0000    261.5340     74.6223    158.6245
  1393.5000      0.0000    261.5465     74.8827    161.0454
  1393.7500      0.0000    261.4971     75.1249    161.8866
  1394.0000      0.0000    261.4357     75.1890    162.2009
  1394.2500      0.0000    261.4163     75.0447    162.4703
  1394.5000      0.0000    261.4564     74.8161    162.0390
  1394.7500      0.0000    261.5243     74.6923    159.7039
  1395.0000      0.0000    261.5625     74.7837    154.8344
  1395.2500      0.0000    261.5317     75.0352    148.4773
  1395.5000      0.0000    261.4431     75.2648    143.3928
  1395.7500      0.0000    261.3522     75.2912    142.3123
  1396.0000      0.0000    261.3198     75.0570    145.6608
  1396.2500      0.0000    261.3698     74.6716    151.2376
  1396.5000      0.0000    261.4776     74.3472    156.2421
  1396.7500      0.0000    261.5893     74.2651    159.2755
  1397.0000      0.0000    261.6512     74.4631    160.4165
