~Version Information
VERS.                      2.0: CWLS Log ASCII Standard - VERSION 2.0
WRAP.                       NO: One line per depth step
~Well Information Block
STRT.FT               420.0000: 
STOP.FT              1527.5000: 
STEP.FT                 0.1000: 
NULL.                -999.2500: 
COMP.          Evergreen Operating Corporation: COMPANY
WELL.              Chase 21-10: WELL
FLD.           Purgatoire River: FIELD
LOC.           1122' FNL & 1544' FWL: LOCATION
PROV.                       CO: PROVINCE
CNTY.               Las Animas: COUNTRY
SRVC.                         : SERVICE COMPANY
DATE.          Tue May 25 08:18:37 2004: LOG DATE
UWI.           05 071 08006 00: UNIQUE WELL ID
~Curve Information Block
DEPT.FT            0 000 00 00: Depth
DCAL.in                       : CDL Caliper
RHOB.g/cc                     : CDL Bulk Density
RHOC.g/cc                     : CDL Density Correction
DPOR.pu                       : CDL Density Porosity
GR.GAPI                       : Gamma Ray
NPOR.pu                       : Neutron Porosity
~Parameter Information Block
~A  Depth       DCAL        RHOB        RHOC        DPOR         GR         NPOR    
# ...
  1226.4000      7.8364      2.4998      0.0652      9.1059     62.7293     43.5629
  1226.5000      7.8255      2.5435      0.1034      6.4526     64.0175     43.3010
  1226.6000      7.8255      2.5716      0.0634      4.7508     61.3803     42.7329
  1226.7000      7.8255      2.5848      0.1376      3.9514     59.3530     42.1490
  1226.8000      7.8445      2.5984      0.1291      3.1247     61.9403     42.0313
  1226.9000      7.8445      2.6225      0.0877      1.6687     62.7777     42.5015
  1227.0000      7.8432      2.6387      0.1519      0.6837     55.9358     43.1333
  1227.1000      7.8432      2.6189      0.1153      1.8821     49.3222     43.2674
  1227.2000      7.8432      2.5759      0.0846      4.4923     49.1056     42.8419
  1227.3000      7.8210      2.5402      0.0716      6.6534     48.3960     42.4708
  1227.4000      7.8210      2.5244      0.0417      7.6122     45.0460     42.5721
  1227.5000      7.8573      2.5260     -0.0067      7.5165     46.3685     43.0799
  1227.6000      7.8573      2.5301      0.0053      7.2657     52.6158     43.5149
  1227.7000      7.8573      2.5352     -0.0273      6.9602     56.5136     43.4299
  1227.8000      7.8739      2.5540      0.0346      5.8205     56.5071     42.9787
  1227.9000      7.8739      2.5749      0.1137      4.5520     55.7729     42.5671
  1228.0000      7.8838      2.5697      0.1264      4.8675     57.0970     42.2692
  1228.1000      7.8838      2.5387      0.0380      6.7435     61.0880     42.0032
  1228.2000      7.8838      2.5204      0.0548      7.8546     65.1057     41.8544
  1228.3000      7.8806      2.5424      0.0531      6.5197     66.2829     42.0009
  1228.4000      7.8806      2.5877      0.0809      3.7777     64.2337     42.4572
  1228.5000      7.8398      2.6194      0.1283      1.8575     61.1312     42.9736
  1228.6000      7.8398      2.6200      0.1004      1.8188     59.9007     43.3219
  1228.7000      7.8398      2.5882      0.1537      3.7454     59.3636     43.5580
  1228.8000      7.8816      2.5261      0.0438      7.5113     57.2588     43.8596
  1228.9000      7.8816      2.4650      0.0466     11.2116     56.8412     44.1692
  1229.0000      7.9214      2.4451      0.0200     12.4202     60.3258     44.3668
  1229.1000      7.9214      2.4752      0.0211     10.5967     62.0863     44.4607
  1229.2000      7.9214      2.5241      0.1195      7.6289     59.1342     44.5140
  1229.3000      7.8978      2.5445      0.0835      6.3966     55.2986     44.6441
  1229.4000      7.8978      2.5293      0.0662      7.3141     51.3893     44.7862
  1229.5000      7.9253      2.5183      0.0301      7.9824     47.1311     44.8036
  1229.6000      7.9253      2.5423      0.0874      6.5300     45.0783     44.7152
  1229.7000      7.9253      2.5831      0.1669      4.0556     46.7691     44.5777
  1229.8000      7.8768      2.6040      0.1083      2.7893     49.4927     44.3473
  1229.9000      7.8768      2.5993      0.1214      3.0720     49.3504     44.0629
  1230.0000      7.8777      2.5932      0.0925      3.4404     46.8726     44.0075
  1230.1000      7.8777      2.6006      0.1261      2.9955     43.6423     43.9745
  1230.2000      7.8777      2.6083      0.1312      2.5293     40.7007     43.5300
  1230.3000      7.8951      2.6101      0.0761      2.4172     39.8114     43.0080
  1230.4000      7.8951      2.6132      0.0644      2.2312     39.4876     42.7120
  1230.5000      7.8825      2.6044      0.1582      2.7638     37.2432     42.4764
  1230.6000      7.8825      2.5779      0.0367      4.3721     34.8667     42.5081
  1230.7000      7.8825      2.5589      0.0076      5.5224     35.9231     42.8946
  1230.8000      7.8734      2.5441      0.1067      6.4176     39.8345     43.1766
  1230.9000      7.8734      2.4922      0.1390      9.5616     42.5856     43.3605
  1231.0000      7.8425      2.3977      0.1126     15.2924     41.0121     43.7530
  1231.1000      7.8425      2.2941      0.0474     21.5687     35.4431     44.2220
  1231.2000      7.8425      2.1867      0.0344     28.0758     29.5504     44.7699
  1231.3000      7.8382      2.0478      0.0100     36.4969     27.7490     45.3429
  1231.4000      7.8382      1.8791     -0.0829     46.7211     30.1892     45.5484
  1231.5000      7.8028      1.7243     -0.1386     56.1054     32.4410     45.5667
  1231.6000      7.8028      1.6112     -0.1385     62.9548     32.1650     45.7837
  1231.7000      7.8028      1.5305     -0.0728     67.8465     30.6437     46.0852
  1231.8000      7.8269      1.4734     -0.0873     71.3087     29.0475     46.3163
  1231.9000      7.8269      1.4354      0.0574     73.6135     27.9095     46.5580
  1232.0000      7.8529      1.3988      0.0739     75.8303     27.9727     47.0349
  1232.1000      7.8529      1.3623      0.0223     78.0402     30.8391     47.6543
  1232.2000      7.8529      1.3470      0.0141     78.9700     37.3993     47.9475
  1232.3000      7.9920      1.3616      0.0099     78.0870     45.8061     47.9178
  1232.4000      7.9920      1.3955     -0.0137     76.0278     52.1585     47.9319
  1232.5000      8.1571      1.4324      0.0515     73.7935     54.1978     48.0259
  1232.6000      8.1571      1.4673      0.0481     71.6759     57.0114     48.1516
  1232.7000      8.1571      1.5163      0.0740     68.7070     67.5625     48.2697
  1232.8000      8.4663      1.5869      0.1632     64.4331     80.3054     48.1873
  1232.9000      8.4663      1.6722      0.1101     59.2629     82.8598     47.9767
  1233.0000      8.6562      1.7716      0.1816     53.2354     77.1606     47.9465
  1233.1000      8.6562      1.8820      0.1999     46.5480     73.9808     48.1384
  1233.2000      8.6562      1.9931      0.1970     39.8124     74.3136     48.2286
  1233.3000      8.2998      2.0960      0.1449     33.5737     75.4830     48.0240
  1233.4000      8.2998      2.1863      0.2725     28.1023     77.4559     47.6323
  1233.5000      8.0696      2.2735      0.2630     22.8153     77.6964     47.1809
  1233.6000      8.0696      2.3798      0.2538     16.3787     76.6936     46.8166
  1233.7000      8.0696      2.4907      0.2507      9.6524     80.6705     46.6121
  1233.8000      7.9562      2.5644      0.2296      5.1877     92.4186     46.3364
  1233.9000      7.9562      2.5933      0.1393      3.4382    103.9494     45.8258
  1234.0000      7.9310      2.5921      0.1395      3.5062    104.4930     45.2854
  1234.1000      7.9310      2.5664      0.0947      5.0674     95.5607     44.7713
  1234.2000      7.9310      2.5265      0.1208      7.4849     88.6357     44.2110
  1234.3000      7.9495      2.4867      0.0718      9.8957     88.8628     43.8663
  1234.4000      7.9495      2.4638      0.0105     11.2853     91.1941     43.9337
  1234.5000      7.9967      2.4661      0.0114     11.1440     90.1697     44.1842
  1234.6000      7.9967      2.4708      0.0685     10.8598     88.8432     44.3366
  1234.7000      7.9967      2.4533     -0.0506     11.9218     90.3745     44.3225
  1234.8000      8.0111      2.4325     -0.1172     13.1832     92.8691     44.0850
  1234.9000      8.0111      2.4424     -0.0707     12.5820     95.0861     43.8227
  1235.0000      7.9720      2.4788      0.0093     10.3780     95.4302     43.7819
  1235.1000      7.9720      2.5031      0.0943      8.9013     93.1975     43.8265
  1235.2000      7.9720      2.4913      0.0447      9.6160     90.5083     43.7542
  1235.3000      7.9444      2.4596     -0.0189     11.5398     86.4256     43.7957
  1235.4000      7.9444      2.4413     -0.0077     12.6509     80.3655     44.2625
  1235.5000      7.9336      2.4583      0.0245     11.6167     76.7081     44.7751
  1235.6000      7.9336      2.4920      0.1340      9.5763     78.2144     44.8966
  1235.7000      7.9336      2.5055     -0.0010      8.7593     81.9191     44.8119
  1235.8000      7.9214      2.4987      0.0110      9.1676     85.6097     44.7788
  1235.9000      7.9214      2.4894      0.0489      9.7341     90.3351     44.8224
