~Version Information
 VERS.                                  2.0 : CWLS LAS VERSION
 WRAP.                                   NO : WRAPING MODE
 SWARE .                 MController 2.5.0N : SOFTWARE VERSION
~Well Information
 WELL.                                  N/A : WELL
 COMP.                                  N/A : COMPANY
 FLD.                                   N/A : FIELD
 LOC.                                   N/A : LOCATION
 DATE.                                  N/A : DATE(S) LOGGED
 SRVC.                                  N/A : SERVICE COMPANY
 STAT.                                  N/A : STATE
 CNTY.                                  N/A : COUNTY
 CTRY.                                  N/A : COUNTRY
 API.                                   N/A : API NUMBER
 STRT.FT                             445.00 : START DEPTH
 STOP.FT                            1905.00 : STOP DEPTH
 STEP.FT                               1.00 : DEPTH INCREMENT
 NULL.                                -9999 : NULL VALUE
~Curve information
 DEPTH.FT                                   :
 ROP.MIN/FT                                 :
 GAS.UNITS                                  :
~ASCII Log data
# ...
      1045.0         0.17         15.9 
      1046.0         6.37         16.6 
      1047.0         0.83         14.2 
      1048.0         0.23         14.5 
      1049.0         0.37         14.8 
      1050.0         0.32         14.2 
      1051.0         0.27         13.8 
      1052.0         0.27         12.4 
      1053.0         0.27         13.0 
      1054.0         0.27         15.3 
      1055.0         0.23         14.1 
      1056.0         0.30         14.7 
      1057.0         0.23         15.0 
      1058.0         0.23         15.6 
      1059.0         0.20         15.5 
      1060.0         0.20         16.4 
      1061.0         0.20         17.3 
      1062.0         0.20         16.6 
      1063.0         0.13         16.6 
      1064.0         0.18         18.2 
      1065.0         0.23         18.2 
      1066.0         0.13         17.5 
      1067.0         0.13         17.5 
      1068.0         0.20         18.8 
      1069.0         0.20         20.1 
      1070.0         0.23         17.6 
      1071.0         0.20         18.9 
      1072.0         0.23         19.7 
      1073.0         0.20         19.8 
      1074.0         0.23         20.6 
      1075.0         0.23         19.9 
      1076.0         1.48         22.2 
      1077.0         0.27         20.2 
      1078.0         0.37         20.9 
      1079.0         0.33         18.9 
      1080.0         0.30         18.9 
      1081.0         0.27         19.2 
      1082.0         0.23         17.7 
      1083.0         0.20         18.6 
      1084.0         0.43         20.2 
      1085.0         0.30         19.2 
      1086.0         0.25         18.0 
      1087.0         0.27         17.3 
      1088.0         0.27         16.6 
      1089.0         0.23         17.1 
      1090.0         0.20         16.6 
      1091.0         0.23         17.3 
      1092.0         0.13         16.1 
      1093.0         0.23         18.1 
      1094.0         0.23         15.8 
      1095.0         0.23         17.5 
      1096.0         0.23         14.9 
      1097.0         0.30         15.5 
      1098.0         0.23         15.1 
      1099.0         0.20         15.5 
      1100.0         0.23         14.2 
      1101.0         0.22         15.1 
      1102.0         0.27         14.4 
      1103.0         0.23         14.9 
      1104.0         0.20         14.7 
      1105.0         0.23         13.7 
      1106.0         1.20         14.9 
      1107.0         0.27         12.3 
      1108.0         0.63         14.6 
      1109.0         0.25         13.1 
      1110.0         0.23         13.7 
      1111.0         0.30         13.6 
      1112.0         0.27         12.3 
      1113.0         0.27         12.9 
      1114.0         0.37         12.1 
      1115.0         0.30         12.0 
      1116.0         0.27         12.4 
      1117.0         0.20         12.0 
      1118.0         0.20         12.9 
      1119.0         0.27         14.1 
      1120.0         0.17         14.3 
      1121.0         0.17         14.0 
      1122.0         0.10         13.9 
      1123.0         0.25         15.4 
      1124.0         0.37         14.8 
      1125.0         0.17         14.4 
      1126.0         0.23         15.6 
      1127.0         0.27         16.6 
      1128.0         0.23         15.4 
      1129.0         0.23         16.6 
      1130.0         0.23         16.0 
      1131.0         0.23         17.5 
      1132.0         0.23         16.8 
      1133.0         0.23         17.7 
      1134.0         0.23         17.3 
      1135.0         0.20         19.6 
      1136.0         0.72         19.6 
      1137.0         0.63         19.8 
      1138.0         0.10         20.1 
      1139.0         0.10         20.1 
      1140.0         0.43         19.5 
      1141.0         0.37         22.0 
      1142.0         0.33         22.5 
      1143.0         0.27         21.5 
      1144.0         0.27         23.3 
      1145.0         0.27         21.4 
      1146.0         0.28         21.6 
      1147.0         0.23         21.3 
      1148.0         0.27         21.9 
      1149.0         0.30         20.9 
      1150.0         0.23         21.2 
      1151.0         0.23         21.6 
      1152.0         0.23         23.6 
      1153.0         0.10         23.6 
      1154.0         0.20         23.2 
      1155.0         0.10         21.5 
      1156.0         0.37         22.9 
      1157.0         0.23         24.4 
      1158.0         0.20         23.4 
      1159.0         0.23         24.7 
      1160.0         0.23         24.6 
      1161.0         0.28         25.1 
      1162.0         0.23         22.7 
      1163.0         0.27         22.1 
      1164.0         0.27         22.4 
      1165.0         0.27         22.7 
      1166.0         1.27         23.6 
      1167.0         0.37         22.7 
      1168.0         0.40         23.5 
      1169.0         0.32         23.7 
      1170.0         0.30         22.8 
      1171.0         0.27         24.1 
      1172.0         0.23         22.1 
      1173.0         0.23         21.1 
      1174.0         0.20         22.1 
      1175.0         0.27         23.4 
      1176.0         0.30         23.3 
      1177.0         0.23         21.1 
      1178.0         0.23         21.5 
      1179.0         0.17         21.3 
      1180.0         0.20         23.2 
      1181.0         0.23         22.4 
      1182.0         0.20         23.8 
      1183.0         0.22         23.8 
      1184.0         0.37         23.7 
      1185.0         0.27         22.5 
      1186.0         0.23         21.4 
      1187.0         0.20         23.4 
      1188.0         0.17         23.1 
      1189.0         0.23         22.9 
      1190.0         0.20         23.1 
      1191.0         0.27         21.2 
      1192.0         0.23         22.0 
      1193.0         0.20         22.0 
      1194.0         0.27         21.9 
      1195.0         0.23         23.0 
      1196.0         0.72         23.9 
      1197.0         0.70         23.4 
      1198.0         0.10         21.7 
      1199.0         0.17         21.7 
      1200.0         0.37         22.8 
      1201.0         0.43         22.3 
      1202.0         0.30         22.6 
      1203.0         0.33         23.6 
      1204.0         0.27         24.0 
      1205.0         0.28         23.5 
      1206.0         0.30         22.7 
      1207.0         0.23         22.8 
      1208.0         0.27         23.6 
      1209.0         0.27         24.1 
      1210.0         0.23         22.9 
      1211.0         0.23         23.7 
      1212.0         0.20         21.8 
      1213.0         0.20         22.5 
      1214.0         0.20         22.2 
      1215.0         0.27         23.3 
      1216.0         0.20         23.0 
      1217.0         0.13         23.0 
      1218.0         0.33         23.1 
      1219.0         0.28         22.6 
      1220.0         0.23         21.3 
      1221.0         0.20         21.2 
      1222.0         0.23         23.1 
      1223.0         0.23         22.1 
      1224.0         0.23         21.8 
      1225.0         0.27         23.2 
      1226.0         1.53         24.1 
      1227.0         0.42         20.7 
      1228.0         0.53         23.0 
      1229.0         0.30         23.1 
      1230.0         0.27         22.6 
      1231.0         0.30         22.7 
      1232.0         0.23         20.9 
      1233.0         0.33         22.2 
      1234.0         0.30         20.6 
      1235.0         0.30         19.8 
      1236.0         0.27         21.4 
      1237.0         0.27         20.3 
      1238.0         0.28         21.6 
      1239.0         0.23         21.3 
      1240.0         0.20         20.4 
      1241.0         0.23         21.5 
      1242.0         0.23         21.3 
      1243.0         0.23         20.6 
      1244.0         0.20         20.5 
