~Version Information
VERS.                      2.0: CWLS Log ASCII Standard - VERSION 2.0
WRAP.                       NO: One line per depth step
~Well Information Block
STRT.FT               454.0000: 
STOP.FT              1389.0000: 
STEP.FT                 0.1000: 
NULL.                -999.2500: 
COMP.          Pioneer Natural Resources: COMPANY
WELL.          Lorencito 6-3-34-66: WELL
FLD.           Purgatoire River: FIELD
LOC.           2545' FNL & 1914' FWL: LOCATION
STAT.                 Colorado: State
CNTY.               Las Animas: COUNTY
CTRY. USA : Country
SECT. 3 : Section
TOWN. 34S : Township
RANG. 66W : Range
SRVC.                Patterson: SERVICE COMPANY
DATE.          Mon Sep 12 07:20:37 2005: LOG DATE
API.        05 071 08369 00: UNIQUE WELL ID
~Curve Information Block
DEPT.FT            0 000 00 00: Depth
DCAL.in                       : CDL Caliper
RHOB.g/cc                     : CDL Bulk Density
RHOC.g/cc                     : CDL Density Correction
DPOR.pu                       : CDL Density Porosity
GR.GAPI                       : Gamma Ray
NPOR.pu                       : Neutron Porosity
~Parameter Information Block
~A  Depth       DCAL        RHOB        RHOC        DPOR         GR         NPOR    
# ...
  1068.4000      8.0192      2.4787      0.0703     10.3832    128.6472     25.4392
  1068.5000      8.0656      2.4576      0.0744     11.6627    129.4732     25.3675
  1068.6000      8.0656      2.4581      0.1086     11.6295    125.4910     25.6183
  1068.7000      8.0656      2.4540      0.0710     11.8810    116.6280     25.5603
  1068.8000      8.0932      2.4383     -0.0196     12.8276    107.5968     25.2425
  1068.9000      8.0932      2.4360      0.0248     12.9687    102.5906     24.9181
  1069.0000      8.0738      2.4568      0.0047     11.7119    102.3225     25.2125
  1069.1000      8.0738      2.4860      0.0314      9.9417    103.4617     25.9964
  1069.2000      8.0738      2.5090      0.0428      8.5458    104.7424     26.0901
  1069.3000      8.0640      2.5248      0.0308      7.5889    107.3343     25.5028
  1069.4000      8.0640      2.5343      0.0621      7.0123    108.3669     25.2970
  1069.5000      8.0906      2.5364      0.0275      6.8846    108.2976     25.4508
  1069.6000      8.0906      2.5390      0.0275      6.7245    113.0044     25.1927
  1069.7000      8.0906      2.5411      0.0626      6.5991    117.9992     24.5911
  1069.8000      8.0479      2.5311      0.0319      7.2060    115.8469     24.1855
  1069.9000      8.0479      2.5143      0.0248      8.2261    108.9420     24.3755
  1070.0000      8.0627      2.5029     -0.0033      8.9147    104.3382     25.2696
  1070.1000      8.0627      2.4948      0.0419      9.4032    105.2340     26.1641
  1070.2000      8.0627      2.4905      0.0038      9.6665    110.2901     26.2790
  1070.3000      8.0303      2.4981      0.0186      9.2062    115.7085     25.6429
  1070.4000      8.0303      2.4999      0.0906      9.0942    120.5399     24.9964
  1070.5000      8.0591      2.4742      0.0505     10.6564    127.7539     24.9968
  1070.6000      8.0591      2.4387     -0.0616     12.8030    132.8531     25.6788
  1070.7000      8.0591      2.4223      0.0050     13.7988    129.9368     26.4668
  1070.8000      8.0631      2.4275     -0.0190     13.4850    123.0279     26.7961
  1070.9000      8.0631      2.4413     -0.0114     12.6491    119.0510     26.4967
  1071.0000      8.0793      2.4521      0.0312     11.9950    119.4104     25.8809
  1071.1000      8.0793      2.4578      0.0347     11.6459    121.2048     25.5820
  1071.2000      8.0793      2.4559      0.0446     11.7661    121.1260     26.2161
  1071.3000      8.0794      2.4337      0.0446     13.1086    120.1933     27.5505
  1071.4000      8.0794      2.3889     -0.0157     15.8266    123.5538     28.3325
  1071.5000      8.0397      2.3368     -0.0464     18.9834    130.6637     27.9534
  1071.6000      8.0397      2.2877     -0.0249     21.9590    134.1558     27.4906
  1071.7000      8.0397      2.2428     -0.0385     24.6758    128.1381     27.7538
  1071.8000      8.0766      2.2123     -0.0891     26.5275    115.8408     28.1796
  1071.9000      8.0766      2.1992      0.0037     27.3239    106.6824     27.8127
  1072.0000      8.0829      2.1833     -0.0178     28.2866    106.5515     26.6826
  1072.1000      8.0829      2.1471      0.0305     30.4790    109.8277     26.0858
  1072.2000      8.0829      2.0895      0.0342     33.9697    104.1529     26.6113
  1072.3000      8.0447      2.0231      0.0071     37.9962     88.8259     27.5745
  1072.4000      8.0447      1.9670      0.0132     41.3961     78.6088     28.2267
  1072.5000      8.0807      1.9273      0.0208     43.7975     81.5204     28.6789
  1072.6000      8.0807      1.8868      0.0119     46.2518     88.6356     29.3611
  1072.7000      8.0807      1.8226      0.0108     50.1484     90.5753     30.1737
  1072.8000      8.1184      1.7379     -0.0401     55.2765     89.0789     30.5805
  1072.9000      8.1184      1.6646     -0.0138     59.7203     87.2046     30.2674
  1073.0000      8.0746      1.6223      0.0102     62.2851     85.2734     29.8644
  1073.1000      8.0746      1.5987      0.0362     63.7144     84.0582     30.2395
  1073.2000      8.0746      1.5729     -0.0020     65.2761     82.0164     31.3377
  1073.3000      8.0938      1.5349      0.0426     67.5834     76.0434     32.1515
  1073.4000      8.0938      1.4839     -0.0200     70.6733     66.1820     32.0633
  1073.5000      8.1250      1.4266     -0.0083     74.1429     57.9183     31.3849
  1073.6000      8.1250      1.3728     -0.0051     77.4065     55.0412     30.8304
  1073.7000      8.1250      1.3386     -0.0419     79.4811     54.2574     30.6687
  1073.8000      8.2330      1.3419     -0.0022     79.2769     52.7657     30.7716
  1073.9000      8.2330      1.3918      0.0054     76.2539     51.6533     31.5793
  1074.0000      8.2579      1.4844      0.0486     70.6406     51.1138     33.2649
  1074.1000      8.2579      1.6011      0.1016     63.5669     50.7820     34.4134
  1074.2000      8.2579      1.7225      0.1526     56.2100     51.6801     33.8287
  1074.3000      8.1287      1.8420      0.1598     48.9720     54.2271     32.2843
  1074.4000      8.1287      1.9573      0.2078     41.9819     58.4159     31.4642
  1074.5000      8.0619      2.0694      0.1995     35.1856     65.9436     31.9648
  1074.6000      8.0619      2.1839      0.2385     28.2456     75.0785     32.9174
  1074.7000      8.0619      2.2911      0.2391     21.7536     82.4579     33.0976
  1074.8000      8.0579      2.3681      0.2048     17.0875     88.0157     32.4423
  1074.9000      8.0579      2.4078      0.1342     14.6797     92.2074     31.6375
  1075.0000      8.0412      2.4266      0.1130     13.5400     96.5213     31.1595
  1075.1000      8.0412      2.4438      0.0904     12.4999    100.4914     30.7453
  1075.2000      8.0412      2.4584      0.1141     11.6095    100.3982     29.8965
  1075.3000      8.1355      2.4572      0.0968     11.6876     97.1024     29.0076
  1075.4000      8.1355      2.4476      0.0259     12.2661     96.2633     28.7652
  1075.5000      8.1398      2.4520      0.0560     11.9985    103.0781     29.0093
  1075.6000      8.1398      2.4731      0.0447     10.7241    111.1583     29.0469
  1075.7000      8.1398      2.4932      0.0553      9.5006    110.8511     28.6209
  1075.8000      8.0776      2.4995      0.0666      9.1214    109.4419     28.2338
  1075.9000      8.0776      2.4974      0.0649      9.2487    117.6146     27.9977
  1076.0000      8.0920      2.4912      0.0848      9.6232    127.4400     27.7582
  1076.1000      8.0920      2.4833      0.0542     10.1059    126.3129     28.0574
  1076.2000      8.0920      2.4906      0.0205      9.6617    118.7422     28.8154
  1076.3000      8.0244      2.5147      0.1313      8.2009    117.5245     29.3133
  1076.4000      8.0244      2.5254      0.1222      7.5528    121.2969     29.2406
  1076.5000      7.9731      2.5076      0.0747      8.6324    120.5586     28.6437
  1076.6000      7.9731      2.4783      0.0445     10.4033    119.0960     27.8368
  1076.7000      7.9731      2.4565      0.0393     11.7250    124.7589     27.1852
  1076.8000      7.9699      2.4514      0.0238     12.0345    130.8989     26.7906
  1076.9000      7.9699      2.4670      0.0034     11.0883    129.4222     26.9345
  1077.0000      7.9770      2.4916      0.0301      9.5997    126.7216     27.4594
  1077.1000      7.9770      2.4997      0.0248      9.1074    126.4582     27.5712
  1077.2000      7.9770      2.4824      0.0302     10.1564    120.1245     27.2925
  1077.3000      8.0505      2.4574      0.0109     11.6705    108.3762     27.2506
  1077.4000      8.0505      2.4506      0.0074     12.0845    104.2226     27.2830
  1077.5000      8.1098      2.4642      0.0280     11.2617    111.0960     26.9600
  1077.6000      8.1098      2.4699      0.0620     10.9150    119.3827     26.3567
  1077.7000      8.1098      2.4379      0.0482     12.8536    124.1658     25.9885
  1077.8000      8.1493      2.3605      0.0438     17.5477    127.6665     26.2492
  1077.9000      8.1493      2.2596      0.0012     23.6632    130.2607     26.7359
