~Version Information
 VERS.                                  2.0 : CWLS LAS VERSION
 WRAP.                                   NO : WRAPING MODE
 SWARE .                 MController 2.5.0J : SOFTWARE VERSION
~Well Information
 WELL.                        HARRIER 44-33 : WELL
 COMP.    PIONEER NATURAL RESOURCES USA INC : COMPANY
 FLD.                      PURGATOIRE RIVER : FIELD
 LOC.                SE/SE SEC 33 T32S R66W : LOCATION
 DATE.                          06/19-20/05 : DATE(S) LOGGED
 SRVC.       BLANCO GEOLOGICAL SERVICES LLC : SERVICE COMPANY
 STAT.                             COLORADO : STATE
 CNTY.                           LAS ANIMAS : COUNTY
 CTRY.                                  USA : COUNTRY
 API.                       05-071-08398-00 : API NUMBER
 STRT.FT                             665.00 : START DEPTH
 STOP.FT                            2381.00 : STOP DEPTH
 STEP.FT                               1.00 : DEPTH INCREMENT
 NULL.                                -9999 : NULL VALUE
~Curve information
 DEPTH.FT                                   :
 ROP.MIN/FT                                 :
 GAS.UNITS                                  :
~ASCII Log data
# ...
      1465.0         0.30         25.0 
      1466.0         1.93         59.5 
      1467.0         0.58        110.8 
      1468.0         0.27        110.4 
      1469.0         0.23         94.5 
      1470.0         0.23         76.0 
      1471.0         0.33         63.2 
      1472.0         0.20         53.9 
      1473.0         0.10         47.4 
      1474.0         0.10         43.6 
      1475.0         0.17         40.1 
      1476.0         0.23         40.7 
      1477.0         0.23         44.6 
      1478.0         0.23         45.1 
      1479.0         0.23         42.4 
      1480.0         0.20         38.4 
      1481.0         0.22         35.7 
      1482.0         0.20         33.6 
      1483.0         0.20         32.9 
      1484.0         0.20         32.5 
      1485.0         0.20         31.9 
      1486.0         0.20         31.6 
      1487.0         0.20         30.9 
      1488.0         0.23         30.6 
      1489.0         0.17         30.0 
      1490.0         0.20         29.5 
      1491.0         0.20         29.2 
      1492.0         0.20         28.6 
      1493.0         0.20         28.6 
      1494.0         0.17         28.8 
      1495.0         0.23         28.5 
      1496.0         2.35         65.7 
      1497.0         0.20         81.3 
      1498.0         0.57        172.5 
      1499.0         0.40        171.6 
      1500.0         0.32        116.4 
      1501.0         0.30         78.7 
      1502.0         0.27         59.7 
      1503.0         0.27         50.5 
      1504.0         0.27         43.6 
      1505.0         0.30         37.5 
      1506.0         0.23         33.4 
      1507.0         0.23         30.7 
      1508.0         0.23         28.4 
      1509.0         0.23         27.4 
      1510.0         0.20         25.7 
      1511.0         0.23         25.6 
      1512.0         0.20         25.5 
      1513.0         0.17         25.3 
      1514.0         0.18         25.1 
      1515.0         0.23         24.6 
      1516.0         0.10         24.1 
      1517.0         0.20         24.5 
      1518.0         0.20         31.0 
      1519.0         0.20         37.3 
      1520.0         0.23         39.8 
      1521.0         0.20         40.0 
      1522.0         0.27         40.0 
      1523.0         0.23         38.9 
      1524.0         0.27         38.4 
      1525.0         0.23         37.0 
      1526.0         3.98        196.5 
      1527.0         0.38         72.2 
      1528.0         0.27         57.9 
      1529.0         0.43         52.6 
      1530.0         0.57         46.1 
      1531.0         0.40         34.9 
      1532.0         0.23         27.6 
      1533.0         0.30         32.0 
      1534.0         0.27         34.5 
      1535.0         0.20         34.3 
      1536.0         0.17         34.9 
      1537.0         0.20         34.5 
      1538.0         0.13         33.2 
      1539.0         0.32         32.7 
      1540.0         0.23         30.9 
      1541.0         0.30         33.9 
      1542.0         0.20         35.3 
      1543.0         0.17         35.6 
      1544.0         0.20         35.1 
      1545.0         0.17         34.4 
      1546.0         0.17         34.5 
      1547.0         0.17         34.4 
      1548.0         0.30         34.2 
      1549.0         0.13         33.2 
      1550.0         0.20         32.7 
      1551.0         0.17         32.7 
      1552.0         0.17         33.0 
      1553.0         0.13         32.2 
      1554.0         0.10         31.7 
      1555.0         0.17         31.3 
      1556.0         2.35         84.7 
      1557.0         0.60        147.8 
      1558.0         0.33        149.8 
      1559.0         0.32        139.6 
      1560.0         0.30        114.6 
      1561.0         0.23         87.9 
      1562.0         0.23         72.0 
      1563.0         0.23         61.1 
      1564.0         0.20         52.7 
      1565.0         0.23         47.4 
      1566.0         0.23         43.2 
      1567.0         0.20         40.3 
      1568.0         0.20         38.2 
      1569.0         0.20         37.2 
      1570.0         0.20         36.2 
      1571.0         0.20         35.4 
      1572.0         0.20         34.3 
      1573.0         0.20         34.3 
      1574.0         0.22         34.1 
      1575.0         0.20         33.4 
      1576.0         0.17         33.3 
      1577.0         0.20         33.1 
      1578.0         0.20         33.1 
      1579.0         0.20         33.2 
      1580.0         0.17         33.1 
      1581.0         0.20         33.1 
      1582.0         0.17         32.7 
      1583.0         0.20         32.6 
      1584.0         0.20         33.6 
      1585.0         0.20         33.7 
      1586.0         1.78         34.2 
      1587.0         0.30         49.6 
      1588.0         0.47         82.4 
      1589.0         0.33         91.6 
      1590.0         0.33         94.8 
      1591.0         0.40         92.7 
      1592.0         0.23         74.1 
      1593.0         0.23         61.6 
      1594.0         0.27         49.6 
      1595.0         0.20         44.4 
      1596.0         0.28         42.7 
      1597.0         0.23         40.6 
      1598.0         0.20         38.7 
      1599.0         0.20         37.0 
      1600.0         0.20         35.1 
      1601.0         0.23         35.0 
      1602.0         0.20         34.5 
      1603.0         0.23         33.7 
      1604.0         0.27         32.2 
      1605.0         0.23         30.8 
      1606.0         0.20         29.6 
      1607.0         0.20         29.0 
      1608.0         0.20         28.3 
      1609.0         0.17         28.2 
      1610.0         0.17         28.0 
      1611.0         0.25         27.7 
      1612.0         0.23         27.4 
      1613.0         0.30         28.8 
      1614.0         0.20         29.7 
      1615.0         0.13         29.2 
      1616.0         3.48        121.2 
      1617.0         0.40        113.7 
      1618.0         0.10         85.4 
      1619.0         0.40         79.8 
      1620.0         0.20         60.9 
      1621.0         0.13         52.9 
      1622.0         0.20         48.3 
      1623.0         0.23         43.5 
      1624.0         0.20         41.7 
      1625.0         0.33         42.1 
      1626.0         0.22         40.0 
      1627.0         0.23         38.2 
      1628.0         0.23         35.4 
      1629.0         0.30         32.9 
      1630.0         0.27         31.0 
      1631.0         0.27         30.0 
      1632.0         0.23         29.6 
      1633.0         0.20         29.5 
      1634.0         0.33         29.4 
      1635.0         0.17         29.3 
      1636.0         0.40         28.8 
      1637.0         0.23         27.8 
      1638.0         0.17         27.5 
      1639.0         0.18         26.9 
      1640.0         0.20         26.3 
      1641.0         0.13         26.0 
      1642.0         0.20         27.2 
      1643.0         0.23         27.6 
      1644.0         0.30         28.0 
      1645.0         0.23         27.9 
      1646.0         2.25         56.3 
      1647.0         0.40         81.7 
      1648.0         0.30         87.8 
      1649.0         0.27         86.9 
      1650.0         0.27         78.1 
      1651.0         0.23         65.7 
      1652.0         0.23         56.0 
      1653.0         0.33         47.0 
      1654.0         0.47         38.8 
      1655.0         0.30         33.5 
      1656.0         0.25         32.4 
      1657.0         0.23         29.4 
      1658.0         0.30         25.5 
      1659.0         0.33         25.8 
      1660.0         0.30         28.9 
      1661.0         0.30         29.4 
      1662.0         0.20         29.0 
      1663.0         0.17         28.5 
      1664.0         0.13         28.5 
