~Version Information
VERS.                      2.0: CWLS Log ASCII Standard - VERSION 2.0
WRAP.                       NO: One line per depth step
~Well Information Block
STRT.FT               -16.0000: 
STOP.FT              2454.2500: 
STEP.FT                 0.2500: 
NULL.                -999.2500: 
COMP.                         : COMPANY
WELL.                         : WELL
FLD.                          : FIELD
LOC.                          : LOCATION
CNTY.                         : COUNTY
SRVC.                         : SERVICE COMPANY
DATE.          Tue Aug 31 08:09:44 2004: LOG DATE
UWI.                          : UNIQUE WELL ID
STAT.                         : STATE
~Curve Information Block
DEPT.FT            0 000 00 00: Depth
GR.GAPI                       : Gamma Ray
CCL.                          : Casing Collar Locator
TT3.usec                      : CBL 3' Travel Time
AMP3.mV                       : CBL 3' Amplitude
~Parameter Information Block
~A  Depth        GR         CCL         TT3         AMP3    
# ...
   486.5000     61.7045      0.0000    333.4781     39.9453
   486.7500     61.4148      0.0000    327.8516     39.5521
   487.0000     64.0590      5.0000    324.2650     40.0991
   487.2500     69.3609     -5.0000    322.9614     40.7056
   487.5000     75.2874      0.0000    323.0027     40.8686
   487.7500     79.3179      0.0000    324.3209     40.4342
   488.0000     80.3665      0.0000    327.5988     39.6271
   488.2500     79.4482      0.0000    331.9785     39.4316
   488.5000     78.2210      0.0000    333.7111     40.8007
   488.7500     77.2764      0.0000    330.2002     43.1562
   489.0000     76.1969      0.0000    323.8295     45.6886
   489.2500     74.8196      0.0000    318.4442     49.0746
   489.5000     73.8809      0.0000    315.3401     53.5109
   489.7500     74.3152      0.0000    313.9832     57.7317
   490.0000     76.0454      0.0000    313.5648     60.8191
   490.2500     77.7245      0.0000    313.4947     62.7228
   490.5000     77.8899      0.0000    313.4961     63.7157
   490.7500     76.3377      0.0000    313.4993     64.1960
   491.0000     74.1938      0.0000    313.5009     64.4619
   491.2500     72.6986      0.0000    313.5067     64.6007
   491.5000     72.1487      0.0000    313.5294     64.6177
   491.7500     72.0801      0.0000    313.5800     64.5446
   492.0000     72.1454      0.0000    313.6330     64.4431
   492.2500     72.4530      0.0000    313.6330     64.3782
   492.5000     73.1736      0.0000    313.5800     64.3879
   492.7500     74.2749      0.0000    313.5293     64.4634
   493.0000     75.6294      0.0000    313.5056     64.5603
   493.2500     76.9022      0.0000    313.4933     64.6185
   493.5000     77.3371      0.0000    313.4631     64.5941
   493.7500     76.2443      0.0000    313.3840     64.5096
   494.0000     73.8881      0.0000    313.2577     64.4344
   494.2500     71.4810      0.0000    313.1541     64.4072
   494.5000     70.0810      0.0000    313.1541     64.4303
   494.7500     69.7207      0.0000    313.2577     64.5017
   495.0000     69.7597      0.0000    313.3840     64.6003
   495.2500     69.8789      0.0000    313.4630     64.6918
   495.5000     70.5335      0.0000    313.4923     64.7623
   495.7500     72.3494      0.0000    313.4990     64.7957
   496.0000     74.9714      0.0000    313.4998     64.7739
   496.2500     76.5804      0.0000    313.4990     64.7341
   496.5000     74.9413      0.0000    313.4923     64.7403
   496.7500     69.1601      0.0000    313.4630     64.7938
   497.0000     60.2980      0.0000    313.3840     64.8375
   497.2500     50.3978      0.0000    313.2577     64.8316
   497.5000     41.3122      0.0000    313.1541     64.7834
   497.7500     34.3050      0.0000    313.1541     64.7215
   498.0000     30.0716      0.0000    313.2577     64.6644
   498.2500     28.7584      0.0000    313.3840     64.6112
   498.5000     30.0813      0.0000    313.4630     64.5537
   498.7500     33.6003      0.0000    313.4923     64.4982
   499.0000     38.8226      0.0000    313.4990     64.4818
   499.2500     44.9057      0.0000    313.4999     64.5432
   499.5000     50.5414      0.0000    313.5000     64.6607
   499.7500     54.7340      0.0000    313.4999     64.7553
   500.0000     57.7252      0.0000    313.4990     64.7620
   500.2500     60.6211      0.0000    313.4923     64.6795
   500.5000     63.9843      0.0000    313.4630     64.5478
   500.7500     67.1450      0.0000    313.3830     64.3929
   501.0000     68.9414      0.0000    313.2501     64.2199
   501.2500     68.8273      0.0000    313.1180     64.0503
   501.5000     67.2151      0.0000    313.0447     63.9123
   501.7500     65.0979      0.0000    313.0447     63.8093
   502.0000     63.4381      0.0000    313.1180     63.7389
   502.2500     62.5966      0.0000    313.2501     63.7036
   502.5000     62.1878      0.0000    313.3830     63.6882
   502.7500     61.5872      0.0000    313.4630     63.6693
   503.0000     60.5756      0.0000    313.4923     63.6382
   503.2500     59.4283      0.0000    313.4990     63.5871
   503.5000     58.5106      0.0000    313.4998     63.4925
   503.7500     57.9782      0.0000    313.4990     63.3210
   504.0000     57.8255      0.0000    313.4923     63.0458
   504.2500     58.0234      0.0000    313.4630     62.6916
   504.5000     58.5542      0.0000    313.3840     62.3428
   504.7500     59.4233      0.0000    313.2577     62.0380
   505.0000     60.6293      0.0000    313.1541     61.7200
   505.2500     61.9937      0.0000    313.1541     61.3398
   505.5000     63.0753      0.0000    313.2577     60.9263
   505.7500     63.4391      0.0000    313.3840     60.5545
   506.0000     63.0511      0.0000    313.4630     60.3005
   506.2500     62.3651      0.0000    313.4923     60.1971
   506.5000     62.0140      0.0000    313.4990     60.1924
   506.7500     62.3736      0.0000    313.4999     60.1584
   507.0000     63.3115      0.0000    313.5001     59.9877
   507.2500     64.2608      0.0000    313.5009     59.6735
   507.5000     64.5760      0.0000    313.5067     59.2580
   507.7500     63.9522      0.0000    313.5294     58.7709
   508.0000     62.6263      0.0000    313.5800     58.2494
   508.2500     61.2960      0.0000    313.6330     57.7434
   508.5000     60.8395      0.0000    313.6330     57.3140
   508.7500     61.8591      0.0000    313.5800     57.0301
   509.0000     64.1804      0.0000    313.5294     56.8946
   509.2500     66.6351      0.0000    313.5067     56.8213
   509.5000     67.5753      0.0000    313.5009     56.7244
   509.7500     66.1406      0.0000    313.5002     56.5596
   510.0000     63.1998      0.0000    313.5010     56.3100
   510.2500     60.6177      0.0000    313.5076     56.0142
   510.5000     59.5041      0.0000    313.5360     55.7669
   510.7500     59.5692      0.0000    313.6094     55.6354
   511.0000     60.0384      0.0000    313.7140     55.5970
   511.2500     60.4685      0.0000    313.7736     55.5723
   511.5000     60.5545      0.0000    313.7501     55.5038
   511.7500     59.7882      0.0000    313.7274     55.3560
   512.0000     57.6987      0.0000    313.7936     55.0604
   512.2500     54.3367      0.0000    313.9266     54.6173
   512.5000     50.4726      0.0000    314.0733     54.1782
   512.7500     47.3000      0.0000    314.2054     53.8539
   513.0000     45.6508      0.0000    314.2649     53.6010
   513.2500     45.3009      0.0000    314.2129     53.3810
   513.5000     45.2413      0.0000    314.1093     53.2634
   513.7500     44.7894      0.0000    314.0350     53.3161
   514.0000     44.3245      0.0000    314.0000     53.4843
   514.2500     44.7751      0.0000    313.9650     53.6485
   514.5000     46.4492      0.0000    313.8907     53.7744
   514.7500     48.5109      0.0000    313.7871     53.9231
   515.0000     49.6192      0.0000    313.7351     54.0965
   515.2500     49.0584      0.0000    313.7946     54.2118
   515.5000     47.3464      0.0000    313.9267     54.2357
   515.7500     45.7592      0.0000    314.0733     54.1949
   516.0000     45.0892      0.0000    314.2054     54.1171
   516.2500     44.7695      0.0000    314.2649     54.0382
   516.5000     43.3399      0.0000    314.2129     53.9890
   516.7500     39.9037      0.0000    314.1093     53.9813
   517.0000     35.0258      0.0000    314.0360     54.0285
   517.2500     30.1079      0.0000    314.0076     54.1303
   517.5000     26.1302      0.0000    314.0010     54.2425
   517.7500     23.2171      0.0000    314.0001     54.3055
   518.0000     21.1665      0.0000    314.0000     54.3036
   518.2500     19.9413      0.0000    314.0000     54.2723
   518.5000     19.5779      0.0000    314.0000     54.2495
   518.7500     19.8638      0.0000    314.0000     54.2392
   519.0000     20.3483      0.0000    314.0000     54.2247
   519.2500     20.7910      0.0000    314.0000     54.2063
   519.5000     21.4688      0.0000    314.0000     54.2303
   519.7500     22.7130      0.0000    314.0000     54.3363
