~Version Information
VERS.                      2.0: CWLS Log ASCII Standard - VERSION 2.0
WRAP.                       NO: One line per depth step
~Well Information Block
STRT.FT               430.0000: 
STOP.FT              2417.0000: 
STEP.FT                 0.2500: 
NULL.                -999.2500: 
COMP.          Evergreen Operating Corporation: COMPANY
WELL.          McCullough 34-32: WELL
FLD.           Purgatorie River: FIELD
LOC.           261' FSL & 2098' FEL: LOCATION
PROV.                 Colorado: PROVINCE
CNTY.               Las Animas: COUNTRY
SRVC.                Patterson: SERVICE COMPANY
DATE.          Sun May 16 02:33:07 2004: LOG DATE
UWI.           05 071 07953 00: UNIQUE WELL ID
~Curve Information Block
DEPT.FT            0 000 00 00: Depth
SN.Ohm-m                      : IEL Short Normal
SP.mV                         : IEL Spontaneous Potential
DIR.Ohm-m                     : IEL Induction Resistivity
GR.GAPI                       : Gamma Ray
~Parameter Information Block
~A  Depth        SN          SP         DIR          GR     
# ...
   832.0000     58.8862    104.5881     40.9862    116.9764
   832.2500     59.9188    104.7535     41.7996    117.7291
   832.5000     60.7186    104.9403     42.5405    116.9469
   832.7500     61.2089    105.1410     43.1220    115.6531
   833.0000     61.4673    105.3654     43.4864    113.7926
   833.2500     61.6548    105.6304     43.6236    113.1192
   833.5000     61.8495    105.9433     43.5358    113.3761
   833.7500     61.9342    106.2979     43.1913    114.4418
   834.0000     61.6508    106.6820     42.5336    116.9570
   834.2500     60.7866    107.0868     41.5433    118.6956
   834.5000     59.2593    107.5097     40.2760    120.5994
   834.7500     57.0422    107.9491     38.8317    121.3315
   835.0000     54.2180    108.3980     37.3005    121.9438
   835.2500     51.0740    108.8414     35.7374    122.2016
   835.5000     47.8855    109.2644     34.1741    122.6591
   835.7500     44.6800    109.6646     32.6324    123.2715
   836.0000     41.3768    110.0522     31.1243    124.9702
   836.2500     38.0612    110.4356     29.6487    126.5276
   836.5000     35.0393    110.8090     28.1994    128.9812
   836.7500     32.6561    111.1560     26.7813    130.3956
   837.0000     31.0665    111.4618     25.4200    131.7978
   837.2500     30.1558    111.7195     24.1522    132.1288
   837.5000     29.6707    111.9279     23.0049    131.8993
   837.7500     29.3586    112.0886     21.9814    131.6387
   838.0000     28.9893    112.2047     21.0647    131.8172
   838.2500     28.4139    112.2779     20.2328    132.5476
   838.5000     27.6489    112.3046     19.4746    134.2960
   838.7500     26.8078    112.2781     18.7956    135.3329
   839.0000     25.9891    112.1981     18.2125    135.6216
   839.2500     25.2798    112.0825     17.7425    134.8674
   839.5000     24.7357    111.9682     17.3957    133.6122
   839.7500     24.3058    111.8912     17.1736    133.9160
   840.0000     23.9199    111.8569     17.0715    137.3131
   840.2500     23.6274    111.8312     17.0797    141.0715
   840.5000     23.5301    111.7654     17.1829    146.4803
   840.7500     23.6785    111.6292     17.3608    148.4831
   841.0000     24.0878    111.4209     17.5985    148.2224
   841.2500     24.7492    111.1528     17.8996    146.4155
   841.5000     25.6060    110.8272     18.2914    142.7771
   841.7500     26.5852    110.4238     18.8115    140.2687
   842.0000     27.6708    109.9049     19.4857    136.4349
   842.2500     28.9075    109.2383     20.3163    133.6310
   842.5000     30.3466    108.4225     21.2873    128.7008
   842.7500     32.0230    107.5004     22.3808    124.7948
   843.0000     34.0035    106.5498     23.5899    118.0406
   843.2500     36.4768    105.6571     24.9215    113.2134
   843.5000     39.7512    104.8907     26.3923    106.3877
   843.7500     44.1023    104.2846     28.0260    102.6751
   844.0000     49.5601    103.8347     29.8552     98.6471
   844.2500     55.7613    103.5050     31.9170     96.5621
   844.5000     62.0196    103.2441     34.2331     93.2568
   844.7500     67.6950    103.0044     36.7655     90.7281
   845.0000     72.6014    102.7591     39.3713     87.0669
   845.2500     76.9994    102.5154     41.7949     85.1771
   845.5000     81.1428    102.3129     43.7252     83.4046
   845.7500     84.8523    102.1979     44.9009     82.8986
   846.0000     87.4823    102.1842     45.2063     83.3702
   846.2500     88.2997    102.2336     44.7095     84.6968
   846.5000     86.9714    102.2791     43.6286     88.0914
   846.7500     83.6605    102.2721     42.2424     90.9483
   847.0000     78.7501    102.2134     40.7807     95.5886
   847.2500     72.7639    102.1504     39.3510     98.8356
   847.5000     66.4490    102.1513     37.9366    104.1236
   847.7500     60.5049    102.2730     36.4661    108.0768
   848.0000     55.1198    102.5292     34.9034    114.7261
   848.2500     49.9053    102.8749     33.2979    119.4424
   848.5000     44.4038    103.2291     31.7527    126.0868
   848.7500     38.7495    103.5297     30.3526    129.7044
   849.0000     33.7791    103.7736     29.1226    133.9076
   849.2500     30.4880    104.0000     28.0502    136.5048
   849.5000     29.4444    104.2300     27.1401    141.0911
   849.7500     30.5068    104.4231     26.4418    144.4959
   850.0000     32.8346    104.4922     26.0216    148.8348
   850.2500     35.2672    104.3592     25.9071    150.4539
   850.5000     36.9688    104.0008     26.0522    150.5485
   850.7500     37.8042    103.4521     26.3468    149.2762
   851.0000     38.1268    102.7803     26.6677    145.9749
   851.2500     38.3361    102.0585     26.9342    143.1349
   851.5000     38.6403    101.3497     27.1302    138.2031
   851.7500     39.0608    100.6951     27.2833    134.5498
   852.0000     39.5316    100.1070     27.4262    128.6792
   852.2500     39.9617     99.5752     27.5755    124.6769
   852.5000     40.2711     99.0871     27.7345    118.9898
   852.7500     40.4447     98.6468     27.9091    115.7945
   853.0000     40.5279     98.2726     28.1153    112.7622
   853.2500     40.5419     97.9750     28.3740    112.2680
   853.5000     40.3855     97.7358     28.6966    113.4040
   853.7500     39.8167     97.5169     29.0757    114.6074
   854.0000     38.6109     97.2981     29.4863    115.9907
   854.2500     36.8343     97.1068     29.9001    116.8011
   854.5000     34.9743     97.0009     30.3020    119.1411
   854.7500     33.7077     97.0107     30.6925    121.9704
   855.0000     33.4795     97.0973     31.0767    127.6652
   855.2500     34.3486     97.1697     31.4545    131.6459
   855.5000     36.1601     97.1451     31.8283    136.7053
   855.7500     38.6510     96.9941     32.2243    139.0309
   856.0000     41.4136     96.7411     32.7022    140.2067
   856.2500     44.0445     96.4328     33.3393    138.9836
   856.5000     46.4101     96.1091     34.1968    133.8304
   856.7500     48.6330     95.7965     35.2924    128.5832
   857.0000     50.8612     95.5205     36.5949    119.7137
   857.2500     53.1682     95.3135     38.0472    114.4597
   857.5000     55.6014     95.2067     39.6026    109.3899
   857.7500     58.1617     95.2186     41.2500    108.1860
   858.0000     60.7304     95.3490     43.0028    108.7647
   858.2500     63.1376     95.5756     44.8632    109.8195
   858.5000     65.2911     95.8555     46.7957    111.1806
   858.7500     67.1506     96.1337     48.7225    111.7492
   859.0000     68.6320     96.3601     50.5359    112.2275
   859.2500     69.6235     96.5040     52.1001    112.1124
   859.5000     70.1380     96.5616     53.2567    110.4750
   859.7500     70.4708     96.5503     53.8786    108.2256
   860.0000     71.1398     96.4935     53.9802    103.9502
   860.2500     72.5876     96.4118     53.8035    101.2188
   860.5000     74.9032     96.3207     53.7673     97.8750
   860.7500     77.7166     96.2298     54.2937     96.0991
   861.0000     80.2855     96.1415     55.6302     94.1143
   861.2500     81.8932     96.0543     57.7578     93.5292
   861.5000     82.3917     95.9640     60.3932     94.4079
   861.7500     82.2933     95.8607     63.0769     96.2013
   862.0000     82.2499     95.7294     65.3364     99.6735
   862.2500     82.5665     95.5576     66.8642    101.5009
   862.5000     83.2027     95.3433     67.6167    102.0302
   862.7500     83.9542     95.0985     67.7567    100.5462
   863.0000     84.5710     94.8454     67.4946     95.9713
   863.2500     84.9686     94.6031     66.9731     92.0910
   863.5000     85.3310     94.3721     66.2896     86.5896
   863.7500     85.8784     94.1336     65.6079     83.8528
   864.0000     86.6622     93.8735     65.2145     81.5172
   864.2500     87.5785     93.6107     65.4216     80.7852
   864.5000     88.4171     93.4034     66.3923     79.9851
   864.7500     88.9807     93.3253     68.0112     79.5193
   865.0000     89.2539     93.4285     69.8930     79.5436
   865.2500     89.3737     93.7223     71.5397     80.2110
