~Version Information
VERS.                      2.0: CWLS Log ASCII Standard - VERSION 2.0
WRAP.                       NO: One line per depth step
~Well Information Block
STRT.FT                 0.7500: 
STOP.FT              2144.0000: 
STEP.FT                 0.2500: 
NULL.                -999.2500: 
COMP.          Petrogulf Corporation: COMPANY
WELL.            Montoya 1-44R: WELL
FLD.           Purgatorie River: FIELD
LOC.           658' FSL & 1052' FWL: LOCATION
CNTY.               Las Animas: COUNTY
SRVC.                         : SERVICE COMPANY
DATE.          Tue Nov 30 08:31:55 2004: LOG DATE
UWI.           05 071 08239 00: UNIQUE WELL ID
STAT.                 Colorado: STATE
~Curve Information Block
DEPT.FT            0 000 00 00: Depth
TT3.usec                      : CBL 3' Travel Time
AMP3.mV                       : CBL 3' Amplitude
GR.GAPI                       : Gamma Ray
CCL.                          : Casing Collar Locator
~Parameter Information Block
~A  Depth       TT3         AMP3         GR         CCL     
# ...
   838.2500    804.4589     15.1996    141.0708      0.0000
   838.5000    804.7393     15.3881    139.6293      0.0000
   838.7500    804.7645     15.5101    138.2725      0.0000
   839.0000    804.1480     15.5841    136.6990      0.0000
   839.2500    802.4958     15.6148    134.5591      0.0000
   839.5000    799.8533     15.5687    131.8021      0.0000
   839.7500    797.1698     15.3927    128.9528      0.0000
   840.0000    795.9454     15.0699    126.9992      0.0000
   840.2500    796.9911     14.6565    126.9141      0.0000
   840.5000    799.6578     14.2592    129.1732      0.0000
   840.7500    802.5197     13.9756    133.6217      0.0000
   841.0000    804.6014     13.8552    139.6380      0.0000
   841.2500    805.7624     13.8986    146.3343      0.0000
   841.5000    806.2336     14.0743    152.7240      0.0000
   841.7500    805.8371     14.3355    157.9553      0.0000
   842.0000    803.2333     14.6355    161.5814      0.0000
   842.2500    795.3865     14.9361    163.6078      0.0000
   842.5000    778.7814     15.2021    164.2486      0.0000
   842.7500    753.8661     15.3940    163.6559      0.0000
   843.0000    729.4339     15.4778    161.9235      0.0000
   843.2500    719.1819     15.4498    159.2953      0.0000
   843.5000    730.0322     15.3447    156.2425      0.0000
   843.7500    755.1367     15.2132    153.2676      0.0000
   844.0000    780.7408     15.0911    150.5951      0.0000
   844.2500    797.8847     14.9920    148.0322      0.0000
   844.5000    805.9697     14.9234    145.1060      0.0000
   844.7500    808.4507     14.9016    141.3919      0.0000
   845.0000    808.3922     14.9490    136.8432      0.0000
   845.2500    806.8862     15.0782    131.9205      0.0000
   845.5000    802.4875     15.2766    127.4119      0.0000
   845.7500    790.0540     15.5162    124.0628      0.0000
   846.0000    760.6017     15.7839    122.2275      0.0000
   846.2500    705.5171     16.0991    121.6826      0.0000
   846.5000    625.1822     16.5005    121.6752      0.0000
   846.7500    533.9553     17.0181    121.2132      0.0000
   847.0000    453.2485     17.6570    119.5300      0.0000
   847.2500    397.5591     18.3947    116.4901      0.0000
   847.5000    367.5096     19.1818    112.6285      0.0000
   847.7500    354.7374     19.9521    108.7859      0.0000
   848.0000    350.3574     20.6458    105.6176      0.0000
   848.2500    349.0356     21.2328    103.3150      0.0000
   848.5000    348.5795     21.7187    101.6245      0.0000
   848.7500    348.3331     22.1302    100.0452      0.0000
   849.0000    348.1593     22.4925     98.0925      0.0000
   849.2500    348.0384     22.8090     95.5205      0.0000
   849.5000    347.9754     23.0631     92.4104      0.0000
   849.7500    347.9565     23.2395     89.0746      0.0000
   850.0000    347.9560     23.3381     85.8578      0.0000
   850.2500    347.9576     23.3666     82.9853      0.0000
   850.5000    347.9696     23.3275     80.5611      0.0000
   850.7500    348.0136     23.2164     78.6689      0.0000
   851.0000    348.0964     23.0347     77.4504      0.0000
   851.2500    348.1941     22.8030     77.0724      0.0000
   851.5000    348.2688     22.5569     77.6113      0.0000
   851.7500    348.3034     22.3193     78.9872      0.0000
   852.0000    348.3182     22.0838     80.9865      0.0000
   852.2500    348.3551     21.8291     83.3027      0.0000
   852.5000    348.4516     21.5387     85.5433      0.0000
   852.7500    348.6222     21.2048     87.2975      0.0000
   853.0000    348.8481     20.8280     88.3366      0.0000
   853.2500    349.0842     20.4264     88.8271      0.0000
   853.5000    349.3211     20.0418     89.2895      0.0000
   853.7500    349.6956     19.7180     90.2215      0.0000
   854.0000    350.8882     19.4612     91.6863      0.0000
   854.2500    355.1123     19.2221     93.2802      0.0000
   854.5000    367.6807     18.9299     94.5548      0.0000
   854.7500    397.3943     18.5457     95.4813      0.0000
   855.0000    452.5108     18.0835     96.4816      0.0000
   855.2500    532.3961     17.5826     97.9823      0.0000
   855.5000    622.7121     17.0658     99.9253      0.0000
   855.7500    702.2862     16.5304    101.7036      0.0000
   856.0000    756.8694     15.9718    102.5677      0.0000
   856.2500    785.9529     15.4046    102.1507      0.0000
   856.5000    797.9063     14.8581    100.7150      0.0000
   856.7500    801.6072     14.3630     98.9933      0.0000
   857.0000    802.3892     13.9428     97.7802      0.0000
   857.2500    802.4183     13.5983     97.5739      0.0000
   857.5000    802.2939     13.2984     98.4549      0.0000
   857.7500    802.1085     13.0033    100.1683      0.0000
   858.0000    801.8741     12.7045    102.2526      0.0000
   858.2500    801.5911     12.4287    104.1451      0.0000
   858.5000    801.2603     12.2008    105.3643      0.0000
   858.7500    800.8953     12.0228    105.8005      0.0000
   859.0000    800.5468     11.8975    105.8930      0.0000
   859.2500    800.2972     11.8532    106.4420      0.0000
   859.5000    800.2097     11.9236    108.1031      0.0000
   859.7500    800.2798     12.1039    110.9529      0.0000
   860.0000    800.4463     12.3355    114.4590      0.0000
   860.2500    800.6454     12.5405    117.8589      0.0000
   860.5000    800.8408     12.6691    120.6195      0.0000
   860.7500    801.0044     12.7207    122.6616      0.0000
   861.0000    801.0997     12.7258    124.2621      0.0000
   861.2500    801.1072     12.7180    125.8330      0.0000
   861.5000    801.0506     12.7241    127.7730      0.0000
   861.7500    800.9584     12.7744    130.4165      0.0000
   862.0000    800.7994     12.9075    133.9289      0.0000
   862.2500    800.4999     13.1547    138.0900      0.0000
   862.5000    800.0480     13.5167    142.1647      0.0000
   862.7500    799.5609     13.9518    145.0652      0.0000
   863.0000    799.2268     14.3788    145.8100      0.0000
   863.2500    799.1771     14.7012    144.0275      0.0000
   863.5000    799.4080     14.8450    140.2424      0.0000
   863.7500    799.8119     14.7861    135.7150      0.0000
   864.0000    800.2605     14.5473    131.8711      0.0000
   864.2500    800.6448     14.1707    129.6238      0.0000
   864.5000    800.8654     13.6898    129.0480      0.0000
   864.7500    800.8793     13.1250    129.6154      0.0000
   865.0000    800.8336     12.5096    130.6824      0.0000
   865.2500    801.1628     11.9138    131.7743      0.0000
   865.5000    802.4272     11.4257    132.4956      0.0000
   865.7500    804.8441     11.0990    132.3313      0.0000
   866.0000    807.9579     10.9317    130.6899      0.0000
   866.2500    811.0034     10.9000    127.2684      0.0000
   866.5000    813.6003     10.9864    122.4516      0.0000
   866.7500    815.3306     11.1604    117.3760      0.0000
   867.0000    814.3304     11.3547    113.5509      0.0000
   867.2500    806.8923     11.4973    112.2715      0.0000
   867.5000    789.8156     11.5691    114.1607      0.0000
   867.7500    765.0679     11.6012    118.9666      0.0000
   868.0000    743.0882     11.6119    125.5899      0.0000
   868.2500    738.2978     11.5933    132.2926      0.0000
   868.5000    756.7950     11.5873    137.1507      0.0000
   868.7500    789.5938     11.7163    138.6913      0.0000
   869.0000    821.8237     12.0821    136.4898      0.0000
   869.2500    847.4086     12.6533    131.3569      0.0000
   869.5000    871.6125     13.2784    124.9949      3.0000
   869.7500    899.7823     13.7859    119.2783     -3.0000
   870.0000    925.7478     14.0745    115.5348      0.0000
   870.2500    932.1544     14.1611    114.1445      0.0000
   870.5000    903.5148     14.1801    114.5584      0.0000
   870.7500    839.1571     14.3123    115.6844      0.0000
   871.0000    753.1238     14.6755    116.4552      0.0000
   871.2500    663.8106     15.2646    116.2868      0.0000
   871.5000    587.4319     15.9610    115.1934      0.0000
