~Version Information
VERS.                      2.0: CWLS Log ASCII Standard - VERSION 2.0
WRAP.                       NO: One line per depth step
~Well Information Block
STRT.FT               720.0000: 
STOP.FT              2265.7000: 
STEP.FT                 0.1000: 
NULL.                -999.2500: 
COMP.          Pioneer Natural Resources: COMPANY
WELL.          Casablanca 11-28 Tr: WELL
FLD.           Purgatoire River: FIELD
LOC.           422' FNL & 215' FWL----: LOCATION
PROV.                 Colorado: PROVINCE
CNTY.               Las Animas: COUNTRY
SRVC.                Patterson: SERVICE COMPANY
DATE.          Mon Mar 07 07:16:34 2005: LOG DATE
UWI.           05 071 08314 00: UNIQUE WELL ID
~Curve Information Block
DEPT.FT            0 000 00 00: Depth
DCAL.in                       : CDL Caliper
RHOB.g/cc                     : CDL Bulk Density
RHOC.g/cc                     : CDL Density Correction
DPOR.pu                       : CDL Density Porosity
NPOR.pu                       : Neutron Porosity
GR.GAPI                       : Gamma Ray
~Parameter Information Block
~A  Depth       DCAL        RHOB        RHOC        DPOR        NPOR         GR     
# ...
  1929.6000      7.9924      2.5573      0.0299      5.6179     16.7330     85.6572
  1929.7000      7.9924      2.5558      0.0472      5.7102     17.6412     88.2363
  1929.8000      7.9949      2.5415      0.0550      6.5783     18.2454     93.4657
  1929.9000      7.9949      2.5205     -0.0027      7.8470     18.1935     97.4094
  1930.0000      8.0027      2.5030      0.0363      8.9113     17.9153     96.8740
  1930.1000      8.0027      2.4985     -0.0490      9.1815     18.1634     93.8141
  1930.2000      8.0027      2.5138      0.0206      8.2574     18.5040     91.3211
  1930.3000      8.0105      2.5360      0.0593      6.9098     17.9072     89.9231
  1930.4000      8.0105      2.5478      0.0250      6.1966     16.5220     91.4286
  1930.5000      8.0118      2.5426      0.0453      6.5070     15.5066     95.7480
  1930.6000      8.0118      2.5275      0.0058      7.4238     15.2680     99.7365
  1930.7000      8.0118      2.5173      0.0075      8.0403     15.3951    104.3346
  1930.8000      8.0099      2.5176      0.0318      8.0236     15.5381    110.8345
  1930.9000      8.0099      2.5230      0.0373      7.6978     14.8622    114.2300
  1931.0000      8.0105      2.5282      0.0571      7.3824     12.9698    109.9583
  1931.1000      8.0105      2.5281      0.0714      7.3898     11.7657    103.6890
  1931.2000      8.0105      2.5151      0.0321      8.1782     13.1954    103.1846
  1931.3000      8.0135      2.4931      0.0141      9.5067     15.4206    104.6067
  1931.4000      8.0135      2.4791     -0.0141     10.3587     16.5212    100.4694
  1931.5000      8.0137      2.4786      0.0190     10.3851     16.5754     92.0865
  1931.6000      8.0137      2.4842     -0.0033     10.0510     16.3983     86.5083
  1931.7000      8.0137      2.4948      0.0191      9.4056     16.5674     87.0316
  1931.8000      8.0124      2.5081      0.0487      8.6011     16.3311     87.9217
  1931.9000      8.0124      2.5162      0.0329      8.1067     14.9709     84.3177
  1932.0000      8.0206      2.5203      0.0600      7.8628     13.3995     80.4665
  1932.1000      8.0206      2.5263      0.0407      7.4940     12.4841     80.0424
  1932.2000      8.0206      2.5411      0.0589      6.5996     12.0921     81.0295
  1932.3000      8.0526      2.5615      0.0994      5.3664     13.1609     81.6982
  1932.4000      8.0526      2.5754      0.0923      4.5201     15.8925     84.5220
  1932.5000      8.1024      2.5855      0.0579      3.9065     18.3870     91.6446
  1932.6000      8.1024      2.5974      0.0965      3.1883     19.5263     99.9353
  1932.7000      8.1024      2.6013      0.0809      2.9496     19.5868    103.9188
  1932.8000      8.1348      2.5934      0.0878      3.4277     19.5451    101.9541
  1932.9000      8.1348      2.5822      0.0356      4.1119     20.0055     97.4909
  1933.0000      8.1383      2.5767      0.0194      4.4435     20.2137     94.6537
  1933.1000      8.1383      2.5796      0.0523      4.2685     19.4750     95.9142
  1933.2000      8.1383      2.5866      0.0460      3.8400     18.1139    100.8592
  1933.3000      8.1223      2.5963      0.0592      3.2520     16.8089    105.6556
  1933.4000      8.1223      2.6083      0.0785      2.5251     16.1487    109.1002
  1933.5000      8.0973      2.6141      0.1015      2.1763     16.2853    111.1638
  1933.6000      8.0973      2.6022      0.0824      2.8968     16.7149    109.2501
  1933.7000      8.0973      2.5764      0.0095      4.4627     17.1348    103.6857
  1933.8000      8.0708      2.5532     -0.0047      5.8656     17.5876     97.3525
  1933.9000      8.0708      2.5476     -0.0579      6.2036     18.3281     93.3197
  1934.0000      8.0510      2.5582      0.0328      5.5637     19.5593     92.3854
  1934.1000      8.0510      2.5696      0.0183      4.8713     20.6509     93.2046
  1934.2000      8.0510      2.5777      0.0235      4.3830     20.9439     94.7337
  1934.3000      8.0377      2.5796      0.0352      4.2680     20.4628     95.5012
  1934.4000      8.0377      2.5747     -0.0045      4.5622     19.6375     95.5983
  1934.5000      8.0191      2.5781     -0.0009      4.3606     18.7613     96.8781
  1934.6000      8.0191      2.6005      0.0189      2.9997     17.6160     98.4880
  1934.7000      8.0191      2.6328      0.0641      1.0444     16.1942     99.8310
  1934.8000      7.9901      2.6534      0.0511     -0.2055     15.4144    103.7807
  1934.9000      7.9901      2.6491      0.0954      0.0520     15.9197    110.1554
  1935.0000      7.9661      2.6264      0.0533      1.4323     16.8943    112.0691
  1935.1000      7.9661      2.5986      0.0746      3.1163     16.9861    106.3805
  1935.2000      7.9661      2.5714      0.0147      4.7635     16.0559     96.1716
  1935.3000      7.9568      2.5547      0.0063      5.7777     15.3322     83.0280
  1935.4000      7.9568      2.5585     -0.0138      5.5466     15.4975     69.5967
  1935.5000      7.9564      2.5731      0.0474      4.6580     16.1741     62.2788
  1935.6000      7.9564      2.5825      0.0289      4.0914     17.0242     65.7121
  1935.7000      7.9564      2.5876      0.0359      3.7800     17.9742     76.0195
  1935.8000      7.9580      2.5982      0.0304      3.1402     18.8231     83.6675
  1935.9000      7.9580      2.6175      0.0435      1.9705     19.2126     84.5853
  1936.0000      7.9583      2.6350      0.1007      0.9098     19.4317     82.9405
  1936.1000      7.9583      2.6372      0.0569      0.7732     19.8120     82.5607
  1936.2000      7.9583      2.6267      0.0700      1.4127     19.8679     82.6381
  1936.3000      7.9587      2.6096      0.0834      2.4476     19.1968     83.1408
  1936.4000      7.9587      2.5916      0.0514      3.5420     18.5524     84.7761
  1936.5000      7.9652      2.5837      0.0312      4.0199     18.6272     87.6389
  1936.6000      7.9652      2.5914      0.0472      3.5509     18.5284     89.6133
  1936.7000      7.9652      2.6028      0.0758      2.8594     17.9586     89.7857
  1936.8000      7.9794      2.5973      0.1054      3.1944     18.0591     91.6352
  1936.9000      7.9794      2.5731      0.0140      4.6599     19.2309     98.5750
  1937.0000      7.9945      2.5470      0.0339      6.2407     20.3032    106.9574
  1937.1000      7.9945      2.5316      0.0240      7.1733     20.2513    108.6357
  1937.2000      7.9945      2.5347      0.0349      6.9875     18.9256    103.7433
  1937.3000      8.0096      2.5535      0.0507      5.8499     16.6654    100.5365
  1937.4000      8.0096      2.5714      0.0701      4.7646     14.4611    104.6195
  1937.5000      8.0315      2.5824      0.0430      4.0962     14.1681    113.3909
  1937.6000      8.0315      2.5980      0.0374      3.1493     16.1663    119.2915
  1937.7000      8.0315      2.6186      0.1166      1.9049     18.2628    121.0601
  1937.8000      8.0636      2.6338      0.0779      0.9809     19.2152    124.4895
  1937.9000      8.0636      2.6376      0.1110      0.7488     19.3751    128.6202
  1938.0000      8.0961      2.6205      0.0929      1.7904     19.0348    130.6379
  1938.1000      8.0961      2.5955      0.0203      3.3055     18.5489    132.7016
  1938.2000      8.0961      2.5899      0.0507      3.6442     19.0752    131.9362
  1938.3000      8.1079      2.5908      0.0916      3.5850     20.7996    128.1015
  1938.4000      8.1079      2.5684      0.0357      4.9433     22.5307    130.7234
  1938.5000      8.1098      2.5386      0.0109      6.7499     23.3432    139.8707
  1938.6000      8.1098      2.5479     -0.0279      6.1890     23.0333    146.7250
  1938.7000      8.1098      2.5978      0.1000      3.1646     22.0262    146.5988
  1938.8000      8.1159      2.6374      0.0865      0.7653     21.3404    143.5741
  1938.9000      8.1159      2.6359      0.0784      0.8521     21.6771    146.0298
  1939.0000      8.1193      2.6024      0.0329      2.8848     22.4359    151.2404
  1939.1000      8.1193      2.5540      0.0519      5.8178     22.9132    151.3734
