~Version Information
VERS.                      2.0: CWLS Log ASCII Standard - VERSION 2.0
WRAP.                       NO: One line per depth step
~Well Information Block
STRT.FT                -7.5000: 
STOP.FT              2226.0000: 
STEP.FT                 0.2500: 
NULL.                -999.2500: 
COMP.          Pioneer Natural Resources: COMPANY
WELL.              Tonto 42-23: WELL
FLD.           Purgatorie River: FIELD
LOC.           2217' FNL & 423' FEL----: LOCATION
PROV.                       CO: PROVINCE
CNTY.               Las Animas: COUNTRY
SRVC.          Patterson Wireline: SERVICE COMPANY
DATE.          Fri Apr 22 11:40:07 2005: LOG DATE
UWI.           05 071 08335 00: UNIQUE WELL ID
~Curve Information Block
DEPT.FT            0 000 00 00: Depth
CCL.                          : Casing Collar Locator
TT3.usec                      : CBL 3' Travel Time
AMP3.mV                       : CBL 3' Amplitude
GR.GAPI                       : Gamma Ray
~Parameter Information Block
~A  Depth       CCL         TT3         AMP3         GR     
# ...
  1768.0000      0.0000    708.8096      4.3759    129.0574
  1768.2500      0.0000    743.1002      4.4527    130.3168
  1768.5000      0.0000    775.2896      4.4387    133.1645
  1768.7500      0.0000    799.7876      4.3054    137.0500
  1769.0000      0.0000    814.2923      4.0805    141.0605
  1769.2500      0.0000    818.4501      3.8397    144.9383
  1769.5000      0.0000    813.6196      3.6604    149.0436
  1769.7500      0.0000    804.3435      3.5792    153.2773
  1770.0000      0.0000    797.3960      3.5951    156.4778
  1770.2500      0.0000    797.2253      3.6953    157.0481
  1770.5000      0.0000    802.8030      3.8592    153.9278
  1770.7500      0.0000    809.8423      4.0522    147.0487
  1771.0000      0.0000    815.1691      4.2363    137.5928
  1771.2500      0.0000    818.3530      4.3784    128.1541
  1771.5000      0.0000    820.4836      4.4456    121.8041
  1771.7500      0.0000    822.5911      4.4171    120.1073
  1772.0000      0.0000    824.9250      4.3180    122.2042
  1772.2500      0.0000    827.0762      4.2241    126.0630
  1772.5000      0.0000    828.1594      4.2119    130.1371
  1772.7500      0.0000    826.1691      4.2885    133.6620
  1773.0000      0.0000    817.6746      4.3707    136.1627
  1773.2500      0.0000    800.3093      4.3372    137.3023
  1773.5000      0.0000    776.9252      4.1187    136.9152
  1773.7500      0.0000    755.7160      3.7605    134.9990
  1774.0000      0.0000    743.6017      3.4080    132.0131
  1774.2500      0.0000    739.7991      3.2225    129.1373
  1774.5000      0.0000    738.3543      3.2793    127.4679
  1774.7500      0.0000    736.5418      3.5196    126.5845
  1775.0000      0.0000    737.6124      3.7887    124.6208
  1775.2500      0.0000    744.7285      3.9378    120.2982
  1775.5000      0.0000    755.0768      3.9223    114.3872
  1775.7500      0.0000    761.9620      3.8190    108.9575
  1776.0000      0.0000    761.6395      3.7529    105.8247
  1776.2500      0.0000    756.2063      3.8039    105.7979
  1776.5000     -2.0000    749.7729      3.9677    108.5883
  1776.7500     -2.0000    743.9402      4.1759    112.9072
  1777.0000      0.0000    738.3362      4.3467    116.9556
  1777.2500      0.0000    733.4464      4.4387    119.1541
  1777.5000      0.0000    730.3742      4.4724    118.4575
  1777.7500      0.0000    728.9797      4.4935    114.5153
  1778.0000      0.0000    728.4095      4.5196    108.2053
  1778.2500      0.0000    728.2888      4.5509    101.7678
  1778.5000      0.0000    727.9547      4.6197     97.6499
  1778.7500      0.0000    726.1211      4.7804     97.1018
  1779.0000      0.0000    722.3774      5.0359    100.0795
  1779.2500      0.0000    717.5743      5.3046    105.9594
  1779.5000      0.0000    712.0296      5.4724    113.6676
  1779.7500      0.0000    704.3022      5.4671    121.4274
  1780.0000      0.0000    692.3248      5.2933    127.3226
  1780.2500      0.0000    675.8232      5.0264    130.4698
  1780.5000      0.0000    657.6809      4.7783    131.2561
  1780.7500      0.0000    642.8162      4.6371    130.4164
  1781.0000      0.0000    635.5400      4.6225    128.4255
  1781.2500      0.0000    637.7168      4.6913    125.6913
  1781.5000      0.0000    648.4435      4.7712    122.4620
  1781.7500      0.0000    664.4202      4.7926    118.4349
  1782.0000      0.0000    681.0132      4.7282    113.3826
  1782.2500      0.0000    694.2453      4.6204    108.6233
  1782.5000      0.0000    702.4360      4.5438    107.0780
  1782.7500      0.0000    706.0839      4.5371    110.8790
  1783.0000      0.0000    706.5834      4.5816    118.8020
  1783.2500      0.0000    705.6418      4.6252    126.5097
  1783.5000      0.0000    705.6459      4.6136    129.7292
  1783.7500      0.0000    709.3636      4.5251    127.3211
  1784.0000      0.0000    718.1852      4.3945    121.4453
  1784.2500      0.0000    730.5595      4.2925    115.2733
  1784.5000      0.0000    742.3300      4.2774    110.9869
  1784.7500      0.0000    748.5421      4.3709    109.5096
  1785.0000      0.0000    745.8538      4.5581    110.9430
  1785.2500      0.0000    734.8782      4.7867    114.5844
  1785.5000      0.0000    720.4972      4.9719    118.9656
  1785.7500      0.0000    708.9142      5.0274    122.5562
  1786.0000      0.0000    703.6453      4.9148    124.4253
  1786.2500      0.0000    703.8365      4.6816    124.1041
  1786.5000      0.0000    705.7917      4.4556    121.2693
  1786.7500      0.0000    705.8224      4.3824    116.0229
  1787.0000      0.0000    702.1809      4.5304    109.4452
  1787.2500      0.0000    695.5995      4.8344    103.6402
  1787.5000      0.0000    688.7792      5.1389    100.8394
  1787.7500      0.0000    684.8423      5.3133    102.0632
  1788.0000      0.0000    685.0907      5.3295    106.5085
  1788.2500      0.0000    687.7347      5.2467    112.0691
  1788.5000      0.0000    688.9077      5.1427    116.3587
  1788.7500      0.0000    684.8831      5.0489    117.7845
  1789.0000      0.0000    673.4073      4.9262    116.4407
  1789.2500      0.0000    653.9980      4.6995    113.9730
  1789.5000      0.0000    628.4531      4.3388    112.1937
  1789.7500      0.0000    601.0093      3.9270    111.8983
  1790.0000      0.0000    576.4923      3.6380    112.9539
  1790.2500      0.0000    557.7116      3.6191    114.8393
  1790.5000      0.0000    545.1065      3.8715    116.8097
  1790.7500      0.0000    538.3597      4.2405    118.1269
  1791.0000      0.0000    536.9287      4.5323    118.5943
  1791.2500      0.0000    538.9235      4.6544    118.6398
  1791.5000      0.0000    540.8329      4.6536    118.7417
  1791.7500      0.0000    539.3364      4.6328    119.1089
  1792.0000      0.0000    533.4471      4.6400    119.8220
  1792.2500      0.0000    524.8992      4.6253    120.7346
  1792.5000      0.0000    516.5734      4.4940    121.1933
  1792.7500      0.0000    510.4730      4.2036    120.3406
  1793.0000      0.0000    506.9131      3.8244    117.8696
  1793.2500      0.0000    505.1342      3.5175    114.3370
  1793.5000      0.0000    504.2732      3.4400    110.8551
  1793.7500      0.0000    503.8492      3.6355    108.6884
  1794.0000      0.0000    503.8883      3.9823    108.8263
  1794.2500      0.0000    505.1192      4.2580    111.4974
  1794.5000      0.0000    509.2818      4.2891    116.0109
  1794.7500      0.0000    519.0914      4.0743    120.9012
  1795.0000      0.0000    537.3430      3.7783    124.1156
  1795.2500      0.0000    565.2830      3.6025    123.8959
  1795.5000      0.0000    600.6192      3.6417    120.5127
  1795.7500      0.0000    636.2778      3.8406    116.5590
  1796.0000      0.0000    662.0458      4.0644    114.3651
  1796.2500      0.0000    669.7521      4.2071    113.4353
  1796.5000      0.0000    657.9113      4.2564    111.3498
  1796.7500      0.0000    631.4791      4.2776    106.8064
  1797.0000      0.0000    598.3178      4.3315    100.9941
  1797.2500      0.0000    566.0098      4.3965     96.3900
  1797.5000      0.0000    539.7692      4.3746     94.9022
  1797.7500      0.0000    522.1016      4.1848     96.7647
  1798.0000      0.0000    515.1840      3.8489    100.4678
  1798.2500      0.0000    523.3408      3.4948    103.9511
  1798.5000      0.0000    551.2714      3.2874    106.3425
  1798.7500      0.0000    598.0957      3.3454    108.2002
  1799.0000      0.0000    653.2409      3.6792    109.8078
  1799.2500      0.0000    700.2651      4.1751    110.0023
  1799.5000      0.0000    726.6896      4.6531    107.1853
  1799.7500      0.0000    731.1466      4.9637    100.9194
  1800.0000      0.0000    722.0110      5.0508     92.2730
  1800.2500      0.0000    710.2421      4.9532     83.0737
  1800.5000      0.0000    702.9889      4.7674     74.9680
  1800.7500      0.0000    701.8776      4.5931     68.7948
  1801.0000      0.0000    705.1093      4.4836     64.5963
  1801.2500      0.0000    710.2812      4.4381     62.1431
