~Version Information
 VERS.                                  2.0 : CWLS LAS VERSION
 WRAP.                                   NO : WRAPING MODE
 SWARE .                 MController 2.5.0J : SOFTWARE VERSION
~Well Information
 WELL.                        Galileo 21-11 : WELL
 COMP.    Pioneer Natural Resources USA Inc : COMPANY
 FLD.                      Purgatoire River : FIELD
 LOC.                NE/NW Sec 11 T33S R65W : LOCATION
 DATE.                              4/10/05 : DATE(S) LOGGED
 SRVC.       Blanco Geological Services LLC : SERVICE COMPANY
 STAT.                                   CO : STATE
 CNTY.                           Las Animas : COUNTY
 CTRY.                                  USA : COUNTRY
 API.                       05-071-08353-00 : API NUMBER
 STRT.FT                             586.00 : START DEPTH
 STOP.FT                            1080.00 : STOP DEPTH
 STEP.FT                               1.00 : DEPTH INCREMENT
 NULL.                                -9999 : NULL VALUE
~Curve information
 DEPTH.FT                                   :
 ROP.MIN/FT                                 :
 GAS.UNITS                                  :
~ASCII Log data
       586.0     -9999.00         45.5 
       587.0         2.18         84.9 
       588.0         0.47         93.4 
       589.0         2.98        137.9 
       590.0         0.10        137.9 
       591.0         0.10        137.7 
       592.0         1.78        164.0 
       593.0         0.30        165.9 
       594.0         0.10        165.9 
       595.0         0.37        165.2 
       596.0         6.20        169.0 
       597.0         0.17        170.7 
       598.0         1.30        173.5 
       599.0         0.10        173.5 
       600.0         0.73        174.6 
       601.0         1.12        173.1 
       602.0         0.17        176.5 
       603.0         0.70        177.7 
       604.0         1.98        181.6 
       605.0         0.47        183.4 
       606.0         2.38        183.9 
       607.0         0.37        186.1 
       608.0         0.77        188.1 
       609.0         0.10        188.1 
       610.0         0.40        188.5 
       611.0         0.33        187.7 
       612.0         0.73        186.1 
       613.0         1.25        184.7 
       614.0         0.30          0.2 
       615.0         1.43          0.9 
       616.0         0.73          3.0 
       617.0         0.75          3.5 
       618.0         1.90          3.2 
       619.0         0.72          3.4 
       620.0         0.60          3.5 
       621.0         0.30          4.8 
       622.0         0.87          3.8 
       623.0         0.13          4.3 
       624.0         1.23          3.8 
       625.0         0.10          4.1 
       626.0         0.38          4.1 
       627.0         0.77          4.0 
       628.0         0.37          4.4 
       629.0         0.07          4.8 
       630.0         0.67          3.6 
       631.0         0.10          3.6 
       632.0         0.40          4.3 
       633.0         0.85          4.6 
       634.0         0.27          4.4 
       635.0         0.10          4.4 
       636.0         1.20          4.1 
       637.0         0.23          4.5 
       638.0         5.03         11.5 
       639.0         0.27          4.4 
       640.0         0.37          3.2 
       641.0         1.63          2.1 
       642.0         0.17          0.2 
       643.0         0.92          0.7 
       644.0         0.20          0.0 
       645.0         0.60          0.1 
       646.0         1.50          0.2 
       647.0         0.20          0.4 
       648.0         1.62          0.7 
       649.0         0.60          0.4 
       650.0         0.17          0.1 
       651.0         0.17          0.1 
       652.0         0.17          0.4 
       653.0         0.30          0.0 
       654.0         0.17          0.2 
       655.0         0.20          0.2 
       656.0         0.20          0.7 
       657.0         0.17          0.7 
       658.0         0.18          0.4 
       659.0         0.50          0.1 
       660.0         0.17          0.4 
       661.0         0.17          0.4 
       662.0         0.20          0.6 
       663.0         0.20          0.3 
       664.0         0.53          0.1 
       665.0         0.70          0.8 
       666.0         0.10          1.1 
       667.0         0.23          0.2 
       668.0         0.42          0.5 
       669.0         0.23          0.4 
       670.0         0.23          0.0 
       671.0         0.17          0.7 
       672.0         0.17          0.1 
       673.0         0.13          8.4 
       674.0         0.17        142.4 
       675.0         0.17        142.4 
       676.0         0.13        152.3 
       677.0         0.13        106.6 
       678.0         0.13         33.9 
       679.0         0.13         33.9 
       680.0         0.13         14.1 
       681.0         0.13         14.1 
       682.0         0.10         11.1 
       683.0         0.13          4.7 
       684.0         0.20          4.3 
       685.0         0.27          0.8 
       686.0         2.98          0.6 
       687.0         0.27          0.1 
       688.0         0.47          0.5 
       689.0         0.38          1.3 
       690.0         0.27          1.0 
       691.0         0.30          1.4 
       692.0         0.27          1.3 
       693.0         0.27          2.1 
       694.0         0.27          1.9 
       695.0         0.23          1.8 
       696.0         0.23          1.4 
       697.0         0.23          1.6 
       698.0         0.27          3.4 
       699.0         0.23         51.1 
       700.0         0.23        103.5 
       701.0         0.20        121.0 
       702.0         0.28        122.7 
       703.0         0.20        119.9 
       704.0         0.23        111.8 
       705.0         0.17        107.9 
       706.0         0.23         96.7 
       707.0         0.27         87.2 
       708.0         0.27         86.2 
       709.0         0.27         77.3 
       710.0         0.23         69.1 
       711.0         0.37         58.5 
       712.0         0.30         58.0 
       713.0         0.33         55.8 
       714.0         0.35         77.4 
       715.0         0.23        112.9 
       716.0         1.63        342.5 
       717.0         0.40        118.4 
       718.0         0.30         95.5 
       719.0         0.33         85.3 
       720.0         0.27         73.7 
       721.0         0.28         70.9 
       722.0         0.27         70.3 
       723.0         0.27         66.9 
       724.0         0.27         64.4 
       725.0         0.27         63.1 
       726.0         0.23         63.0 
       727.0         0.30         62.4 
       728.0         0.30         62.3 
       729.0         0.23         61.6 
       730.0         0.20         60.4 
       731.0         0.43         59.7 
       732.0         0.38         59.7 
       733.0         0.37         59.7 
       734.0         0.27         61.7 
       735.0         0.27         68.3 
       736.0         0.20         79.6 
       737.0         0.23         88.0 
       738.0         0.23         87.7 
       739.0         0.13         87.7 
       740.0         0.20         83.0 
       741.0         0.23         78.2 
       742.0         0.17         73.1 
       743.0         0.23         71.8 
       744.0         0.30         59.7 
       745.0         0.27         54.1 
       746.0         3.77       2551.3 
       747.0         0.20        611.6 
       748.0         0.33        440.0 
       749.0         0.33        110.8 
       750.0         0.40         90.0 
       751.0         0.20         73.3 
       752.0         0.20         67.5 
       753.0         0.20         65.5 
       754.0         0.27         64.6 
       755.0         0.27         61.1 
       756.0         0.27         60.0 
       757.0         0.27         59.7 
       758.0         0.25         58.8 
       759.0         0.27         57.3 
       760.0         0.23         56.8 
       761.0         0.23         59.1 
       762.0         0.27         64.7 
       763.0         0.17         64.7 
       764.0         0.27         65.5 
       765.0         0.23         65.5 
       766.0         0.23         65.2 
       767.0         0.23         65.1 
       768.0         0.23         65.1 
       769.0         0.27         64.6 
       770.0         0.23         64.4 
       771.0         0.23         64.2 
       772.0         0.25         63.7 
       773.0         0.23         63.2 
       774.0         0.23         57.6 
       775.0         0.23         54.3 
       776.0         2.55        396.7 
       777.0         0.27        106.2 
       778.0         0.20        101.8 
       779.0         0.37        100.3 
       780.0         0.33         91.3 
       781.0         0.33         77.0 
       782.0         0.27         71.9 
       783.0         0.23         67.0 
       784.0         0.23         65.9 
       785.0         0.30         64.4 
