~Version Information
 VERS.                                  2.0 : CWLS LAS VERSION
 WRAP.                                   NO : WRAPING MODE
 SWARE .                 MController 2.5.0J : SOFTWARE VERSION
~Well Information
 WELL.                          GETEM 21-21 : WELL
 COMP.    PIONEER NATURAL RESOURCES USA INC : COMPANY
 FLD.                      PURGATOIRE RIVER : FIELD
 LOC.                NE/NW SEC 23 T32S R67W : LOCATION
 DATE.                             06/18/05 : DATE(S) LOGGED
 SRVC.       BLANCO GEOLOGICAL SERVICES LLC : SERVICE COMPANY
 STAT.                             COLORADO : STATE
 CNTY.                           LAS ANIMAS : COUNTY
 CTRY.                                  USA : COUNTRY
 API.                       05-071-08411-00 : API NUMBER
 STRT.FT                             321.00 : START DEPTH
 STOP.FT                            2815.00 : STOP DEPTH
 STEP.FT                               1.00 : DEPTH INCREMENT
 NULL.                                -9999 : NULL VALUE
~Curve information
 DEPTH.FT                                   :
 ROP.MIN/FT                                 :
 GAS.UNITS                                  :
~ASCII Log data
# ...
      1521.0         0.20         63.4 
      1522.0         0.23         62.1 
      1523.0         0.23         62.6 
      1524.0         0.23         62.3 
      1525.0         0.23         60.5 
      1526.0         1.82         41.6 
      1527.0         0.63         42.3 
      1528.0         0.40         48.5 
      1529.0         0.30         56.9 
      1530.0         0.33         69.6 
      1531.0         0.42         96.4 
      1532.0         0.33        130.5 
      1533.0         0.27        150.7 
      1534.0         0.33        153.7 
      1535.0         0.30        136.3 
      1536.0         0.37        109.3 
      1537.0         0.27         94.3 
      1538.0         0.27         82.5 
      1539.0         0.17         78.6 
      1540.0         0.13         77.9 
      1541.0         0.17         78.0 
      1542.0         0.20         78.5 
      1543.0         0.17         77.9 
      1544.0         0.13         76.6 
      1545.0         0.25         73.8 
      1546.0         0.23         69.0 
      1547.0         0.23         63.3 
      1548.0         0.20         61.7 
      1549.0         0.17         63.7 
      1550.0         0.13         67.5 
      1551.0         0.17         71.9 
      1552.0         0.13         74.8 
      1553.0         0.27         77.8 
      1554.0         0.20         79.5 
      1555.0         0.23         78.1 
      1556.0         2.18         42.4 
      1557.0         0.50         50.6 
      1558.0         0.37         61.1 
      1559.0         0.30         72.2 
      1560.0         0.40         98.0 
      1561.0         0.33        125.6 
      1562.0         0.33        146.9 
      1563.0         0.27        162.4 
      1564.0         0.15        167.0 
      1565.0         0.27        165.3 
      1566.0         0.23        150.5 
      1567.0         0.27        127.5 
      1568.0         0.23        109.2 
      1569.0         0.20         96.7 
      1570.0         0.20         87.7 
      1571.0         0.30         80.7 
      1572.0         0.23         78.9 
      1573.0         0.30         78.6 
      1574.0         0.23         78.5 
      1575.0         0.20         77.4 
      1576.0         0.23         75.5 
      1577.0         0.27         73.6 
      1578.0         0.25         71.6 
      1579.0         0.27         68.8 
      1580.0         0.23         67.0 
      1581.0         0.23         65.9 
      1582.0         0.23         63.7 
      1583.0         0.20         61.8 
      1584.0         0.20         60.7 
      1585.0         0.37         59.1 
      1586.0         2.48         40.8 
      1587.0         0.67         55.3 
      1588.0         0.40         76.0 
      1589.0         0.27         93.6 
      1590.0         0.27        113.6 
      1591.0         0.27        131.1 
      1592.0         0.23        139.5 
      1593.0         0.25        135.9 
      1594.0         0.20        125.5 
      1595.0         0.20        113.1 
      1596.0         0.40         89.9 
      1597.0         0.50         69.2 
      1598.0         0.30         69.5 
      1599.0         0.20         72.2 
      1600.0         0.17         74.9 
      1601.0         0.13         76.8 
      1602.0         0.17         78.5 
      1603.0         0.27         77.0 
      1604.0         0.23         74.5 
      1605.0         0.27         71.0 
      1606.0         0.20         67.9 
      1607.0         0.22         65.1 
      1608.0         0.20         65.3 
      1609.0         0.23         86.1 
      1610.0         0.17        127.2 
      1611.0         0.17        189.6 
      1612.0         0.20        271.9 
      1613.0         0.20        335.2 
      1614.0         0.23        377.5 
      1615.0         0.23        398.0 
      1616.0         1.68        651.8 
      1617.0         0.40        656.7 
      1618.0         0.30        712.0 
      1619.0         0.20        752.9 
      1620.0         0.23        822.3 
      1621.0         0.17        905.4 
      1622.0         0.20       1013.7 
      1623.0         0.20       1148.4 
      1624.0         0.20       1261.3 
      1625.0         0.40       1411.8 
      1626.0         0.98       1083.3 
      1627.0         0.33        973.8 
      1628.0         0.27        897.2 
      1629.0         0.17        863.5 
      1630.0         0.10        829.2 
      1631.0         0.13        780.4 
      1632.0         0.13        734.0 
      1633.0         0.17        706.1 
      1634.0         0.20        703.2 
      1635.0         0.20        713.0 
      1636.0         0.13        709.7 
      1637.0         0.13        700.3 
      1638.0         0.20        697.6 
      1639.0         0.33        693.4 
      1640.0         0.33        713.0 
      1641.0         0.17        717.6 
      1642.0         0.25        733.3 
      1643.0         0.30        719.6 
      1644.0         0.20        710.1 
      1645.0         0.27        683.2 
      1646.0         3.05        602.1 
      1647.0         0.20        621.4 
      1648.0         0.20        734.6 
      1649.0         0.17        829.8 
      1650.0         0.20        967.5 
      1651.0         0.17       1067.0 
      1652.0         0.20       1135.7 
      1653.0         0.23       1168.1 
      1654.0         0.20       1164.8 
      1655.0         0.20       1137.7 
      1656.0         0.20       1082.7 
      1657.0         0.20       1014.3 
      1658.0         0.23        940.1 
      1659.0         0.23        866.8 
      1660.0         0.45        771.2 
      1661.0         0.13        751.0 
      1662.0         0.23        711.1 
      1663.0         0.60        688.2 
      1664.0         0.67        522.6 
      1665.0         0.70        517.7 
      1666.0         0.53        585.4 
      1667.0         0.62        602.4 
      1668.0         0.43        587.7 
      1669.0         0.20        582.8 
      1670.0         0.17        594.9 
      1671.0         0.17        588.7 
      1672.0         0.27        607.0 
      1673.0         0.20        615.9 
      1674.0         0.17        626.6 
      1675.0         0.20        620.4 
      1676.0         1.98        440.0 
      1677.0         0.33        493.5 
      1678.0         0.27        468.0 
      1679.0         0.20        494.2 
      1680.0         0.23        548.5 
      1681.0         0.37        674.7 
      1682.0         0.43        901.8 
      1683.0         0.30       1070.9 
      1684.0         0.13       1106.2 
      1685.0         0.13       1138.3 
      1686.0         0.18       1155.3 
      1687.0         0.10       1135.7 
      1688.0         0.17       1091.5 
      1689.0         0.23        982.6 
      1690.0         0.27        833.4 
      1691.0         0.27        770.9 
      1692.0         0.27        704.2 
      1693.0         0.27        659.0 
      1694.0         0.23        630.6 
      1695.0         0.23        616.8 
      1696.0         0.23        625.3 
      1697.0         0.27        633.2 
      1698.0         0.17        630.9 
      1699.0         0.27        628.6 
      1700.0         0.28        611.9 
      1701.0         0.27        590.0 
      1702.0         0.27        584.4 
      1703.0         0.27        556.3 
      1704.0         0.27        567.4 
      1705.0         0.27        553.0 
      1706.0         2.22        440.0 
      1707.0         0.47        464.7 
      1708.0         0.37        467.3 
      1709.0         0.30        504.9 
      1710.0         0.27        554.3 
      1711.0         0.27        642.7 
      1712.0         0.27        772.9 
      1713.0         0.27        875.6 
      1714.0         0.33        945.0 
      1715.0         0.23        961.6 
      1716.0         0.23        917.8 
      1717.0         0.28        825.9 
      1718.0         0.27        732.3 
      1719.0         0.27        657.4 
      1720.0         0.27        610.3 
