~Version Information
VERS.                      2.0: CWLS Log ASCII Standard - VERSION 2.0
WRAP.                       NO: One line per depth step
~Well Information Block
STRT.FT               671.6000: 
STOP.FT              1890.7000: 
STEP.FT                 0.1000: 
NULL.                -999.2500: 
COMP.          Petrogulf Corporation: COMPANY
WELL.             State 16-14R: WELL
FLD.           Purgatorie River: FIELD
LOC.           598' FSL & 682' FWL: LOCATION
CNTY.               Las Animas: COUNTY
SRVC.                         : SERVICE COMPANY
DATE.          Fri Nov 05 07:21:30 2004: LOG DATE
UWI.           05 071 08034 00: UNIQUE WELL ID
STAT.                 Colorado: STATE
~Curve Information Block
DEPT.FT            0 000 00 00: Depth
DCAL.in                       : CDL Caliper
RHOB.g/cc                     : CDL Bulk Density
RHOC.g/cc                     : CDL Density Correction
DPOR.pu                       : CDL Density Porosity
GR.GAPI                       : Gamma Ray
NPOR.pu                       : Neutron Porosity
~Parameter Information Block
~A  Depth       DCAL        RHOB        RHOC        DPOR         GR         NPOR    
# ...
  1718.0000      7.8777      2.5599      0.0544      5.4582    122.3522     27.2824
  1718.1000      7.8777      2.5448      0.0451      6.3749    120.6146     26.2667
  1718.2000      7.8777      2.5207      0.0027      7.8342    120.0714     25.5931
  1718.3000      7.8915      2.5039      0.0736      8.8540    120.0688     25.1771
  1718.4000      7.8915      2.4931      0.0044      9.5101    120.8675     24.9603
  1718.5000      7.8821      2.4899     -0.0303      9.7007    122.5153     24.8346
  1718.6000      7.8821      2.5009      0.0699      9.0347    124.6382     24.5980
  1718.7000      7.8821      2.5195      0.0502      7.9069    127.8463     24.1452
  1718.8000      7.9078      2.5364      0.0928      6.8845    130.8674     23.8027
  1718.9000      7.9078      2.5374      0.0848      6.8250    130.7201     23.9224
  1719.0000      7.9097      2.5177      0.0780      8.0152    129.1193     24.2335
  1719.1000      7.9097      2.5007      0.0184      9.0463    131.1732     24.5228
  1719.2000      7.9097      2.5093      0.0563      8.5303    137.5601     25.1436
  1719.3000      7.9044      2.5311      0.0458      7.2056    143.4548     26.2061
  1719.4000      7.9044      2.5485      0.0140      6.1520    145.6206     27.1752
  1719.5000      7.9436      2.5646      0.0507      5.1765    142.6283     27.7717
  1719.6000      7.9436      2.5809      0.0500      4.1896    135.8038     28.1367
  1719.7000      7.9436      2.5866      0.0950      3.8404    130.6689     28.3596
  1719.8000      7.9764      2.5808      0.0573      4.1944    131.2677     28.8969
  1719.9000      7.9764      2.5829      0.0489      4.0684    140.1139     29.9338
  1720.0000      7.9075      2.6023      0.0417      2.8924    154.1478     30.3254
  1720.1000      7.9075      2.6233      0.0489      1.6162    164.5468     29.4470
  1720.2000      7.9075      2.6327      0.0265      1.0503    169.4536     28.6020
  1720.3000      7.8891      2.6391      0.0139      0.6585    168.8341     28.9285
  1720.4000      7.8891      2.6513      0.0901     -0.0783    160.2384     29.8552
  1720.5000      7.8663      2.6553      0.0527     -0.3241    148.0835     30.2454
  1720.6000      7.8663      2.6404      0.0326      0.5790    141.3245     29.7580
  1720.7000      7.8663      2.6101      0.0517      2.4209    139.9175     28.8186
  1720.8000      7.8959      2.5728     -0.0231      4.6801    138.4837     28.1771
  1720.9000      7.8959      2.5350     -0.0016      6.9690    136.6434     28.5445
  1721.0000      7.8617      2.4964     -0.0224      9.3104    134.6306     29.6502
  1721.1000      7.8617      2.4615     -0.0588     11.4240    132.6170     30.3920
  1721.2000      7.8617      2.4345     -0.0402     13.0635    132.6131     30.3652
  1721.3000      7.8679      2.4136     -0.0114     14.3244    134.4961     29.9046
  1721.4000      7.8679      2.4053     -0.0054     14.8331    134.8730     29.2492
  1721.5000      7.8826      2.4105      0.0620     14.5139    131.4344     28.5126
  1721.6000      7.8826      2.4238      0.0553     13.7111    126.2583     27.8626
  1721.7000      7.8826      2.4607      0.0765     11.4737    122.0130     27.3582
  1721.8000      7.8515      2.5416      0.1188      6.5689    119.0082     26.6011
  1721.9000      7.8515      2.6432      0.2870      0.4118    114.6305     25.0441
  1722.0000      7.7300      2.7123      0.3241     -3.7746    106.5710     22.9259
  1722.1000      7.7300      2.7277      0.3007     -4.7092     97.8958     21.1288
  1722.2000      7.7300      2.7111      0.2877     -3.7007     91.6707     20.2236
  1722.3000      7.6760      2.6846      0.2554     -2.0981     88.7912     20.0176
  1722.4000      7.6760      2.6483      0.1742      0.1026     90.9541     19.9168
  1722.5000      7.6496      2.5992      0.1074      3.0792     96.0806     19.9450
  1722.6000      7.6496      2.5489      0.0351      6.1287     99.0981     20.5707
  1722.7000      7.6496      2.5127      0.0449      8.3187     99.7458     21.8937
  1722.8000      7.6476      2.5001     -0.0017      9.0842    101.6081     23.4245
  1722.9000      7.6476      2.5098      0.0411      8.4983    107.7632     24.2744
  1723.0000      7.8146      2.5296      0.0491      7.2948    116.1885     24.3320
  1723.1000      7.8146      2.5536      0.0709      5.8403    119.5505     24.1997
  1723.2000      7.8146      2.5846      0.0860      3.9650    115.6209     23.8463
  1723.3000      7.9110      2.6165      0.1108      2.0291    110.1339     22.9617
  1723.4000      7.9110      2.6371      0.1352      0.7820    104.9457     21.8868
  1723.5000      7.9149      2.6495      0.1374      0.0288     95.3286     21.4176
  1723.6000      7.9149      2.6590      0.1986     -0.5454     79.3715     21.3988
  1723.7000      7.9149      2.6542      0.1620     -0.2566     63.3340     20.8105
  1723.8000      7.8430      2.6304      0.1129      1.1865     55.2343     19.6115
  1723.9000      7.8430      2.5976      0.1193      3.1750     54.5979     18.7996
  1724.0000      7.8033      2.5725      0.0221      4.6958     55.2950     18.7330
  1724.1000      7.8033      2.5633      0.0602      5.2549     53.6073     19.0303
  1724.2000      7.8033      2.5547      0.0646      5.7767     49.4372     19.2090
  1724.3000      7.8522      2.5391      0.0029      6.7219     44.7022     18.8246
  1724.4000      7.8522      2.5332      0.0556      7.0799     40.9728     17.8815
  1724.5000      7.8575      2.5520      0.0043      5.9379     38.0045     16.8466
  1724.6000      7.8575      2.5895      0.1060      3.6664     35.0289     16.2347
  1724.7000      7.8575      2.6147      0.1278      2.1404     33.2136     16.2017
  1724.8000      7.8224      2.6180      0.0877      1.9398     34.4863     16.4740
  1724.9000      7.8224      2.6190      0.2019      1.8771     39.7816     16.5826
  1725.0000      7.8152      2.6276      0.1245      1.3570     50.0299     16.3903
  1725.1000      7.8152      2.6391      0.1485      0.6636     61.6977     16.3505
  1725.2000      7.8152      2.6321      0.1895      1.0834     68.0523     16.7595
  1725.3000      7.7690      2.5992      0.1246      3.0815     69.9072     17.4680
  1725.4000      7.7690      2.5621      0.0996      5.3289     71.4839     18.2869
  1725.5000      7.7543      2.5381      0.0247      6.7809     74.8053     18.9968
  1725.6000      7.7543      2.5299      0.0670      7.2801     81.9644     19.5097
  1725.7000      7.7543      2.5295      0.0620      7.3025     90.3039     19.9823
  1725.8000      7.7623      2.5374      0.0132      6.8242     97.1707     20.6763
  1725.9000      7.7623      2.5543      0.1388      5.7998    107.4547     21.5922
  1726.0000      7.8327      2.5544      0.1298      5.7943    120.2871     22.2089
  1726.1000      7.8327      2.5244      0.0581      7.6111    128.1816     22.1760
  1726.2000      7.8327      2.4936      0.0090      9.4760    130.8895     21.8791
  1726.3000      7.8832      2.4863      0.0455      9.9187    132.6343     22.0792
  1726.4000      7.8832      2.4901      0.0434      9.6929    133.2545     23.0188
  1726.5000      7.8658      2.4912     -0.0021      9.6263    130.9746     24.1300
  1726.6000      7.8658      2.4987     -0.0001      9.1704    126.8020     24.6404
  1726.7000      7.8658      2.5197      0.0539      7.8976    122.5411     24.4241
  1726.8000      7.8657      2.5484      0.0612      6.1593    121.7265     24.1155
  1726.9000      7.8657      2.5785      0.1119      4.3323    127.0369     24.1129
  1727.0000      7.8461      2.5894      0.1795      3.6741    134.3105     24.1316
  1727.1000      7.8461      2.5634      0.1097      5.2513    136.4445     23.9447
  1727.2000      7.8461      2.5254      0.0691      7.5490    132.8894     23.7233
  1727.3000      7.9148      2.5159      0.0435      8.1301    129.7300     23.6417
  1727.4000      7.9148      2.5338      0.1083      7.0397    128.3331     23.6631
  1727.5000      7.9568      2.5489      0.0560      6.1302    126.4741     23.8762
