~Version Information
VERS.                      2.0: CWLS Log ASCII Standard - VERSION 2.0
WRAP.                       NO: One line per depth step
~Well Information Block
STRT.FT               454.0000: 
STOP.FT              1389.0000: 
STEP.FT                 0.1000: 
NULL.                -999.2500: 
COMP.          Pioneer Natural Resources: COMPANY
WELL.          Lorencito 6-3-34-66: WELL
FLD.           Purgatoire River: FIELD
LOC.           2545' FNL & 1914' FWL: LOCATION
STAT.                 Colorado: State
CNTY.               Las Animas: COUNTY
CTRY. USA : Country
SECT. 3 : Section
TOWN. 34S : Township
RANG. 66W : Range
SRVC.                Patterson: SERVICE COMPANY
DATE.          Mon Sep 12 07:20:37 2005: LOG DATE
API.        05 071 08369 00: UNIQUE WELL ID
~Curve Information Block
DEPT.FT            0 000 00 00: Depth
DCAL.in                       : CDL Caliper
RHOB.g/cc                     : CDL Bulk Density
RHOC.g/cc                     : CDL Density Correction
DPOR.pu                       : CDL Density Porosity
GR.GAPI                       : Gamma Ray
NPOR.pu                       : Neutron Porosity
~Parameter Information Block
~A  Depth       DCAL        RHOB        RHOC        DPOR         GR         NPOR    
# ...
   703.6000      8.1340      2.4667      0.0226     11.1104     54.9807     23.9823
   703.7000      8.1340      2.5002      0.1062      9.0780     57.2786     23.6031
   703.8000      8.1407      2.4992      0.0549      9.1412     58.8340     23.7920
   703.9000      8.1407      2.4730      0.0903     10.7245     58.9657     25.0830
   704.0000      8.1396      2.4425     -0.0280     12.5752     58.5441     26.4937
   704.1000      8.1396      2.4323      0.0102     13.1947     57.6014     27.1837
   704.2000      8.1396      2.4400      0.0633     12.7282     56.9409     26.9253
   704.3000      8.1308      2.4521      0.0034     11.9948     58.8682     25.6804
   704.4000      8.1308      2.4641      0.0546     11.2696     61.6093     24.4186
   704.5000      8.0993      2.4592      0.0610     11.5664     61.3356     24.2588
   704.6000      8.0993      2.4373     -0.0149     12.8938     57.7779     25.3285
   704.7000      8.0993      2.4243      0.0192     13.6807     55.5357     26.6940
   704.8000      8.1027      2.4248      0.0278     13.6485     57.9549     27.1371
   704.9000      8.1027      2.4235      0.0450     13.7263     62.0410     26.8849
   705.0000      8.1025      2.4203      0.0338     13.9189     65.9563     27.0719
   705.1000      8.1025      2.4260      0.0653     13.5786     67.7587     27.5100
   705.2000      8.1025      2.4385      0.0359     12.8193     65.1858     27.4686
   705.3000      8.0878      2.4433      0.0494     12.5247     61.9987     27.1259
   705.4000      8.0878      2.4332      0.0176     13.1423     63.2318     26.6202
   705.5000      8.1197      2.4237      0.0179     13.7175     68.7005     25.8731
   705.6000      8.1197      2.4316      0.0480     13.2338     72.2906     25.3634
   705.7000      8.1197      2.4521      0.0519     11.9961     69.2452     25.5620
   705.8000      8.1154      2.4694      0.0768     10.9446     64.5563     26.2570
   705.9000      8.1154      2.4720      0.0765     10.7855     64.0667     26.6080
   706.0000      8.1237      2.4609      0.0802     11.4598     64.1612     26.1089
   706.1000      8.1237      2.4486      0.0911     12.2053     60.2384     25.5419
   706.2000      8.1237      2.4450      0.0999     12.4259     56.8125     25.6327
   706.3000      8.0390      2.4469      0.0587     12.3093     58.5845     25.9283
   706.4000      8.0390      2.4474      0.0908     12.2760     61.2719     25.6628
   706.5000      8.0651      2.4448      0.0581     12.4385     59.3533     25.0107
   706.6000      8.0651      2.4427      0.0319     12.5616     54.8326     24.8814
   706.7000      8.0651      2.4438      0.0507     12.4993     53.1270     25.3881
   706.8000      8.1041      2.4439      0.0352     12.4907     55.6219     25.6624
   706.9000      8.1041      2.4395      0.0321     12.7564     59.4119     25.4885
   707.0000      8.1215      2.4316      0.0561     13.2350     61.6296     25.4000
   707.1000      8.1215      2.4230      0.0258     13.7600     62.1077     25.5409
   707.2000      8.1215      2.4206      0.0057     13.9057     62.0037     25.9644
   707.3000      8.1055      2.4285      0.0477     13.4233     60.5933     26.8018
   707.4000      8.1055      2.4400      0.0568     12.7283     57.9770     27.3351
   707.5000      8.0860      2.4482      0.0386     12.2283     56.0990     26.5943
   707.6000      8.0860      2.4518      0.0481     12.0112     56.2813     25.2956
   707.7000      8.0860      2.4496      0.0016     12.1476     60.8375     24.9577
   707.8000      8.0927      2.4461      0.0045     12.3571     72.8617     26.0182
   707.9000      8.0927      2.4479      0.0620     12.2464     85.1522     27.6218
   708.0000      8.1116      2.4600      0.0598     11.5132     84.9762     28.7958
   708.1000      8.1116      2.4827      0.0964     10.1399     77.3435     29.4191
   708.2000      8.1116      2.5040      0.1140      8.8488     75.0238     29.4785
   708.3000      8.1040      2.5074      0.1127      8.6398     75.8963     28.8955
   708.4000      8.1040      2.4860      0.0859      9.9423     73.7638     28.3542
   708.5000      8.0741      2.4513      0.0505     12.0404     70.7591     28.2946
   708.6000      8.0741      2.4276      0.0308     13.4812     68.5899     27.8423
   708.7000      8.0741      2.4256      0.0407     13.5978     66.2353     27.0642
   708.8000      8.1262      2.4304      0.0295     13.3085     63.5466     26.9751
   708.9000      8.1262      2.4257      0.0424     13.5937     59.9682     27.5501
   709.0000      8.1262      2.4113      0.0323     14.4677     55.0314     28.4449
   709.1000      8.1262      2.3955      0.0401     15.4257     50.3545     29.2999
   709.2000      8.1262      2.3852      0.0388     16.0487     49.6615     29.3471
   709.3000      8.1333      2.3797      0.0420     16.3840     51.6916     28.4192
   709.4000      8.1333      2.3778      0.0233     16.4946     49.9878     26.9036
   709.5000      8.1739      2.3836     -0.0054     16.1448     45.1434     25.1439
   709.6000      8.1739      2.3945      0.0513     15.4852     44.4778     24.0081
   709.7000      8.1739      2.4036      0.0544     14.9347     48.8270     23.6966
   709.8000      8.0627      2.4134      0.0567     14.3394     51.9278     23.5850
   709.9000      8.0627      2.4228      0.0628     13.7678     50.2678     23.6670
   710.0000      8.1086      2.4219      0.0859     13.8229     46.9223     24.3146
   710.1000      8.1086      2.4099      0.0691     14.5531     47.1540     25.1982
   710.2000      8.1086      2.3943      0.0738     15.4969     50.4516     25.6086
   710.3000      8.1069      2.3814      0.0529     16.2785     53.3760     25.3259
   710.4000      8.1069      2.3709      0.0860     16.9124     54.5456     24.8233
   710.5000      8.0935      2.3552      0.0419     17.8657     54.2496     24.6422
   710.6000      8.0935      2.3383      0.0235     18.8932     52.6670     24.7305
   710.7000      8.0935      2.3352      0.0499     19.0787     48.5447     24.7233
   710.8000      8.0845      2.3456      0.0400     18.4467     44.1213     24.9571
   710.9000      8.0845      2.3585      0.0305     17.6694     44.6564     25.7698
   711.0000      8.1310      2.3711      0.0303     16.9038     50.1266     26.4189
   711.1000      8.1310      2.3849      0.0805     16.0696     53.6930     26.4263
   711.2000      8.1310      2.3949      0.0847     15.4633     51.1332     25.8133
   711.3000      8.1446      2.3966      0.0648     15.3584     45.9798     25.1474
   711.4000      8.1446      2.3965      0.0303     15.3644     44.3285     25.2505
   711.5000      8.1619      2.4008      0.0861     15.1042     47.5273     25.5592
   711.6000      8.1619      2.3986      0.1085     15.2335     51.0950     24.9921
   711.7000      8.1619      2.3799      0.0473     16.3678     52.4023     23.9442
   711.8000      8.1413      2.3593     -0.0244     17.6181     53.1967     23.5166
   711.9000      8.1413      2.3514      0.0387     18.0954     53.2152     23.7897
   712.0000      8.2273      2.3486      0.0408     18.2653     50.5753     24.2280
   712.1000      8.2273      2.3459      0.0243     18.4324     46.4954     24.5188
   712.2000      8.2273      2.3468      0.0626     18.3782     43.1267     24.3821
   712.3000      8.1917      2.3496      0.0536     18.2084     42.8280     24.0966
   712.4000      8.1917      2.3522      0.0293     18.0473     45.3109     24.6464
   712.5000      8.1437      2.3602      0.0045     17.5617     47.2465     25.8096
   712.6000      8.1437      2.3748      0.0836     16.6794     48.2381     25.9821
   712.7000      8.1437      2.3888      0.0405     15.8332     49.4748     24.7176
   712.8000      8.1597      2.3958      0.1117     15.4076     50.9052     23.1981
   712.9000      8.1597      2.3864      0.1181     15.9781     52.0951     22.5941
   713.0000      8.0662      2.3645      0.0838     17.3039     52.7638     23.4380
   713.1000      8.0662      2.3545      0.0690     17.9062     53.0274     25.1677
