~Version Information
VERS.                      2.0: CWLS Log ASCII Standard - VERSION 2.0
WRAP.                       NO: One line per depth step
~Well Information Block
STRT.FT                -9.2500: 
STOP.FT              1945.2500: 
STEP.FT                 0.2500: 
NULL.                -999.2500: 
COMP.          Pioneer Natural Resources: COMPANY
WELL.          Titan Federal 34-17: WELL
FLD.           Purgatorie River: FIELD
LOC.           321' FSL & 1911' FEL: LOCATION
STAT.                       CO: State
CNTY.               Las Animas: COUNTY
CTRY. USA : Country
SECT. 17 : Section
TOWN. 32S : Township
RANG. 65W : Range
SRVC.          Patterson Wireline: SERVICE COMPANY
DATE.          Tue Oct 11 10:22:27 2005: LOG DATE
API.           05 071 08272 00: UNIQUE WELL ID
~Curve Information Block
DEPT.FT            0 000 00 00: Depth
CCL.                          : Casing Collar Locator
TT3.usec                      : CBL 3' Travel Time
AMP3.mV                       : CBL 3' Amplitude
GR.GAPI                       : Gamma Ray
~Parameter Information Block
~A  Depth       CCL         TT3         AMP3         GR     
# ...
   359.2500      0.0000    858.1675      8.3758     82.3141
   359.5000      0.0000    905.9044      7.9112     80.3834
   359.7500      0.0000    928.4119      7.6578     79.8918
   360.0000     -2.0000    930.7299      7.5975     80.5156
   360.2500      2.0000    929.9950      7.6190     82.5848
   360.5000      0.0000    937.0200      7.6439     86.0705
   360.7500      0.0000    947.7108      7.7061     89.7801
   361.0000      0.0000    949.4265      7.9353     91.9995
   361.2500      0.0000    932.1503      8.4485     92.0454
   361.5000      0.0000    895.9949      9.2155     90.9350
   361.7500      0.0000    851.0730     10.0350     90.4101
   362.0000      0.0000    809.8203     10.6723     91.4067
   362.2500      0.0000    779.0333     11.0170     93.4135
   362.5000      0.0000    758.8431     11.1074     95.1412
   362.7500      0.0000    746.6063     11.0423     95.7678
   363.0000      0.0000    739.7944     10.8994     95.5025
   363.2500      0.0000    736.4448     10.7169     94.9237
   363.5000      0.0000    735.0579     10.5162     94.1287
   363.7500      0.0000    734.7726     10.3216     92.8463
   364.0000      0.0000    735.4951     10.1602     91.2206
   364.2500      0.0000    737.6935     10.0511     90.2458
   364.5000      0.0000    741.6496      9.9970     91.3392
   364.7500      0.0000    746.4749      9.9847     95.2647
   365.0000      0.0000    750.0117      9.9954    101.2653
   365.2500      0.0000    750.3878     10.0161    107.3245
   365.5000      0.0000    747.9295     10.0413    111.5390
   365.7500      0.0000    745.0979     10.0659    113.2279
   366.0000      0.0000    744.2994     10.0792    112.5760
   366.2500      0.0000    745.9390     10.0713    109.6871
   366.5000      0.0000    748.5283     10.0447    104.7482
   366.7500      0.0000    750.3430     10.0156     98.9643
   367.0000      0.0000    750.8984     10.0022     94.4488
   367.2500      0.0000    751.0870     10.0140     92.7010
   367.5000      0.0000    752.1050     10.0515     93.4903
   367.7500      0.0000    754.2105     10.1089     95.4342
   368.0000      0.0000    756.4721     10.1740     97.1962
   368.2500      0.0000    757.7603     10.2286     97.8337
   368.5000      0.0000    758.3410     10.2575     96.6404
   368.7500      0.0000    760.4698     10.2576     93.4378
   369.0000      0.0000    766.2906     10.2398     89.0100
   369.2500      0.0000    774.3531     10.2215     84.9633
   369.5000      0.0000    779.5919     10.2183     83.0983
   369.7500      0.0000    778.3962     10.2389     84.6220
   370.0000      0.0000    772.8401     10.2847     89.3875
   370.2500      0.0000    768.3143     10.3511     95.6008
   370.5000      0.0000    767.8063     10.4258    100.6679
   370.7500      0.0000    769.9050     10.4898    103.0031
   371.0000      0.0000    771.5305     10.5250    103.1230
   371.2500      0.0000    771.1248     10.5254    102.5540
   371.5000      0.0000    769.4562     10.4991    101.9836
   371.7500      0.0000    768.3427     10.4599    101.2224
   372.0000      0.0000    768.7803     10.4200    100.4222
   372.2500      0.0000    769.9897     10.3866     99.9578
   372.5000      0.0000    770.2241     10.3573     99.2164
   372.7500      0.0000    768.6588     10.3187     96.9477
   373.0000      0.0000    766.8629     10.2541     93.1991
   373.2500      0.0000    768.3693     10.1547     89.8804
   373.5000      0.0000    775.7017     10.0241     88.8085
   373.7500      0.0000    786.8975      9.8755     89.6887
   374.0000      0.0000    795.7154      9.7275     90.5155
   374.2500      0.0000    796.5519      9.6005     89.8167
   374.5000      0.0000    788.9944      9.5162     88.0640
   374.7500      0.0000    777.1227      9.4993     86.7300
   375.0000      0.0000    765.7648      9.5689     86.6032
   375.2500      0.0000    758.8923      9.7212     87.5299
   375.5000      0.0000    760.1425      9.9190     89.3338
   375.7500      0.0000    771.6011     10.1091     92.1373
   376.0000      0.0000    790.7413     10.2550     95.6656
   376.2500      0.0000    810.6948     10.3574     98.8997
   376.5000      0.0000    826.9160     10.4443    100.8709
   376.7500      0.0000    843.5279     10.5437    101.4872
   377.0000      0.0000    868.9158     10.6634    101.1816
   377.2500      0.0000    902.5679     10.7907    100.2026
   377.5000      0.0000    930.0119     10.9028     98.9066
   377.7500      0.0000    935.8900     10.9774     98.3133
   378.0000      0.0000    921.7434     11.0061     99.3325
   378.2500      0.0000    906.9287     11.0066    101.2368
   378.5000      0.0000    911.0676     11.0176    101.6464
   378.7500      0.0000    937.4675     11.0719     98.7533
   379.0000      0.0000    972.3576     11.1698     93.5864
   379.2500      0.0000    996.3691     11.2811     89.4732
   379.5000      0.0000    996.7556     11.3720     88.9977
   379.7500      0.0000    973.3934     11.4300     91.6674
   380.0000      0.0000    937.0862     11.4652     94.5859
   380.2500      0.0000    901.9393     11.4939     95.1339
   380.5000      0.0000    877.1357     11.5227     92.9097
   380.7500      0.0000    864.0195     11.5420     89.5557
   381.0000      0.0000    859.1514     11.5336     87.2168
   381.2500      0.0000    858.6721     11.4873     87.0293
   381.5000      0.0000    860.3687     11.4108     88.4974
   381.7500      0.0000    863.7422     11.3224     89.9558
   382.0000      0.0000    869.1108     11.2362     89.7134
   382.2500      0.0000    875.2675     11.1573     87.0851
   382.5000      0.0000    877.1156     11.0837     82.6534
   382.7500      0.0000    867.8929     11.0101     77.6774
   383.0000      0.0000    845.8208     10.9316     73.2552
   383.2500      0.0000    816.9117     10.8469     69.8440
   383.5000      0.0000    789.6679     10.7555     67.2349
   383.7500      0.0000    768.7869     10.6546     64.8850
   384.0000      0.0000    754.7424     10.5437     62.5490
   384.2500      0.0000    746.6456     10.4282     60.7592
   384.5000      0.0000    743.4119     10.3161     60.5197
   384.7500      0.0000    743.2750     10.2103     62.3053
   385.0000      0.0000    744.2177     10.1086     65.2848
   385.2500      0.0000    745.4841     10.0082     67.6981
   385.5000      0.0000    748.0337      9.9098     68.2235
   385.7500      0.0000    752.9648      9.8164     66.9297
   386.0000      0.0000    759.7321      9.7303     64.7578
   386.2500      0.0000    766.3693      9.6509     62.4230
   386.5000      0.0000    771.1910      9.5752     60.2664
   386.7500      0.0000    773.8544      9.5014     58.8743
   387.0000      0.0000    774.9943      9.4318     59.1216
   387.2500      0.0000    775.3632      9.3734     61.2342
   387.5000      0.0000    775.3811      9.3339     63.9469
   387.7500      0.0000    775.1541      9.3167     65.1746
   388.0000      0.0000    774.7059      9.3168     63.9928
   388.2500      0.0000    774.1855      9.3249     61.6587
   388.5000      0.0000    773.8791      9.3347     60.2078
   388.7500      0.0000    774.0060      9.3473     60.3257
   389.0000      0.0000    774.5322      9.3657     60.9587
   389.2500      0.0000    775.1939      9.3886     60.6239
   389.5000      0.0000    775.6708      9.4101     58.6314
   389.7500      0.0000    775.7384      9.4268     55.3069
   390.0000      0.0000    775.3492      9.4431     51.5623
   390.2500      0.0000    774.6411      9.4688     48.3574
   390.5000      0.0000    773.8534      9.5102     46.3422
   390.7500      0.0000    773.1970      9.5669     45.7286
   391.0000      0.0000    772.7723      9.6347     46.3428
   391.2500      0.0000    772.5751      9.7097     47.7975
   391.5000      0.0000    772.5242      9.7861     49.6580
   391.7500      0.0000    772.4143      9.8547     51.4395
   392.0000      0.0000    771.7565      9.9066     52.5079
   392.2500      0.0000    769.6937      9.9355     52.2178
   392.5000      0.0000    765.3534      9.9386     50.4273
