~Version Information
VERS.                      2.0: CWLS Log ASCII Standard - VERSION 2.0
WRAP.                       NO: One line per depth step
~Well Information Block
STRT.FT               702.7000: 
STOP.FT              2529.2000: 
STEP.FT                 0.1000: 
NULL.                -999.2500: 
COMP.          Pioneer Natural Resources: COMPANY
WELL.          Aztec Federal 41-15: WELL
FLD.           Purgatorie River: FIELD
LOC.           706' FNL & 1253' FEL: LOCATION
CNTY.               Las Animas: COUNTY
SRVC.          Superior Well Services: SERVICE COMPANY
DATE.          Tue Mar 18 09-36-47 2008: LOG DATE
UWI.           05-071-08342-00: UNIQUE WELL ID
STAT.                       CO: STATE
~Curve Information Block
DEPT.FT            0 000 00 00: Depth
DCAL.in                       : CDL Caliper
DPOR.pu                       : CDL Density Porosity
GR.GAPI                       : Gamma Ray
RHOB.g/cc                     : CDL Bulk Density
RHOC.g/cc                     : CDL Density Correction
~Parameter Information Block
~A  Depth       DCAL        DPOR         GR         RHOB        RHOC    
# ...
   837.1000      7.9675      3.0253    111.7442      2.6001      0.0891
   837.2000      7.9665      2.8033    106.2514      2.6037      0.1069
   837.3000      7.9649      3.6466    103.5512      2.5898      0.1235
   837.4000      7.9628      4.7493    106.7889      2.5716      0.1349
   837.5000      7.9610      5.9463    112.3685      2.5519      0.1300
   837.6000      7.9602      6.9224    116.0080      2.5358      0.1127
   837.7000      7.9608      7.0005    119.1675      2.5345      0.1007
   837.8000      7.9628      6.5433    123.7583      2.5420      0.1041
   837.9000      7.9658      6.9955    125.8377      2.5346      0.1141
   838.0000      7.9693      8.8361    122.4537      2.5042      0.1188
   838.1000      7.9731     10.8122    117.3950      2.4716      0.1188
   838.2000      7.9770     11.4987    115.8094      2.4603      0.1245
   838.3000      7.9809     10.9545    117.9530      2.4693      0.1357
   838.4000      7.9849     10.3013    121.0054      2.4800      0.1401
   838.5000      7.9890     10.8001    122.4821      2.4718      0.1283
   838.6000      7.9931     12.3575    122.2083      2.4461      0.1063
   838.7000      7.9970     12.8444    122.3647      2.4381      0.0941
   838.8000      8.0006     11.2495    124.6767      2.4644      0.1011
   838.9000      8.0033      9.8165    127.4028      2.4880      0.1012
   839.0000      8.0051     10.5591    128.6916      2.4758      0.0710
   839.1000      8.0055     12.2026    129.3330      2.4487      0.0301
   839.2000      8.0045     12.5527    131.0905      2.4429      0.0078
   839.3000      8.0020     11.6288    133.3933      2.4581      0.0058
   839.4000      7.9978     10.3088    132.8112      2.4799      0.0145
   839.5000      7.9923      8.6806    128.9949      2.5068      0.0300
   839.6000      7.9857      6.9665    125.7198      2.5351      0.0501
   839.7000      7.9789      5.5202    123.5182      2.5589      0.0689
   839.8000      7.9726      4.4905    121.5660      2.5759      0.0815
   839.9000      7.9673      4.5942    121.5789      2.5742      0.0809
   840.0000      7.9635      5.9657    122.1989      2.5516      0.0646
   840.1000      7.9613      6.8918    119.7768      2.5363      0.0492
   840.2000      7.9604      7.0376    114.3874      2.5339      0.0473
   840.3000      7.9605      7.9440    110.9655      2.5189      0.0506
   840.4000      7.9611      9.4357    114.3002      2.4943      0.0512
   840.5000      7.9619      9.9935    121.7388      2.4851      0.0561
   840.6000      7.9626      8.9864    125.3903      2.5017      0.0780
   840.7000      7.9629      7.4861    123.1489      2.5265      0.1085
   840.8000      7.9630      7.5717    120.9784      2.5251      0.1132
   840.9000      7.9630      9.9299    122.9898      2.4862      0.0795
   841.0000      7.9630     12.4478    125.8600      2.4446      0.0467
   841.1000      7.9634     12.8915    125.8020      2.4373      0.0493
   841.2000      7.9646     13.0267    123.6283      2.4351      0.0585
   841.3000      7.9675     15.0064    123.2344      2.4024      0.0437
   841.4000      7.9729     17.2972    125.4077      2.3646      0.0270
   841.5000      7.9812     17.5593    125.1060      2.3603      0.0398
   841.6000      7.9919     16.1912    120.1040      2.3828      0.0777
   841.7000      8.0033     15.0314    113.8268      2.4020      0.1186
   841.8000      8.0127     14.9580    109.7340      2.4032      0.1423
   841.9000      8.0174     15.3021    109.3228      2.3975      0.1451
   842.0000      8.0161     14.8295    111.2949      2.4053      0.1443
   842.1000      8.0088     13.2628    113.0247      2.4312      0.1557
   842.2000      7.9975     11.8099    111.6988      2.4551      0.1779
   842.3000      7.9850     11.6326    107.5659      2.4581      0.1996
   842.4000      7.9740     12.0428    103.6152      2.4513      0.2178
   842.5000      7.9666     10.8231    101.6725      2.4714      0.2484
   842.6000      7.9632      7.6939    102.3843      2.5231      0.2924
   842.7000      7.9634      6.1383    104.4002      2.5487      0.3045
   842.8000      7.9655      8.7999    104.9864      2.5048      0.2488
   842.9000      7.9681     13.9290    104.6909      2.4202      0.1552
   843.0000      7.9698     18.1298    105.9481      2.3509      0.0852
   843.1000      7.9700     19.8257    107.5040      2.3229      0.0609
   843.2000      7.9689     19.7894    106.8658      2.3235      0.0559
   843.3000      7.9668     18.8365    104.9728      2.3392      0.0490
   843.4000      7.9644     16.5442    103.0038      2.3770      0.0479
   843.5000      7.9622     13.6238    101.0387      2.4252      0.0538
   843.6000      7.9605     11.4917    100.4997      2.4604      0.0594
   843.7000      7.9591     10.0465    101.7951      2.4842      0.0695
   843.8000      7.9576      8.7123    102.5477      2.5062      0.0827
   843.9000      7.9551      7.1078    100.1988      2.5327      0.0928
   844.0000      7.9510      5.3332     95.4381      2.5620      0.1037
   844.1000      7.9450      4.1520     92.7202      2.5815      0.1122
   844.2000      7.9372      3.8070     91.9398      2.5872      0.1113
   844.3000      7.9284      4.7794     88.8071      2.5711      0.0975
   844.4000      7.9191      7.3546     83.5406      2.5286      0.0672
   844.5000      7.9102     10.0812     80.1503      2.4837      0.0320
   844.6000      7.9019     11.7892     79.7195      2.4555      0.0071
   844.7000      7.8942     12.9980     80.3452      2.4355     -0.0120
   844.8000      7.8873     13.3280     80.2002      2.4301     -0.0238
   844.9000      7.8812     11.8858     79.7754      2.4539     -0.0176
   845.0000      7.8762      9.6960     81.5500      2.4900      0.0001
   845.1000      7.8724      8.4598     85.1409      2.5104      0.0112
   845.2000      7.8697      8.1135     86.9379      2.5161      0.0126
   845.3000      7.8681      7.7516     85.7309      2.5221      0.0113
   845.4000      7.8673      7.1348     84.0202      2.5323      0.0115
   845.5000      7.8671      6.2976     83.1007      2.5461      0.0140
   845.6000      7.8673      6.0686     81.5986      2.5499      0.0096
   845.7000      7.8680      7.0677     78.0367      2.5334     -0.0056
   845.8000      7.8698      8.4130     73.0988      2.5112     -0.0184
   845.9000      7.8728      9.0407     69.8044      2.5008     -0.0179
   846.0000      7.8775      8.5184     70.0003      2.5094     -0.0032
   846.1000      7.8838      7.2056     71.9126      2.5311      0.0189
   846.2000      7.8915      6.5556     74.0568      2.5418      0.0263
   846.3000      7.9006      7.8253     77.0159      2.5209      0.0083
   846.4000      7.9107      9.7152     79.3344      2.4897     -0.0126
   846.5000      7.9216      9.9093     80.1466      2.4865     -0.0128
   846.6000      7.9328      8.5408     82.4757      2.5091      0.0028
   846.7000      7.9431      7.3476     87.0742      2.5288      0.0121
   846.8000      7.9513      7.0539     90.8431      2.5336      0.0057
   846.9000      7.9557      6.7798     91.5954      2.5381      0.0003
   847.0000      7.9555      5.7632     90.6548      2.5549      0.0116
   847.1000      7.9504      4.7473     90.5641      2.5717      0.0317
   847.2000      7.9413      4.8090     91.4942      2.5707      0.0399
   847.3000      7.9295      5.8416     91.6770      2.5536      0.0319
   847.4000      7.9173      6.4084     90.8672      2.5443      0.0314
   847.5000      7.9067      5.5255     90.8172      2.5588      0.0511
   847.6000      7.8993      4.2519     93.1268      2.5798      0.0662
   847.7000      7.8961      3.7943     97.0038      2.5874      0.0622
   847.8000      7.8971      3.9077    101.0008      2.5855      0.0575
   847.9000      7.9015      3.7385    105.2159      2.5883      0.0656
   848.0000      7.9074      3.5950    108.1181      2.5907      0.0742
   848.1000      7.9126      4.3039    108.7356      2.5790      0.0714
   848.2000      7.9152      5.1691    108.8695      2.5647      0.0647
