~Version Information
VERS.                      2.0: CWLS Log ASCII Standard - VERSION 2.0
WRAP.                       NO: One line per depth step
~Well Information Block
STRT.FT               732.2500: 
STOP.FT              2476.0000: 
STEP.FT                 0.2500: 
NULL.                -999.2500: 
COMP.          Petrogulf Corporation: COMPANY
WELL.            Montoya 7-14V: WELL
FLD.           Purgatorie River: FIELD
LOC.           535' FSL & 491' FWL: LOCATION
CNTY.               Las Animas: COUNTY
SRVC.                         : SERVICE COMPANY
DATE.          Mon Aug 23 05:51:43 2004: LOG DATE
UWI.           05 071 08019 00: UNIQUE WELL ID
STAT.                 Colorado: STATE
~Curve Information Block
DEPT.FT            0 000 00 00: Depth
SP.mV                         : DIL Spontaneous Potential
RILD.Ohm-m                    : DIL Deep Resistivity
RILM.Ohm-m                    : DIL Medium Resistivity
RLL3.Ohm-m                    : DIL Shallow Resistivity
GR.GAPI                       : Gamma Ray
~Parameter Information Block
~A  Depth        SP         RILD        RILM        RLL3         GR     
# ...
  1320.2500    -39.3313     15.1693     17.2666     24.0728    137.2308
  1320.5000    -38.1802     15.7251     18.0999     26.1493    134.4680
  1320.7500    -36.9749     16.3216     18.8461     28.4394    131.7535
  1321.0000    -35.8302     16.9411     19.4640     30.5087    126.5611
  1321.2500    -34.8506     17.5411     19.9300     31.7746    122.8019
  1321.5000    -34.1183     18.0520     20.2412     31.7663    117.9579
  1321.7500    -33.6863     18.3883     20.4091     30.4077    116.0942
  1322.0000    -33.5657     18.4759     20.4484     28.1300    116.2765
  1322.2500    -33.7243     18.2852     20.3660     25.6996    118.2256
  1322.5000    -34.0905     17.8457     20.1562     23.8398    122.4773
  1322.7500    -34.5629     17.2294     19.8056     22.8898    125.2702
  1323.0000    -35.0294     16.5185     19.3028     22.7106    128.7523
  1323.2500    -35.3813     15.7790     18.6521     22.8514    130.8904
  1323.5000    -35.5301     15.0512     17.8782     22.8120    134.5556
  1323.7500    -35.4214     14.3550     17.0241     22.2392    137.2241
  1324.0000    -35.0477     13.6984     16.1406     21.0132    140.4325
  1324.2500    -34.4544     13.0856     15.2756     19.2545    141.5515
  1324.5000    -33.7380     12.5205     14.4654     17.2616    142.3476
  1324.7500    -33.0356     12.0073     13.7331     15.3797    143.2139
  1325.0000    -32.5008     11.5501     13.0896     13.8529    145.8308
  1325.2500    -32.2693     11.1512     12.5367     12.7537    147.9881
  1325.5000    -32.4267     10.8110     12.0700     12.0265    150.1445
  1325.7500    -32.9829     10.5254     11.6816     11.5881    150.1840
  1326.0000    -33.8626     10.2851     11.3615     11.3925    148.4229
  1326.2500    -34.9245     10.0765     11.0983     11.4216    146.7560
  1326.5000    -35.9916      9.8856     10.8806     11.6375    144.5336
  1326.7500    -36.8885      9.7036     10.6977     11.9564    143.4132
  1327.0000    -37.4772      9.5304     10.5407     12.2691    142.1609
  1327.2500    -37.6811      9.3737     10.4034     12.4849    141.5624
  1327.5000    -37.4974      9.2432     10.2825     12.5613    141.2039
  1327.7500    -37.0038      9.1449     10.1769     12.5007    141.4831
  1328.0000    -36.3415      9.0770     10.0865     12.3306    142.4937
  1328.2500    -35.6888      9.0311     10.0116     12.0868    143.1479
  1328.5000    -35.2178      8.9968      9.9512     11.8063    143.6794
  1328.7500    -35.0484      8.9664      9.9032     11.5173    143.9024
  1329.0000    -35.2142      8.9373      9.8642     11.2295    144.1243
  1329.2500    -35.6582      8.9104      9.8308     10.9383    143.6138
  1329.5000    -36.2582      8.8860      9.8003     10.6480    140.4663
  1329.7500    -36.8747      8.8620      9.7709     10.3925    136.5436
  1330.0000    -37.4051      8.8355      9.7423     10.2273    128.9044
  1330.2500    -37.8130      8.8060      9.7152     10.2006    123.5665
  1330.5000    -38.1328      8.7774      9.6906     10.3258    116.5861
  1330.7500    -38.4371      8.7551      9.6691     10.5725    113.2397
  1331.0000    -38.7860      8.7415      9.6503     10.8711    110.8015
  1331.2500    -39.1830      8.7308      9.6324     11.1272    110.7932
  1331.5000    -39.5600      8.7111      9.6126     11.2545    112.1669
  1331.7500    -39.7969      8.6691      9.5869     11.2223    113.2003
  1332.0000    -39.7662      8.5983      9.5519     11.0812    113.8850
  1332.2500    -39.3805      8.5015      9.5042     10.9299    113.5702
  1332.5000    -38.6306      8.3882      9.4420     10.8399    112.4054
  1332.7500    -37.5952      8.2683      9.3653     10.8015    111.8182
  1333.0000    -36.4187      8.1478      9.2762     10.7459    112.3744
  1333.2500    -35.2706      8.0286      9.1785     10.6209    113.8585
  1333.5000    -34.2959      7.9118      9.0774     10.4459    116.4993
  1333.7500    -33.5806      7.8002      8.9787     10.2963    117.3472
  1334.0000    -33.1407      7.6994      8.8879     10.2350    116.2840
  1334.2500    -32.9431      7.6165      8.8094     10.2543    114.5636
  1334.5000    -32.9441      7.5583      8.7467     10.2762    112.0221
  1334.7500    -33.1218      7.5302      8.7016     10.2027    110.7026
  1335.0000    -33.4891      7.5352      8.6755      9.9738    109.0843
  1335.2500    -34.0806      7.5738      8.6692      9.5961    108.3986
  1335.5000    -34.9198      7.6445      8.6830      9.1356    108.9839
  1335.7500    -35.9955      7.7432      8.7179      8.6901    110.8613
  1336.0000    -37.2482      7.8644      8.7745      8.3563    115.2287
  1336.2500    -38.5758      8.0016      8.8543      8.2017    118.0754
  1336.5000    -39.8553      8.1495      8.9592      8.2528    120.5495
  1336.7500    -40.9654      8.3060      9.0922      8.5040    120.8397
  1337.0000    -41.8061      8.4746      9.2578      8.9426    120.0304
  1337.2500    -42.3096      8.6641      9.4623      9.5656    118.8627
  1337.5000    -42.4449      8.8867      9.7142     10.3720    115.6224
  1337.7500    -42.2141      9.1530     10.0230     11.3340    112.3983
  1338.0000    -41.6475      9.4698     10.3999     12.3777    107.2054
  1338.2500    -40.8061      9.8400     10.8556     13.3933    104.5175
  1338.5000    -39.7834     10.2683     11.4009     14.2750    102.6732
  1338.7500    -38.7039     10.7652     12.0453     14.9658    103.0528
  1339.0000    -37.7135     11.3480     12.7971     15.4812    105.9860
  1339.2500    -36.9502     12.0331     13.6628     15.9138    109.3038
  1339.5000    -36.5057     12.8234     14.6464     16.4306    115.3731
  1339.7500    -36.3837     13.6954     15.7483     17.2709    119.3240
  1340.0000    -36.4858     14.5942     16.9633     18.7428    123.6995
  1340.2500    -36.6321     15.4439     18.2773     21.2005    125.0287
  1340.5000    -36.6129     16.1725     19.6641     24.9710    124.3952
  1340.7500    -36.2610     16.7397     21.0811     30.2155    122.4142
  1341.0000    -35.5093     17.1488     22.4635     36.7651    117.6866
  1341.2500    -34.4126     17.4333     23.7219     44.0204    113.8469
  1341.5000    -33.1304     17.6320     24.7439     51.0098    108.4853
  1341.7500    -31.8740     17.7689     25.4092     56.6209    106.2860
  1342.0000    -30.8420     17.8483     25.6216     59.9261    106.4316
  1342.2500    -30.1646     17.8639     25.3451     60.4509    108.8393
  1342.5000    -29.8705     17.8102     24.6265     58.2577    114.5727
  1342.7500    -29.8852     17.6894     23.5824     53.8243    118.6238
  1343.0000    -30.0638     17.5076     22.3601     47.8290    123.2482
  1343.2500    -30.2488     17.2685     21.0949     40.9827    124.9537
  1343.5000    -30.3384     16.9711     19.8852     33.9634    126.4065
  1343.7500    -30.3265     16.6137     18.7882     27.3981    127.9140
  1344.0000    -30.3095     16.2015     17.8291     21.8222    132.8852
  1344.2500    -30.4430     15.7505     17.0126     17.5990    138.1118
  1344.5000    -30.8691     15.2861     16.3329     14.8423    146.9140
  1344.7500    -31.6468     14.8359     15.7801     13.4017    151.6238
  1345.0000    -32.7142     14.4228     15.3431     12.9375    154.4753
  1345.2500    -33.8971     14.0615     15.0104     13.0553    153.3206
  1345.5000    -34.9641     13.7602     14.7701     13.4299    148.6635
  1345.7500    -35.7051     13.5232     14.6104     13.8659    144.8932
  1346.0000    -36.0091     13.3536     14.5188     14.2862    139.3795
  1346.2500    -35.9077     13.2507     14.4831     14.6804    135.8881
  1346.5000    -35.5713     13.2057     14.4911     15.0570    131.2278
  1346.7500    -35.2563     13.2004     14.5303     15.4187    129.0136
  1347.0000    -35.2181     13.2102     14.5884     15.7603    127.8217
  1347.2500    -35.6222     13.2117     14.6529     16.0763    128.4348
  1347.5000    -36.4902     13.1897     14.7120     16.3628    130.6105
  1347.7500    -37.6964     13.1385     14.7554     16.6138    132.2882
  1348.0000    -39.0084     13.0580     14.7750     16.8181    134.8089
