~Version Information
 VERS.                      2.0: CWLS Log ASCII Standard - VERSION 2.0
 WRAP.                       NO: One line per depth step
 ~Well Information Block
 STRT.FT               462.4000: 
 STOP.FT              2260.5000: 
 STEP.FT                 0.1000: 
 NULL.                -999.2500: 
 COMP.          Petrogulf Corporation: COMPANY
 WELL.             McLeod 9-42V: WELL
 FLD.           Purgatorie River: FIELD
 LOC.           1658' FNL & 415' FEL: LOCATION
 CNTY.               Las Animas: COUNTY
 SRVC.                         : SERVICE COMPANY
 DATE.          Fri Nov 12 10:12:24 2004: LOG DATE
 UWI.           05 071 08071 00: UNIQUE WELL ID
 STAT.                 Colorado: STATE
 PROV.                         :Province
 ~Curve Information Block
 DEPT.FT            0 000 00 00: Depth
 DCAL.in                       : CDL Caliper
 RHOB.g/cc                     : CDL Bulk Density
 RHOC.g/cc                     : CDL Density Correction
 DPOR.pu                       : CDL Density Porosity
 GR.GAPI                       : Gamma Ray
 NPOR.pu                       : Neutron Porosity
 ~Parameter Information Block
 ~A  Depth       DCAL        RHOB        RHOC        DPOR         GR         NPOR    
# ...
   827.2000      8.2339      2.4728     -0.0410     10.7365    122.8076     28.2919
   827.3000      8.2340      2.4596     -0.0299     11.5419    122.4563     28.0137
   827.4000      8.2340      2.4804     -0.0452     10.2800    127.2040     28.3955
   827.5000      8.2919      2.5239      0.0504      7.6400    133.9082     28.8218
   827.6000      8.2919      2.5622      0.0517      5.3208    137.9059     29.0457
   827.7000      8.2919      2.5758      0.0726      4.4980    136.8836     29.1436
   827.8000      8.2041      2.5661      0.0491      5.0844    131.9299     29.3516
   827.9000      8.2041      2.5516      0.0160      5.9617    127.7891     29.7465
   828.0000      8.1584      2.5515      0.0405      5.9722    126.0577     29.9571
   828.1000      8.1584      2.5600      0.0990      5.4548    125.3064     29.9331
   828.2000      8.1584      2.5629      0.0470      5.2807    126.8011     29.9413
   828.3000      8.1279      2.5648      0.0297      5.1650    130.4056     29.9233
   828.4000      8.1279      2.5736      0.0317      4.6286    134.0129     29.9479
   828.5000      8.1100      2.5861      0.0256      3.8739    135.0594     30.2609
   828.6000      8.1100      2.5963      0.0257      3.2522    132.1357     30.6744
   828.7000      8.1100      2.6002      0.0257      3.0209    126.5782     30.7818
   828.8000      8.1121      2.5998     -0.0010      3.0408    121.1785     30.5492
   828.9000      8.1121      2.6028      0.0151      2.8588    118.3521     30.3201
   829.0000      8.1294      2.6116      0.0234      2.3289    117.1256     30.3321
   829.1000      8.1294      2.6233      0.0611      1.6199    116.0096     30.6341
   829.2000      8.1294      2.6331      0.0407      1.0231    115.5964     31.0626
   829.3000      8.1451      2.6342     -0.0019      0.9562    115.0878     31.2172
   829.4000      8.1451      2.6264     -0.0354      1.4296    114.1490     31.0922
   829.5000      8.1290      2.6238     -0.0503      1.5879    113.0078     30.8287
   829.6000      8.1290      2.6312      0.0041      1.1390    110.0804     30.2966
   829.7000      8.1290      2.6309      0.0020      1.1598    104.9794     29.5024
   829.8000      8.1180      2.6201     -0.0873      1.8130     99.3452     28.8429
   829.9000      8.1180      2.6195     -0.0237      1.8465     95.7246     28.6225
   830.0000      8.1170      2.6305      0.0001      1.1838     95.4242     28.4285
   830.1000      8.1170      2.6296      0.0681      1.2359     95.7799     27.8099
   830.2000      8.1170      2.6079      0.0072      2.5505     95.1340     27.1255
   830.3000      8.0719      2.5880     -0.0544      3.7568     94.6733     26.9427
   830.4000      8.0719      2.5872     -0.0380      3.8088     94.5665     27.1523
   830.5000      8.0559      2.5973     -0.0387      3.1957     94.9856     27.1650
   830.6000      8.0559      2.6076      0.0003      2.5683     96.3057     26.9194
   830.7000      8.0559      2.6223     -0.0407      1.6803     96.4599     26.9013
   830.8000      8.0465      2.6444      0.0431      0.3396     94.0427     27.0493
   830.9000      8.0465      2.6593      0.0542     -0.5617     91.3610     27.0550
   831.0000      8.0086      2.6591      0.0599     -0.5497     89.1034     27.1907
   831.1000      8.0086      2.6481      0.0223      0.1147     86.7759     27.5168
   831.2000      8.0086      2.6293      0.0213      1.2566     85.8085     27.5503
   831.3000      7.9946      2.6111     -0.0124      2.3605     87.5380     27.2166
   831.4000      7.9946      2.6032     -0.0059      2.8374     90.9400     26.9960
   831.5000      7.9958      2.6046     -0.0219      2.7492     93.0989     27.0990
   831.6000      7.9958      2.6135      0.0021      2.2130     91.8824     27.2304
   831.7000      7.9958      2.6298      0.0358      1.2244     87.8067     27.3026
   831.8000      7.9913      2.6459      0.0153      0.2465     83.8599     27.3689
   831.9000      7.9913      2.6474      0.0656      0.1574     81.8955     27.2901
   832.0000      7.9938      2.6257      0.0518      1.4749     82.2626     27.0547
   832.1000      7.9938      2.5963     -0.0236      3.2570     84.6778     26.7883
   832.2000      7.9938      2.5838     -0.0401      4.0119     86.6608     26.7725
   832.3000      7.9952      2.5916     -0.0108      3.5380     86.5071     27.1119
   832.4000      7.9952      2.6068      0.0228      2.6178     85.7633     27.2340
   832.5000      8.0018      2.6227      0.0333      1.6548     85.8706     27.0036
   832.6000      8.0018      2.6371      0.0161      0.7817     86.3436     26.8853
   832.7000      8.0018      2.6420      0.0495      0.4847     87.0375     26.8812
   832.8000      7.9967      2.6366      0.0256      0.8147     88.5658     26.9307
   832.9000      7.9967      2.6265      0.0704      1.4258     89.3586     27.1342
   833.0000      7.9985      2.6077      0.0336      2.5636     88.1526     27.2609
   833.1000      7.9985      2.5837      0.0074      4.0154     86.7651     27.0817
   833.2000      7.9985      2.5662     -0.0147      5.0768     86.4002     26.8049
   833.3000      8.0038      2.5522     -0.0037      5.9249     85.8733     26.6386
   833.4000      8.0038      2.5370     -0.0455      6.8502     84.4365     26.5121
   833.5000      8.0097      2.5319     -0.0433      7.1578     84.7965     26.2960
   833.6000      8.0097      2.5426     -0.0257      6.5074     88.0635     25.9720
   833.7000      8.0097      2.5613      0.0081      5.3750     91.2915     25.8360
   833.8000      8.0097      2.5927     -0.0286      3.4731     92.5411     26.0920
   833.9000      8.0097      2.6352      0.0743      0.8945     92.3212     26.3678
   834.0000      8.0042      2.6631      0.0543     -0.7951     91.2181     26.3917
   834.1000      8.0042      2.6732      0.0214     -1.4068     88.9391     26.4057
   834.2000      8.0042      2.6833      0.0915     -2.0206     86.8937     26.6066
   834.3000      8.0026      2.6925      0.0767     -2.5784     86.6841     26.9323
   834.4000      8.0026      2.6944      0.0619     -2.6915     87.3749     27.4351
   834.5000      8.0005      2.6885      0.0508     -2.3345     88.2070     27.7647
   834.6000      8.0005      2.6767      0.0390     -1.6178     88.1043     27.4446
   834.7000      8.0005      2.6682      0.0079     -1.1052     86.6453     26.9189
   834.8000      7.9802      2.6691      0.0418     -1.1594     85.2974     26.9211
   834.9000      7.9802      2.6733      0.0018     -1.4099     85.0110     27.4822
   835.0000      7.9920      2.6760      0.0083     -1.5737     87.4677     27.9997
   835.1000      7.9920      2.6712      0.0096     -1.2828     93.7470     28.0694
   835.2000      7.9920      2.6594     -0.0116     -0.5706    100.9374     27.8693
   835.3000      8.0016      2.6551      0.0226     -0.3073    105.1942     27.7957
   835.4000      8.0016      2.6555      0.0521     -0.3314    104.8183     27.8738
   835.5000      8.0062      2.6471     -0.0005      0.1740    101.5123     27.8436
   835.6000      8.0062      2.6401     -0.0219      0.6018     99.6093     27.7060
   835.7000      8.0062      2.6472     -0.0165      0.1682    100.1618     27.4427
   835.8000      8.0184      2.6550      0.0025     -0.3056     98.5932     26.8924
   835.9000      8.0184      2.6397      0.0476      0.6223     93.3803     26.2176
   836.0000      8.0278      2.5981     -0.0125      3.1474     88.5812     25.8836
   836.1000      8.0278      2.5540     -0.0551      5.8191     86.9350     26.0207
   836.2000      8.0278      2.5300     -0.0390      7.2738     88.2280     26.3532
   836.3000      8.0220      2.5251     -0.0212      7.5681     90.7792     26.5837
   836.4000      8.0220      2.5261     -0.0495      7.5063     91.6953     26.4536
   836.5000      8.0559      2.5203      0.0085      7.8580     90.5801     26.0119
   836.6000      8.0559      2.5111     -0.0977      8.4163     89.8669     25.7560
   836.7000      8.0559      2.5221     -0.0529      7.7518     90.8010     25.8407
