~Version Information
VERS.                      2.0: CWLS Log ASCII Standard - VERSION 2.0
WRAP.                       NO: One line per depth step
~Well Information Block
STRT.FT               647.0000: 
STOP.FT              1167.5000: 
STEP.FT                 0.2500: 
NULL.                -999.2500: 
COMP.          Pioneer Natural Resources: COMPANY
WELL.             Linda T 32-3: WELL
FLD.           Purgatoire River: FIELD
LOC.           1350' FNL & 2290' FEL: LOCATION
PROV.                 Colorado: PROVINCE
CNTY.               Las Animas: COUNTRY
SRVC.                Patterson: SERVICE COMPANY
DATE.          Sat Feb 05 06:41:02 2005: LOG DATE
UWI.           05 071 08215 00: UNIQUE WELL ID
~Curve Information Block
DEPT.FT            0 000 00 00: Depth
SN.Ohm-m                      : IEL Short Normal
SP.mV                         : IEL Spontaneous Potential
DIR.Ohm-m                     : IEL Induction Resistivity
GR.GAPI                       : Gamma Ray
~Parameter Information Block
~A  Depth        SN          SP         DIR          GR     
# ...
   747.5000     33.2867     11.0932     34.1953     92.9912
   747.7500     33.7322     10.7605     33.9306     92.3214
   748.0000     34.1649     10.4305     32.8991     90.3087
   748.2500     34.6355     10.0654     30.9741     88.8426
   748.5000     35.1636      9.6495     28.3359     88.0677
   748.7500     35.6908      9.1917     25.4292     88.9104
   749.0000     36.1431      8.7199     22.7114     91.0899
   749.2500     36.5177      8.2731     20.4643     91.9445
   749.5000     36.8685      7.8920     18.7800     91.0903
   749.7500     37.2050      7.6009     17.6386     89.3019
   750.0000     37.4572      7.3881     16.9845     85.9824
   750.2500     37.5825      7.2015     16.7979     83.8641
   750.5000     37.6300      6.9713     17.1662     80.9902
   750.7500     37.6530      6.6433     18.4015     79.1860
   751.0000     37.6348      6.1985     21.3173     76.6423
   751.2500     37.5300      5.6515     28.2063     75.1374
   751.5000     37.3200      5.0328     48.3992     73.2022
   751.7500     37.0131      4.3637    211.0286     72.0257
   752.0000     36.6306      3.6340 100000.0000     70.1138
   752.2500     36.2073      2.8046 100000.0000     68.5384
   752.5000     35.7744      1.8347 100000.0000     65.5315
   752.7500     35.3363      0.7124 100000.0000     63.1998
   753.0000     34.8784     -0.5382 100000.0000     59.7724
   753.2500     34.3969     -1.8784 100000.0000     57.8905
   753.5000     33.9158     -3.2861 100000.0000     55.8801
   753.7500     33.4635     -4.7732 100000.0000     54.8982
   754.0000     33.0388     -6.3825 100000.0000     53.3856
   754.2500     32.6183     -8.1681 100000.0000     52.0894
   754.5000     32.1930    -10.1724 100000.0000     49.6934
   754.7500     31.7750    -12.4097 100000.0000     47.9971
   755.0000     31.3705    -14.8712 100000.0000     45.7176
   755.2500     30.9623    -17.5476 100000.0000     44.5523
   755.5000     30.5221    -20.4529 100000.0000     43.5575
   755.7500     30.0300    -23.6374 100000.0000     43.4719
   756.0000     29.4794    -27.1864 100000.0000     44.1198
   756.2500     28.8689    -31.2112 100000.0000     44.8936
   756.5000     28.1859    -35.8362 100000.0000     46.2246
   756.7500     27.4104    -41.1936 100000.0000     47.0436
   757.0000     26.5358    -47.4222 100000.0000     47.7948
   757.2500     25.5580    -54.6617 100000.0000     47.7371
   757.5000     24.4404    -63.0458 100000.0000     46.6133
   757.7500     23.1121    -72.7089 100000.0000     45.3220
   758.0000     21.4895    -83.8135      5.7883     43.3018
   758.2500     19.4728    -96.5720      2.1385     42.4598
   758.5000     16.9473   -111.2429      1.3588     42.6284
   758.7500     13.8475   -128.1064      1.0993     43.6464
   759.0000     10.2886   -147.3909      0.9979     45.7441
   759.2500      6.6776   -169.0429      0.8901     47.1084
   759.5000      3.6135   -192.2336      0.7036     49.2416
   759.7500      1.5367   -214.9234      0.4970     51.0915
   760.0000      0.4512   -234.3240      0.3443     54.4767
   760.2500      0.0197   -248.3665      0.2628     56.4815
   760.5000     -0.1198   -256.7306      0.2464     57.7607
   760.7500     -0.1656   -260.2797      0.2988     57.1914
   761.0000     -0.1757   -260.0797      0.4572     54.8376
   761.2500     -0.1645   -257.4605      0.8544     52.8071
   761.5000     -0.1479   -254.3890      2.1477     49.5507
   761.7500     -0.1310   -252.9767     17.1033     47.3444
   762.0000     -0.1103   -254.5481 100000.0000     44.3268
   762.2500     -0.0858   -259.0745 100000.0000     42.7698
   762.5000     -0.0459   -265.1924 100000.0000     41.3065
   762.7500      0.0116   -270.9161 100000.0000     40.8423
   763.0000      0.0389   -274.7912    239.5197     40.6751
   763.2500      0.0021   -276.6079     12.8166     40.7365
   763.5000     -0.0600   -277.1268      8.1489     40.6642
   763.7500     -0.1090   -277.1363      8.0879     40.2982
   764.0000     -0.1290   -276.4292     12.5058     39.3435
   764.2500     -0.0807   -273.5191    220.1663     38.7793
   764.5000      0.0291   -267.0149 100000.0000     38.8305
   764.7500      0.0738   -257.8402 100000.0000     39.7993
   765.0000     -0.0465   -249.5780 100000.0000     42.7759
   765.2500     -0.2483   -245.8152 100000.0000     45.6062
   765.5000     -0.3771   -247.1386 100000.0000     50.6541
   765.7500     -0.3815   -250.8181 100000.0000     54.2697
   766.0000     -0.3173   -252.8168 100000.0000     59.5985
   766.2500     -0.2495   -249.8751 100000.0000     62.9372
   766.5000     -0.1970   -240.7017     37.9657     67.9652
   766.7500     -0.1651   -226.0528     14.0623     71.8631
   767.0000     -0.1717   -207.3981      6.9955     79.2183
   767.2500     -0.1705   -185.2887      2.9780     84.9084
   767.5000      0.0374   -159.5070      1.2914     93.1439
   767.7500      0.7573   -130.8661      0.6261     97.3616
   768.0000      2.2309   -102.0509      0.3352    100.3680
   768.2500      4.4128    -76.2050      0.1988     99.7922
   768.5000      6.9100    -55.0131      0.1399     95.4236
   768.7500      9.2443    -38.2438      0.1246     90.9383
   769.0000     11.1632    -24.5902      0.1422     83.3477
   769.2500     12.6692    -12.6495      0.2006     78.2289
   769.5000     13.8627     -1.5587      0.3289     70.8818
   769.7500     14.8439      8.6002      0.6049     66.6454
   770.0000     15.6794     16.7671      1.3473     62.5367
   770.2500     16.3608     21.6299      5.8737     61.8954
   770.5000     16.8231     22.8362 100000.0000     64.2430
   770.7500     17.0409     21.5667 100000.0000     67.6060
   771.0000     17.0429     19.7590 100000.0000     74.0225
   771.2500     16.8060     18.7939 100000.0000     78.2599
   771.5000     16.2693     18.9496 100000.0000     83.2170
   771.7500     15.4914     19.8217 100000.0000     85.3170
   772.0000     14.6634     20.9389 100000.0000     87.1254
   772.2500     13.9486     22.0308 100000.0000     87.9470
   772.5000     13.3774     23.0034   2576.7336     89.2697
   772.7500     12.8986     23.8487     44.2924     90.3226
   773.0000     12.4790     24.5870     32.8004     92.0053
   773.2500     12.1433     25.2412     32.9267     93.1032
   773.5000     11.9437     25.8291     38.2392     94.9488
   773.7500     11.9332     26.3640     55.4960     96.6937
   774.0000     12.1440     26.8623    220.7086    100.5568
   774.2500     12.5320     27.3462 100000.0000    103.7382
   774.5000     12.9626     27.8356 100000.0000    108.2428
   774.7500     13.2961     28.3353 100000.0000    110.3695
   775.0000     13.4768     28.8331 100000.0000    111.7420
   775.2500     13.5282     29.3084 100000.0000    111.5882
   775.5000     13.5069     29.7404 100000.0000    110.4076
   775.7500     13.4676     30.1102 100000.0000    109.4201
   776.0000     13.4227     30.4057 100000.0000    108.2702
   776.2500     13.3525     30.6302     60.5896    107.9374
   776.5000     13.2656     30.8069     23.1286    107.7313
   776.7500     13.2177     30.9674     15.1770    106.9417
   777.0000     13.2807     31.1343     12.1073    102.7600
   777.2500     13.4966     31.3172     10.7539     97.2647
   777.5000     13.8576     31.5277     10.2242     85.5445
   777.7500     14.3636     31.7926     10.1746     76.5340
   778.0000     15.0955     32.1410     10.4504     63.2080
   778.2500     16.2057     32.5729     10.9743     55.2822
   778.5000     17.8121     33.0441     11.7010     45.9642
   778.7500     19.7119     33.4875     12.5968     42.1873
   779.0000     21.2075     33.8534     13.6318     41.3334
   779.2500     21.6714     34.1290     14.7759     44.1854
   779.5000     21.2388     34.3265     15.9917     52.4636
   779.7500     20.5296     34.4638     17.2228     59.1540
   780.0000     19.9904     34.5568     18.3819     67.8428
   780.2500     19.7344     34.6215     19.3449     71.1315
   780.5000     19.6907     34.6756     19.9661     70.5935
   780.7500     19.7639     34.7346     20.1249     66.5767
