~Version Information
VERS.                      2.0: CWLS Log ASCII Standard - VERSION 2.0
WRAP.                       NO: One line per depth step
~Well Information Block
STRT.FT               987.5000: 
STOP.FT              2426.0000: 
STEP.FT                 0.5000: 
NULL.                -999.2500: 
COMP.          Evergreen Operating Corporation: COMPANY
WELL.          McCullough 34-32: WELL
FLD.           Purgatorie River: FIELD
LOC.           261' FSL & 2098' FEL--: LOCATION
PROV.                 Colorado: PROVINCE
CNTY.               Las Animas: COUNTRY
SRVC.          Patterson Wireline: SERVICE COMPANY
DATE.          Mon May 17 13:38:56 2004: LOG DATE
UWI.           05-071-07953-00: UNIQUE WELL ID
~Curve Information Block
DEPT.FT            0 000 00 00: Depth
CCL.                          : Casing Collar Locator
TT3.usec                      : CBL 3' Travel Time
AMP3.mV                       : CBL 3' Amplitude
GR.GAPI                       : Gamma Ray
~Parameter Information Block
~A  Depth       CCL         TT3         AMP3         GR     
# ...
  1322.5000      0.0000    322.6722     12.3656    143.7087
  1323.0000      0.0000    323.0153     12.0720    130.2767
  1323.5000      0.0000    323.1928     11.9392    124.6880
  1324.0000      0.0000    322.9328     12.2484    130.1326
  1324.5000      0.0000    322.6727     12.2175    140.2079
  1325.0000      0.0000    322.7263     11.9903    142.4387
  1325.5000      0.0000    322.8395     12.4355    139.0795
  1326.0000      0.0000    322.8006     13.1494    134.9744
  1326.5000      0.0000    322.4501     13.3479    134.4067
  1327.0000      0.0000    322.4894     12.9799    135.8418
  1327.5000      0.0000    322.9577     12.7051    121.9167
  1328.0000      0.0000    323.0282     13.0520    100.3800
  1328.5000      0.0000    322.9788     13.1478     92.8770
  1329.0000      0.0000    323.1065     12.8054     99.7090
  1329.5000      0.0000    323.4053     12.7060    111.5388
  1330.0000      0.0000    329.0331     12.2432    121.6442
  1330.5000      0.0000    368.1202     11.7126    124.8700
  1331.0000      0.0000    467.3080     11.7184    127.1508
  1331.5000      0.0000    536.9794     11.0228    135.1571
  1332.0000      0.0000    551.5660      9.7327    142.0493
  1332.5000      0.0000    602.2818      8.9007    139.5367
  1333.0000      0.0000    664.7102      8.5465    127.6295
  1333.5000      0.0000    692.0781      8.6721    112.5932
  1334.0000      0.0000    628.0809      8.9028     97.4691
  1334.5000      0.0000    517.6879     10.0901     81.2206
  1335.0000      0.0000    427.4803     12.2954     68.6724
  1335.5000      0.0000    355.1776     13.2709     64.3018
  1336.0000      0.0000    326.3807     13.2434     59.6438
  1336.5000      0.0000    322.1845     13.7722     54.5825
  1337.0000      0.0000    322.4499     14.2852     58.8785
  1337.5000      0.0000    323.2258     13.5036     75.5305
  1338.0000      0.0000    323.7766     12.2586    101.8229
  1338.5000      0.0000    324.5269     12.0082    127.9549
  1339.0000      0.0000    333.5764     12.3347    137.5479
  1339.5000      0.0000    369.5766     11.8824    139.1876
  1340.0000      0.0000    400.4331     11.0566    143.5345
  1340.5000      0.0000    371.8596     10.5900    145.7200
  1341.0000      0.0000    344.2140     10.1559    140.3194
  1341.5000      0.0000    382.5277      9.7765    129.2550
  1342.0000      0.0000    514.7371      9.4030    122.1189
  1342.5000      0.0000    672.6689      8.9818    126.8615
  1343.0000      0.0000    713.4043      8.7583    140.1255
  1343.5000      0.0000    597.5043      9.1098    149.3608
  1344.0000      0.0000    434.8727      9.9555    152.3541
  1344.5000      0.0000    383.8911     10.7371    153.4144
  1345.0000      0.0000    461.0916     10.9787    148.2901
  1345.5000      0.0000    557.2814     10.7132    140.3231
  1346.0000      0.0000    625.8239      9.5273    137.9309
  1346.5000      0.0000    688.8493      7.4618    144.2157
  1347.0000      0.0000    725.8606      5.3677    145.3493
  1347.5000      0.0000    740.5276      3.7177    127.2710
  1348.0000      0.0000    740.5321      3.0215     99.4661
  1348.5000      0.0000    741.7700      2.7856     79.5277
  1349.0000      0.0000    748.4878      3.0505     84.4817
  1349.5000      0.0000    748.2323      3.5080    112.3313
  1350.0000      0.0000    746.6038      4.3540    141.4795
  1350.5000      0.0000    735.6082      5.8616    157.0447
  1351.0000      0.0000    721.5699      6.4453    150.2325
  1351.5000      0.0000    719.1839      5.8418    124.9024
  1352.0000      0.0000    731.5688      4.8451     97.8018
  1352.5000      0.0000    760.6670      4.0365     79.9096
  1353.0000      0.0000    785.3905      4.2666     72.0247
  1353.5000      0.0000    782.4451      4.7830     79.5728
  1354.0000      0.0000    770.3630      5.0882     98.0112
  1354.5000      0.0000    729.0428      6.5693    114.7157
  1355.0000      0.0000    596.6503      9.5719    129.6113
  1355.5000      0.0000    425.3129     12.1312    142.6116
  1356.0000      0.0000    344.9720     12.8673    140.4076
  1356.5000      0.0000    368.9119     12.2792    134.5117
  1357.0000      0.0000    483.9391     11.4022    133.2894
  1357.5000      0.0000    575.1759     10.7875    128.8421
  1358.0000      0.0000    536.3611     10.4684    124.1591
  1358.5000      0.0000    511.6766     10.1138    125.7624
  1359.0000      0.0000    508.4747      9.9249    131.5857
  1359.5000      0.0000    462.9055      9.7871    129.6947
  1360.0000      0.0000    482.7868      9.8305    122.2566
  1360.5000      0.0000    531.6554     10.1421    127.0130
  1361.0000      0.0000    575.4442      9.7999    141.1961
  1361.5000      0.0000    657.1250      9.2328    147.4847
  1362.0000      0.0000    705.0532      9.5222    141.2792
  1362.5000      0.0000    687.7880     10.0461    137.8596
  1363.0000      0.0000    589.1712     10.1783    141.6815
  1363.5000      0.0000    479.9408     10.2287    145.3877
  1364.0000      0.0000    481.9212     10.2014    145.7893
  1364.5000      0.0000    506.8766      9.9404    139.8127
  1365.0000      0.0000    496.0684      9.5172    136.7285
  1365.5000      0.0000    541.7556      9.2367    135.4358
  1366.0000      0.0000    611.7014      9.4434    122.5376
  1366.5000      0.0000    678.8983      9.6713    115.0656
  1367.0000      0.0000    691.5222      9.7614    124.5367
  1367.5000      0.0000    610.0617      9.8960    136.0428
  1368.0000      0.0000    521.3079     10.0194    146.2293
  1368.5000      0.0000    495.0511     10.1295    154.1787
  1369.0000      0.0000    536.5161     10.3691    150.7853
  1369.5000      0.0000    631.5197     10.4588    138.3175
  1370.0000      0.0000    692.5223     10.2008    126.4168
  1370.5000      0.0000    641.9756     10.0746    112.8501
  1371.0000      0.0000    498.7056     10.4408     96.4084
  1371.5000      0.0000    415.1308     10.6869     86.2427
  1372.0000      0.0000    471.6738     10.5725     88.9484
  1372.5000      0.0000    586.7111     10.6743    100.4053
  1373.0000      0.0000    656.6941     10.7450    119.7573
  1373.5000      0.0000    615.9559     10.4184    136.3414
  1374.0000      0.0000    572.2597     10.0853    139.3548
  1374.5000      0.0000    606.5980      9.8623    131.3613
  1375.0000      0.0000    657.6202      9.4827    120.4148
  1375.5000      0.0000    697.9893      8.4235    114.3771
  1376.0000      0.0000    718.9472      7.1206    114.6387
  1376.5000      0.0000    725.0778      6.5872    110.9517
  1377.0000     -2.8015    693.0307      6.5747    112.7312
  1377.5000      0.0000    647.8027      6.7461    122.8142
  1378.0000      0.0000    625.2045      7.4101    130.3449
  1378.5000      0.0000    640.5236      7.8969    136.0230
  1379.0000      0.0000    683.6992      8.3821    137.6573
  1379.5000      0.0000    704.1636      9.3266    138.9339
  1380.0000      0.0000    708.9604      9.9044    140.8530
  1380.5000      0.0000    717.7288     10.0157    136.7160
  1381.0000      0.0000    734.4615      9.9422    133.6035
  1381.5000      0.0000    746.7275      9.8681    138.1982
  1382.0000      0.0000    746.3392      9.7797    139.2777
  1382.5000      0.0000    733.7492      9.5138    132.8309
  1383.0000      0.0000    717.3837      9.0010    128.1563
  1383.5000      0.0000    709.1590      8.3169    133.3629
  1384.0000      0.0000    706.9876      7.8698    142.3100
  1384.5000      0.0000    705.9502      8.0279    141.5275
  1385.0000      0.0000    706.4778      8.5655    140.4147
  1385.5000      0.0000    710.7477      9.0381    142.4876
  1386.0000      0.0000    714.3765      9.3680    142.2648
  1386.5000      0.0000    710.7270      9.6829    143.5866
  1387.0000      0.0000    706.3878      9.9133    141.1289
  1387.5000      0.0000    705.7579      9.8732    136.1623
  1388.0000      0.0000    706.5736      9.4763    134.0210
  1388.5000      0.0000    706.9094      8.7567    133.8291
  1389.0000      0.0000    706.4534      7.9804    137.5243
