~Version Information
VERS.                      2.0: CWLS Log ASCII Standard - VERSION 2.0
WRAP.                       NO: One line per depth step
~Well Information Block
STRT.FT               840.0000: 
STOP.FT              2266.0000: 
STEP.FT                 0.1000: 
NULL.                -999.2500: 
COMP.          Pioneer Natural Resources: COMPANY
WELL.              Tonto 42-23: WELL
FLD.           Purgatoire River: FIELD
LOC.           2217' FNL & 423' FEL: LOCATION
PROV.                 Colorado: PROVINCE
CNTY.               Las Animas: COUNTRY
SRVC.                Patterson: SERVICE COMPANY
DATE.          Mon Apr 18 07:15:48 2005: LOG DATE
UWI.           05 071 08335 00: UNIQUE WELL ID
~Curve Information Block
DEPT.FT            0 000 00 00: Depth
DCAL.in                       : CDL Caliper
RHOB.g/cc                     : CDL Bulk Density
RHOC.g/cc                     : CDL Density Correction
DPOR.pu                       : CDL Density Porosity
GR.GAPI                       : Gamma Ray
NPOR.pu                       : Neutron Porosity
~Parameter Information Block
~A  Depth       DCAL        RHOB        RHOC        DPOR         GR         NPOR    
# ...
  2251.2000      7.8156      2.5634      0.0748      5.2466   -999.2500     27.2323
  2251.3000      7.8110      2.5626      0.0103      5.2985   -999.2500     39.0794
  2251.4000      7.8110      2.5747      0.1301      4.5646   -999.2500     47.4551
  2251.5000      7.8080      2.5782      0.0838      4.3496   -999.2500     50.4004
  2251.6000      7.8080      2.5695      0.0196      4.8792   -999.2500     50.9689
  2251.7000      7.8080      2.5624      0.0689      5.3074   -999.2500     51.0287
  2251.8000      7.8106      2.5544      0.0792      5.7911   -999.2500     51.0321
  2251.9000      7.8106      2.5441      0.0275      6.4188   -999.2500   -999.2500
  2252.0000      7.8055      2.5439      0.0452      6.4318   -999.2500   -999.2500
  2252.1000      7.8055      2.5615      0.0588      5.3619   -999.2500   -999.2500
  2252.2000      7.8055      2.5855      0.0940      3.9112   -999.2500   -999.2500
  2252.3000      7.8001      2.5954      0.0573      3.3092   -999.2500   -999.2500
  2252.4000      7.8001      2.5922      0.0442      3.5049   -999.2500   -999.2500
  2252.5000      7.7924      2.5957     -0.0073      3.2882   -999.2500   -999.2500
  2252.6000      7.7924      2.6080      0.0914      2.5479   -999.2500   -999.2500
  2252.7000      7.7924      2.6106      0.0680      2.3873   -999.2500   -999.2500
  2252.8000      7.7895      2.6023      0.0396      2.8916   -999.2500   -999.2500
  2252.9000      7.7895      2.5935      0.0549      3.4258   -999.2500   -999.2500
  2253.0000      7.8072      2.5892      0.0483      3.6822   -999.2500   -999.2500
  2253.1000      7.8072      2.5900      0.0580      3.6357   -999.2500   -999.2500
  2253.2000      7.8072      2.5941      0.0572      3.3891   -999.2500   -999.2500
  2253.3000      7.7995      2.6041      0.0322      2.7800   -999.2500   -999.2500
  2253.4000      7.7995      2.6214      0.0931      1.7361   -999.2500   -999.2500
  2253.5000      7.7979      2.6353      0.0462      0.8899   -999.2500   -999.2500
  2253.6000      7.7979      2.6272      0.0921      1.3799   -999.2500   -999.2500
  2253.7000      7.7979      2.5929      0.0338      3.4619   -999.2500   -999.2500
  2253.8000      7.7991      2.5648      0.0194      5.1622   -999.2500   -999.2500
  2253.9000      7.7991      2.5682      0.0285      4.9588   -999.2500   -999.2500
  2254.0000      7.7915      2.5814      0.0564      4.1580   -999.2500   -999.2500
  2254.1000      7.7915      2.5721      0.0366      4.7184   -999.2500   -999.2500
  2254.2000      7.7915      2.5462      0.0218      6.2926   -999.2500   -999.2500
  2254.3000      7.7905      2.5355      0.0073      6.9375   -999.2500   -999.2500
  2254.4000      7.7905      2.5532      0.0342      5.8694   -999.2500   -999.2500
  2254.5000      7.7912      2.5801      0.0606      4.2349   -999.2500   -999.2500
  2254.6000      7.7912      2.5960      0.0308      3.2721   -999.2500   -999.2500
  2254.7000      7.7912      2.6048      0.0574      2.7396   -999.2500   -999.2500
  2254.8000      7.7892      2.6099      0.0793      2.4292   -999.2500   -999.2500
  2254.9000      7.7892      2.6037      0.0904      2.8076   -999.2500   -999.2500
  2255.0000      7.7874      2.5909      0.0447      3.5828   -999.2500   -999.2500
  2255.1000      7.7874      2.5803      0.0612      4.2234   -999.2500   -999.2500
  2255.2000      7.7874      2.5716      0.0360      4.7499   -999.2500   -999.2500
  2255.3000      7.7896      2.5737      0.0220      4.6233   -999.2500   -999.2500
  2255.4000      7.7896      2.5916      0.0479      3.5364   -999.2500   -999.2500
  2255.5000      7.7905      2.6078      0.0961      2.5575   -999.2500   -999.2500
  2255.6000      7.7905      2.6125      0.0489      2.2731   -999.2500   -999.2500
  2255.7000      7.7905      2.6080      0.0903      2.5444   -999.2500   -999.2500
  2255.8000      7.7852      2.5865      0.0865      3.8500   -999.2500   -999.2500
  2255.9000      7.7852      2.5561      0.0257      5.6895   -999.2500   -999.2500
  2256.0000      7.7887      2.5460     -0.0072      6.3047   -999.2500   -999.2500
  2256.1000      7.7887      2.5631      0.0666      5.2640   -999.2500   -999.2500
  2256.2000      7.7887      2.5859      0.0581      3.8839   -999.2500   -999.2500
  2256.3000      7.7892      2.5972      0.0832      3.1991   -999.2500   -999.2500
  2256.4000      7.7892      2.5986      0.0400      3.1136   -999.2500   -999.2500
  2256.5000      7.7856      2.6042      0.0199      2.7735   -999.2500   -999.2500
  2256.6000      7.7856      2.6185      0.0675      1.9069   -999.2500   -999.2500
  2256.7000      7.7856      2.6234      0.0970      1.6146   -999.2500   -999.2500
  2256.8000      7.7853      2.6091      0.0611      2.4762   -999.2500   -999.2500
  2256.9000      7.7853      2.5908      0.0211      3.5896   -999.2500   -999.2500
  2257.0000      7.7836      2.5886      0.0285      3.7232   -999.2500   -999.2500
  2257.1000      7.7836      2.6075      0.0437      2.5747   -999.2500   -999.2500
  2257.2000      7.7836      2.6302      0.0974      1.1987   -999.2500   -999.2500
  2257.3000      7.7811      2.6430      0.0444      0.4215   -999.2500   -999.2500
  2257.4000      7.7811      2.6480      0.0874      0.1239   -999.2500   -999.2500
  2257.5000      7.7884      2.6478      0.0128      0.1344   -999.2500   -999.2500
  2257.6000      7.7884      2.6511      0.0573     -0.0637   -999.2500   -999.2500
  2257.7000      7.7884      2.6563      0.0643     -0.3789   -999.2500   -999.2500
  2257.8000      7.7897      2.6508      0.0633     -0.0467   -999.2500   -999.2500
  2257.9000      7.7897      2.6354      0.0524      0.8828   -999.2500   -999.2500
  2258.0000      7.7758      2.6181      0.0536      1.9347   -999.2500   -999.2500
  2258.1000      7.7758      2.6018      0.0254      2.9200   -999.2500   -999.2500
  2258.2000      7.7758      2.5941      0.0426      3.3865   -999.2500   -999.2500
  2258.3000      7.7561      2.5990      0.0894      3.0932   -999.2500   -999.2500
  2258.4000      7.7561      2.6025      0.1091      2.8778   -999.2500   -999.2500
  2258.5000      7.7506      2.5874      0.0432      3.7939   -999.2500   -999.2500
  2258.6000      7.7506      2.5574      0.0364      5.6098   -999.2500   -999.2500
  2258.7000      7.7506      2.5342      0.0079      7.0182   -999.2500   -999.2500
  2258.8000      7.7452      2.5366      0.0127      6.8701   -999.2500   -999.2500
  2258.9000      7.7452      2.5624      0.0585      5.3111   -999.2500   -999.2500
  2259.0000      7.7433      2.5880      0.1038      3.7606   -999.2500   -999.2500
  2259.1000      7.7433      2.5976      0.1061      3.1742   -999.2500   -999.2500
  2259.2000      7.7433      2.5987      0.1083      3.1086   -999.2500   -999.2500
  2259.3000      7.7327      2.5992      0.0896      3.0777   -999.2500   -999.2500
  2259.4000      7.7327      2.5960      0.0750      3.2749   -999.2500   -999.2500
  2259.5000      7.7426      2.5889      0.0714      3.7007   -999.2500   -999.2500
  2259.6000      7.7426      2.5844      0.0328      3.9754   -999.2500   -999.2500
  2259.7000      7.7426      2.5887      0.0552      3.7166   -999.2500   -999.2500
  2259.8000      7.7459      2.6039      0.0784      2.7949   -999.2500   -999.2500
  2259.9000      7.7459      2.6190      0.1302      1.8815   -999.2500   -999.2500
  2260.0000      7.7463      2.6192      0.0829      1.8683   -999.2500   -999.2500
  2260.1000      7.7463      2.6036      0.1073      2.8116   -999.2500   -999.2500
  2260.2000      7.7463      2.5834      0.0778      4.0341   -999.2500   -999.2500
  2260.3000      7.7507      2.5782      0.0652      4.3545   -999.2500   -999.2500
  2260.4000      7.7507      2.5910      0.1128      3.5750   -999.2500   -999.2500
  2260.5000      7.7542      2.5982      0.1050      3.1416   -999.2500   -999.2500
  2260.6000      7.7542      2.5894      0.0681      3.6708   -999.2500   -999.2500
  2260.7000      7.7542      2.5867      0.0555      3.8384   -999.2500   -999.2500
