~Version Information
VERS.                      2.0: CWLS Log ASCII Standard - VERSION 2.0
WRAP.                       NO: One line per depth step
~Well Information Block
STRT.FT                -8.2500: 
STOP.FT               871.5000: 
STEP.FT                 0.2500: 
NULL.                -999.2500: 
COMP.          Pioneer Natural Resources: COMPANY
WELL.             Tomcat 32-10: WELL
FLD.           Purgatorie River: FIELD
LOC.           2286' FNL & 2463' FEL------: LOCATION
PROV.                       CO: PROVINCE
CNTY.               Las Animas: COUNTRY
SRVC.          Patterson Wireline: SERVICE COMPANY
DATE.          Mon Mar 28 09:03:25 2005: LOG DATE
UWI.           05 071 08301 00: UNIQUE WELL ID
~Curve Information Block
DEPT.FT            0 000 00 00: Depth
CCL.                          : Casing Collar Locator
TT3.usec                      : CBL 3' Travel Time
AMP3.mV                       : CBL 3' Amplitude
GR.GAPI                       : Gamma Ray
~Parameter Information Block
~A  Depth       CCL         TT3         AMP3         GR     
# ...
   326.7500      0.0000    837.1819      6.4131     72.8221
   327.0000      2.0000    831.3416      6.3755     70.6640
   327.2500      0.0000    820.3442      6.3779     70.5000
   327.5000      0.0000    805.9466      6.4348     73.5180
   327.7500      0.0000    789.0143      6.5896     79.1905
   328.0000      0.0000    769.2277      6.8684     85.4465
   328.2500      0.0000    748.1062      7.2140     90.0858
   328.5000      0.0000    731.6900      7.4894     91.9661
   328.7500      0.0000    726.4710      7.5906     91.3601
   329.0000      0.0000    732.7577      7.5438     89.7616
   329.2500      0.0000    744.7461      7.4590     89.1657
   329.5000      0.0000    756.4607      7.4105     90.7384
   329.7500      0.0000    765.5549      7.3954     93.8446
   330.0000      0.0000    772.3041      7.3802     96.6893
   330.2500      0.0000    777.2723      7.3494     97.9286
   330.5000      0.0000    780.4891      7.3151     97.3781
   330.7500      0.0000    781.8196      7.3028     95.5159
   331.0000      0.0000    781.3531      7.3278     93.0389
   331.2500      0.0000    779.6031      7.3770     90.8646
   331.5000      0.0000    777.6106      7.4161     89.9762
   331.7500      0.0000    776.6439      7.4169     91.0541
   332.0000      0.0000    777.3459      7.3804     94.1559
   332.2500      0.0000    779.2447      7.3364     98.5011
   332.5000      0.0000    781.3280      7.3214    102.6963
   332.7500      0.0000    782.9468      7.3535    105.5354
   333.0000      0.0000    784.0506      7.4208    106.7302
   333.2500      0.0000    784.8243      7.4936    106.9723
   333.5000      0.0000    785.3710      7.5462    107.4141
   333.7500      0.0000    785.6720      7.5713    108.9014
   334.0000      0.0000    785.6816      7.5805    111.4279
   334.2500      0.0000    785.4210      7.5929    114.2669
   334.5000      0.0000    785.0179      7.6186    116.6807
   334.7500      0.0000    784.6452      7.6472    118.5302
   335.0000      0.0000    784.4066      7.6489    120.2346
   335.2500      0.0000    784.2745      7.5952    122.1538
   335.5000      0.0000    784.1515      7.4864    124.1645
   335.7500      0.0000    784.0005      7.3572    125.9282
   336.0000      0.0000    783.9121      7.2481    127.3600
   336.2500      0.0000    784.0235      7.1733    128.6377
   336.5000      0.0000    784.3323      7.1173    129.9374
   336.7500      0.0000    784.5463      7.0540    131.2509
   337.0000      0.0000    784.0911      6.9702    132.1712
   337.2500      0.0000    782.3385      6.8775    131.8551
   337.5000      0.0000    779.0967      6.8027    129.6639
   337.7500      0.0000    775.1384      6.7623    125.8861
   338.0000      0.0000    772.0907      6.7485    121.4140
   338.2500      0.0000    771.2225      6.7379    116.7654
   338.5000      0.0000    772.1184      6.7085    111.8871
   338.7500      0.0000    772.8989      6.6523    106.7978
   339.0000      0.0000    771.9188      6.5816    101.8092
   339.2500      0.0000    769.0307      6.5220     97.1206
   339.5000      0.0000    765.3781      6.4950     92.7200
   339.7500      0.0000    762.5328      6.5051     88.7217
   340.0000      0.0000    761.6777      6.5441     85.6002
   340.2500      0.0000    762.8016      6.6055     84.1922
   340.5000      0.0000    764.5562      6.6915     85.3754
   340.7500      0.0000    765.5468      6.8069     89.1607
   341.0000      0.0000    765.8052      6.9456     93.8925
   341.2500      0.0000    766.4468      7.0861     96.9864
   341.5000      0.0000    768.0614      7.1997     96.9765
   341.7500      0.0000    770.1487      7.2616     94.5790
   342.0000      0.0000    771.8536      7.2643     91.5214
   342.2500      0.0000    772.3549      7.2276     88.9462
   342.5000      0.0000    770.7739      7.1924     87.3728
   342.7500      0.0000    766.7167      7.1958     87.3650
   343.0000      0.0000    761.0548      7.2478     89.2386
   343.2500      0.0000    755.5569      7.3293     92.3616
   343.5000      0.0000    751.5837      7.4102     95.3161
   343.7500      0.0000    749.3588      7.4724     96.7981
   344.0000      0.0000    748.3461      7.5186     96.4632
   344.2500      0.0000    747.9398      7.5642     95.1944
   344.5000      0.0000    747.7783      7.6247     94.3961
   344.7500      0.0000    747.7286      7.7066     94.6443
   345.0000      0.0000    747.7779      7.8037     95.0515
   345.2500      0.0000    747.9710      7.9032     94.0302
   345.5000      0.0000    748.4230      7.9943     90.4870
   345.7500      0.0000    749.3787      8.0682     84.5060
   346.0000      0.0000    751.1381      8.1153     77.4797
   346.2500      0.0000    753.7192      8.1258     71.6258
   346.5000      0.0000    756.5679      8.0919     68.7532
   346.7500      0.0000    758.8160      8.0130     69.0591
   347.0000      0.0000    759.9326      7.9040     71.1568
   347.2500      0.0000    759.9780      7.7939     73.3277
   347.5000      0.0000    759.4181      7.7086     74.6715
   347.7500      0.0000    759.1383      7.6561     75.2798
   348.0000      0.0000    760.3542      7.6248     75.7709
   348.2500      0.0000    763.6460      7.5923     76.7780
   348.5000      0.0000    767.9950      7.5351     78.6128
   348.7500      0.0000    771.4196      7.4396     81.2360
   349.0000      0.0000    772.7016      7.3117     84.4444
   349.2500      0.0000    772.0775      7.1756     87.9695
   349.5000      0.0000    770.4277      7.0575     91.5708
   349.7500      0.0000    768.6567      6.9674     95.2871
   350.0000      0.0000    767.9186      6.8966     99.5098
   350.2500      0.0000    769.3327      6.8348    104.6080
   350.5000      0.0000    772.8661      6.7847    110.4229
   350.7500      0.0000    777.0724      6.7592    116.1144
   351.0000      0.0000    780.3386      6.7639    120.4743
   351.2500      0.0000    782.0875      6.7814    122.4213
   351.5000      0.0000    782.7460      6.7771    121.3969
   351.7500      0.0000    782.9958      6.7275    117.6528
   352.0000      0.0000    783.2443      6.6421    112.4423
   352.2500      0.0000    783.5075      6.5568    107.7423
   352.5000      0.0000    783.4637      6.5049    105.0898
   352.7500      0.0000    782.4716      6.4936    104.2170
   353.0000      0.0000    779.6525      6.5001    103.1389
   353.2500      0.0000    774.3536      6.4902    100.0630
   353.5000      0.0000    767.0577      6.4463     95.1956
   353.7500      0.0000    759.8948      6.3886     90.4555
   354.0000      0.0000    755.7361      6.3678     87.5857
   354.2500      0.0000    756.3708      6.4200     86.7089
   354.5000      0.0000    761.6518      6.5257     86.3978
   354.7500      0.0000    770.2755      6.6233     84.7881
   355.0000      0.0000    780.6115      6.6648     80.8327
   355.2500      0.0000    790.4563      6.6483     74.9300
   355.5000      0.0000    796.9075      6.6011     68.4925
   355.7500      0.0000    797.7356      6.5488     62.8453
   356.0000      0.0000    793.2358      6.5038     58.4948
   356.2500      0.0000    786.3560      6.4710     55.3414
   356.5000      0.0000    780.7711      6.4556     53.3518
   356.7500      0.0000    778.9375      6.4624     52.9177
   357.0000      0.0000    781.6315      6.4951     54.6708
   357.2500      0.0000    788.0698      6.5548     59.0131
   357.5000      0.0000    795.6016      6.6358     65.6544
   357.7500      0.0000    800.3574      6.7204     73.4017
   358.0000      0.0000    799.9183      6.7814     80.5329
   358.2500      0.0000    795.3427      6.7969     85.7660
   358.5000      0.0000    789.8160      6.7676     89.0673
   358.7500      0.0000    785.6631      6.7220     91.4743
   359.0000      0.0000    783.0531      6.6974     94.0521
   359.2500      0.0000    780.8843      6.7114     96.9830
   359.5000      0.0000    778.2198      6.7524     99.5611
   359.7500      0.0000    774.9900      6.7949    100.8056
   360.0000      0.0000    771.5654      6.8213     99.9401
