~Version Information
VERS.                      2.0: CWLS Log ASCII Standard - VERSION 2.0
WRAP.                       NO: One line per depth step
~Well Information Block
STRT.FT               235.0000: 
STOP.FT              1634.5000: 
STEP.FT                 0.2500: 
NULL.                -999.2500: 
COMP.          Petrogulf Corporation: COMPANY
WELL.             State 16-41R: WELL
FLD.           Purgatorie River: FIELD
LOC.           280' FNL & 907' FEL: LOCATION
SECT.                       16: SECTION
TOWN.                      33S: TOWNSHIP
RANG.                      67W: RANGE
STAT.                 Colorado: STATE
CNTY.               Las Animas: COUNTY
CTRY.                      USA: COUNTRY
SRVC.                Patterson: SERVICE COMPANY
DATE.         Tue Oct 18 15:59:41 2005: LOG DATE
API.              05-071-08345: UNIQUE WELL ID
~Curve Information Block
DEPT.FT            0 000 00 00: Depth
SP.mV                         : DIL Spontaneous Potential
RILD.Ohm-m                    : DIL Deep Resistivity
RILM.Ohm-m                    : DIL Medium Resistivity
RLL3.Ohm-m                    : DIL Shallow Resistivity
GR.GAPI                       : Gamma Ray
~Parameter Information Block
~A  Depth        SP         RILD        RILM        RLL3         GR     
# ...
   683.0000    164.4221     16.0493     17.2816     20.8160    111.7180
   683.2500    163.2277     16.1372     17.0838     19.6245    114.6821
   683.5000    161.9847     16.1679     16.8731     18.5038    117.5823
   683.7500    160.7285     16.1230     16.6553     17.6122    118.9336
   684.0000    159.4975     15.9976     16.4315     17.0771    120.1958
   684.2500    158.3262     15.7962     16.1989     16.8468    120.1489
   684.5000    157.2396     15.5300     15.9518     16.7731    118.1423
   684.7500    156.2504     15.2149     15.6826     16.7866    115.6127
   685.0000    155.3614     14.8722     15.3841     16.9315    111.0307
   685.2500    154.5696     14.5263     15.0518     17.2278    108.3202
   685.5000    153.8714     14.1989     14.6868     17.5419    106.2863
   685.7500    153.2659     13.9032     14.2961     17.6174    106.8404
   686.0000    152.7550     13.6413     13.8926     17.2381    110.2555
   686.2500    152.3420     13.4063     13.4920     16.3833    113.3897
   686.5000    152.0271     13.1871     13.1093     15.2651    117.7838
   686.7500    151.8040     12.9734     12.7557     14.2176    120.1382
   687.0000    151.6573     12.7578     12.4369     13.5008    123.0586
   687.2500    151.5615     12.5349     12.1524     13.1563    124.7386
   687.5000    151.4835     12.3002     11.8972     13.0368    126.7313
   687.7500    151.3858     12.0512     11.6630     12.9785    127.7739
   688.0000    151.2320     11.7902     11.4409     12.9373    129.6478
   688.2500    150.9917     11.5274     11.2234     12.9633    131.5062
   688.5000    150.6459     11.2783     11.0064     13.0793    134.7704
   688.7500    150.1913     11.0583     10.7898     13.2132    136.3528
   689.0000    149.6431     10.8777     10.5782     13.2380    136.5631
   689.2500    149.0352     10.7406     10.3790     13.0611    135.4163
   689.5000    148.4181     10.6473     10.2012     12.6915    133.3981
   689.7500    147.8540     10.5958     10.0537     12.2466    132.8139
   690.0000    147.4089     10.5828      9.9439     11.8919    133.4575
   690.2500    147.1443     10.6029      9.8771     11.7473    134.1305
   690.5000    147.1082     10.6492      9.8561     11.8218    133.1474
   690.7500    147.3273     10.7148      9.8820     12.0318    130.2316
   691.0000    147.8023     10.7966      9.9544     12.2935    123.5191
   691.2500    148.5055     10.8965     10.0721     12.6159    119.3861
   691.5000    149.3837     11.0214     10.2339     13.1154    116.5127
   691.7500    150.3637     11.1810     10.4392     13.9235    117.0541
   692.0000    151.3628     11.3852     10.6886     15.0390    119.8167
   692.2500    152.2991     11.6441     10.9850     16.2537    121.7114
   692.5000    153.1030     11.9678     11.3335     17.2588    123.9594
   692.7500    153.7253     12.3669     11.7425     17.8653    125.7412
   693.0000    154.1411     12.8516     12.2236     18.1283    130.2925
   693.2500    154.3482     13.4309     12.7908     18.2885    134.5828
   693.5000    154.3626     14.1099     13.4607     18.6560    141.4389
   693.7500    154.2113     14.8885     14.2505     19.5541    145.3500
   694.0000    153.9252     15.7605     15.1773     21.2805    149.0141
   694.2500    153.5343     16.7155     16.2561     24.0003    149.1921
   694.5000    153.0641     17.7435     17.4986     27.5945    144.7461
   694.7500    152.5343     18.8412     18.9129     31.6022    138.6403
   695.0000    151.9583     20.0172     20.5043     35.3858    126.7360
   695.2500    151.3437     21.2916     22.2777     38.4868    118.6638
   695.5000    150.6940     22.6889     24.2403     40.9300    108.2601
   695.7500    150.0101     24.2279     26.4029     43.2001    102.4703
   696.0000    149.2925     25.9147     28.7775     45.8700     94.3434
   696.2500    148.5429     27.7419     31.3697     49.2024     88.7638
   696.5000    147.7650     29.6874     34.1678     53.1168     80.2666
   696.7500    146.9660     31.7057     37.1312     57.6099     75.0177
   697.0000    146.1570     33.7178     40.1825     63.2382     68.7182
   697.2500    145.3539     35.6187     43.2091     70.9847     65.9461
   697.5000    144.5771     37.3072     46.0752     81.1970     64.0765
   697.7500    143.8510     38.7175     48.6422     92.3309     64.1016
   698.0000    143.2018     39.8277     50.7916    100.9600     65.0817
   698.2500    142.6547     40.6467     52.4422    103.6368     65.7855
   698.5000    142.2328     41.2005     53.5581     99.2209     66.7717
   698.7500    141.9550     41.5182     54.1446     89.5620     67.8560
   699.0000    141.8364     41.6099     54.2345     78.0713     70.6045
   699.2500    141.8881     41.4437     53.8681     67.7255     72.5884
   699.5000    142.1188     40.9490     53.0733     60.0744     73.9123
   699.7500    142.5351     40.0552     51.8532     55.3813     73.1531
   700.0000    143.1419     38.7453     50.1865     53.1782     70.5742
   700.2500    143.9410     37.0788     48.0461     52.7438     69.0483
   700.5000    144.9290     35.1706     45.4305     53.3680     68.3088
   700.7500    146.0935     33.1511     42.3952     54.3563     68.9004
   701.0000    147.4102     31.1366     39.0656     54.8428     71.0973
   701.2500    148.8407     29.2198     35.6210     53.7420     73.3791
   701.5000    150.3336     27.4687     32.2546     50.1800     78.1473
   701.7500    151.8282     25.9271     29.1312     44.2107     82.3570
   702.0000    153.2611     24.6154     26.3625     37.0339     90.4569
   702.2500    154.5750     23.5337     24.0030     30.2857     96.8672
   702.5000    155.7255     22.6645     22.0619     25.0276    106.5903
   702.7500    156.6865     21.9776     20.5201     21.3800    112.1317
   703.0000    157.4520     21.4369     19.3445     18.9332    118.6985
   703.2500    158.0343     21.0099     18.4981     17.3043    122.7140
   703.5000    158.4610     20.6737     17.9455     16.3514    129.3856
   703.7500    158.7694     20.4170     17.6550     16.1070    133.8963
   704.0000    159.0024     20.2372     17.5982     16.6733    138.8564
   704.2500    159.2038     20.1370     17.7487     18.1257    140.1889
   704.5000    159.4135     20.1245     18.0814     20.3771    139.4622
   704.7500    159.6644     20.2159     18.5709     23.0820    137.7678
   705.0000    159.9779     20.4343     19.1929     25.7182    134.0680
   705.2500    160.3622     20.8046     19.9247     27.8241    130.8863
   705.5000    160.8115     21.3463     20.7476     29.2100    125.3125
   705.7500    161.3063     22.0655     21.6471     29.9992    121.5727
   706.0000    161.8150     22.9493     22.6122     30.5110    117.0495
   706.2500    162.2955     23.9626     23.6325     31.0840    115.2022
   706.5000    162.6978     25.0523     24.6940     31.9183    114.3072
   706.7500    162.9685     26.1569     25.7766     32.9952    114.6339
   707.0000    163.0568     27.2173     26.8525     34.1158    115.3766
   707.2500    162.9217     28.1798     27.8890     35.0356    115.3754
   707.5000    162.5386     28.9932     28.8523     35.6042    114.3331
   707.7500    161.9028     29.6126     29.7124     35.8294    113.3033
   708.0000    161.0292     30.0172     30.4468     35.8566    112.0746
   708.2500    159.9482     30.2259     31.0425     35.8996    111.8419
   708.5000    158.7009     30.2933     31.4965     36.1308    112.6053
   708.7500    157.3334     30.2849     31.8168     36.5556    113.4344
   709.0000    155.8933     30.2522     32.0216     36.9757    113.4164
   709.2500    154.4266     30.2256     32.1392     37.1212    111.7601
   709.5000    152.9766     30.2220     32.2055     36.8616    107.6082
   709.7500    151.5820     30.2565     32.2601     36.2973    105.3987
   710.0000    150.2764     30.3443     32.3408     35.6719    105.5910
   710.2500    149.0873     30.4963     32.4792     35.2127    108.3415
   710.5000    148.0359     30.7156     32.6966     35.0307    114.6309
   710.7500    147.1354     30.9977     33.0033     35.1236    118.8002
