~Version Information
 VERS.                                  2.0 : CWLS LAS VERSION
 WRAP.                                   NO : WRAPING MODE
 SWARE .                 MController 2.5.0J : SOFTWARE VERSION
~Well Information
 WELL.                        Montoya 7-12R : WELL
 COMP.                       Petrogulf Corp : COMPANY
 FLD.                      Purgatorie River : FIELD
 LOC.                 SW/NW Sec 7 T33S R67W : LOCATION
 DATE.                    11/18/04 11/19/04 : DATE(S) LOGGED
 SRVC.       Blanco Geological Services LLC : SERVICE COMPANY
 STAT.                                   CO : STATE
 CNTY.                           Las Animas : COUNTY
 CTRY.                                  USA : COUNTRY
 API.                       05-071-08240-00 : API NUMBER
 STRT.FT                              30.00 : START DEPTH
 STOP.FT                            2040.00 : STOP DEPTH
 STEP.FT                               1.00 : DEPTH INCREMENT
 NULL.                                -9999 : NULL VALUE
~Curve information
 DEPTH.FT                                   :
 ROP.MIN/FT                                 :
 GAS.UNITS                                  :
~ASCII Log data
# ...
      1830.0         0.37         13.3 
      1831.0         0.57         12.4 
      1832.0         0.60         11.2 
      1833.0         0.82         10.0 
      1834.0         0.57         11.6 
      1835.0         0.43         11.8 
      1836.0         0.53         10.8 
      1837.0         0.47         13.2 
      1838.0         0.23         12.8 
      1839.0         0.30         11.8 
      1840.0         0.33         12.5 
      1841.0         0.38         12.2 
      1842.0         0.37         12.1 
      1843.0         0.33         12.8 
      1844.0         0.47         12.4 
      1845.0         0.53         13.2 
      1846.0         0.43         13.0 
      1847.0         0.47         12.5 
      1848.0         0.45         13.7 
      1849.0         0.47         12.9 
      1850.0         0.47         12.5 
      1851.0         0.47         48.5 
      1852.0         0.43         48.5 
      1853.0         0.47         43.2 
      1854.0         0.47         31.0 
      1855.0         0.47         27.8 
      1856.0         0.28         20.6 
      1857.0         0.58         16.8 
      1858.0         0.57         12.4 
      1859.0         0.70         11.5 
      1860.0         0.63         10.4 
      1861.0         0.67         10.1 
      1862.0         0.43         11.2 
      1863.0         0.35         11.1 
      1864.0         0.37         11.2 
      1865.0         0.43         12.1 
      1866.0         0.47         14.1 
      1867.0         0.50         15.7 
      1868.0         0.43         17.6 
      1869.0         0.47         16.5 
      1870.0         0.45         14.6 
      1871.0         0.50         14.1 
      1872.0         0.40         14.5 
      1873.0         0.43         13.3 
      1874.0         0.37         12.5 
      1875.0         0.37         11.7 
      1876.0         0.43         11.7 
      1877.0         0.47         12.1 
      1878.0         0.45         11.8 
      1879.0         0.43         11.2 
      1880.0         0.47         11.6 
      1881.0         0.50         38.5 
      1882.0         0.50         40.7 
      1883.0         0.43         36.3 
      1884.0         0.43         12.5 
      1885.0         0.55         24.8 
      1886.0         0.50         30.0 
      1887.0         0.47         27.8 
      1888.0         0.47         20.8 
      1889.0         0.53         16.2 
      1890.0         0.47         18.8 
      1891.0         0.60         17.2 
      1892.0         0.42         13.9 
      1893.0         0.50         13.7 
      1894.0         0.60         11.9 
      1895.0         0.63         12.5 
      1896.0         0.50         14.0 
      1897.0         0.47         14.3 
      1898.0         0.42         16.2 
      1899.0         0.43         17.7 
      1900.0         0.30         19.1 
      1901.0         0.27         18.9 
      1902.0         0.23         19.1 
      1903.0         0.33         20.3 
      1904.0         0.27         19.5 
      1905.0         0.27         19.5 
      1906.0         0.30         21.3 
      1907.0         0.27         20.0 
      1908.0         0.20         20.6 
      1909.0         0.23         22.3 
      1910.0         0.35         20.1 
      1911.0         0.33         39.1 
      1912.0         0.37         15.3 
      1913.0         0.40         15.2 
      1914.0         0.40         12.7 
      1915.0         0.43         10.8 
      1916.0         0.43         10.3 
      1917.0         0.60         10.2 
      1918.0         0.63         12.9 
      1919.0         0.93         13.2 
      1920.0         0.88         14.2 
      1921.0         0.47         12.6 
      1922.0         0.30         13.5 
      1923.0         0.30         14.1 
      1924.0         0.37         14.2 
      1925.0         0.37         12.7 
      1926.0         0.43         12.0 
      1927.0         0.57         11.5 
      1928.0         0.65         13.0 
      1929.0         0.57         12.7 
      1930.0         0.53         11.9 
      1931.0         0.57         11.7 
      1932.0         0.57         12.1 
      1933.0         0.55         12.6 
      1934.0         0.67         12.9 
      1935.0         0.60         15.5 
      1936.0         0.63         15.0 
      1937.0         0.63         13.7 
      1938.0         0.60         14.4 
      1939.0         0.68         13.7 
      1940.0         0.57         12.5 
      1941.0         0.57          9.6 
      1942.0         0.53         81.8 
      1943.0         0.53         19.9 
      1944.0         0.53         42.4 
      1945.0         0.45         59.1 
      1946.0         0.27         50.1 
      1947.0         0.80         34.1 
      1948.0         0.57         17.6 
      1949.0         0.53         16.7 
      1950.0         0.85         14.6 
      1951.0         0.70         13.4 
      1952.0         0.67         11.7 
      1953.0         0.50         12.6 
      1954.0         0.47         12.8 
      1955.0         0.47         14.3 
      1956.0         0.50         16.0 
      1957.0         0.45         18.2 
      1958.0         0.43         20.4 
      1959.0         0.43         20.6 
      1960.0         0.37         20.6 
      1961.0         0.37         22.0 
      1962.0         0.43         20.2 
      1963.0         0.43         20.1 
      1964.0         0.48         21.1 
      1965.0         0.50         20.8 
      1966.0         0.50         21.6 
      1967.0         0.50         21.5 
      1968.0         0.47         21.6 
      1969.0         0.43         19.9 
      1970.0         0.47         93.6 
      1971.0         0.30         42.6 
      1972.0         0.32         25.8 
      1973.0         0.30         18.5 
      1974.0         0.37         20.4 
      1975.0         0.37         27.8 
      1976.0         0.50         51.6 
      1977.0         0.78         50.5 
      1978.0         0.73         28.7 
      1979.0         0.80         15.5 
      1980.0         0.77         14.0 
      1981.0         0.75         11.7 
      1982.0         0.53          9.0 
      1983.0         0.60         11.8 
      1984.0         0.67         12.5 
      1985.0         0.50         12.3 
      1986.0         0.50         12.2 
      1987.0         0.62         12.6 
      1988.0         0.60         12.3 
      1989.0         0.47         13.3 
      1990.0         0.63         13.1 
      1991.0         0.70         13.1 
      1992.0         0.68         14.0 
      1993.0         0.70         11.5 
      1994.0         0.67         13.1 
      1995.0         0.70         17.5 
      1996.0         0.87         23.3 
      1997.0         0.75         17.3 
      1998.0         0.50         15.2 
      1999.0         0.40         16.1 
      2000.0         0.47         14.2 
      2001.0         0.50         13.6 
      2002.0         0.43         45.5 
      2003.0         0.50         32.5 
      2004.0         0.52         31.8 
      2005.0         0.57         20.3 
      2006.0         0.27         23.8 
      2007.0         0.28         23.6 
      2008.0         0.33         17.6 
      2009.0         0.37         17.1 
      2010.0         0.33         14.1 
      2011.0         0.43         12.3 
      2012.0         0.40         10.4 
      2013.0         0.57         11.1 
      2014.0         0.63          9.0 
      2015.0         0.55          9.3 
      2016.0         0.53         11.7 
      2017.0         0.43         11.3 
      2018.0         0.43         12.3 
      2019.0         0.37         14.3 
      2020.0         0.43         17.8 
      2021.0         0.40         19.0 
      2022.0         0.58         20.4 
      2023.0         0.43         19.1 
      2024.0         0.40         16.2 
      2025.0         0.63         13.3 
      2026.0         0.50         12.1 
      2027.0         0.53         11.9 
      2028.0         0.47         13.1 
      2029.0         0.48         14.0 
