~Version Information
VERS.                      2.0: CWLS Log ASCII Standard - VERSION 2.0
WRAP.                       NO: One line per depth step
~Well Information Block
STRT.FT               -11.2500: 
STOP.FT              1767.0000: 
STEP.FT                 0.2500: 
NULL.                -999.2500: 
COMP.          Petrogulf Corporation: COMPANY
WELL.             McLeod 9-42R: WELL
FLD.           Purgatoire River: FIELD
LOC.           1748' FNL & 372' FEL--: LOCATION
PROV.                 Colorado: PROVINCE
CNTY.               Las Animas: COUNTRY
SRVC.                         : SERVICE COMPANY
DATE.          Thu Sep 29 13:28:07 2005: LOG DATE
UWI.                          : UNIQUE WELL ID
~Curve Information Block
DEPT.FT            0 000 00 00: Depth
GR.GAPI                       : Gamma Ray
CCL.                          : Casing Collar Locator
AMP3.mV                       : CBL 3' Amplitude
AMP5.mV                       : CBL 5' Amplitude
~Parameter Information Block
~A  Depth        GR         CCL         AMP3        AMP5    
# ...
  1730.7500     97.3080      0.0000      3.7246      0.3799
  1731.0000     92.2642      0.0000      3.6688      0.3676
  1731.2500     87.4460      0.0000      3.6393      0.3437
  1731.5000     83.4578      0.0000      3.6065      0.3282
  1731.7500     81.4743      0.0000      3.5574      0.3347
  1732.0000     82.4747      0.0000      3.4866      0.3596
  1732.2500     86.2289      0.0000      3.3925      0.3870
  1732.5000     91.3349      0.0000      3.2870      0.4021
  1732.7500     96.2451      0.0000      3.2002      0.4003
  1733.0000    100.2010      0.0000      3.1591      0.3835
  1733.2500    103.4172      0.0000      3.1628      0.3540
  1733.5000    106.6544      0.0000      3.1871      0.3161
  1733.7500    110.5960      0.0000      3.2083      0.2819
  1734.0000    115.4587      0.0000      3.2142      0.2666
  1734.2500    120.9821      0.0000      3.2023      0.2766
  1734.5000    126.5184      0.0000      3.1813      0.3033
  1734.7500    131.0194      0.0000      3.1709      0.3306
  1735.0000    133.2393      0.0000      3.1881      0.3448
  1735.2500    132.4271      0.0000      3.2303      0.3405
  1735.5000    128.8789      0.0000      3.2819      0.3207
  1735.7500    123.6273      0.0000      3.3370      0.2924
  1736.0000    117.7501      0.0000      3.4088      0.2626
  1736.2500    112.1631      0.0000      3.5119      0.2351
  1736.5000    107.5753      0.0000      3.6373      0.2115
  1736.7500    104.0758      0.0000      3.7484      0.1931
  1737.0000    100.9641      0.0000      3.8042      0.1812
  1737.2500     97.3594      0.0000      3.7924      0.1768
  1737.5000     92.9867      0.0000      3.7401      0.1808
  1737.7500     88.3670      0.0000      3.6883      0.1944
  1738.0000     84.4251      0.0000      3.6573      0.2178
  1738.2500     81.9296      0.0000      3.6389      0.2457
  1738.5000     81.1196      0.0000      3.6175      0.2663
  1738.7500     81.5723      0.0000      3.5881      0.2688
  1739.0000     82.4080      0.0000      3.5535      0.2539
  1739.2500     82.8016      0.0000      3.5158      0.2334
  1739.5000     82.3533      0.0000      3.4765      0.2186
  1739.7500     81.2041      0.0000      3.4421      0.2118
  1740.0000     80.1185      0.0000      3.4236      0.2104
  1740.2500     80.1899      0.0000      3.4290      0.2135
  1740.5000     81.9085      0.0000      3.4584      0.2216
  1740.7500     84.4794      0.0000      3.5050      0.2332
  1741.0000     86.4608      0.0000      3.5599      0.2445
  1741.2500     87.1955      0.0000      3.6124      0.2502
  1741.5000     87.3747      0.0000      3.6445      0.2474
  1741.7500     88.0701      0.0000      3.6322      0.2374
  1742.0000     89.4994      0.0000      3.5646      0.2252
  1742.2500     90.9413      0.0000      3.4623      0.2177
  1742.5000     91.5695      0.0000      3.3679      0.2191
  1742.7500     91.0447      0.0000      3.3138      0.2268
  1743.0000     89.5426      0.0000      3.3024      0.2316
  1743.2500     87.5279      0.0000      3.3155      0.2261
  1743.5000     85.3785      0.0000      3.3364      0.2139
  1743.7500     82.9912      0.0000      3.3609      0.2071
  1744.0000     79.8674      0.0000      3.3949      0.2161
  1744.2500     75.9086      0.0000      3.4438      0.2420
  1744.5000     72.1634      0.0000      3.5008      0.2771
  1744.7500     70.4272      0.0000      3.5416      0.3111
  1745.0000     71.8328      0.0000      3.5376      0.3334
  1745.2500     75.7872      0.0000      3.4828      0.3351
  1745.5000     80.3746      0.0000      3.4048      0.3144
  1745.7500     83.7730      0.0000      3.3446      0.2835
  1746.0000     85.2176      0.0000      3.3259      0.2641
  1746.2500     84.8915      0.0000      3.3456      0.2715
  1746.5000     83.4102      0.0000      3.3864      0.3001
  1746.7500     81.5444      0.0000      3.4309      0.3294
  1747.0000     80.0334      0.0000      3.4625      0.3431
  1747.2500     79.2110      0.0000      3.4665      0.3426
  1747.5000     78.7300      0.0000      3.4383      0.3404
  1747.7500     77.8452      0.0000      3.3917      0.3465
  1748.0000     76.1230      0.0000      3.3545      0.3615
  1748.2500     73.8363      0.0000      3.3518      0.3832
  1748.5000     71.6462      0.0000      3.3861      0.4112
  1748.7500     70.0383      0.0000      3.4357      0.4448
  1749.0000     69.0573      0.0000      3.4744      0.4771
  1749.2500     68.3148      0.0000      3.4884      0.4967
  1749.5000     67.1788      0.0000      3.4705      0.4950
  1749.7500     65.2494      0.0000      3.4117      0.4718
  1750.0000     62.8145      0.0000      3.3165      0.4349
  1750.2500     60.6715      0.0000      3.2170      0.3955
  1750.5000     59.4237      0.0000      3.1510      0.3619
  1750.7500     59.1049      0.0000      3.1211      0.3350
  1751.0000     59.4412      0.0000      3.0935      0.3107
  1751.2500     60.1508      0.0000      3.0417      0.2869
  1751.5000     60.8284      0.0000      2.9779      0.2676
  1751.7500     60.8388      0.0000      2.9351      0.2559
  1752.0000     59.6678      0.0000      2.9283      0.2476
  1752.2500     57.4470      0.0000      2.9435      0.2372
  1752.5000     55.0779      0.0000      2.9542      0.2280
  1752.7500     53.7471      0.0000      2.9446      0.2312
  1753.0000     54.0977      0.0000      2.9237      0.2552
  1753.2500     55.6159      0.0000      2.9160      0.2988
  1753.5000     56.7901      0.0000      2.9275      0.3520
  1753.7500     56.2239      0.0000      2.9122      0.4021
  1754.0000     54.0230      0.0000      2.7788      0.4400
  1754.2500     52.1156      0.0000      2.4457      0.4631
  1754.5000     53.0255      0.0000      1.9126      0.4745
  1754.7500     58.1656      0.0000      1.2867      0.4790
  1755.0000     67.0062      0.0000      0.7254      0.4804
  1755.2500     77.4510      0.0000      0.3358      0.4807
  1755.5000     87.0047      0.0000      0.1258      0.4808
  1755.7500     94.0413      0.0000      0.0377   -999.2500
  1756.0000     98.3499      0.0000      0.0090   -999.2500
  1756.2500    100.7020      0.0000      0.0017   -999.2500
  1756.5000    102.0852      0.0000      0.0002   -999.2500
  1756.7500    103.2858      0.0000   -999.2500   -999.2500
  1757.0000    104.8088      0.0000   -999.2500   -999.2500
  1757.2500    106.8829      0.0000   -999.2500   -999.2500
  1757.5000    109.4856      0.0000   -999.2500   -999.2500
  1757.7500    112.3573      0.0000   -999.2500   -999.2500
  1758.0000    115.0858      0.0000   -999.2500   -999.2500
  1758.2500    117.3530      0.0000   -999.2500   -999.2500
  1758.5000    119.1215      0.0000   -999.2500   -999.2500
  1758.7500    120.4480      0.0000   -999.2500   -999.2500
  1759.0000    121.2786      0.0000   -999.2500   -999.2500
  1759.2500    121.5817      0.0000   -999.2500   -999.2500
  1759.5000    121.4751      0.0000   -999.2500   -999.2500
  1759.7500    121.0126      0.0000   -999.2500   -999.2500
  1760.0000    119.9679      0.0000   -999.2500   -999.2500
  1760.2500    118.0472      0.0000   -999.2500   -999.2500
  1760.5000    115.4030      0.0000   -999.2500   -999.2500
  1760.7500    112.9364      0.0000   -999.2500   -999.2500
  1761.0000    111.8792      0.0000   -999.2500   -999.2500
  1761.2500    112.7603      0.0000   -999.2500   -999.2500
  1761.5000    114.7894      0.0000   -999.2500   -999.2500
  1761.7500    116.4856      0.0000   -999.2500   -999.2500
  1762.0000    116.9080      0.0000   -999.2500   -999.2500
  1762.2500    116.3680      0.0000   -999.2500   -999.2500
  1762.5000    116.3093   -999.2500   -999.2500   -999.2500
  1762.7500    118.3662   -999.2500   -999.2500   -999.2500
  1763.0000    122.9021   -999.2500   -999.2500   -999.2500
  1763.2500    128.2631   -999.2500   -999.2500   -999.2500
  1763.5000    131.6792   -999.2500   -999.2500   -999.2500
  1763.7500    130.8950   -999.2500   -999.2500   -999.2500
  1764.0000    124.8007   -999.2500   -999.2500   -999.2500
