~Version Information
VERS.                      2.0: CWLS Log ASCII Standard - VERSION 2.0
WRAP.                       NO: One line per depth step
~Well Information Block
STRT.FT               870.0000: 
STOP.FT              2519.5000: 
STEP.FT                 0.2500: 
NULL.                -999.2500: 
COMP.          Pioneer Natural Resources: COMPANY
WELL.              Tiaga 23-14: WELL
FLD.           Purgatoire River: FIELD
LOC.           2168' FSL & 2030' FWL: LOCATION
PROV.                 Colorado: PROVINCE
CNTY.               Las Animas: COUNTRY
SRVC.                         : SERVICE COMPANY
DATE.          Sat May 07 08:44:43 2005: LOG DATE
UWI.           05 071 08329 00: UNIQUE WELL ID
~Curve Information Block
DEPT.FT            0 000 00 00: Depth
LTEN.lb                       : Surface Line Tension
SN.Ohm-m                      : IEL Short Normal
SP.mV                         : IEL Spontaneous Potential
DIR.Ohm-m                     : IEL Induction Resistivity
GR.GAPI                       : Gamma Ray
~Parameter Information Block
~A  Depth       LTEN         SN          SP         DIR          GR     
# ...
  1402.0000    639.4695      2.5504   -106.4229      0.4649     50.9061
  1402.2500    640.8166      2.2371   -101.3265      0.5909     56.6361
  1402.5000    642.7366      1.9467    -96.1243      0.7462     67.5899
  1402.7500    644.5392      1.8168    -90.3829      0.9636     75.8128
  1403.0000    646.1605      1.8980    -83.9174      1.2785     87.7188
  1403.2500    647.9799      2.3043    -76.9962      1.6910     94.4399
  1403.5000    650.2106      3.2879    -70.2388      2.0832    102.2842
  1403.7500    652.5625      5.0389    -64.2764      2.2328    106.5830
  1404.0000    654.4071      7.3551    -59.4649      2.1037    113.0001
  1404.2500    655.1162      9.6565    -55.8227      1.9147    117.5095
  1404.5000    654.2897     11.3996    -53.1523      1.8714    123.5630
  1404.7500    651.9950     12.4193    -51.1940      2.1470    126.1436
  1405.0000    649.0164     12.9389    -49.7236      3.2618    127.1627
  1405.2500    646.5684     13.3362    -48.5823     10.9093    126.5656
  1405.5000    645.3553     13.8643    -47.6706 100000.0000    125.5771
  1405.7500    645.0506     14.5425    -46.9310 100000.0000    125.4398
  1406.0000    644.9373     15.2376    -46.3304 100000.0000    125.6854
  1406.2500    644.7869     15.8050    -45.8463 100000.0000    125.6806
  1406.5000    644.8475     16.2101    -45.4585 100000.0000    124.9644
  1406.7500    645.2327     16.5786    -45.1466 100000.0000    123.8465
  1407.0000    645.6782     17.0921    -44.8919 100000.0000    120.7130
  1407.2500    645.8826     17.8118    -44.6807 100000.0000    117.5088
  1407.5000    645.9144     18.6438    -44.5053 100000.0000    111.8905
  1407.7500    646.2115     19.4181    -44.3611 100000.0000    108.7375
  1408.0000    647.1826     19.9435    -44.2426 100000.0000    106.7639
  1408.2500    648.7732     20.0823    -44.1422 100000.0000    107.7355
  1408.5000    650.4474     19.8493    -44.0510 100000.0000    112.2325
  1408.7500    651.6718     19.3962    -43.9623 100000.0000    116.6726
  1409.0000    652.3723     18.8904    -43.8740    259.3224    124.2241
  1409.2500    652.8495     18.4285    -43.7895     54.2332    128.9409
  1409.5000    653.3523     18.0468    -43.7164     32.5542    134.0280
  1409.7500    653.8401     17.7894    -43.6621     24.3887    135.6913
  1410.0000    654.0869     17.7102    -43.6285     20.5354    136.2128
  1410.2500    653.8722     17.8311    -43.6082     18.7737    136.0309
  1410.5000    653.0524     18.1567    -43.5880     18.1965    135.7688
  1410.7500    651.6006     18.6419    -43.5556     18.1678    135.4342
  1411.0000    649.7296     19.1261    -43.5061     18.0229    134.0078
  1411.2500    647.9160     19.3976    -43.4431     17.2139    132.3727
  1411.5000    646.7579     19.3287    -43.3756     15.6995    129.5011
  1411.7500    646.8125     18.9406    -43.3132     13.9265    127.7522
  1412.0000    648.4164     18.3973    -43.2626     12.3599    125.7861
  1412.2500    651.3616     17.9411    -43.2255     11.2159    124.8843
  1412.5000    654.7125     17.7619    -43.1967     10.5186    123.8479
  1412.7500    657.2963     17.8854    -43.1685     10.2209    123.2831
  1413.0000    658.5654     18.1792    -43.1356     10.2720    122.8104
  1413.2500    658.8235     18.4653    -43.0973     10.6397    122.8354
  1413.5000    658.6427     18.6675    -43.0556     11.3098    123.1736
  1413.7500    658.3218     18.9107    -43.0151     12.2729    123.3937
  1414.0000    657.8927     19.4572    -42.9846     13.5062    123.4332
  1414.2500    657.3600     20.4788    -42.9775     14.9555    122.9525
  1414.5000    656.7630     21.8942    -43.0050     16.5327    120.4526
  1414.7500    656.0828     23.4691    -43.0666     18.1376    117.0798
  1415.0000    655.2312     25.0464    -43.1451     19.6975    109.7779
  1415.2500    654.1067     26.5936    -43.2121     21.1974    104.4728
  1415.5000    652.5922     28.0499    -43.2428     22.6758     98.2235
  1415.7500    650.6494     29.3143    -43.2281     24.1901     96.0509
  1416.0000    648.5901     30.4252    -43.1794     25.7719     95.3092
  1416.2500    647.0834     31.5623    -43.1231     27.3895     95.2602
  1416.5000    646.6667     32.8385    -43.0859     28.9411     93.6361
  1416.7500    647.2694     34.2281    -43.0807     30.2972     90.9952
  1417.0000    648.2737     35.6786    -43.1021     31.3829     85.3687
  1417.2500    649.0189     37.1467    -43.1366     32.2344     81.2795
  1417.5000    649.2944     38.5363    -43.1718     32.9726     75.6785
  1417.7500    649.4473     39.7187    -43.1981     33.7153     72.7075
  1418.0000    650.0228     40.6071    -43.2086     34.5068     70.0217
  1418.2500    651.2798     41.2237    -43.2030     35.3120     69.6800
  1418.5000    653.0584     41.7484    -43.1908     36.0635     71.1781
  1418.7500    655.0227     42.3914    -43.1860     36.7171     72.8807
  1419.0000    656.9119     43.0724    -43.2003     37.2703     74.7670
  1419.2500    658.6027     43.3330    -43.2363     37.7368     74.8386
  1419.5000    660.0201     42.7565    -43.2865     38.1139     73.7087
  1419.7500    660.9900     41.4172    -43.3370     38.3825     73.4754
  1420.0000    661.1936     39.8052    -43.3763     38.5385     75.9869
  1420.2500    660.3197     38.4185    -43.4015     38.6196     79.4841
  1420.5000    658.2927     37.4941    -43.4172     38.6943     84.9544
  1420.7500    655.3742     36.9948    -43.4308     38.8299     86.9452
  1421.0000    652.0782     36.7638    -43.4498     39.0642     85.8277
  1421.2500    648.9622     36.7975    -43.4811     39.4048     82.6082
  1421.5000    646.4285     37.3700    -43.5292     39.8467     75.7967
  1421.7500    644.7507     38.6734    -43.5946     40.3935     71.0414
  1422.0000    644.3069     40.4113    -43.6721     41.0641     64.9689
  1422.2500    645.5653     42.0583    -43.7528     41.8756     62.1159
  1422.5000    648.6079     43.4009    -43.8274     42.8092     60.1525
  1422.7500    652.7713     44.5581    -43.8907     43.7954     60.4989
  1423.0000    656.9025     45.5804    -43.9436     44.7412     63.0014
  1423.2500    659.9424     46.2949    -43.9929     45.5875     65.2648
  1423.5000    661.3876     46.5755    -44.0464     46.3356     68.2569
  1423.7500    661.4375     46.5255    -44.1083     47.0146     69.6910
  1424.0000    660.7420     46.3215    -44.1768     47.6314     71.4372
  1424.2500    659.8937     46.0625    -44.2460     48.1621     72.7422
  1424.5000    659.0609     45.7970    -44.3082     48.5836     75.1031
  1424.7500    658.0637     45.5592    -44.3563     48.8920     76.6903
  1425.0000    656.8257     45.3501    -44.3869     49.0913     78.5173
  1425.2500    655.6520     45.1353    -44.4041     49.1751     79.2475
  1425.5000    654.9215     44.9110    -44.4174     49.1317     79.8440
  1425.7500    654.5977     44.7467    -44.4371     48.9675     80.0801
  1426.0000    654.2153     44.6849    -44.4691     48.7314     80.1981
  1426.2500    653.3555     44.6635    -44.5144     48.5214     80.0310
  1426.5000    652.0763     44.6127    -44.5731     48.4582     79.5232
  1426.7500    650.9111     44.5495    -44.6469     48.6371     79.2895
  1427.0000    650.4818     44.5255    -44.7382     49.0888     79.5064
  1427.2500    651.0922     44.5365    -44.8472     49.7729     79.9483
  1427.5000    652.6305     44.5224    -44.9734     50.5989     80.4655
  1427.7500    654.7374     44.4601    -45.1172     51.4436     80.5060
  1428.0000    656.9874     44.4330    -45.2799     52.1605     80.4959
  1428.2500    659.0040     44.5657    -45.4594     52.6065     80.8424
  1428.5000    660.5619     44.8989    -45.6480     52.6976     81.9939
  1428.7500    661.6013     45.3669    -45.8354     52.4614     82.8041
  1429.0000    662.1199     45.8791    -46.0111     52.0379     83.3823
  1429.2500    662.0775     46.3861    -46.1648     51.6334     83.2796
  1429.5000    661.4506     46.8854    -46.2866     51.4483     82.8580
  1429.7500    660.3741     47.4202    -46.3710     51.6016     82.7109
