~Version Information
VERS.                      2.0: CWLS Log ASCII Standard - VERSION 2.0
WRAP.                       NO: One line per depth step
~Well Information Block
STRT.FT               475.0000: 
STOP.FT              2336.7000: 
STEP.FT                 0.1000: 
NULL.                -999.2500: 
COMP.          Pioneer Natural Resources: COMPANY
WELL.              Bobsy 34-11: WELL
FLD.           Purgatoire River: FIELD
LOC.           1937' FEL & 451' FSL----: LOCATION
PROV.                 Colorado: PROVINCE
CNTY.               Las Animas: COUNTRY
SRVC.                Patterson: SERVICE COMPANY
DATE.          Fri Apr 08 11:07:54 2005: LOG DATE
UWI.           05 071 08330 00: UNIQUE WELL ID
~Curve Information Block
DEPT.FT            0 000 00 00: Depth
DCAL.in                       : CDL Caliper
RHOB.g/cc                     : CDL Bulk Density
RHOC.g/cc                     : CDL Density Correction
DPOR.pu                       : CDL Density Porosity
NPOR.pu                       : Neutron Porosity
GR.GAPI                       : Gamma Ray
~Parameter Information Block
~A  Depth       DCAL        RHOB        RHOC        DPOR        NPOR         GR     
# ...
  1089.4000      7.9981      2.5635      0.0208      5.2417     27.5886    116.8291
  1089.5000      7.9986      2.5530      0.0227      5.8789     28.2443    115.8908
  1089.6000      7.9986      2.5400     -0.0228      6.6690     28.3240    119.4813
  1089.7000      7.9986      2.5300      0.0257      7.2735     27.8712    127.2196
  1089.8000      7.9996      2.5187      0.0144      7.9553     27.1727    131.9376
  1089.9000      7.9996      2.5052      0.0170      8.7734     26.7156    127.8129
  1090.0000      7.9971      2.5007      0.0287      9.0489     26.9970    120.6394
  1090.1000      7.9971      2.5164      0.0212      8.0973     27.6630    118.6062
  1090.2000      7.9971      2.5571      0.0457      5.6322     27.9644    121.1765
  1090.3000      7.9893      2.6068      0.1419      2.6177     27.6632    121.8855
  1090.4000      7.9893      2.6347      0.1330      0.9260     27.1053    119.1559
  1090.5000      7.9804      2.6375      0.0445      0.7548     26.7049    115.4974
  1090.6000      7.9804      2.6396      0.0524      0.6293     26.5989    110.4460
  1090.7000      7.9804      2.6503      0.0736     -0.0173     26.8683    103.1918
  1090.8000      7.9750      2.6656      0.0430     -0.9466     27.1774     95.5267
  1090.9000      7.9750      2.6788      0.0331     -1.7468     27.1346     91.2331
  1091.0000      7.9738      2.6721      0.0335     -1.3370     26.8608     92.3630
  1091.1000      7.9738      2.6378     -0.0222      0.7407     26.4977     95.6685
  1091.2000      7.9738      2.5921     -0.0016      3.5119     26.1172     98.4904
  1091.3000      7.9753      2.5575     -0.0960      5.6031     25.6656    100.5013
  1091.4000      7.9753      2.5491     -0.0629      6.1150     25.1060    100.3360
  1091.5000      7.9760      2.5584      0.0165      5.5520     24.7865     98.1132
  1091.6000      7.9760      2.5687      0.0135      4.9289     24.8071     96.0461
  1091.7000      7.9760      2.5770      0.0191      4.4231     24.8059     96.2333
  1091.8000      7.9747      2.5897      0.0034      3.6559     24.6559     99.1017
  1091.9000      7.9747      2.6076      0.0586      2.5670     24.3423    100.8348
  1092.0000      7.9739      2.6132      0.0611      2.2309     23.9863     99.7190
  1092.1000      7.9739      2.5924      0.0388      3.4885     24.0452    100.7536
  1092.2000      7.9739      2.5619      0.0180      5.3414     24.4226    105.5794
  1092.3000      7.9746      2.5473      0.0006      6.2234     24.4948    108.7900
  1092.4000      7.9746      2.5514      0.0329      5.9754     24.0247    106.2651
  1092.5000      7.9751      2.5593      0.0129      5.4943     23.3999    100.7860
  1092.6000      7.9751      2.5685     -0.0010      4.9372     23.2165     95.9425
  1092.7000      7.9751      2.5857      0.0094      3.8941     23.4536     94.0390
  1092.8000      7.9738      2.6102      0.0386      2.4133     23.6497     97.2275
  1092.9000      7.9738      2.6302      0.0520      1.1985     23.8186    103.5110
  1093.0000      7.9714      2.6241      0.0637      1.5723     24.0486    106.2859
  1093.1000      7.9714      2.5962     -0.0197      3.2605     23.9830    102.5760
  1093.2000      7.9714      2.5859      0.0132      3.8822     23.5899     95.8314
  1093.3000      7.9691      2.6018      0.0342      2.9206     23.1997     90.3711
  1093.4000      7.9691      2.6086      0.1070      2.5066     22.7616     88.0659
  1093.5000      7.9687      2.5868      0.0068      3.8276     22.4051     88.4730
  1093.6000      7.9687      2.5585     -0.0118      5.5478     22.6367     89.8446
  1093.7000      7.9687      2.5435      0.0132      6.4539     23.2455     91.0442
  1093.8000      7.9691      2.5393      0.0211      6.7115     23.7082     92.1157
  1093.9000      7.9691      2.5402     -0.0025      6.6574     23.8472     91.9100
  1094.0000      7.9683      2.5427      0.0101      6.5003     23.5835     89.4875
  1094.1000      7.9683      2.5387      0.0173      6.7440     23.1447     86.4346
  1094.2000      7.9683      2.5212      0.0151      7.8081     22.9215     85.9351
  1094.3000      7.9677      2.5029     -0.0591      8.9163     22.8421     87.4864
  1094.4000      7.9677      2.5084     -0.0281      8.5797     22.7269     86.5088
  1094.5000      7.9688      2.5392      0.0267      6.7155     22.8568     80.9201
  1094.6000      7.9688      2.5714      0.0944      4.7662     23.4258     75.1720
  1094.7000      7.9688      2.5840      0.0842      4.0013     24.0556     74.7371
  1094.8000      7.9696      2.5744      0.0181      4.5807     24.5286     80.2164
  1094.9000      7.9696      2.5567      0.0265      5.6576     25.0457     86.3208
  1095.0000      7.9694      2.5471      0.0187      6.2338     25.5781     87.0251
  1095.1000      7.9694      2.5429      0.0310      6.4919     25.7891     82.7482
  1095.2000      7.9694      2.5206      0.0491      7.8408     25.4633     79.2121
  1095.3000      7.9703      2.4772     -0.0034     10.4714     24.6834     81.9726
  1095.4000      7.9703      2.4449     -0.0256     12.4276     24.0925     90.9262
  1095.5000      7.9715      2.4506      0.0230     12.0866     24.2250     97.3912
  1095.6000      7.9715      2.4908      0.0533      9.6504     24.5907     96.2624
  1095.7000      7.9715      2.5385      0.0840      6.7567     24.3130     94.4212
  1095.8000      7.9722      2.5620      0.1200      5.3358     23.5621     96.6685
  1095.9000      7.9722      2.5573      0.0972      5.6193     23.2058     98.7655
  1096.0000      7.9721      2.5574      0.0660      5.6143     23.3002     97.9624
  1096.1000      7.9721      2.5899      0.1140      3.6448     23.2139     98.0752
  1096.2000      7.9721      2.6364      0.1811      0.8213     22.8235    101.2056
  1096.3000      7.9718      2.6605      0.2009     -0.6338     22.6816    100.9104
  1096.4000      7.9718      2.6576      0.1377     -0.4597     22.9450     92.9421
  1096.5000      7.9729      2.6509      0.0844     -0.0566     23.3584     83.7493
  1096.6000      7.9729      2.6453      0.1457      0.2856     23.6934     79.7662
  1096.7000      7.9729      2.6295      0.0535      1.2408     23.9382     77.8372
  1096.8000      7.9754      2.6131      0.0567      2.2337     24.3227     75.0985
  1096.9000      7.9754      2.6029      0.0920      2.8529     24.6344     75.9525
  1097.0000      7.9776      2.5838      0.0965      4.0110     24.3755     81.3948
  1097.1000      7.9776      2.5529      0.0486      5.8825     23.5104     85.9231
  1097.2000      7.9776      2.5333      0.0257      7.0717     22.5380     87.9002
  1097.3000      7.9802      2.5432      0.0677      6.4699     21.9589     90.7153
  1097.4000      7.9802      2.5707      0.1066      4.8063     21.7338     92.1579
  1097.5000      7.9876      2.5894      0.1385      3.6747     21.6919     86.7182
  1097.6000      7.9876      2.5930      0.1063      3.4533     21.8654     78.9809
  1097.7000      7.9876      2.5973      0.1089      3.1966     22.1273     75.9211
  1097.8000      7.9997      2.6033      0.1086      2.8316     22.4017     75.0406
  1097.9000      7.9997      2.5931      0.0752      3.4510     22.8640     76.5940
  1098.0000      8.0165      2.5695      0.0045      4.8773     23.3220     81.9743
  1098.1000      8.0165      2.5626     -0.0156      5.2980     23.5145     84.9097
  1098.2000      8.0165      2.5844      0.0376      3.9749     23.4469     83.1604
  1098.3000      8.0359      2.6125      0.0660      2.2744     23.0567     79.7159
  1098.4000      8.0359      2.6259      0.0506      1.4604     22.5096     74.6428
  1098.5000      8.0469      2.6329      0.0361      1.0384     22.2174     69.3127
  1098.6000      8.0469      2.6474      0.0475      0.1581     22.3865     68.4063
  1098.7000      8.0469      2.6598      0.0665     -0.5964     23.0053     71.3510
  1098.8000      8.0480      2.6588      0.0206     -0.5354     23.8827     72.5449
  1098.9000      8.0480      2.6544      0.0416     -0.2643     24.8246     70.2925
