~Version Information
VERS.                      2.0: CWLS Log ASCII Standard - VERSION 2.0
WRAP.                       NO: One line per depth step
~Well Information Block
STRT.FT                 3.7500: 
STOP.FT               979.7500: 
STEP.FT                 0.2500: 
NULL.                -999.2500: 
COMP.          Pioneer Natural Resources: COMPANY
WELL.          Rising Star 22-11: WELL
FLD.           Purgatoire River: FIELD
LOC.           2152' FNL & 2105' FWL: LOCATION
PROV.                 Colorado: PROVINCE
CNTY.               Las Animas: COUNTRY
SRVC.                Patterson: SERVICE COMPANY
DATE.          Sat Apr 16 09:17:01 2005: LOG DATE
UWI.           05 071 08354 00: UNIQUE WELL ID
~Curve Information Block
DEPT.FT            0 000 00 00: Depth
GR.GAPI                       : Gamma Ray
CCL.                          : Casing Collar Locator
TT3.usec                      : CBL 3' Travel Time
AMP3.mV                       : CBL 3' Amplitude
~Parameter Information Block
~A  Depth        GR         CCL         TT3         AMP3    
# ...
   372.2500    132.4654      0.0000   1350.0000      5.2841
   372.5000    131.0762      0.0000   1350.0000      5.2427
   372.7500    128.8091      0.0000   1350.0000      5.1886
   373.0000    125.3488      0.0000   1350.0000      5.1329
   373.2500    120.9396      0.0000   1350.0000      5.0878
   373.5000    115.9092      0.0000   1350.0000      5.0613
   373.7500    110.4484      0.0000   1350.0000      5.0534
   374.0000    104.8820      0.0000   1350.0000      5.0560
   374.2500     99.6986      0.0000   1350.0000      5.0607
   374.5000     95.0510      0.0000   1350.0000      5.0634
   374.7500     90.4614      0.0000   1350.0000      5.0617
   375.0000     85.4022      0.0000   1350.0000      5.0523
   375.2500     80.1355      0.0000   1349.9807      5.0342
   375.5000     75.6740      0.0000   1349.8578      5.0116
   375.7500     72.9417      0.0000   1349.2372      4.9900
   376.0000     72.1053      0.0000   1346.8029      4.9720
   376.2500     72.5543      0.0000   1339.3817      4.9587
   376.5000     73.4023      0.0000   1321.8169      4.9498
   376.7500     74.3447      0.0000   1289.5510      4.9434
   377.0000     76.3194      0.0000   1243.5817      4.9388
   377.2500     81.0551      0.0000   1192.8062      4.9387
   377.5000     89.5476      0.0000   1149.5281      4.9457
   377.7500    100.8921      0.0000   1122.1985      4.9579
   378.0000    112.7436      0.0000   1113.5055      4.9704
   378.2500    122.8711      0.0000   1123.9786      4.9819
   378.5000    130.1838      0.0000   1153.6931      4.9961
   378.7500    134.4225      0.0000   1199.0156      5.0174
   379.0000    135.3224      0.0000   1250.0629      5.0452
   379.2500    132.6051      0.0000   1294.4803      5.0738
   379.5000    127.0267      0.0000   1324.6199      5.0953
   379.7500    120.8722      0.0000   1340.5923      5.1057
   380.0000    116.5437      0.0000   1347.2037      5.1077
   380.2500    114.5404      0.0000   1349.3397      5.1060
   380.5000    113.2850      0.0000   1349.8784      5.0996
   380.7500    111.1422      0.0000   1349.9839      5.0842
   381.0000    108.4722      0.0000   1350.0000      5.0644
   381.2500    107.6721      0.0000   1350.0000      5.0602
   381.5000    110.9804      0.0000   1350.0000      5.0968
   381.7500    117.9251      0.0000   1350.0000      5.1872
   382.0000    124.9856      0.0000   1350.0000      5.3223
   382.2500    128.3175      0.0000   1350.0000      5.4760
   382.5000    127.1327      0.0000   1350.0000      5.6158
   382.7500    123.9708      0.0000   1350.0000      5.7123
   383.0000    121.3781      0.0000   1350.0000      5.7481
   383.2500    118.9813      0.0000   1350.0000      5.7246
   383.5000    114.2954      0.0000   1349.9867      5.6607
   383.7500    105.9102      0.0000   1349.9136      5.5822
   384.0000     95.4792      0.0000   1349.5450      5.5082
   384.2500     86.7754      0.0000   1348.1428      5.4464
   384.5000     82.9140      0.0000   1344.0133      5.3965
   384.7500     84.3257      0.0000   1334.5226      5.3523
   385.0000     89.0651      0.0000   1317.3850      5.2967
   385.2500     94.5610      0.0000   1292.8708      5.1995
   385.5000     98.9323      0.0000   1265.1401      5.0320
   385.7500    101.4426      0.0000   1241.5593      4.7900
   386.0000    102.4584      0.0000   1229.8696      4.5000
   386.2500    102.8117      0.0000   1233.5909      4.2009
   386.5000    102.9141      0.0000   1249.0693      3.9253
   386.7500    102.6819      0.0000   1268.8761      3.6955
   387.0000    102.1384      0.0000   1288.3719      3.5256
   387.2500    101.4189      0.0000   1306.8754      3.4188
   387.5000    100.1045      0.0000   1323.7047      3.3641
   387.7500     97.2751      0.0000   1336.7146      3.3355
   388.0000     92.6797      0.0000   1344.6080      3.3028
   388.2500     87.7057      0.0000   1348.2728      3.2526
   388.5000     84.9594      0.0000   1349.5674      3.2016
   388.7500     86.4876      0.0000   1349.9148      3.1868
   389.0000     91.9106      0.0000   1349.9869      3.2385
   389.2500     98.3867      0.0000   1350.0000      3.3622
   389.5000    102.8915      0.0000   1349.9736      3.5374
   389.7500    104.6095      0.0000   1349.8281      3.7326
   390.0000    104.9814      0.0000   1349.1272      3.9194
   390.2500    105.8533      0.0000   1346.5219      4.0811
   390.5000    108.0074      0.0000   1339.1959      4.2111
   390.7500    110.9566      0.0000   1323.6218      4.3103
   391.0000    113.3194      0.0000   1298.8983      4.3862
   391.2500    113.4798      0.0000   1270.0389      4.4507
   391.5000    110.5960      0.0000   1245.9380      4.5169
   391.7500    105.3550      0.0000   1233.0298      4.5960
   392.0000     99.6044      0.0000   1233.0034      4.6918
   392.2500     95.2457      0.0000   1245.7441      4.7922
   392.5000     93.7002      0.0000   1268.9590      4.8706
   392.7500     96.1032      0.0000   1294.4707      4.9031
   393.0000    102.9764      0.0000   1309.4014      4.8850
   393.2500    113.1721      0.0000   1302.8770      4.8263
   393.5000    123.7011      0.0000   1271.9078      4.7349
   393.7500    131.3992      0.0000   1224.3540      4.6121
   394.0000    134.8703      0.0000   1178.1580      4.4591
   394.2500    134.5430      0.0000   1154.4130      4.2800
   394.5000    131.2481      0.0000   1165.6643      4.0749
   394.7500    125.6525      0.0000   1207.2701      3.8477
   395.0000    118.9174      0.0000   1260.2179      3.6279
   395.2500    112.7970      0.0000   1304.6425      3.4679
   395.5000    108.6771      0.0000   1331.7747      3.4006
   395.7500    106.9129      0.0000   1344.2175      3.4126
   396.0000    106.8677      2.4109   1348.5586      3.4678
   396.2500    106.9907      0.0000   1349.7224      3.5524
   396.5000    105.2722      0.0000   1349.9574      3.7038
   396.7500    100.8507      0.0000   1350.0000      3.9930
   397.0000     95.4316      0.0000   1350.0000      4.4491
   397.2500     92.2502      0.0000   1350.0000      4.9842
   397.5000     93.2716      0.0000   1350.0000      5.4288
   397.7500     97.9074      0.0000   1350.0000      5.6640
   398.0000    104.3926      0.0000   1350.0000      5.6977
   398.2500    111.4895      0.0000   1350.0000      5.6121
   398.5000    118.7002      0.0000   1350.0000      5.4780
   398.7500    125.5855      0.0000   1350.0000      5.3303
   399.0000    131.3161      0.0000   1350.0000      5.1838
   399.2500    134.7749      0.0000   1350.0000      5.0476
   399.5000    135.3284      0.0000   1350.0000      4.9291
   399.7500    133.7428      0.0000   1350.0000      4.8356
   400.0000    131.8902      0.0000   1350.0000      4.7732
   400.2500    131.1174      0.0000   1350.0000      4.7412
   400.5000    131.0469      0.0000   1350.0000      4.7293
   400.7500    129.9758      0.0000   1350.0000      4.7238
   401.0000    126.3379      0.0000   1350.0000      4.7215
   401.2500    120.1939      0.0000   1350.0000      4.7325
   401.5000    113.5262      0.0000   1350.0000      4.7662
   401.7500    108.7206      0.0000   1349.9811      4.8130
   402.0000    106.7151      0.0000   1349.8575      4.8437
   402.2500    106.9687      0.0000   1349.2490      4.8279
   402.5000    108.8340      0.0000   1346.8914      4.7557
   402.7500    112.0146      0.0000   1339.8585      4.6442
   403.0000    115.7274      0.0000   1323.8895      4.5271
   403.2500    118.3735      0.0000   1296.6746      4.4345
   403.5000    118.6100      0.0000   1262.7585      4.3780
   403.7500    116.3775      0.0000   1233.1108      4.3475
   404.0000    112.4924      0.0000   1215.5656      4.3219
   404.2500    107.6304      0.0000   1206.2872      4.2890
   404.5000    102.2243      0.0000   1195.9972      4.2593
   404.7500     97.0799      0.0000   1184.9156      4.2617
   405.0000     93.5071      0.0000   1185.4832      4.3214
   405.2500     92.6240      0.0000   1208.0533      4.4400
   405.5000     94.6363      0.0000   1248.1896      4.5929
