~Version Information
VERS.                      2.0: CWLS Log ASCII Standard - VERSION 2.0
WRAP.                       NO: One line per depth step
~Well Information Block
STRT.FT                -8.2500: 
STOP.FT               836.2500: 
STEP.FT                 0.2500: 
NULL.                -999.2500: 
COMP.          Pioneer Natural Res.: COMPANY
WELL.            Hustler 12-17: WELL
FLD.           Purgatorie River: FIELD
LOC.           2150' FNL & 450' FWL----------: LOCATION
PROV.                       CO: PROVINCE
CNTY.               Las Animas: COUNTRY
SRVC.                Patterson: SERVICE COMPANY
DATE.          Wed Dec 29 13:37:10 2004: LOG DATE
UWI.           05 071 08236 00: UNIQUE WELL ID
~Curve Information Block
DEPT.FT            0 000 00 00: Depth
AMP3.mV                       : CBL 3' Amplitude
CCL.                          : Casing Collar Locator
GR.GAPI                       : Gamma Ray
TT3.usec                      : CBL 3' Travel Time
~Parameter Information Block
~A  Depth       AMP3        CCL          GR         TT3     
    -8.2500   -999.2500   -999.2500   -999.2500   -999.2500
    -8.0000   -999.2500   -999.2500    105.2444   -999.2500
    -7.7500   -999.2500   -999.2500    101.7561   -999.2500
    -7.5000   -999.2500   -999.2500     99.0195   -999.2500
    -7.2500   -999.2500   -999.2500     99.1309   -999.2500
    -7.0000   -999.2500   -999.2500    101.3564   -999.2500
    -6.7500   -999.2500   -999.2500    103.4569   -999.2500
    -6.5000   -999.2500   -999.2500    104.6143   -999.2500
    -6.2500   -999.2500   -999.2500    105.9851   -999.2500
    -6.0000   -999.2500   -999.2500    108.3919   -999.2500
    -5.7500   -999.2500   -999.2500    110.7891   -999.2500
    -5.5000   -999.2500   -999.2500    111.5748   -999.2500
    -5.2500   -999.2500   -999.2500    110.3444   -999.2500
    -5.0000   -999.2500   -999.2500    107.8359   -999.2500
    -4.7500   -999.2500   -999.2500    105.2075   -999.2500
    -4.5000   -999.2500   -999.2500    103.7557   -999.2500
    -4.2500   -999.2500   -999.2500    104.2535   -999.2500
    -4.0000   -999.2500   -999.2500    106.1495   -999.2500
    -3.7500   -999.2500   -999.2500    108.1609   -999.2500
    -3.5000   -999.2500   -999.2500    109.7189   -999.2500
    -3.2500   -999.2500   -999.2500    110.9823   -999.2500
    -3.0000   -999.2500   -999.2500    111.5320   -999.2500
    -2.7500      0.9714   -999.2500    110.2257   1227.0000
    -2.5000      0.9427   -999.2500    106.6625   1227.0000
    -2.2500      0.9487   -999.2500    101.9947   1227.0000
    -2.0000      0.9873   -999.2500     97.9512   1227.0000
    -1.7500      1.0388   -999.2500     95.4851   1227.0000
    -1.5000      1.0844   -999.2500     94.5941   1227.0000
    -1.2500      1.1130   -999.2500     94.9481   1227.0000
    -1.0000      1.1203   -999.2500     96.1058   1227.0000
    -0.7500      1.1088   -999.2500     97.2526   1227.0000
    -0.5000      1.0856   -999.2500     97.4207   1227.0000
    -0.2500      1.0571   -999.2500     96.3679   1227.0000
     0.0000      1.0283   -999.2500     94.8787   1227.0000
     0.2500      1.0065   -999.2500     93.7682   1227.0000
     0.5000      0.9996   -999.2500     92.8276   1227.0000
     0.7500      1.0053   -999.2500     91.0896   1227.0000
     1.0000      1.0095   -999.2500     87.8157   1227.0000
     1.2500      0.9999   -999.2500     82.9637   1227.0000
     1.5000      0.9807   -999.2500     77.0300   1227.0000
     1.7500      0.9692   -999.2500     70.6314   1227.0000
     2.0000      0.9782   -999.2500     64.0025   1227.0000
     2.2500      1.0037   -999.2500     56.9549   1227.0000
     2.5000      1.0297   -999.2500     49.5684   1227.0000
     2.7500      1.0438   -999.2500     42.7614   1227.0000
     3.0000      1.0470      0.0000     37.8452   1227.0000
     3.2500      1.0526     -2.0000     35.5460   1227.0000
     3.5000      1.0727      2.0000     35.6445   1227.0000
     3.7500      1.1060      0.0000     37.5063   1227.0000
     4.0000      1.1409      0.0000     40.7521   1227.0000
     4.2500      1.1714      0.0000     45.4161   1227.0000
     4.5000      1.2007      0.0000     51.6140   1227.0000
     4.7500      1.2271      0.0000     59.0168   1227.0000
     5.0000      1.2381      0.0000     66.3698   1227.0000
     5.2500      1.2293      0.0000     71.6222   1226.9359
     5.5000      1.2268      0.0000     73.1576   1226.5179
     5.7500      1.3344      0.0000     71.2919   1224.3958
     6.0000      1.8656      0.0000     68.3308   1216.0027
     6.2500      3.5728      0.0000     66.9641   1190.1517
     6.5000      7.7075      0.0000     68.5758   1128.1438
     6.7500     15.4405      0.0000     72.6645   1012.3104
     7.0000     26.6749      0.0000     77.3579    843.7970
     7.2500     39.3770      0.0000     80.6252    652.8793
     7.5000     50.5572      0.0000     81.4298    484.4313
     7.7500     58.2020      0.0000     79.9575    368.6889
     8.0000     62.2219      0.0000     77.0337    306.7556
     8.2500     63.7782      0.0000     73.6852    280.9477
     8.5000     64.1276      0.0000     71.0518    272.5747
     8.7500     64.0591      0.0000     70.0722    270.4642
     9.0000     63.9371      0.0000     70.9656    270.0586
     9.2500     63.9079      0.0000     73.1252    270.0088
     9.5000     64.0202      0.0000     75.4654    270.0217
     9.7500     64.2618      0.0000     76.8674    270.0283
    10.0000     64.5807      0.0000     76.6531    270.0243
    10.2500     64.9190      0.0000     74.9401    270.0071
    10.5000     65.2213      0.0000     72.5646    269.9781
    10.7500     65.4198      0.0000     70.6733    269.9436
    11.0000     65.4408      0.0000     70.2476    269.9131
    11.2500     65.2581      0.0000     71.5217    269.8939
    11.5000     64.9439      0.0000     73.6254    269.8884
    11.7500     64.6470      0.0000     75.1906    269.8946
    12.0000     64.4974      0.0000     75.5736    269.9084
    12.2500     64.5171      0.0000     75.2126    269.9262
    12.5000     64.6057      0.0000     74.8119    269.9486
    12.7500     64.5834      0.0000     74.7249    269.9849
    13.0000     64.2623      0.0000     75.0961    270.0528
    13.2500     63.5492      0.0000     75.9320    270.1648
    13.5000     62.5484      0.0000     76.9202    270.3131
    13.7500     61.5642      0.0000     77.6697    270.4743
    14.0000     60.9301      0.0000     78.1892    270.6720
    14.2500     60.7391      0.0000     78.8466    271.1573
    14.5000     60.6311      0.0000     79.9179    272.6894
    14.7500     59.7955      0.0000     81.3321    276.6809
    15.0000     57.3377      0.0000     82.7144    284.6223
    15.2500     52.9306      0.0000     83.5423    296.5862
    15.5000     47.2087      0.0000     83.4993    310.1189
    15.7500     41.3642      0.0000     82.8339    321.8984
    16.0000     36.2707      0.0000     82.1519    332.3533
    16.2500     32.0763      0.0000     81.6907    350.1208
    16.5000     28.5343      0.0000     81.0993    392.1252
    16.7500     25.4407      0.0000     80.2458    476.2705
    17.0000     22.7237      2.0000     79.8336    607.5760
    17.2500     20.3441      0.0000     80.5766    767.5920
    17.5000     18.2534     -2.0000     81.9718    920.7516
    17.7500     16.4342      0.0000     82.5658   1035.7068
    18.0000     14.9382      0.0000     81.4059   1101.0327
    18.2500     13.8525      0.0000     78.8696   1122.1735
    18.5000     13.1846      0.0000     76.3124   1110.2559
    18.7500     12.7816      0.0000     75.1947   1077.1749
    19.0000     12.4175      0.0000     76.1164   1035.4017
    19.2500     11.9605      0.0000     78.2226    995.3118
    19.5000     11.4184      0.0000     79.8170    961.8170
    19.7500     10.8459      0.0000     79.9238    935.3675
    20.0000     10.2706      0.0000     79.1661    915.4946
    20.2500      9.7036      0.0000     78.9780    902.0934
    20.5000      9.1701      0.0000     80.1580    894.3013
    20.7500      8.7053      0.0000     82.3839    890.0204
    21.0000      8.3330      0.0000     84.8561    886.8578
    21.2500      8.0560      0.0000     87.1237    883.1821
    21.5000      7.8554      0.0000     89.3691    878.3897
    21.7500      7.6989      0.0000     92.0662    872.4561
    22.0000      7.5564      0.0000     95.3968    865.3549
    22.2500      7.4178      0.0000     99.0095    856.9093
    22.5000      7.2982      0.0000    102.2748    847.2334
    22.7500      7.2197      0.0000    104.6450    837.2460
    23.0000      7.1854      0.0000    105.9305    828.6298
    23.2500      7.1780      0.0000    106.5108    822.8497
    23.5000      7.1848      0.0000    107.1054    819.8655
    23.7500      7.2116      0.0000    108.0708    818.1201
    24.0000      7.2626      0.0000    109.1127    816.2051
    24.2500      7.3264      0.0000    109.6711    814.3564
    24.5000      7.3943      0.0000    109.1078    814.0618
    24.7500      7.4722      0.0000    106.6087    816.3430
    25.0000      7.5574      0.0000    101.6594    820.4812
