~Version Information
VERS.                      2.0: CWLS Log ASCII Standard - VERSION 2.0
WRAP.                       NO: One line per depth step
~Well Information Block
STRT.FT               998.8000: 
STOP.FT              2235.5000: 
STEP.FT                 0.1000: 
NULL.                -999.2500: 
COMP.          Petrogulf Corporation: COMPANY
WELL.          Latiluppe 8-13R: WELL
FLD.           Purgatorie River: FIELD
LOC.           1495' FSL & 946' FWL: LOCATION
CNTY.               Las Animas: COUNTY
SRVC.                         : SERVICE COMPANY
DATE.          Wed Apr 21 10:46:16 2004: LOG DATE
UWI.           05 071 08035 00: UNIQUE WELL ID
STAT.                 Colorado: STATE
~Curve Information Block
DEPT.FT            0 000 00 00: Depth
DCAL.in                       : CDL Caliper
RHOB.g/cc                     : CDL Bulk Density
RHOC.g/cc                     : CDL Density Correction
DPOR.pu                       : CDL Density Porosity
NPOR.pu                       : Neutron Porosity
GR.GAPI                       : Gamma Ray
~Parameter Information Block
~A  Depth       DCAL        RHOB        RHOC        DPOR        NPOR         GR     
# ...
  1805.2000      7.7287      2.5173      0.0213      8.0409     26.6240    136.9400
  1805.3000      7.7198      2.5171      0.0571      8.0557     26.8359    140.5221
  1805.4000      7.7198      2.5211      0.0716      7.8130     26.8929    138.8053
  1805.5000      7.7219      2.5082      0.0355      8.5918     26.6629    136.0459
  1805.6000      7.7219      2.4940     -0.0098      9.4559     26.3309    134.7042
  1805.7000      7.7219      2.4937      0.0549      9.4714     26.0383    132.5871
  1805.8000      7.7190      2.5019      0.0007      8.9772     25.7447    129.6719
  1805.9000      7.7190      2.5216      0.0181      7.7831     25.4106    128.7742
  1806.0000      7.7222      2.5498      0.0995      6.0722     25.0246    128.6236
  1806.1000      7.7222      2.5678      0.0987      4.9828     24.5839    127.3278
  1806.2000      7.7222      2.5650      0.1310      5.1543     24.0349    126.7193
  1806.3000      7.7233      2.5483      0.0634      6.1644     23.5429    127.0937
  1806.4000      7.7233      2.5369      0.0855      6.8564     23.4340    128.9289
  1806.5000      7.7020      2.5395      0.0879      6.6962     23.6010    133.6324
  1806.6000      7.7020      2.5435      0.1044      6.4569     23.6143    138.1244
  1806.7000      7.7020      2.5329      0.0841      7.0974     23.4088    139.9686
  1806.8000      7.7111      2.5119      0.0608      8.3700     23.1387    138.5316
  1806.9000      7.7111      2.4909      0.0886      9.6444     22.7790    134.3979
  1807.0000      7.7324      2.4753      0.0186     10.5879     22.5746    131.7250
  1807.1000      7.7324      2.4787      0.0452     10.3842     22.6187    132.1835
  1807.2000      7.7324      2.5056      0.0903      8.7537     22.6721    133.9986
  1807.3000      7.7089      2.5436      0.0664      6.4470     22.8927    133.8298
  1807.4000      7.7089      2.5846      0.0901      3.9647     23.3139    127.3911
  1807.5000      7.7016      2.6236      0.1196      1.6000     23.6055    116.3202
  1807.6000      7.7016      2.6459      0.1337      0.2468     23.6209    106.2140
  1807.7000      7.7016      2.6413      0.0949      0.5257     23.2678     98.3149
  1807.8000      7.6972      2.6187      0.1055      1.8944     22.8038     91.6361
  1807.9000      7.6972      2.5970      0.0555      3.2115     22.8797     88.7133
  1808.0000      7.7021      2.5869      0.0478      3.8237     23.6808     90.8915
  1808.1000      7.7021      2.5806      0.0697      4.2042     24.4705     93.4630
  1808.2000      7.7021      2.5702      0.0107      4.8362     24.6472     92.8398
  1808.3000      7.7132      2.5667      0.0099      5.0472     24.6702     89.5732
  1808.4000      7.7132      2.5842      0.0224      3.9850     25.2048     85.2265
  1808.5000      7.6964      2.6214      0.0344      1.7356     26.0833     82.9208
  1808.6000      7.6964      2.6642      0.0733     -0.8616     26.7263     83.5719
  1808.7000      7.6964      2.6891      0.1505     -2.3715     27.1335     86.4752
  1808.8000      7.6816      2.6767      0.1232     -1.6197     27.6122     89.7919
  1808.9000      7.6816      2.6333      0.1256      1.0123     27.9999     91.6318
  1809.0000      7.6901      2.5824      0.0472      4.0987     28.2991     92.1135
  1809.1000      7.6901      2.5443      0.0154      6.4045     28.5601     93.3099
  1809.2000      7.6901      2.5252     -0.0098      7.5632     28.4073    101.1572
  1809.3000      7.6837      2.5231      0.0095      7.6936     27.9469    116.7671
  1809.4000      7.6837      2.5250      0.0785      7.5733     27.6164    130.5138
  1809.5000      7.6853      2.5120      0.0322      8.3635     27.4416    135.8358
  1809.6000      7.6853      2.4883      0.0179      9.7982     27.1389    138.2083
  1809.7000      7.6853      2.4775      0.0245     10.4539     26.5676    144.1190
  1809.8000      7.6818      2.4924      0.0525      9.5545     26.0061    149.9736
  1809.9000      7.6818      2.5285      0.0900      7.3635     25.6661    150.2528
  1810.0000      7.6862      2.5710      0.1163      4.7903     25.3171    146.9140
  1810.1000      7.6862      2.6007      0.1476      2.9853     24.6566    141.5444
  1810.2000      7.6862      2.6126      0.1165      2.2650     23.8213    135.3460
  1810.3000      7.7294      2.6179      0.1349      1.9464     23.3489    132.9778
  1810.4000      7.7294      2.6159      0.1541      2.0687     23.3640    133.2683
  1810.5000      7.7511      2.5939      0.1016      3.3973     23.3972    134.1823
  1810.6000      7.7511      2.5593      0.0453      5.4991     23.3320    136.8595
  1810.7000      7.7511      2.5371      0.0410      6.8449     23.3388    138.1056
  1810.8000      7.7492      2.5395      0.0517      6.6953     23.2253    135.4066
  1810.9000      7.7492      2.5589      0.0406      5.5241     22.7472    130.8387
  1811.0000      7.7471      2.5819      0.0834      4.1301     22.0415    126.5601
  1811.1000      7.7471      2.5993      0.1109      3.0698     21.5232    122.1088
  1811.2000      7.7471      2.6082      0.0983      2.5328     21.5393    114.8113
  1811.3000      7.7486      2.6133      0.0624      2.2214     21.9630    105.4521
  1811.4000      7.7486      2.6250      0.0700      1.5161     22.2811     98.1779
  1811.5000      7.7480      2.6417      0.1158      0.5047     22.3715     92.1304
  1811.6000      7.7480      2.6518      0.1338     -0.1098     22.4668     87.3409
  1811.7000      7.7480      2.6547      0.1206     -0.2871     22.3910     88.2682
  1811.8000      7.7513      2.6557      0.1372     -0.3425     22.2040     94.6448
  1811.9000      7.7513      2.6526      0.0982     -0.1592     22.3820    100.0200
  1812.0000      7.7541      2.6422      0.1268      0.4700     22.8358     99.0904
  1812.1000      7.7541      2.6281      0.0564      1.3244     22.8346     94.3735
  1812.2000      7.7541      2.6212      0.0594      1.7475     22.1947     91.1380
  1812.3000      7.7591      2.6163      0.0406      2.0446     21.7634     89.1864
  1812.4000      7.7591      2.5983      0.0610      3.1326     22.0936     85.6091
  1812.5000      7.7665      2.5807     -0.0269      4.1981     22.5989     81.7672
  1812.6000      7.7665      2.5897      0.0498      3.6527     22.7289     79.4539
  1812.7000      7.7665      2.6148      0.0447      2.1353     22.7045     77.6956
  1812.8000      7.7704      2.6273      0.0748      1.3761     22.8152     75.9428
  1812.9000      7.7704      2.6165      0.0828      2.0319     23.2455     75.2426
  1813.0000      7.7700      2.5946      0.0117      3.3559     24.0595     76.1250
  1813.1000      7.7700      2.5796      0.0149      4.2651     24.9692     79.1768
  1813.2000      7.7700      2.5726      0.0368      4.6907     25.7715     85.2494
  1813.3000      7.7728      2.5648      0.0428      5.1655     26.4791     92.9378
  1813.4000      7.7728      2.5568     -0.0203      5.6472     26.8926     99.7380
  1813.5000      7.7709      2.5551      0.0241      5.7495     26.9744    105.7724
  1813.6000      7.7709      2.5563      0.0053      5.6771     27.0815    112.4880
  1813.7000      7.7709      2.5528      0.0665      5.8915     27.3186    117.4769
  1813.8000      7.7642      2.5410      0.0238      6.6040     27.3958    116.5314
  1813.9000      7.7642      2.5290      0.0282      7.3353     27.0793    112.3152
  1814.0000      7.7755      2.5277      0.0157      7.4103     26.3848    111.4473
  1814.1000      7.7755      2.5399      0.0464      6.6709     25.6006    115.0964
  1814.2000      7.7755      2.5632      0.0441      5.2617     25.1692    120.2291
  1814.3000      7.7706      2.5880      0.1265      3.7581     25.3694    123.5069
  1814.4000      7.7706      2.5989      0.0923      3.0943     26.1416    122.0626
  1814.5000      7.7702      2.5962      0.0854      3.2598     27.0010    118.2887
  1814.6000      7.7702      2.5913      0.0575      3.5554     27.2857    117.1984
  1814.7000      7.7702      2.5860      0.1016      3.8772     26.9548    119.7083
