~Version Information
VERS.                      2.0: CWLS Log ASCII Standard - VERSION 2.0
WRAP.                       NO: One line per depth step
~Well Information Block
STRT.FT                -7.0000: 
STOP.FT              1656.2500: 
STEP.FT                 0.2500: 
NULL.                -999.2500: 
COMP.          Pioneer Natural Resources: COMPANY
WELL.               Elmo 14-21: WELL
FLD.           Purgatorie River: FIELD
LOC.           623' FSL & 450' FWL--: LOCATION
PROV.                       CO: PROVINCE
CNTY.               Las Animas: COUNTRY
SRVC.          Patterson Wireline: SERVICE COMPANY
DATE.          Mon Jun 27 15:45:41 2005: LOG DATE
UWI.           05 071 08360 00: UNIQUE WELL ID
~Curve Information Block
DEPT.FT            0 000 00 00: Depth
CCL.                          : Casing Collar Locator
TT3.usec                      : CBL 3' Travel Time
AMP3.mV                       : CBL 3' Amplitude
GR.GAPI                       : Gamma Ray
~Parameter Information Block
~A  Depth       CCL         TT3         AMP3         GR     
# ...
   864.0000      0.0000    816.1384      5.8306    115.9456
   864.2500      0.0000    802.8276      5.7107    124.1293
   864.5000      0.0000    786.4516      5.5362    131.6727
   864.7500      0.0000    770.3502      5.3536    137.5821
   865.0000      0.0000    756.3353      5.2176    141.4431
   865.2500      0.0000    742.6322      5.1560    143.0846
   865.5000      0.0000    726.2189      5.1552    142.5116
   865.7500      0.0000    707.2264      5.1798    140.0271
   866.0000      0.0000    689.7671      5.2050    135.9857
   866.2500      0.0000    678.3191      5.2274    130.5103
   866.5000      0.0000    674.2001      5.2519    123.9597
   866.7500      0.0000    675.3483      5.2762    117.6709
   867.0000      0.0000    678.2433      5.2909    113.8175
   867.2500      0.0000    679.8939      5.2915    114.2373
   867.5000      0.0000    679.3492      5.2849    119.3538
   867.7500      0.0000    678.5909      5.2823    128.1676
   868.0000      0.0000    682.1984      5.2860    138.8555
   868.2500      0.0000    695.2852      5.2840    148.9932
   868.5000      0.0000    719.9726      5.2549    155.6141
   868.7500      0.0000    752.7500      5.1821    156.1699
   869.0000      0.0000    785.8022      5.0725    150.0190
   869.2500      0.0000    811.8893      4.9634    138.7456
   869.5000      0.0000    828.2810      4.9008    125.0258
   869.7500      0.0000    836.5676      4.9082    111.4756
   870.0000      0.0000    839.7036      4.9749    100.1490
   870.2500      0.0000    839.7288      5.0693     92.4256
   870.5000      0.0000    837.6559      5.1603     89.2988
   870.7500      0.0000    834.3947      5.2276     91.6710
   871.0000      0.0000    831.0532      5.2594     99.7049
   871.2500      0.0000    828.2122      5.2508    111.7400
   871.5000      0.0000    824.8588      5.2097    124.7429
   871.7500      0.0000    818.5778      5.1554    136.5099
   872.0000      0.0000    807.7143      5.1097    147.0249
   872.2500      0.0000    793.8320      5.0864    157.1374
   872.5000      0.0000    781.5766      5.0860    166.4448
   872.7500      0.0000    775.4094      5.0981    173.3133
   873.0000      0.0000    775.7956      5.1136    176.8686
   873.2500      0.0000    778.0977      5.1326    178.2704
   873.5000      0.0000    776.1664      5.1569    179.6272
   873.7500      0.0000    769.0054      5.1788    181.5735
   874.0000      0.0000    763.6547      5.1839    182.0350
   874.2500      0.0000    768.8821      5.1603    177.7154
   874.5000      0.0000    785.5446      5.1009    167.2059
   874.7500      0.0000    805.1956      5.0015    152.6475
   875.0000      0.0000    818.0314      4.8626    138.0666
   875.2500      0.0000    820.1558      4.6981    126.3247
   875.5000      0.0000    813.6442      4.5405    118.0247
   875.7500      0.0000    802.5674      4.4319    112.6341
   876.0000      0.0000    790.1310      4.4007    109.6456
   876.2500      0.0000    778.5202      4.4457    108.7599
   876.5000      0.0000    769.6371      4.5423    109.5475
   876.7500      0.0000    764.6438      4.6626    111.0962
   877.0000      0.0000    763.0100      4.7858    112.0621
   877.2500      0.0000    763.4260      4.8953    111.2709
   877.5000      0.0000    765.8070      4.9728    108.4215
   877.7500      0.0000    771.0269      5.0025    104.3879
   878.0000      0.0000    778.3475      4.9816    100.8108
   878.2500      0.0000    784.3173      4.9268     98.9319
   878.5000      0.0000    784.8924      4.8677     98.5799
   878.7500      0.0000    778.3669      4.8313     98.4597
   879.0000      0.0000    766.5579      4.8299     97.3186
   879.2500      0.0000    753.9426      4.8608     94.7187
   879.5000      0.0000    745.4860      4.9099     91.0702
   879.7500      0.0000    744.2321      4.9562     87.2926
   880.0000      0.0000    750.1235      4.9777     84.4634
   880.2500      0.0000    760.8894      4.9619     83.6314
   880.5000      0.0000    773.6588      4.9136     85.6277
   880.7500      0.0000    785.3512      4.8509     90.6190
   881.0000      0.0000    792.1831      4.7914     97.8277
   881.2500      0.0000    790.4514      4.7428    106.0627
   881.5000      0.0000    779.0261      4.7019    114.5580
   881.7500      0.0000    761.3278      4.6618    123.0245
   882.0000      0.0000    744.3472      4.6174    131.0137
   882.2500      0.0000    734.9232      4.5632    137.6690
   882.5000      0.0000    736.1728      4.4879    142.1748
   882.7500      0.0000    747.0898      4.3760    144.2850
   883.0000      0.0000    765.0348      4.2202    144.6521
   883.2500      0.0000    787.5496      4.0352    144.9975
   883.5000      0.0000    811.6088      3.8566    147.3779
   883.7500      0.0000    832.7071      3.7222    152.2174
   884.0000      0.0000    846.1577      3.6513    157.1322
   884.2500      0.0000    849.6667      3.6421    158.5380
   884.5000      0.0000    844.8079      3.6866    154.4818
   884.7500      0.0000    836.2721      3.7765    145.4124
   885.0000      0.0000    829.1617      3.8949    132.7859
   885.2500      0.0000    825.7288      4.0119    118.2683
   885.5000      0.0000    823.9942      4.0978    104.2211
   885.7500      0.0000    819.9720      4.1422     93.3768
   886.0000      0.0000    811.9552      4.1623     87.1612
   886.2500      0.0000    802.9626      4.1967     84.7096
   886.5000      0.0000    798.4396      4.2840     83.8991
   886.7500      0.0000    800.9448      4.4326     83.2065
   887.0000      0.0000    807.1856      4.6043     82.4925
   887.2500      0.0000    810.6165      4.7325     82.3956
   887.5000      0.0000    806.8928      4.7630     83.5111
   887.7500      0.0000    797.1840      4.6800     86.1228
   888.0000      0.0000    787.0477      4.5062     90.1777
   888.2500      0.0000    782.2342      4.2920     95.3132
   888.5000      0.0000    784.4930      4.1022    101.1754
   888.7500      0.0000    790.4952      3.9932    107.5408
   889.0000      0.0000    794.8617      3.9859    113.7686
   889.2500      0.0000    794.5064      4.0521    118.5573
   889.5000      0.0000    789.7560      4.1282    121.1499
   889.7500      0.0000    781.5677      4.1483    122.8254
   890.0000      0.0000    769.2362      4.0809    126.3708
   890.2500      0.0000    752.2686      3.9467    133.6229
   890.5000      0.0000    733.7067      3.8047    143.7034
   890.7500      0.0000    719.4102      3.7135    153.7480
   891.0000      0.0000    713.3966      3.7018    161.1526
   891.2500      0.0000    715.4861      3.7688    164.8199
   891.5000      0.0000    724.0115      3.8972    164.3439
   891.7500      0.0000    738.4888      4.0600    158.9812
   892.0000      0.0000    757.8109      4.2261    148.3822
   892.2500      0.0000    777.7604      4.3757    134.0357
   892.5000      0.0000    792.9337      4.5100    119.0404
   892.7500      0.0000    800.7592      4.6452    106.3386
   893.0000      0.0000    802.2343      4.7969     97.6121
   893.2500      0.0000    799.3866      4.9689     93.5306
   893.5000      0.0000    793.4484      5.1487     94.1868
   893.7500      0.0000    785.5983      5.3133     98.9678
   894.0000      0.0000    778.4774      5.4473    106.3227
   894.2500      0.0000    775.9343      5.5546    114.1520
   894.5000      0.0000    780.3474      5.6492    120.7167
   894.7500      0.0000    790.0489      5.7381    125.3783
   895.0000      0.0000    800.2006      5.8132    128.7757
   895.2500      0.0000    806.7531      5.8619    132.4051
   895.5000      0.0000    808.9863      5.8837    137.5367
   895.7500      0.0000    807.9275      5.8968    143.9888
   896.0000      0.0000    803.5425      5.9257    150.2119
   896.2500      0.0000    795.0519      5.9791    154.9664
   896.5000      0.0000    784.1201      6.0420    158.4288
   896.7500      0.0000    776.0171      6.0870    161.2076
   897.0000      0.0000    775.6948      6.0943    162.9495
   897.2500      0.0000    782.7546      6.0590    162.8173
