~Version Information
VERS.                      2.0: CWLS Log ASCII Standard - VERSION 2.0
WRAP.                       NO: One line per depth step
~Well Information Block
STRT.FT                 0.6000: 
STOP.FT              2735.2000: 
STEP.FT                 0.1000: 
NULL.                -999.2500: 
COMP.          Pioneer Natural Resources: COMPANY
WELL.              Cluck 21-25: WELL
FLD.           Purgatoire River: FIELD
LOC.           91' FNL & 1834' FWL--: LOCATION
PROV.                 Colorado: PROVINCE
CNTY.               Las Animas: COUNTRY
SRVC.                Patterson: SERVICE COMPANY
DATE.          Mon Jun 06 19:08:34 2005: LOG DATE
UWI.           05 071 08397 00: UNIQUE WELL ID
~Curve Information Block
DEPT.FT            0 000 00 00: Depth
SN.Ohm-m                      : IEL Short Normal
SP.mV                         : IEL Spontaneous Potential
DIR.Ohm-m                     : IEL Induction Resistivity
GR.GAPI                       : Gamma Ray
~Parameter Information Block
~A  Depth        SN          SP         DIR          GR     
# ...
   751.0000   2000.0000   1981.0000     27.4285     66.4588
   751.1000   2000.0000   1981.0000     27.4285     66.2387
   751.2000   2000.0000   1981.0000     27.4285     66.0717
   751.3000   2000.0000   1981.0000     27.8618     65.9518
   751.4000   2000.0000   1981.0000     27.8618     65.8637
   751.5000   2000.0000   1981.0000     28.3081     65.7833
   751.6000   2000.0000   1981.0000     28.3081     65.6816
   751.7000   2000.0000   1981.0000     28.3081     65.5285
   751.8000   2000.0000   1981.0000     28.7846     65.3005
   751.9000   2000.0000   1981.0000     28.7846     64.9864
   752.0000   2000.0000   1981.0000     29.3080     64.5851
   752.1000   2000.0000   1981.0000     29.3080     64.1121
   752.2000   2000.0000   1981.0000     29.3080     63.5925
   752.3000   2000.0000   1981.0000     29.8927     63.0592
   752.4000   2000.0000   1981.0000     29.8927     62.5458
   752.5000   2000.0000   1981.0000     30.5514     62.0835
   752.6000   2000.0000   1981.0000     30.5514     61.6983
   752.7000   2000.0000   1981.0000     30.5514     61.4109
   752.8000   2000.0000   1981.0000     31.2909     61.2352
   752.9000   2000.0000   1981.0000     31.2909     61.1827
   753.0000   2000.0000   1981.0000     32.0992     61.2644
   753.1000   2000.0000   1981.0000     32.0992     61.4910
   753.2000   2000.0000   1981.0000     32.0992     61.8735
   753.3000   2000.0000   1981.0000     32.9360     62.4201
   753.4000   2000.0000   1981.0000     32.9360     63.1341
   753.5000   2000.0000   1981.0000     33.7370     64.0077
   753.6000   2000.0000   1981.0000     33.7370     65.0215
   753.7000   2000.0000   1981.0000     33.7370     66.1424
   753.8000   2000.0000   1981.0000     34.4371     67.3283
   753.9000   2000.0000   1981.0000     34.4371     68.5334
   754.0000   2000.0000   1981.0000     34.9952     69.7164
   754.1000   2000.0000   1981.0000     34.9952     70.8477
   754.2000   2000.0000   1981.0000     34.9952     71.9132
   754.3000   2000.0000   1981.0000     35.4036     72.9144
   754.4000   2000.0000   1981.0000     35.4036     73.8650
   754.5000   2000.0000   1981.0000     35.6755     74.7829
   754.6000   2000.0000   1981.0000     35.6755     75.6808
   754.7000   2000.0000   1981.0000     35.6755     76.5600
   754.8000   2000.0000   1981.0000     35.8233     77.4065
   754.9000   2000.0000   1981.0000     35.8233     78.1923
   755.0000   2000.0000   1981.0000     35.8502     78.8805
   755.1000   2000.0000   1981.0000     35.8502     79.4351
   755.2000   2000.0000   1981.0000     35.8502     79.8281
   755.3000   2000.0000   1981.0000     35.7640     80.0468
   755.4000   2000.0000   1981.0000     35.7640     80.0957
   755.5000   2000.0000   1981.0000     35.5986     79.9938
   755.6000   2000.0000   1981.0000     35.5986     79.7715
   755.7000   2000.0000   1981.0000     35.5986     79.4605
   755.8000   2000.0000   1981.0000     35.4181     79.0879
   755.9000   2000.0000   1981.0000     35.4181     78.6689
   756.0000   2000.0000   1981.0000     35.2924     78.2089
   756.1000   2000.0000   1981.0000     35.2924     77.7022
   756.2000   2000.0000   1981.0000     35.2924     77.1365
   756.3000   2000.0000   1981.0000     35.2588     76.4988
   756.4000   2000.0000   1981.0000     35.2588     75.7809
   756.5000   2000.0000   1981.0000     35.2981     74.9832
   756.6000   2000.0000   1981.0000     35.2981     74.1156
   756.7000   2000.0000   1981.0000     35.2981     73.1997
   756.8000   2000.0000   1981.0000     35.3366     72.2673
   756.9000   2000.0000   1981.0000     35.3366     71.3582
   757.0000   2000.0000   1981.0000     35.2674     70.5166
   757.1000   2000.0000   1981.0000     35.2674     69.7932
   757.2000   2000.0000   1981.0000     35.2674     69.2456
   757.3000   2000.0000   1981.0000     34.9704     68.9370
   757.4000   2000.0000   1981.0000     34.9704     68.9372
   757.5000   2000.0000   1981.0000     34.3311     69.3241
   757.6000   2000.0000   1981.0000     34.3311     70.1751
   757.7000   2000.0000   1981.0000     34.3311     71.5621
   757.8000   2000.0000   1981.0000     33.2800     73.5402
   757.9000   2000.0000   1981.0000     33.2800     76.1362
   758.0000   2000.0000   1981.0000     31.8489     79.3391
   758.1000   2000.0000   1981.0000     31.8489     83.0954
   758.2000   2000.0000   1981.0000     31.8489     87.3090
   758.3000   2000.0000   1981.0000     30.1911     91.8489
   758.4000   2000.0000   1981.0000     30.1911     96.5573
   758.5000   2000.0000   1981.0000     28.5203    101.2654
   758.6000   2000.0000   1981.0000     28.5203    105.8061
   758.7000   2000.0000   1981.0000     28.5203    110.0289
   758.8000   2000.0000   1981.0000     27.0117    113.8076
   758.9000   2000.0000   1981.0000     27.0117    117.0507
   759.0000   2000.0000   1981.0000     25.7442    119.7029
   759.1000   2000.0000   1981.0000     25.7442    121.7458
   759.2000   2000.0000   1981.0000     25.7442    123.1941
   759.3000   2000.0000   1981.0000     24.7064    124.0910
   759.4000   2000.0000   1981.0000     24.7064    124.4962
   759.5000   2000.0000   1981.0000     23.8399    124.4796
   759.6000   2000.0000   1981.0000     23.8399    124.1118
   759.7000   2000.0000   1981.0000     23.8399    123.4572
   759.8000   2000.0000   1981.0000     23.0830    122.5749
   759.9000   2000.0000   1981.0000     23.0830    121.5191
   760.0000   2000.0000   1981.0000     22.3983    120.3410
   760.1000   2000.0000   1981.0000     22.3983    119.0893
   760.2000   2000.0000   1981.0000     22.3983    117.8137
   760.3000   2000.0000   1981.0000     21.7771    116.5580
   760.4000   2000.0000   1981.0000     21.7771    115.3577
   760.5000   2000.0000   1981.0000     21.2289    114.2376
   760.6000   2000.0000   1981.0000     21.2289    113.2060
   760.7000   2000.0000   1981.0000     21.2289    112.2599
   760.8000   2000.0000   1981.0000     20.7668    111.3868
   760.9000   2000.0000   1981.0000     20.7668    110.5718
   761.0000   2000.0000   1981.0000     20.3970    109.8082
   761.1000   2000.0000   1981.0000     20.3970    109.0984
   761.2000   2000.0000   1981.0000     20.3970    108.4557
   761.3000   2000.0000   1981.0000     20.1131    107.9046
   761.4000   2000.0000   1981.0000     20.1131    107.4725
   761.5000   2000.0000   1981.0000     19.8958    107.1856
   761.6000   2000.0000   1981.0000     19.8958    107.0620
   761.7000   2000.0000   1981.0000     19.8958    107.1128
   761.8000   2000.0000   1981.0000     19.7163    107.3391
   761.9000   2000.0000   1981.0000     19.7163    107.7379
   762.0000   2000.0000   1981.0000     19.5429    108.3035
   762.1000   2000.0000   1981.0000     19.5429    109.0293
   762.2000   2000.0000   1981.0000     19.5429    109.9052
   762.3000   2000.0000   1981.0000     19.3488    110.9165
   762.4000   2000.0000   1981.0000     19.3488    112.0370
   762.5000   2000.0000   1981.0000     19.1172    113.2289
   762.6000   2000.0000   1981.0000     19.1172    114.4418
   762.7000   2000.0000   1981.0000     19.1172    115.6149
   762.8000   2000.0000   1981.0000     18.8410    116.6853
   762.9000   2000.0000   1981.0000     18.8410    117.5980
   763.0000   2000.0000   1981.0000     18.5215    118.3149
   763.1000   2000.0000   1981.0000     18.5215    118.8243
   763.2000   2000.0000   1981.0000     18.5215    119.1413
   763.3000   2000.0000   1981.0000     18.1672    119.3086
   763.4000   2000.0000   1981.0000     18.1672    119.3896
   763.5000   2000.0000   1981.0000     17.7934    119.4575
   763.6000   2000.0000   1981.0000     17.7934    119.5829
   763.7000   2000.0000   1981.0000     17.7934    119.8239
   763.8000   2000.0000   1981.0000     17.4215    120.2188
   763.9000   2000.0000   1981.0000     17.4215    120.7825
   764.0000   2000.0000   1981.0000     17.0742    121.5088
   764.1000   2000.0000   1981.0000     17.0742    122.3771
   764.2000   2000.0000   1981.0000     17.0742    123.3587
   764.3000   2000.0000   1981.0000     16.7670    124.4244
