~Version Information
VERS.                      2.0: CWLS Log ASCII Standard - VERSION 2.0
WRAP.                       NO: One line per depth step
~Well Information Block
STRT.FT               679.2000: 
STOP.FT              2289.5000: 
STEP.FT                 0.1000: 
NULL.                -999.2500: 
COMP.          Petrogulf Corporation: COMPANY
WELL.          Anderson 18-43V: WELL
FLD.           Purgatorie River: FIELD
LOC.           1782' FSL & 887' FEL: LOCATION
CNTY.               Las Animas: COUNTY
SRVC.                         : SERVICE COMPANY
DATE.          Thu Sep 02 08:33:50 2004: LOG DATE
UWI.           05 071 08156 00: UNIQUE WELL ID
STAT.                 Colorado: STATE
~Curve Information Block
DEPT.FT            0 000 00 00: Depth
GR.GAPI                       : Gamma Ray
DCAL.in                       : CDL Caliper
DPOR.pu                       : CDL Density Porosity
NPOR.pu                       : Neutron Porosity
RHOB.g/cc                     : CDL Bulk Density
RHOC.g/cc                     : CDL Density Correction
~Parameter Information Block
~A  Depth        GR         DCAL        DPOR        NPOR        RHOB        RHOC    
# ...
  1226.4000    127.5183      8.7614      9.2113     19.8444      2.4980      0.5721
  1226.5000    125.8491      8.5648      7.3503     20.6523      2.5287      0.4828
  1226.6000    124.1965      8.5648      5.5177     21.4507      2.5590      0.4003
  1226.7000    122.6248      8.5648      1.8413     22.0759      2.6196      0.4851
  1226.8000    121.2044      8.7446     -1.4069     22.4317      2.6732      0.5426
  1226.9000    120.0039      8.7446     -0.7939     22.9669      2.6631      0.4540
  1227.0000    119.0821      8.9141      2.7243     24.0083      2.6050      0.2784
  1227.1000    118.4820      8.9141      5.3427     25.2135      2.5618      0.2106
  1227.2000    118.2280      8.9141      5.3432     26.0405      2.5618      0.2399
  1227.3000    118.3233      8.5187      3.6573     26.2835      2.5897      0.2562
  1227.4000    118.7475      8.5187      1.6201     26.1310      2.6233      0.2432
  1227.5000    119.4593      8.4603     -0.1148     25.8349      2.6519      0.2626
  1227.6000    120.3956      8.4603     -1.6851     25.5973      2.6778      0.3013
  1227.7000    121.4736      8.4603     -3.5485     25.4104      2.7086      0.2850
  1227.8000    122.5976      8.2694     -5.2183     25.1967      2.7361      0.3938
  1227.9000    123.6637      8.2694     -4.7903     25.1154      2.7290      0.3890
  1228.0000    124.5752      8.2406     -1.8879     25.2755      2.6812      0.2412
  1228.1000    125.2497      8.2406      1.0299     25.4175      2.6330      0.1446
  1228.2000    125.6344      8.2406      2.4964     25.3314      2.6088      0.1429
  1228.3000    125.7130      8.2424      3.6552     25.2636      2.5897      0.0871
  1228.4000    125.5032      8.2424      5.7022     25.2089      2.5559      0.0409
  1228.5000    125.0591      8.2405      8.5996     24.7193      2.5081      0.0084
  1228.6000    124.4529      8.2405     11.2011     24.0329      2.4652     -0.0367
  1228.7000    123.7636      8.2405     12.5343     23.8786      2.4432     -0.0190
  1228.8000    123.0604      8.2400     12.7968     23.9784      2.4389     -0.0134
  1228.9000    122.3902      8.2400     12.1164     23.8366      2.4501     -0.0274
  1229.0000    121.7691      8.2408     10.3349     23.5889      2.4795      0.0185
  1229.1000    121.1820      8.2408      8.2147     23.2605      2.5145      0.0758
  1229.2000    120.5892      8.2408      6.9350     22.7619      2.5356      0.0879
  1229.3000    119.9357      8.2487      7.1060     22.3166      2.5328      0.1310
  1229.4000    119.1698      8.2487      8.5134     22.1941      2.5095      0.1247
  1229.5000    118.2500      8.3487     10.0403     22.2133      2.4843      0.1345
  1229.6000    117.1612      8.3487     10.2345     22.3381      2.4811      0.0603
  1229.7000    115.9180      8.3487      8.3081     22.9941      2.5129      0.0757
  1229.8000    114.5638      8.4080      5.0339     23.8406      2.5669      0.0894
  1229.9000    113.1670      8.4080      2.0157     24.0945      2.6167      0.1651
  1230.0000    111.8093      8.2996      0.2036     23.8611      2.6466      0.2361
  1230.1000    110.5748      8.2996     -0.5115     23.5862      2.6584      0.2074
  1230.2000    109.5365      8.2996     -0.8220     23.4328      2.6636      0.2054
  1230.3000    108.7494      8.2315     -0.9540     23.4297      2.6657      0.2214
  1230.4000    108.2402      8.2315     -0.7766     23.5677      2.6628      0.1405
  1230.5000    108.0114      8.2209     -0.2129     23.8793      2.6535      0.1289
  1230.6000    108.0395      8.2209      0.9993     24.2298      2.6335      0.0816
  1230.7000    108.2812      8.2209      2.3992     24.2571      2.6104      0.0361
  1230.8000    108.6850      8.2228      3.2504     24.1183      2.5964      0.0162
  1230.9000    109.1965      8.2228      3.7840     24.2736      2.5876      0.0136
  1231.0000    109.7639      8.2229      4.3337     24.4739      2.5785     -0.0079
  1231.1000    110.3489      8.2229      4.5688     24.2902      2.5746      0.0081
  1231.2000    110.9236      8.2229      4.1300     23.7888      2.5819      0.0159
  1231.3000    111.4738      8.2288      3.3088     23.2832      2.5954      0.0401
  1231.4000    111.9932      8.2288      2.8839     23.0408      2.6024      0.0532
  1231.5000    112.4824      8.2311      3.2442     23.3335      2.5965      0.0311
  1231.6000    112.9437      8.2311      4.0650     23.9255      2.5829      0.0106
  1231.7000    113.3775      8.2311      5.1237     24.1201      2.5655      0.0317
  1231.8000    113.7828      8.2307      6.2928     23.6541      2.5462      0.0126
  1231.9000    114.1571      8.2307      7.0136     22.6887      2.5343      0.0026
  1232.0000    114.4964      8.2290      6.9969     21.6726      2.5346      0.0174
  1232.1000    114.7965      8.2290      6.7365     21.0918      2.5388      0.0265
  1232.2000    115.0542      8.2290      6.8493     21.0153      2.5370      0.0440
  1232.3000    115.2670      8.2301      7.4404     21.1963      2.5272     -0.0045
  1232.4000    115.4357      8.2301      8.4736     21.4658      2.5102      0.0005
  1232.5000    115.5646      8.2293     10.1796     22.0521      2.4820      0.0029
  1232.6000    115.6645      8.2293     11.9844     22.9157      2.4523     -0.0429
  1232.7000    115.7528      8.2293     12.5638     23.4339      2.4427     -0.0293
  1232.8000    115.8556      8.2275     11.6995     23.3024      2.4570     -0.0305
  1232.9000    116.0028      8.2275     10.3992     22.9269      2.4784      0.0163
  1233.0000    116.2227      8.2281      9.4123     22.7820      2.4947     -0.0123
  1233.1000    116.5360      8.2281      8.3045     23.0623      2.5130     -0.0264
  1233.2000    116.9476      8.2281      6.5746     23.6134      2.5415      0.0456
  1233.3000    117.4437      8.2298      5.0024     24.0046      2.5675      0.1029
  1233.4000    117.9912      8.2298      4.5946     24.0642      2.5742      0.0999
  1233.5000    118.5425      8.2334      4.6571     24.0844      2.5732      0.1080
  1233.6000    119.0439      8.2334      3.9338     24.3843      2.5851      0.1567
  1233.7000    119.4463      8.2334      3.1476     24.8756      2.5981      0.1305
  1233.8000    119.7140      8.2291      3.5990     25.1350      2.5906      0.0871
  1233.9000    119.8261      8.2291      4.5472     25.1191      2.5750      0.0212
  1234.0000    119.7774      8.2316      4.2665     25.3524      2.5796      0.0532
  1234.1000    119.5742      8.2316      2.5876     25.9030      2.6073      0.1169
  1234.2000    119.2255      8.2316      0.5551     26.3252      2.6408      0.1230
  1234.3000    118.7409      8.2333     -1.3571     26.7325      2.6724      0.0602
  1234.4000    118.1283      8.2333     -2.8653     27.1738      2.6973      0.1520
  1234.5000    117.3965      8.2319     -3.6144     27.1921      2.7096      0.0920
  1234.6000    116.5614      8.2319     -4.1088     26.7447      2.7178      0.0727
  1234.7000    115.6513      8.2319     -4.3951     26.1426      2.7225      0.0649
  1234.8000    114.7095      8.2311     -3.6535     25.5237      2.7103      0.0400
  1234.9000    113.7902      8.2311     -2.1016     24.9100      2.6847      0.0287
  1235.0000    112.9551      8.2314     -1.0273     24.2111      2.6670     -0.0103
  1235.1000    112.2639      8.2314     -0.7855     23.4167      2.6630     -0.0140
  1235.2000    111.7598      8.2314      0.0112     22.7033      2.6498     -0.0125
  1235.3000    111.4685      8.2290      2.2480     22.1833      2.6129     -0.1164
  1235.4000    111.3911      8.2290      4.8343     22.0918      2.5702     -0.1057
  1235.5000    111.5121      8.2236      6.5419     22.6176      2.5421     -0.1207
  1235.6000    111.8047      8.2236      7.0002     23.3971      2.5345     -0.0756
  1235.7000    112.2421      8.2236      6.4387     23.9336      2.5438     -0.0145
  1235.8000    112.8036      8.2230      5.6893     24.0487      2.5561      0.0271
  1235.9000    113.4821      8.2230      5.4126     23.8334      2.5607      0.0256
