~Version Information
VERS.                      2.0: CWLS Log ASCII Standard - VERSION 2.0
WRAP.                       NO: One line per depth step
~Well Information Block
STRT.FT                -3.2500: 
STOP.FT              2202.2500: 
STEP.FT                 0.2500: 
NULL.                -999.2500: 
COMP.          Pioneer Natural Resources: COMPANY
WELL.           Parklane 43-34: WELL
FLD.           Purgatorie River: FIELD
LOC.           1704' FSL & 1119' FEL--: LOCATION
PROV.                       CO: PROVINCE
CNTY.               Las Animas: COUNTRY
SRVC.                         : SERVICE COMPANY
DATE.          Thu Oct 14 14:49:09 2004: LOG DATE
UWI.           005 071 08162  : UNIQUE WELL ID
~Curve Information Block
DEPT.FT            0 000 00 00: Depth
GR.GAPI                       : Gamma Ray
CCL.                          : Casing Collar Locator
TT3.usec                      : CBL 3' Travel Time
AMP3.mV                       : CBL 3' Amplitude
~Parameter Information Block
~A  Depth        GR         CCL         TT3         AMP3    
# ...
  2174.2500    106.7839      0.0000    515.4636      4.3543
  2174.5000    105.7343      0.0000    546.6533      4.4201
  2174.7500    106.6327      0.0000    581.2241      4.5002
  2175.0000    109.2660      0.0000    611.8997      4.5832
  2175.2500    112.6719      0.0000    629.7308      4.6630
  2175.5000    115.9347      0.0000    629.7400      4.7312
  2175.7500    118.4150      0.0000    611.6806      4.7693
  2176.0000    119.5341      0.0000    579.4807      4.7548
  2176.2500    118.7731      0.0000    541.3785      4.6797
  2176.5000    115.9827      0.0000    507.5908      4.5667
  2176.7500    111.7215      0.0000    485.4688      4.4638
  2177.0000    107.4391      0.0000    476.6405      4.4126
  2177.2500    104.9774      0.0000    477.7478      4.4147
  2177.5000    105.3573      0.0000    482.7807      4.4343
  2177.7500    108.1949      0.0000    486.8973      4.4353
  2178.0000    112.4828      0.0000    491.1228      4.4137
  2178.2500    117.3228      0.0000    502.2420      4.3898
  2178.5000    121.6407      0.0000    524.6553      4.3808
  2178.7500    124.0792      0.0000    552.9998      4.3860
  2179.0000    123.7880      0.0000    576.3499      4.3898
  2179.2500    121.0244      0.0000    589.8953      4.3733
  2179.5000    116.9166      0.0000    599.4124      4.3307
  2179.7500    112.9637      0.0000    613.3366      4.2771
  2180.0000    110.5173      0.0000    633.1555      4.2364
  2180.2500    110.2020      0.0000    653.1938      4.2226
  2180.5000    111.7126      0.0000    667.4857      4.2358
  2180.7500    114.2105      0.0000    674.3724      4.2678
  2181.0000    116.9643      0.0000    675.3908      4.3065
  2181.2500    119.6964      0.0000    672.6670      4.3401
  2181.5000    122.3877      0.0000    668.3280      4.3628
  2181.7500    124.9414      0.0000    664.8015      4.3726
  2182.0000    127.1519      0.0000    663.9174      4.3641
  2182.2500    128.6768      0.0000    665.3345      4.3325
  2182.5000    128.9092      0.0000    666.2692      4.2846
  2182.7500    127.3465      0.0000    663.1608      4.2391
  2183.0000    124.2694      0.0000    654.1654      4.2128
  2183.2500    120.5393      0.0000    641.2040      4.2052
  2183.5000    116.5994      0.0000    630.4485      4.1980
  2183.7500    112.2587      0.0000    629.3348      4.1745
  2184.0000    107.5797      0.0000    640.5670      4.1446
  2184.2500    103.4522      0.0000    659.1505      4.1506
  2184.5000    100.9876      0.0000    676.7714      4.2356
  2184.7500    100.4340      0.0000    688.4823      4.4045
  2185.0000    100.9526      0.0000    694.5161      4.6172
  2185.2500    101.6991      0.0000    697.5595      4.8246
  2185.5000    102.8521      0.0000    699.9733      5.0037
  2185.7500    105.0179      0.0000    702.7772      5.1542
  2186.0000    107.8264      0.0000    705.7111      5.2695
  2186.2500    110.0103      0.0000    707.9457      5.3296
  2186.5000    111.0699      0.0000    709.1735      5.3228
  2186.7500    112.0004      0.0000    709.8878      5.2653
  2187.0000    113.8750      0.0000    710.4800      5.1909
  2187.2500    116.1920      0.0000    710.5383      5.1267
  2187.5000    117.1488      0.0000    709.5013      5.0806
  2187.7500    115.4682      0.0000    707.5786      5.0491
  2188.0000    111.6966      0.0000    705.4993      5.0312
  2188.2500    107.7687      0.0000    703.5690      5.0296
  2188.5000    105.4957      0.0000    700.8072      5.0305
  2188.7500    105.4997      0.0000    693.7256      4.9711
  2189.0000    107.3927      0.0000    674.1066      4.7181
  2189.2500    110.4956      0.0000    628.2997      4.0812
  2189.5000    114.0987      0.0000    543.3457      2.9023
  2189.7500    117.4277      0.0000    419.9862      1.2120
  2190.0000    119.8237      0.0000    280.2775     -0.6852
  2190.2500    120.9386      0.0000    157.0050     -2.3521
  2190.5000    120.7952      0.0000     72.2865     -3.4963
  2190.7500    119.9014      0.0000     26.9419     -4.1090
  2191.0000    119.0873      0.0000      8.0402     -4.3647
  2191.2500    118.5292      0.0000      1.9038     -4.4479
  2191.5000    117.0031      0.0000      0.3523     -4.4689
  2191.7500    112.8639      0.0000      0.0468     -4.4730
  2192.0000    105.8453      0.0000   -999.2500   -999.2500
  2192.2500     97.4847      0.0000   -999.2500   -999.2500
  2192.5000     90.0669      0.0000   -999.2500   -999.2500
  2192.7500     85.6114      0.0000   -999.2500   -999.2500
  2193.0000     85.5182      0.0000   -999.2500   -999.2500
  2193.2500     90.4283      0.0000   -999.2500   -999.2500
  2193.5000     99.8149      0.0000   -999.2500   -999.2500
  2193.7500    111.3665      0.0000   -999.2500   -999.2500
  2194.0000    121.1967      0.0000   -999.2500   -999.2500
  2194.2500    125.7930      0.0000   -999.2500   -999.2500
  2194.5000    124.4192      0.0000   -999.2500   -999.2500
  2194.7500    119.3809      0.0000   -999.2500   -999.2500
  2195.0000    113.8951      0.0000   -999.2500   -999.2500
  2195.2500    110.0213      0.0000   -999.2500   -999.2500
  2195.5000    108.2865      0.0000   -999.2500   -999.2500
  2195.7500    108.2662      0.0000   -999.2500   -999.2500
  2196.0000    109.0709      0.0000   -999.2500   -999.2500
  2196.2500    109.6698      0.0000   -999.2500   -999.2500
  2196.5000    109.3028      0.0000   -999.2500   -999.2500
  2196.7500    107.8137      0.0000   -999.2500   -999.2500
  2197.0000    105.5340      0.0000   -999.2500   -999.2500
  2197.2500    102.9644      0.0000   -999.2500   -999.2500
  2197.5000    100.8596   -999.2500   -999.2500   -999.2500
  2197.7500    100.4313   -999.2500   -999.2500   -999.2500
  2198.0000    102.8150   -999.2500   -999.2500   -999.2500
  2198.2500    107.8928   -999.2500   -999.2500   -999.2500
  2198.5000    113.6906   -999.2500   -999.2500   -999.2500
  2198.7500    117.2004   -999.2500   -999.2500   -999.2500
  2199.0000    116.1007   -999.2500   -999.2500   -999.2500
  2199.2500    109.8014   -999.2500   -999.2500   -999.2500
  2199.5000     98.8161   -999.2500   -999.2500   -999.2500
  2199.7500     83.5199   -999.2500   -999.2500   -999.2500
  2200.0000     64.3946   -999.2500   -999.2500   -999.2500
  2200.2500     43.5934   -999.2500   -999.2500   -999.2500
  2200.5000     24.9969   -999.2500   -999.2500   -999.2500
  2200.7500     11.8101   -999.2500   -999.2500   -999.2500
  2201.0000      4.5111   -999.2500   -999.2500   -999.2500
  2201.2500      1.3754   -999.2500   -999.2500   -999.2500
  2201.5000      0.3317   -999.2500   -999.2500   -999.2500
  2201.7500      0.0625   -999.2500   -999.2500   -999.2500
  2202.0000      0.0088   -999.2500   -999.2500   -999.2500
  2202.2500      0.0000   -999.2500   -999.2500   -999.2500
