~Version Information
VERS.                      2.0: CWLS Log ASCII Standard - VERSION 2.0
WRAP.                       NO: One line per depth step
~Well Information Block
STRT.FT               460.0000: 
STOP.FT               961.2500: 
STEP.FT                 0.2500: 
NULL.                -999.2500: 
COMP.          Pioneer Natural Resources: COMPANY
WELL.                Pug 33-19: WELL
FLD.           Purgatoire River: FIELD
LOC.           1381' FSL & 2140' FEL: LOCATION
PROV.                 Colorado: PROVINCE
CNTY.               Las Animas: COUNTRY
SRVC.                Patterson: SERVICE COMPANY
DATE.          Tue Dec 14 08:25:14 2004: LOG DATE
UWI.           05 071 08193 00: UNIQUE WELL ID
~Curve Information Block
DEPT.FT            0 000 00 00: Depth
SN.Ohm-m                      : IEL Short Normal
SP.mV                         : IEL Spontaneous Potential
DIR.Ohm-m                     : IEL Induction Resistivity
GR.GAPI                       : Gamma Ray
~Parameter Information Block
~A  Depth        SN          SP         DIR          GR     
# ...
   661.0000     12.2347     67.2934     11.1660    119.8352
   661.2500     12.0036     67.4367     11.0057    121.9091
   661.5000     11.7895     67.5976     10.8820    125.0990
   661.7500     11.5968     67.7763     10.7729    127.0591
   662.0000     11.4332     67.9682     10.6607    129.8396
   662.2500     11.3066     68.1648     10.5388    131.5254
   662.5000     11.2189     68.3549     10.4113    133.2253
   662.7500     11.1614     68.5259     10.2878    133.3150
   663.0000     11.1196     68.6646     10.1787    131.1520
   663.2500     11.0876     68.7590     10.0944    128.0186
   663.5000     11.0781     68.7993     10.0464    121.3333
   663.7500     11.1215     68.7795     10.0487    116.3735
   664.0000     11.2512     68.6987     10.1163    109.8502
   664.2500     11.4877     68.5609     10.2627    106.7306
   664.5000     11.8284     68.3750     10.4970    103.8720
   664.7500     12.2469     68.1540     10.8213    102.7441
   665.0000     12.7052     67.9131     11.2292    101.5527
   665.2500     13.1718     67.6680     11.7059    101.0055
   665.5000     13.6345     67.4323     12.2293    100.6604
   665.7500     14.0968     67.2160     12.7741    100.6194
   666.0000     14.5606     67.0256     13.3142    100.1649
   666.2500     15.0151     66.8639     13.8251     99.2915
   666.5000     15.4395     66.7303     14.2854     97.4592
   666.7500     15.8135     66.6205     14.6796     96.5539
   667.0000     16.1271     66.5260     15.0011     96.7576
   667.2500     16.3834     66.4334     15.2551     98.0536
   667.5000     16.5972     66.3256     15.4586    100.8904
   667.7500     16.7899     66.1837     15.6357    102.6534
   668.0000     16.9841     65.9909     15.8112    104.3297
   668.2500     17.1998     65.7352     16.0049    104.6921
   668.5000     17.4530     65.4118     16.2300    104.0971
   668.7500     17.7554     65.0238     16.4962    103.0231
   669.0000     18.1150     64.5810     16.8125    100.9718
   669.2500     18.5339     64.0987     17.1884     99.7269
   669.5000     19.0074     63.5954     17.6304     98.2090
   669.7500     19.5240     63.0910     18.1379     97.1794
   670.0000     20.0655     62.6066     18.6998     94.9785
   670.2500     20.6079     62.1626     19.2937     92.7262
   670.5000     21.1251     61.7784     19.8882     87.9219
   670.7500     21.5987     61.4699     20.4482     84.0297
   671.0000     22.0220     61.2476     20.9416     78.0533
   671.2500     22.3974     61.1143     21.3446     74.3919
   671.5000     22.7292     61.0637     21.6396     69.7312
   671.7500     23.0196     61.0800     21.8133     67.4006
   672.0000     23.2686     61.1398     21.8604     65.6389
   672.2500     23.4730     61.2151     21.7926     65.7961
   672.5000     23.6271     61.2777     21.6430     67.5296
   672.7500     23.7259     61.3054     21.4566     69.0466
   673.0000     23.7738     61.2863     21.2746     70.9815
   673.2500     23.7894     61.2202     21.1239     71.8207
   673.5000     23.8008     61.1182     21.0169     72.0286
   673.7500     23.8354     60.9974     20.9587     71.0626
   674.0000     23.9110     60.8770     20.9551     67.4634
   674.2500     24.0361     60.7736     21.0129     63.9106
   674.5000     24.2114     60.6992     21.1341     58.4545
   674.7500     24.4303     60.6605     21.3097     55.8800
   675.0000     24.6788     60.6592     21.5199     54.6397
   675.2500     24.9404     60.6933     21.7453     55.2275
   675.5000     25.2048     60.7573     21.9789     56.6493
   675.7500     25.4722     60.8430     22.2284     57.1822
   676.0000     25.7506     60.9403     22.5048     57.1156
   676.2500     26.0492     61.0388     22.8088     56.8409
   676.5000     26.3748     61.1294     23.1281     56.7381
   676.7500     26.7322     61.2058     23.4447     57.0322
   677.0000     27.1215     61.2634     23.7413     57.8821
   677.2500     27.5358     61.2972     23.9993     58.4913
   677.5000     27.9647     61.2996     24.1976     58.9767
   677.7500     28.4055     61.2591     24.3202     58.7841
   678.0000     28.8701     61.1605     24.3729     57.5544
   678.2500     29.3818     60.9885     24.3915     56.1828
   678.5000     29.9623     60.7315     24.4293     53.9355
   678.7500     30.6154     60.3868     24.5332     52.9982
   679.0000     31.3142     59.9646     24.7244     53.4366
   679.2500     31.9981     59.4901     24.9960     54.8438
   679.5000     32.5866     59.0045     25.3243     57.0681
   679.7500     33.0011     58.5636     25.6792     57.5639
   680.0000     33.1778     58.2346     26.0220     56.0175
   680.2500     33.0622     58.0877     26.2934     53.7046
   680.5000     32.6007     58.1850     26.4018     49.3982
   680.7500     31.7495     58.5671     26.2305     46.6966
   681.0000     30.5038     59.2415     25.6705     44.0795
   681.2500     28.9236     60.1803     24.6709     43.9829
   681.5000     27.1290     61.3251     23.2761     47.6087
   681.7500     25.2647     62.6001     21.6169     53.1122
   682.0000     23.4541     63.9255     19.8594     65.6007
   682.2500     21.7709     65.2281     18.1481     75.5177
   682.5000     20.2411     66.4474     16.5780     90.1377
   682.7500     18.8660     67.5376     15.1958     98.7791
   683.0000     17.6486     68.4685     14.0174    109.8980
   683.2500     16.6073     69.2251     13.0442    116.1566
   683.5000     15.7724     69.8067     12.2748    123.1442
   683.7500     15.1686     70.2232     11.7088    125.6602
   684.0000     14.8008     70.4905     11.3457    126.4806
   684.2500     14.6520     70.6256     11.1826    125.8837
   684.5000     14.6948     70.6429     11.2122    124.0693
   684.7500     14.9082     70.5537     11.4233    121.8549
   685.0000     15.2907     70.3675     11.8027    116.1136
   685.2500     15.8625     70.0961     12.3378    110.8421
   685.5000     16.6575     69.7561     13.0192    102.3246
   685.7500     17.7044     69.3702     13.8404     97.3745
   686.0000     19.0016     68.9653     14.7944     92.5711
   686.2500     20.4927     68.5682     15.8658     91.4773
   686.5000     22.0653     68.2016     17.0190     92.4654
   686.7500     23.5801     67.8814     18.1859     93.9964
   687.0000     24.9176     67.6166     19.2674     95.7084
   687.2500     26.0119     67.4111     20.1602     95.6000
   687.5000     26.8563     67.2660     20.8020     93.3802
   687.7500     27.4824     67.1806     21.1998     91.2210
   688.0000     27.9302     67.1514     21.4156     88.5069
   688.2500     28.2274     67.1708     21.5265     87.5392
   688.5000     28.3859     67.2261     21.5934     87.2690
   688.7500     28.4109     67.3007     21.6536     87.5734
   689.0000     28.3097     67.3767     21.7261     88.3363
   689.2500     28.0929     67.4406     21.8159     88.9438
   689.5000     27.7710     67.4875     21.9142     89.8610
   689.7500     27.3510     67.5257     21.9970     90.2811
   690.0000     26.8340     67.5770     22.0292     90.1082
   690.2500     26.2133     67.6718     21.9723     89.2742
   690.5000     25.4757     67.8399     21.7935     87.3403
   690.7500     24.6123     68.0997     21.4755     86.2306
   691.0000     23.6324     68.4510     21.0245     85.6727
   691.2500     22.5696     68.8746     20.4701     85.8646
   691.5000     21.4713     69.3387     19.8525     86.0295
   691.7500     20.3819     69.8085     19.2016     85.9638
   692.0000     19.3310     70.2546     18.5271     86.8873
   692.2500     18.3348     70.6567     17.8241     88.9837
   692.5000     17.4036     71.0039     17.0909     93.9776
   692.7500     16.5493     71.2924     16.3411     97.4134
   693.0000     15.7866     71.5246     15.6013    101.2613
   693.2500     15.1307     71.7072     14.8987    103.1378
   693.5000     14.5906     71.8509     14.2487    106.2725
   693.7500     14.1609     71.9683     13.6526    108.9846
   694.0000     13.8167     72.0710     13.1065    113.1701
   694.2500     13.5212     72.1667     12.6113    115.1380
