~Version Information
VERS.                      2.0: CWLS Log ASCII Standard - VERSION 2.0
WRAP.                       NO: One line per depth step
~Well Information Block
STRT.FT               240.0000: 
STOP.FT              1709.2000: 
STEP.FT                 0.1000: 
NULL.                -999.2500: 
COMP.          Pioneer Natural Resources: COMPANY
WELL.              Patten 22-2: WELL
FLD.           Purgatoire River: FIELD
LOC.           2157' FNL & 1528' FWL: LOCATION
PROV.                 Colorado: PROVINCE
CNTY.               Las Animas: COUNTRY
SRVC.                Patterson: SERVICE COMPANY
DATE.          Fri Dec 10 09:15:13 2004: LOG DATE
UWI.           05 071 08168 00: UNIQUE WELL ID
~Curve Information Block
DEPT.FT            0 000 00 00: Depth
DCAL.in                       : CDL Caliper
RHOB.g/cc                     : CDL Bulk Density
RHOC.g/cc                     : CDL Density Correction
DPOR.pu                       : CDL Density Porosity
NPOR.pu                       : Neutron Porosity
GR.GAPI                       : Gamma Ray
~Parameter Information Block
~A  Depth       DCAL        RHOB        RHOC        DPOR        NPOR         GR     
# ...
  1200.0000      7.9366      2.6042      0.0442      2.7763     22.3131     85.5057
  1200.1000      7.9366      2.6072      0.0440      2.5939     22.2497     82.7069
  1200.2000      7.9366      2.5942      0.0717      3.3846     22.3161     78.1634
  1200.3000      7.9305      2.5704     -0.0017      4.8243     22.7585     76.4569
  1200.4000      7.9305      2.5567      0.0062      5.6521     23.5048     81.1932
  1200.5000      7.9206      2.5561      0.0371      5.6921     24.1790     91.1792
  1200.6000      7.9206      2.5574      0.0266      5.6091     24.6435    101.6973
  1200.7000      7.9206      2.5595      0.0058      5.4822     25.0939    108.0209
  1200.8000      7.9150      2.5663      0.0201      5.0757     25.5559    109.0117
  1200.9000      7.9150      2.5740      0.0524      4.6073     26.0300    108.0510
  1201.0000      7.9174      2.5777      0.0439      4.3825     26.5900    110.9934
  1201.1000      7.9174      2.5760      0.0596      4.4872     26.9175    119.2456
  1201.2000      7.9174      2.5693      0.0595      4.8914     26.7408    129.4602
  1201.3000      7.9258      2.5665      0.0329      5.0620     26.4979    138.8085
  1201.4000      7.9258      2.5693      0.0570      4.8898     26.6074    144.8808
  1201.5000      7.9358      2.5661      0.0609      5.0838     26.8947    143.6580
  1201.6000      7.9358      2.5603      0.0428      5.4336     26.9061    135.0054
  1201.7000      7.9358      2.5641      0.0772      5.2066     26.5214    125.8515
  1201.8000      7.9405      2.5653      0.0894      5.1311     26.2166    123.8191
  1201.9000      7.9405      2.5505      0.0586      6.0324     26.2698    131.5858
  1202.0000      7.9435      2.5288      0.0747      7.3484     26.3605    142.9062
  1202.1000      7.9435      2.5170     -0.0022      8.0581     26.1115    147.1151
  1202.2000      7.9435      2.5220      0.0800      7.7571     25.7725    143.7329
  1202.3000      7.9522      2.5354      0.0554      6.9439     25.8257    140.2154
  1202.4000      7.9522      2.5542      0.0534      5.8073     26.0348    138.6053
  1202.5000      7.9637      2.5788      0.0437      4.3133     25.6836    139.1416
  1202.6000      7.9637      2.5956      0.1055      3.2996     24.8016    140.8840
  1202.7000      7.9637      2.5915      0.0802      3.5447     24.1240    140.5974
  1202.8000      7.9687      2.5835      0.0125      4.0297     23.9562    140.9984
  1202.9000      7.9687      2.5899      0.0910      3.6403     23.9617    144.1780
  1203.0000      7.9662      2.5991      0.0758      3.0857     23.8965    145.5451
  1203.1000      7.9662      2.6014      0.0290      2.9440     23.8725    143.4471
  1203.2000      7.9662      2.5991      0.0941      3.0871     23.9843    138.5923
  1203.3000      7.9640      2.5975      0.0181      3.1847     24.2415    131.8308
  1203.4000      7.9640      2.6079      0.0419      2.5519     24.4655    125.8977
  1203.5000      7.9667      2.6277      0.0797      1.3525     24.3145    122.2973
  1203.6000      7.9667      2.6451      0.1075      0.2978     23.7622    121.8126
  1203.7000      7.9667      2.6557      0.0561     -0.3445     23.2079    123.8725
  1203.8000      7.9668      2.6598      0.0816     -0.5969     23.2144    125.5409
  1203.9000      7.9668      2.6526      0.0922     -0.1588     23.9679    123.9421
  1204.0000      7.9586      2.6344      0.0530      0.9468     25.0340    118.4513
  1204.1000      7.9586      2.6219      0.0522      1.7009     25.8537    110.3486
  1204.2000      7.9586      2.6314      0.0337      1.1269     26.2114    104.2678
  1204.3000      7.9425      2.6623      0.0645     -0.7432     26.4321    102.0887
  1204.4000      7.9425      2.6970      0.0767     -2.8465     27.0175     98.4635
  1204.5000      7.9266      2.7223      0.0635     -4.3833     27.9521     92.3362
  1204.6000      7.9266      2.7384      0.1039     -5.3599     29.0605     87.7866
  1204.7000      7.9266      2.7422      0.1081     -5.5892     30.1962     86.5518
  1204.8000      7.9176      2.7389      0.0589     -5.3899     31.0176     88.2838
  1204.9000      7.9176      2.7419      0.0620     -5.5701     31.6827     91.1401
  1205.0000      7.9147      2.7410      0.0852     -5.5178     32.5201     93.2453
  1205.1000      7.9147      2.7183      0.0208     -4.1390     33.1426     94.2128
  1205.2000      7.9147      2.6785      0.0322     -1.7296     33.1626     95.0403
  1205.3000      7.9143      2.6384     -0.0036      0.7022     32.7663     97.8053
  1205.4000      7.9143      2.6196     -0.0540      1.8411     32.4089    105.8389
  1205.5000      7.9179      2.6272      0.0209      1.3837     32.3120    117.3911
  1205.6000      7.9179      2.6351      0.0444      0.9037     31.8714    124.7958
  1205.7000      7.9179      2.6270      0.0217      1.3942     30.4914    129.1677
  1205.8000      7.9401      2.6137      0.0502      2.2024     28.6279    137.4907
  1205.9000      7.9401      2.6047      0.0567      2.7426     27.0791    147.1325
  1206.0000      7.9825      2.6008      0.0300      2.9843     26.1533    152.4094
  1206.1000      7.9825      2.5981      0.0689      3.1452     25.8247    153.6377
  1206.2000      7.9825      2.5873      0.0934      3.8022     25.8419    151.4122
  1206.3000      8.0148      2.5708      0.0288      4.7993     25.8451    143.7393
  1206.4000      8.0148      2.5685      0.0581      4.9390     25.8742    137.4311
  1206.5000      8.0243      2.5911      0.0466      3.5696     26.0216    141.2795
  1206.6000      8.0243      2.6232      0.1226      1.6254     26.0311    150.4593
  1206.7000      8.0243      2.6386      0.1023      0.6894     25.9370    156.8091
  1206.8000      8.0239      2.6318      0.0697      1.1015     25.9545    160.3752
  1206.9000      8.0239      2.6127      0.0264      2.2608     25.9911    160.6751
  1207.0000      8.0243      2.5891      0.0441      3.6905     25.9174    156.6316
  1207.1000      8.0243      2.5668      0.0274      5.0432     25.8830    157.2446
  1207.2000      8.0243      2.5498      0.0329      6.0700     26.0006    166.7213
  1207.3000      8.0249      2.5422     -0.0061      6.5358     26.1576    172.3524
  1207.4000      8.0249      2.5448     -0.0082      6.3742     26.2889    168.2151
  1207.5000      8.0261      2.5502     -0.0050      6.0466     26.4185    160.8352
  1207.6000      8.0261      2.5561     -0.0235      5.6918     26.6485    154.8836
  1207.7000      8.0261      2.5673      0.0038      5.0146     27.1296    152.1830
  1207.8000      8.0261      2.5741      0.0569      4.5999     27.6450    151.6888
  1207.9000      8.0261      2.5691      0.0072      4.9006     27.8106    151.0733
  1208.0000      8.0190      2.5678      0.0055      4.9819     27.7257    150.5185
  1208.1000      8.0190      2.5757      0.0188      4.5041     27.7533    150.9867
  1208.2000      8.0190      2.5700      0.0475      4.8504     27.8822    151.3141
  1208.3000      8.0066      2.5394     -0.0004      6.7033     27.8758    150.0880
  1208.4000      8.0066      2.5152     -0.0615      8.1706     27.6353    149.0265
  1208.5000      7.9998      2.5322      0.0086      7.1396     27.2581    152.4001
  1208.6000      7.9998      2.5789      0.0311      4.3076     27.0361    159.2269
  1208.7000      7.9998      2.6133      0.1007      2.2237     27.0357    159.7483
  1208.8000      7.9988      2.6153      0.0743      2.1025     27.1059    151.6947
  1208.9000      7.9988      2.6047      0.0820      2.7480     27.1599    145.5746
  1209.0000      8.0021      2.5979      0.0922      3.1587     27.1032    147.3945
  1209.1000      8.0021      2.5865      0.0716      3.8461     26.9739    153.7625
  1209.2000      8.0021      2.5707      0.0401      4.8053     26.7414    158.8652
  1209.3000      8.0103      2.5688      0.0233      4.9200     26.2584    158.4151
  1209.4000      8.0103      2.5831      0.0924      4.0569     25.8285    151.4170
  1209.5000      8.0115      2.5923      0.0828      3.4969     25.9257    144.2113
