~Version Information
 VERS.                                  2.0 : CWLS LAS VERSION
 WRAP.                                   NO : WRAPING MODE
 SWARE .                 MController 2.5.0N : SOFTWARE VERSION
~Well Information
 WELL.                     HG Duran 34-27Tr : WELL
 COMP.    Pioneer Natural Resources USA Inc : COMPANY
 FLD.                      Purgatoire River : FIELD
 LOC.                SW/SE Sec 27 T33S R67W : LOCATION
 DATE.                              4/13/05 : DATE(S) LOGGED
 SRVC.       Blanco Geological Services LLC : SERVICE COMPANY
 STAT.                                   CO : STATE
 CNTY.                           Las Animas : COUNTY
 CTRY.                                  USA : COUNTRY
 API.                       05-071-08218-00 : API NUMBER
 STRT.FT                             310.00 : START DEPTH
 STOP.FT                             800.00 : STOP DEPTH
 STEP.FT                               1.00 : DEPTH INCREMENT
 NULL.                                -9999 : NULL VALUE
~Curve information
 DEPTH.FT                                   :
 ROP.MIN/FT                                 :
 GAS.UNITS                                  :
~ASCII Log data
       310.0     -9999.00          0.5 
       311.0        10.43          4.0 
       312.0        13.78          5.0 
       313.0         6.80          1.9 
       314.0         0.27          1.6 
       315.0         0.13          1.8 
       316.0         0.13          1.6 
       317.0         0.40          1.7 
       318.0         0.53          1.1 
       319.0         0.10          0.8 
       320.0         0.20          1.2 
       321.0         0.22          1.9 
       322.0         0.17          1.5 
       323.0         0.10          2.0 
       324.0         0.10          1.9 
       325.0         0.10          1.5 
       326.0         0.17          1.9 
       327.0         0.17          1.2 
       328.0         1.07          1.6 
       329.0         0.17          1.4 
       330.0         0.13          2.0 
       331.0         0.13          1.5 
       332.0         0.20          1.8 
       333.0         0.17          1.3 
       334.0         0.20          1.7 
       335.0         0.17          1.2 
       336.0         0.12          1.4 
       337.0         0.20          1.7 
       338.0         0.10          1.1 
       339.0         0.17          2.5 
       340.0         0.20         12.9 
       341.0         0.17         32.9 
       342.0         0.20         56.6 
       343.0         0.13         67.8 
       344.0         0.10         72.5 
       345.0         0.37         77.2 
       346.0         0.17         75.1 
       347.0         0.27         72.2 
       348.0         0.17         71.0 
       349.0         0.20         70.9 
       350.0         0.17         70.0 
       351.0         0.13         67.7 
       352.0         0.13         59.4 
       353.0         0.17         51.3 
       354.0         0.13         45.6 
       355.0         0.15         41.4 
       356.0         2.20        108.5 
       357.0         0.30        152.8 
       358.0         0.23        151.9 
       359.0         0.30        143.4 
       360.0         0.23        114.0 
       361.0         0.42         90.8 
       362.0         0.20         64.7 
       363.0         0.20         58.1 
       364.0         0.13         49.9 
       365.0         0.17         46.9 
       366.0         0.20         42.6 
       367.0         0.17         40.8 
       368.0         0.17         41.3 
       369.0         0.17         41.4 
       370.0         0.13         37.7 
       371.0         0.13         34.8 
       372.0         0.13         34.2 
       373.0         0.13         32.0 
       374.0         0.20         29.7 
       375.0         0.13         29.5 
       376.0         0.20         28.7 
       377.0         0.13         29.3 
       378.0         0.13         31.5 
       379.0         0.15         33.3 
       380.0         0.10         36.7 
       381.0         0.13         45.7 
       382.0         0.13         51.9 
       383.0         0.13         52.4 
       384.0         0.17         51.9 
       385.0         0.30         49.7 
       386.0         2.58        122.1 
       387.0         0.20        112.7 
       388.0         0.23         93.7 
       389.0         0.20         71.4 
       390.0         0.20         58.8 
       391.0         0.23         52.4 
       392.0         0.23         47.9 
       393.0         0.20         43.8 
       394.0         0.17         40.3 
       395.0         0.17         38.7 
       396.0         0.17         36.6 
       397.0         0.17         34.1 
       398.0         0.13         32.6 
       399.0         0.17         30.9 
       400.0         0.13         29.6 
       401.0         0.13         28.3 
       402.0         0.13         27.3 
       403.0         0.15         26.8 
       404.0         0.17         26.0 
       405.0         0.20         26.1 
       406.0         0.40         29.8 
       407.0         0.33         31.3 
       408.0         0.20         31.2 
       409.0         0.17         31.0 
       410.0         0.20         30.7 
       411.0         0.17         30.6 
       412.0         0.20         30.6 
       413.0         0.17         28.0 
       414.0         0.20         26.0 
       415.0         0.30         24.6 
       416.0         0.95         21.6 
       417.0         0.13         20.2 
       418.0         0.10         19.0 
       419.0         0.13         21.4 
       420.0         0.30         26.9 
       421.0         0.17         39.3 
       422.0         0.13         52.2 
       423.0         0.17         69.7 
       424.0         0.13         77.1 
       425.0         0.17         81.8 
       426.0         0.13         80.7 
       427.0         0.30         73.5 
       428.0         0.10         58.9 
       429.0         0.10         54.2 
       430.0         0.23         49.8 
       431.0         0.17         43.7 
       432.0         0.17         39.1 
       433.0         0.25         35.7 
       434.0         0.13         33.6 
       435.0         0.13         31.7 
       436.0         0.13         30.5 
       437.0         0.23         29.0 
       438.0         0.13         26.5 
       439.0         0.17         24.4 
       440.0         0.13         24.4 
       441.0         0.13         20.1 
       442.0         0.17         17.3 
       443.0         0.20         16.3 
       444.0         0.27         16.7 
       445.0         0.20         15.9 
       446.0         1.45         29.0 
       447.0         0.10         36.1 
       448.0         0.10         43.1 
       449.0         0.13         52.6 
       450.0         0.10         59.8 
       451.0         0.17         65.1 
       452.0         0.20         66.9 
       453.0         0.17         63.4 
       454.0         0.10         60.1 
       455.0         0.13         59.4 
       456.0         0.17         61.1 
       457.0         0.17         63.5 
       458.0         0.13         64.6 
       459.0         0.17         66.8 
       460.0         0.13         66.7 
       461.0         0.13         66.5 
       462.0         0.13         65.9 
       463.0         0.27         67.3 
       464.0         0.13         66.0 
       465.0         0.10         61.2 
       466.0         0.23         58.4 
       467.0         0.12         57.8 
       468.0         0.10         60.3 
       469.0         0.17         59.7 
       470.0         0.10         45.8 
       471.0         0.13         36.7 
       472.0         0.17         36.3 
       473.0         0.17         37.0 
       474.0         0.27         38.8 
       475.0         0.23         40.6 
       476.0         2.12        297.5 
       477.0         0.20        354.6 
       478.0         0.13        380.1 
       479.0         0.13        397.9 
       480.0         0.13        399.7 
       481.0         0.10        374.9 
       482.0         0.13        341.3 
       483.0         0.10        305.5 
       484.0         0.10        271.9 
       485.0         0.10        237.8 
       486.0         0.17        208.7 
       487.0         0.13        173.3 
       488.0         0.20        150.9 
       489.0         0.20        122.6 
       490.0         0.20        101.2 
       491.0         0.17         84.8 
       492.0         0.13         74.6 
       493.0         0.23         68.4 
       494.0         0.20         62.5 
       495.0         0.22         59.2 
       496.0         0.20         56.8 
       497.0         0.20         54.9 
       498.0         0.17         53.6 
       499.0         0.20         52.9 
       500.0         0.20         52.6 
       501.0         0.17         52.6 
       502.0         0.17         57.2 
       503.0         0.20         58.3 
       504.0         0.17         52.3 
       505.0         0.30         46.5 
       506.0         1.65         60.1 
       507.0         0.33        125.7 
       508.0         0.27        167.4 
       509.0         0.20        177.3 
