~Version Information
VERS.                      2.0: CWLS Log ASCII Standard - VERSION 2.0
WRAP.                       NO: One line per depth step
~Well Information Block
STRT.FT               450.0000: 
STOP.FT              1642.0000: 
STEP.FT                 0.1000: 
NULL.                -999.2500: 
COMP.          Pioneer Natural Resources: COMPANY
WELL.           Buckhorn 12-21: WELL
FLD.           Purgatoire River: FIELD
LOC.           2450' FNL & 608' FWL: LOCATION
PROV.                 Colorado: PROVINCE
CNTY.               Las Animas: COUNTRY
SRVC.                Patterson: SERVICE COMPANY
DATE.          Wed Dec 01 15:08:21 2004: LOG DATE
UWI.           05 071 08129 00: UNIQUE WELL ID
~Curve Information Block
DEPT.FT            0 000 00 00: Depth
NPOR.pu                       : Neutron Porosity
CCL.                          : Casing Collar Locator
GR.GAPI                       : Gamma Ray
~Parameter Information Block
~A  Depth       NPOR        CCL          GR     
# ...
  1619.0000     27.3380      0.0000    153.5052
  1619.1000     27.3380      0.0000    153.5052
  1619.2000     27.3380      0.0000    153.5052
  1619.3000     27.2459      0.0000    156.9256
  1619.4000     27.2459      0.0000    156.9256
  1619.5000     26.8841      0.0000    158.7555
  1619.6000     26.8841      0.0000    158.7555
  1619.7000     26.8841      0.0000    158.7555
  1619.8000     26.3153      0.0000    158.6708
  1619.9000     26.3153      0.0000    158.6708
  1620.0000     25.6227      0.0000    157.8326
  1620.1000     25.6227      0.0000    157.8326
  1620.2000     25.6227      0.0000    157.8326
  1620.3000     24.8004      0.0000    156.4585
  1620.4000     24.8004      0.0000    156.4585
  1620.5000     23.7498      0.0000    151.7166
  1620.6000     23.7498      0.0000    151.7166
  1620.7000     23.7498      0.0000    151.7166
  1620.8000     22.3804      0.0000    138.6623
  1620.9000     22.3804      0.0000    138.6623
  1621.0000     20.7099      0.0000    113.9538
  1621.1000     20.7099      0.0000    113.9538
  1621.2000     20.7099      0.0000    113.9538
  1621.3000     18.9049      0.0000     79.4950
  1621.4000     18.9049      0.0000     79.4950
  1621.5000     17.2566      0.0000     42.5951
  1621.6000     17.2566      0.0000     42.5951
  1621.7000     17.2566      0.0000     42.5951
  1621.8000     16.0882      0.0000     11.7327
  1621.9000     16.0882      0.0000     11.7327
  1622.0000     15.6334      0.0000     -8.5387
  1622.1000     15.6334      0.0000     -8.5387
  1622.2000     15.6334      0.0000     -8.5387
  1622.3000     15.9768      0.0000    -19.0025
  1622.4000     15.9768      0.0000    -19.0025
  1622.5000     17.0685      0.0000    -23.2434
  1622.6000     17.0685      0.0000    -23.2434
  1622.7000     17.0685      0.0000    -23.2434
  1622.8000     18.7552      0.0000    -24.5903
  1622.9000     18.7552      0.0000    -24.5903
  1623.0000     20.8076      0.0000    -24.9255
  1623.1000     20.8076      0.0000    -24.9255
  1623.2000     20.8076      0.0000    -24.9255
  1623.3000     22.9855      0.0000    -24.9904
  1623.4000     22.9855      0.0000    -24.9904
  1623.5000     25.1206      0.0000    -25.0000
  1623.6000     25.1206      0.0000    -25.0000
  1623.7000     25.1206      0.0000    -25.0000
  1623.8000     27.1338      0.0000   -999.2500
  1623.9000     27.1338      0.0000   -999.2500
  1624.0000     28.9835      0.0000   -999.2500
  1624.1000     28.9835      0.0000   -999.2500
  1624.2000     28.9835      0.0000   -999.2500
  1624.3000     30.6390      0.0000   -999.2500
  1624.4000     30.6390      0.0000   -999.2500
  1624.5000     32.0940      0.0000   -999.2500
  1624.6000     32.0940      0.0000   -999.2500
  1624.7000     32.0940      0.0000   -999.2500
  1624.8000     33.3433      0.0000   -999.2500
  1624.9000     33.3433      0.0000   -999.2500
  1625.0000     34.3246      0.0000   -999.2500
  1625.1000     34.3246      0.0000   -999.2500
  1625.2000     34.3246      0.0000   -999.2500
  1625.3000     34.8996      0.0000   -999.2500
  1625.4000     34.8996      0.0000   -999.2500
  1625.5000     34.8797      0.0000   -999.2500
  1625.6000     34.8797      0.0000   -999.2500
  1625.7000     34.8797      0.0000   -999.2500
  1625.8000     34.0696      0.0000   -999.2500
  1625.9000     34.0696      0.0000   -999.2500
  1626.0000     32.3649      0.0000   -999.2500
  1626.1000     32.3649      0.0000   -999.2500
  1626.2000     32.3649      0.0000   -999.2500
  1626.3000     29.9007      0.0000   -999.2500
  1626.4000     29.9007      0.0000   -999.2500
  1626.5000     27.1097      0.0000   -999.2500
  1626.6000     27.1097      0.0000   -999.2500
  1626.7000     27.1097      0.0000   -999.2500
  1626.8000     24.5713      0.0000   -999.2500
  1626.9000     24.5713      0.0000   -999.2500
  1627.0000     22.7518      0.0000   -999.2500
  1627.1000     22.7518      0.0000   -999.2500
  1627.2000     22.7518      0.0000   -999.2500
  1627.3000     21.8273      0.0000   -999.2500
  1627.4000     21.8273      0.0000   -999.2500
  1627.5000     21.6524      0.0000   -999.2500
  1627.6000     21.6524      0.0000   -999.2500
  1627.7000     21.6524      0.0000   -999.2500
  1627.8000     21.8302      0.0000   -999.2500
  1627.9000     21.8302      0.0000   -999.2500
  1628.0000     21.8586      0.0000   -999.2500
  1628.1000     21.8586      0.0000   -999.2500
  1628.2000     21.8586      0.0000   -999.2500
  1628.3000     21.3426      0.0000   -999.2500
  1628.4000     21.3426      0.0000   -999.2500
  1628.5000     20.1941      0.0000   -999.2500
  1628.6000     20.1941      0.0000   -999.2500
  1628.7000     20.1941      0.0000   -999.2500
  1628.8000     18.6745      0.0000   -999.2500
  1628.9000     18.6745      0.0000   -999.2500
  1629.0000     17.2221      0.0000   -999.2500
  1629.1000     17.2221      0.0000   -999.2500
  1629.2000     17.2221      0.0000   -999.2500
  1629.3000     16.2006      0.0000   -999.2500
  1629.4000     16.2006      0.0000   -999.2500
  1629.5000     15.7606      0.0000   -999.2500
  1629.6000     15.7606      0.0000   -999.2500
  1629.7000     15.7606      0.0000   -999.2500
  1629.8000     15.8553      0.0000   -999.2500
  1629.9000     15.8553      0.0000   -999.2500
  1630.0000     16.3275      0.0000   -999.2500
  1630.1000     16.3275      0.0000   -999.2500
  1630.2000     16.3275      0.0000   -999.2500
  1630.3000     16.9823      0.0000   -999.2500
  1630.4000     16.9823      0.0000   -999.2500
  1630.5000     17.5922      0.0000   -999.2500
  1630.6000     17.5922      0.0000   -999.2500
  1630.7000     17.5922      0.0000   -999.2500
  1630.8000     17.8893      0.0000   -999.2500
  1630.9000     17.8893      0.0000   -999.2500
  1631.0000     17.6714      0.0000   -999.2500
  1631.1000     17.6714      0.0000   -999.2500
  1631.2000     17.6714      0.0000   -999.2500
  1631.3000     16.9767      0.0000   -999.2500
  1631.4000     16.9767      0.0000   -999.2500
  1631.5000     16.1038      0.0000   -999.2500
  1631.6000     16.1038      0.0000   -999.2500
  1631.7000     16.1038      0.0000   -999.2500
  1631.8000     15.4220      0.0000   -999.2500
  1631.9000     15.4220      0.0000   -999.2500
  1632.0000     15.1743      2.0000   -999.2500
  1632.1000     15.1743      0.0000   -999.2500
  1632.2000     15.1743      2.0000   -999.2500
  1632.3000     15.4346      2.0000   -999.2500
  1632.4000     15.4346      0.0000   -999.2500
  1632.5000     16.1730     -2.0000   -999.2500
  1632.6000     16.1730      0.0000   -999.2500
  1632.7000     16.1730      0.0000   -999.2500
  1632.8000     17.3025      0.0000   -999.2500
  1632.9000     17.3025      0.0000   -999.2500
  1633.0000     18.6497      0.0000   -999.2500
  1633.1000     18.6497      0.0000   -999.2500
  1633.2000     18.6497      0.0000   -999.2500
  1633.3000     19.9425      0.0000   -999.2500
  1633.4000     19.9425      0.0000   -999.2500
  1633.5000     20.9413      0.0000   -999.2500
  1633.6000     20.9413      0.0000   -999.2500
  1633.7000     20.9413      0.0000   -999.2500
  1633.8000     21.6214      0.0000   -999.2500
  1633.9000     21.6214      0.0000   -999.2500
  1634.0000     22.1665      0.0000   -999.2500
  1634.1000     22.1665      0.0000   -999.2500
  1634.2000     22.1665      0.0000   -999.2500
  1634.3000     22.7539      0.0000   -999.2500
  1634.4000     22.7539   -999.2500   -999.2500
  1634.5000     23.3755   -999.2500   -999.2500
  1634.6000     23.3755   -999.2500   -999.2500
  1634.7000     23.3755   -999.2500   -999.2500
  1634.8000     23.8708   -999.2500   -999.2500
  1634.9000     23.8708   -999.2500   -999.2500
  1635.0000     24.0987   -999.2500   -999.2500
  1635.1000     24.0987   -999.2500   -999.2500
  1635.2000     24.0987   -999.2500   -999.2500
  1635.3000     24.0626   -999.2500   -999.2500
  1635.4000     24.0626   -999.2500   -999.2500
  1635.5000     23.8944   -999.2500   -999.2500
  1635.6000     23.8944   -999.2500   -999.2500
