~Version Information
 VERS.                                  2.0 : CWLS LAS VERSION
 WRAP.                                   NO : WRAPING MODE
 SWARE .                 MController 2.5.0J : SOFTWARE VERSION
~Well Information
 WELL.                         McLeod 9-42V: WELL
 COMP.                       Petrogulf Corp : COMPANY
 FLD.                       Purgatoire River: FIELD
 LOC.                  SE/NE Sec 9 T33S R67W: LOCATION
 DATE.                             11/11/04 : DATE(S) LOGGED
 SRVC.        Blanco Geological Services LLC: SERVICE COMPANY
 STAT.                                    CO: STATE
 CNTY.                            Las Animas: COUNTY
 CTRY.                                   USA: COUNTRY
 API.                           05-071-08071: API NUMBER
 STRT.FT                             424.00 : START DEPTH
 STOP.FT                            2270.00 : STOP DEPTH
 STEP.FT                               1.00 : DEPTH INCREMENT
 NULL.                                -9999 : NULL VALUE
~Curve information
 DEPTH.FT                                   :
 ROP.MIN/FT                                 :
 GAS.UNITS                                  :
~ASCII Log data
# ...
      1424.0         0.20         15.9 
      1425.0         0.20         18.0 
      1426.0         0.23         31.4 
      1427.0         0.30         29.2 
      1428.0         0.30         35.1 
      1429.0         0.30         45.7 
      1430.0         0.27         58.8 
      1431.0         0.30         71.6 
      1432.0         0.28         73.6 
      1433.0         0.27         70.0 
      1434.0         0.27         67.7 
      1435.0         0.33         64.4 
      1436.0         0.40         55.0 
      1437.0         0.33         47.3 
      1438.0         0.40         39.6 
      1439.0         0.27         36.0 
      1440.0         0.27         32.7 
      1441.0         0.23         30.6 
      1442.0         0.23         28.5 
      1443.0         0.38         27.4 
      1444.0         0.30         27.6 
      1445.0         0.33         25.9 
      1446.0         0.37         23.0 
      1447.0         0.23         23.1 
      1448.0         0.20         22.9 
      1449.0         0.27         24.5 
      1450.0         0.37         24.4 
      1451.0         0.23         23.6 
      1452.0         0.27         24.7 
      1453.0         0.20         24.2 
      1454.0         0.20         23.8 
      1455.0         0.67         24.2 
      1456.0     -9999.00         18.2 
      1457.0         0.23         19.4 
      1458.0         0.17         22.5 
      1459.0         0.27         31.6 
      1460.0         0.33         50.3 
      1461.0         0.25         73.1 
      1462.0         0.17         90.7 
      1463.0         0.17        103.4 
      1464.0         0.27        106.9 
      1465.0         0.30         93.7 
      1466.0         0.27         82.0 
      1467.0         0.23         74.2 
      1468.0         0.20         67.9 
      1469.0         0.20         61.6 
      1470.0         0.20         54.7 
      1471.0         0.17         49.9 
      1472.0         0.20         45.5 
      1473.0         0.20         41.3 
      1474.0         0.20         37.7 
      1475.0         0.20         36.3 
      1476.0         0.17         35.2 
      1477.0         0.22         34.2 
      1478.0         0.17         33.6 
      1479.0         0.17         32.4 
      1480.0         0.17         32.2 
      1481.0         0.20         32.9 
      1482.0         0.17         33.0 
      1483.0         0.13         32.1 
      1484.0         0.20         31.1 
      1485.0         0.23         28.9 
      1486.0         0.17         38.1 
      1487.0         0.37         59.0 
      1488.0         0.33         82.6 
      1489.0         0.42         88.5 
      1490.0         0.43         76.5 
      1491.0         0.30         70.7 
      1492.0         0.27         64.2 
      1493.0         0.33         53.2 
      1494.0         0.30         43.6 
      1495.0         0.30         35.0 
      1496.0         0.33         33.0 
      1497.0         0.33         34.7 
      1498.0         0.33         34.7 
      1499.0         0.42         34.0 
      1500.0         0.37         32.5 
      1501.0         0.40         29.1 
      1502.0         0.40         27.0 
      1503.0         0.37         23.8 
      1504.0         0.40         22.4 
      1505.0         0.37         20.7 
      1506.0         0.37         21.7 
      1507.0         0.37         21.8 
      1508.0         0.42         22.3 
      1509.0         0.37         23.1 
      1510.0         0.37         24.6 
      1511.0         0.40         25.9 
      1512.0         0.37         18.7 
      1513.0         0.27         18.0 
      1514.0         0.27         19.6 
      1515.0         0.37         28.8 
      1516.0         0.33         48.8 
      1517.0         0.33         79.7 
      1518.0         0.37        108.3 
      1519.0         0.45        103.7 
      1520.0         0.43         87.4 
      1521.0         0.33         71.8 
      1522.0         0.33         57.7 
      1523.0         0.37         45.7 
      1524.0         0.33         36.7 
      1525.0         0.37         32.9 
      1526.0         0.37         30.6 
      1527.0         0.37         27.4 
      1528.0         0.32         27.0 
      1529.0         0.23         26.7 
      1530.0         0.27         27.4 
      1531.0         0.20         28.4 
      1532.0         0.27         27.6 
      1533.0         0.27         27.1 
      1534.0         0.23         25.3 
      1535.0         0.23         25.2 
      1536.0         0.27         25.0 
      1537.0         0.23         24.8 
      1538.0         0.27         25.4 
      1539.0         0.40         25.3 
      1540.0         0.37         24.3 
      1541.0         0.28         23.9 
      1542.0         0.42         15.9 
      1543.0         0.30         18.8 
      1544.0         0.37         31.2 
      1545.0         0.27         49.9 
      1546.0         0.37         88.9 
      1547.0         0.40        115.8 
      1548.0         0.33        102.2 
      1549.0         0.27         80.8 
      1550.0         0.27         63.2 
      1551.0         0.23         56.0 
      1552.0         0.30         54.2 
      1553.0         0.32         53.1 
      1554.0         0.20         51.4 
      1555.0         0.17         47.8 
      1556.0         0.37         39.8 
      1557.0         0.33         34.0 
      1558.0         0.20         34.7 
      1559.0         0.20         33.4 
      1560.0         0.23         31.3 
      1561.0         0.23         29.1 
      1562.0         0.17         29.0 
      1563.0         0.20         29.9 
      1564.0         0.17         32.4 
      1565.0         0.20         33.9 
      1566.0         0.17         34.6 
      1567.0         0.17         34.3 
      1568.0         0.17         34.5 
      1569.0         0.22         33.1 
      1570.0         0.17         31.2 
      1571.0         0.17         29.4 
      1572.0         0.17         34.6 
      1573.0         0.20         47.7 
      1574.0         0.27         65.9 
      1575.0         0.17         74.6 
      1576.0         0.20         78.7 
      1577.0         0.20         75.6 
      1578.0         0.20         67.7 
      1579.0         0.27         56.8 
      1580.0         0.27         53.3 
      1581.0         0.17         51.7 
      1582.0         0.20         51.9 
      1583.0         0.13         51.8 
      1584.0         0.15         49.5 
      1585.0         0.17         48.1 
      1586.0         0.23         42.8 
      1587.0         0.20         39.9 
      1588.0         0.17         39.8 
      1589.0         0.20         41.5 
      1590.0         0.13         41.5 
      1591.0         0.27         40.7 
      1592.0         0.27         38.1 
      1593.0         0.23         35.8 
      1594.0         0.13         35.9 
      1595.0         0.13         35.3 
      1596.0         0.13         34.7 
      1597.0         0.17         34.4 
      1598.0         0.20         34.2 
      1599.0         0.13         32.6 
      1600.0         0.10         33.2 
      1601.0         0.17         31.7 
      1602.0         0.07         31.5 
      1603.0         0.18         29.2 
      1604.0         0.27         27.4 
      1605.0         0.27         27.0 
      1606.0         0.27         28.7 
      1607.0         0.10         28.7 
      1608.0         0.27         30.6 
      1609.0         0.27         26.0 
      1610.0         0.30         40.0 
      1611.0         0.27         57.7 
      1612.0         0.28         74.7 
      1613.0         0.40         78.3 
      1614.0         0.27         68.0 
      1615.0         0.30         55.4 
      1616.0         0.27         52.1 
      1617.0         0.27         51.8 
      1618.0         0.23         50.0 
      1619.0         0.27         46.2 
      1620.0         0.30         40.7 
      1621.0         0.30         37.6 
      1622.0         0.20         37.3 
      1623.0         0.13         37.5 
