~Version Information
VERS.                      2.0: CWLS Log ASCII Standard - VERSION 2.0
WRAP.                       NO: One line per depth step
~Well Information Block
STRT.FT               340.0000: 
STOP.FT              1542.5000: 
STEP.FT                 0.1000: 
NULL.                -999.2500: 
COMP.          Petrogulf Corporation: COMPANY
WELL.            Montoya 7-21R: WELL
FLD.           Purgatorie River: FIELD
LOC.           445' FNL & 1942' FWL: LOCATION
PROV.                 Colorado: PROVINCE
CNTY.               Las Animas: COUNTRY
SRVC.                Patterson: SERVICE COMPANY
DATE.          Thu Sep 15 10:33:27 2005: LOG DATE
UWI.                          : UNIQUE WELL ID
~Curve Information Block
DEPT.FT            0 000 00 00: Depth
DCAL.in                       : CDL Caliper
RHOB.g/cc                     : CDL Bulk Density
RHOC.g/cc                     : CDL Density Correction
DPOR.pu                       : CDL Density Porosity
GR.GAPI                       : Gamma Ray
NPOR.pu                       : Neutron Porosity
~Parameter Information Block
~A  Depth       DCAL        RHOB        RHOC        DPOR         GR         NPOR    
# ...
  1050.4000      8.0071      2.5770      0.0078      4.4266    109.5462     20.4998
  1050.5000      8.0032      2.5657     -0.0096      5.1105    108.6665     20.3347
  1050.6000      8.0032      2.5656     -0.0069      5.1162    110.2070     20.5099
  1050.7000      8.0032      2.5607      0.0402      5.4145    110.9225     20.8876
  1050.8000      7.9928      2.5417     -0.0239      6.5648    110.4612     21.1903
  1050.9000      7.9928      2.5273      0.0109      7.4374    112.1045     21.3377
  1051.0000      8.0061      2.5376      0.0208      6.8126    116.5757     21.3924
  1051.1000      8.0061      2.5729      0.0493      4.6721    121.6882     21.3343
  1051.2000      8.0061      2.6130      0.1238      2.2396    126.1579     21.5083
  1051.3000      8.0117      2.6366      0.1028      0.8138    129.8470     22.1942
  1051.4000      8.0117      2.6410      0.1162      0.5484    133.4927     22.8980
  1051.5000      8.0099      2.6360      0.0951      0.8486    139.2527     23.5694
  1051.6000      8.0099      2.6293      0.0937      1.2566    145.9214     24.5228
  1051.7000      8.0099      2.6208      0.0649      1.7677    150.6473     25.3601
  1051.8000      8.0279      2.6150      0.0543      2.1242    152.3134     25.9872
  1051.9000      8.0279      2.6209      0.0944      1.7615    152.6599     26.7550
  1052.0000      8.0664      2.6371      0.1044      0.7816    153.4403     27.4205
  1052.1000      8.0664      2.6540      0.1099     -0.2452    153.9433     27.6589
  1052.2000      8.0664      2.6718      0.0652     -1.3225    153.2770     27.8180
  1052.3000      8.0673      2.6891      0.1112     -2.3685    151.1201     28.1182
  1052.4000      8.0673      2.6910      0.0847     -2.4839    150.7711     28.2435
  1052.5000      8.0699      2.6707      0.0717     -1.2539    154.5894     28.0742
  1052.6000      8.0699      2.6372      0.0579      0.7776    159.4775     27.9934
  1052.7000      8.0699      2.6025      0.0578      2.8771    163.9802     28.1877
  1052.8000      8.0933      2.5677      0.0653      4.9868    167.1936     28.4100
  1052.9000      8.0933      2.5294      0.0384      7.3093    166.5319     28.4451
  1053.0000      8.0901      2.4958     -0.0160      9.3431    164.2061     28.2995
  1053.1000      8.0901      2.4797     -0.0311     10.3184    164.7784     28.2344
  1053.2000      8.0901      2.4847     -0.0430     10.0170    167.2199     28.4915
  1053.3000      8.0687      2.4999     -0.0065      9.0951    168.0198     28.8789
  1053.4000      8.0687      2.4996      0.0151      9.1156    165.1369     28.9477
  1053.5000      8.0896      2.4667      0.0090     11.1117    160.3012     28.6316
  1053.6000      8.0896      2.4144      0.0963     14.2803    158.6946     28.3480
  1053.7000      8.0896      2.3802      0.0036     16.3491    161.9094     28.3446
  1053.8000      8.0590      2.3915      0.0773     15.6674    166.2420     28.5661
  1053.9000      8.0590      2.4324      0.1073     13.1909    169.1858     29.0541
  1054.0000      8.0655      2.4804      0.0844     10.2772    170.1002     29.7533
  1054.1000      8.0655      2.5386      0.1090      6.7491    168.1496     30.1901
  1054.2000      8.0655      2.6061      0.2347      2.6636    164.3068     30.0386
  1054.3000      8.1214      2.6603      0.3206     -0.6232    161.7329     29.6309
  1054.4000      8.1214      2.6788      0.3506     -1.7435    162.4474     29.5785
  1054.5000      8.1976      2.6651      0.2910     -0.9160    163.7215     29.8885
  1054.6000      8.1976      2.6441      0.2330      0.3570    161.7745     29.9200
  1054.7000      8.1976      2.6269      0.1489      1.3976    157.1311     29.4880
  1054.8000      8.1366      2.6018      0.0970      2.9188    152.8096     28.9966
  1054.9000      8.1366      2.5679      0.0134      4.9737    149.4710     28.5756
  1055.0000      8.1167      2.5440      0.0273      6.4243    146.6835     27.9898
  1055.1000      8.1167      2.5389      0.0227      6.7321    145.7711     27.3798
  1055.2000      8.1167      2.5416      0.0302      6.5689    146.9067     27.0496
  1055.3000      8.1139      2.5388      0.0374      6.7387    147.4225     26.8329
  1055.4000      8.1139      2.5304      0.0179      7.2467    146.9719     26.5328
  1055.5000      8.1054      2.5250     -0.0089      7.5778    148.6526     26.3273
  1055.6000      8.1054      2.5299      0.0035      7.2809    152.2010     26.3203
  1055.7000      8.1054      2.5420      0.0623      6.5457    154.6551     26.3092
  1055.8000      8.0528      2.5495      0.1082      6.0922    154.5825     26.2506
  1055.9000      8.0528      2.5511      0.1058      5.9958    151.6814     26.4111
  1056.0000      8.0072      2.5516      0.1444      5.9612    146.9639     26.9093
  1056.1000      8.0072      2.5450      0.0875      6.3655    144.6677     27.3947
  1056.2000      8.0072      2.5283      0.0867      7.3770    146.4314     27.5570
  1056.3000      8.0287      2.5129      0.0469      8.3072    147.3806     27.4949
  1056.4000      8.0287      2.5123      0.0720      8.3469    145.1209     27.4848
  1056.5000      8.0674      2.5284      0.0633      7.3693    142.2141     27.5412
  1056.6000      8.0674      2.5519      0.0787      5.9467    139.5140     27.3322
  1056.7000      8.0674      2.5711      0.1276      4.7817    138.4930     26.6554
  1056.8000      8.0832      2.5809      0.1285      4.1904    139.7851     25.9344
  1056.9000      8.0832      2.5833      0.0543      4.0438    141.4953     25.8912
  1057.0000      8.0316      2.5836      0.0337      4.0259    142.4371     26.4008
  1057.1000      8.0316      2.5820      0.0836      4.1219    142.8328     26.6946
  1057.2000      8.0316      2.5710      0.1098      4.7868    144.3081     26.6949
  1057.3000      8.0196      2.5462      0.1138      6.2920    145.2730     26.8004
  1057.4000      8.0196      2.5128      0.0793      8.3176    144.2362     27.0422
  1057.5000      8.0018      2.4811      0.0662     10.2360    142.8969     27.3858
  1057.6000      8.0018      2.4627      0.0638     11.3493    144.3333     27.7097
  1057.7000      8.0018      2.4608      0.0617     11.4694    148.8858     27.6027
  1057.8000      8.0145      2.4689      0.0468     10.9756    153.9603     27.1578
  1057.9000      8.0145      2.4872      0.0731      9.8648    157.7286     26.9745
  1058.0000      8.0161      2.5182      0.0998      7.9893    161.8014     27.2803
  1058.1000      8.0161      2.5516      0.1424      5.9643    167.9351     27.7358
  1058.2000      8.0161      2.5752      0.1317      4.5351    171.9909     27.8891
  1058.3000      8.0147      2.5881      0.1731      3.7533    169.4660     27.9207
  1058.4000      8.0147      2.5912      0.1596      3.5664    163.9447     28.3419
  1058.5000      7.9789      2.5910      0.0841      3.5772    160.9622     28.9018
  1058.6000      7.9789      2.5955      0.1154      3.3037    159.2987     29.0935
  1058.7000      7.9789      2.6034      0.0793      2.8241    154.6462     29.0072
  1058.8000      8.0080      2.6148      0.0576      2.1360    148.5728     28.8736
  1058.9000      8.0080      2.6227      0.1165      1.6569    148.4962     28.7617
  1059.0000      8.0430      2.6136      0.0518      2.2039    156.0954     28.7157
  1059.1000      8.0430      2.5941      0.0654      3.3874    163.4150     28.7137
  1059.2000      8.0430      2.5842      0.0335      3.9882    165.3588     28.6450
  1059.3000      8.0348      2.5872      0.0315      3.8057    166.5824     28.6673
  1059.4000      8.0348      2.5887      0.0654      3.7166    169.0923     29.0105
  1059.5000      8.0531      2.5896      0.0353      3.6586    167.2422     29.5240
  1059.6000      8.0531      2.6037      0.0543      2.8034    158.9297     29.9399
  1059.7000      8.0531      2.6268      0.0949      1.4057    150.9151     29.9055
  1059.8000      8.0470      2.6505      0.0381     -0.0319    147.9338     29.4291
  1059.9000      8.0470      2.6833      0.0753     -2.0210    145.9136     28.9925
