~Version Information
VERS.                      2.0: CWLS Log ASCII Standard - VERSION 2.0
WRAP.                       NO: One line per depth step
~Well Information Block
STRT.FT               221.2000: 
STOP.FT              2260.4000: 
STEP.FT                 0.1000: 
NULL.                -999.2500: 
COMP.          Petrogulf Corporation: COMPANY
WELL.          Anderson 18-43V: WELL
FLD.           Purgatorie River: FIELD
LOC.           1782' FSL & 887' FEL--: LOCATION
CNTY.               Las Animas: COUNTY
SRVC.                         : SERVICE COMPANY
DATE.          Mon Sep 13 14:11:09 2004: LOG DATE
UWI.                          : UNIQUE WELL ID
STAT.                       CO: STATE
~Curve Information Block
DEPT.FT            0 000 00 00: Depth
TT3.usec                      : CBL 3' Travel Time
AMP3.mV                       : CBL 3' Amplitude
GR.GAPI                       : Gamma Ray
CCL.                          : Casing Collar Locator
~Parameter Information Block
~A  Depth       TT3         AMP3         GR         CCL     
# ...
  2110.6000    665.8086      1.9856     80.0591      0.0000
  2110.7000    665.8086      1.9856     80.0591      0.0000
  2110.8000    669.7803      1.9881     79.0303      0.0000
  2110.9000    669.7803      1.9881     79.0303      0.0000
  2111.0000    673.8474      2.0014     76.2007      0.0000
  2111.1000    673.8474      2.0014     76.2007      0.0000
  2111.2000    673.8474      2.0014     76.2007      0.0000
  2111.3000    677.9664      1.9996     72.7795      0.0000
  2111.4000    677.9664      1.9996     72.7795      0.0000
  2111.5000    685.2401      1.9672     70.5545      0.0000
  2111.6000    685.2401      1.9672     70.5545      0.0000
  2111.7000    685.2401      1.9672     70.5545      0.0000
  2111.8000    698.3903      1.9228     70.3193      0.0000
  2111.9000    698.3903      1.9228     70.3193      0.0000
  2112.0000    716.1600      1.9015     71.6030      0.0000
  2112.1000    716.1600      1.9015     71.6030      0.0000
  2112.2000    716.1600      1.9015     71.6030      0.0000
  2112.3000    733.8259      1.9163     73.9315      0.0000
  2112.4000    733.8259      1.9163     73.9315      0.0000
  2112.5000    746.9746      1.9470     77.7615      0.0000
  2112.6000    746.9746      1.9470     77.7615      0.0000
  2112.7000    746.9746      1.9470     77.7615      0.0000
  2112.8000    753.8118      1.9657     83.5402      0.0000
  2112.9000    753.8118      1.9657     83.5402      0.0000
  2113.0000    753.9778      1.9630     90.1575      0.0000
  2113.1000    753.9778      1.9630     90.1575      0.0000
  2113.2000    753.9778      1.9630     90.1575      0.0000
  2113.3000    746.5308      1.9439     94.9617      0.0000
  2113.4000    746.5308      1.9439     94.9617      0.0000
  2113.5000    730.3204      1.9112     95.3424      0.0000
  2113.6000    730.3204      1.9112     95.3424      0.0000
  2113.7000    730.3204      1.9112     95.3424      0.0000
  2113.8000    706.7188      1.8644     90.2900      0.0000
  2113.9000    706.7188      1.8644     90.2900      0.0000
  2114.0000    681.3988      1.8142     80.8507      0.0000
  2114.1000    681.3988      1.8142     80.8507      0.0000
  2114.2000    681.3988      1.8142     80.8507      0.0000
  2114.3000    662.1226      1.7810     69.3754      0.0000
  2114.4000    662.1226      1.7810     69.3754      0.0000
  2114.5000    653.6639      1.7759     58.3110      0.0000
  2114.6000    653.6639      1.7759     58.3110      0.0000
  2114.7000    653.6639      1.7759     58.3110      0.0000
  2114.8000    654.4192      1.7882     49.3545      0.0000
  2114.9000    654.4192      1.7882     49.3545      0.0000
  2115.0000    657.8898      1.7959     43.0867      0.0000
  2115.1000    657.8898      1.7959     43.0867      0.0000
  2115.2000    657.8898      1.7959     43.0867      0.0000
  2115.3000    657.8267      1.7915     39.0403      0.0000
  2115.4000    657.8267      1.7915     39.0403      0.0000
  2115.5000    652.5707      1.7912     36.3346      0.0000
  2115.6000    652.5707      1.7912     36.3346      0.0000
  2115.7000    652.5707      1.7912     36.3346      0.0000
  2115.8000    644.8792      1.8148     34.4508      0.0000
  2115.9000    644.8792      1.8148     34.4508      0.0000
  2116.0000    638.2430      1.8567     33.4148      0.0000
  2116.1000    638.2430      1.8567     33.4148      0.0000
  2116.2000    638.2430      1.8567     33.4148      0.0000
  2116.3000    634.0181      1.8917     33.5475      0.0000
  2116.4000    634.0181      1.8917     33.5475      0.0000
  2116.5000    631.5403      1.9050     35.2517      0.0000
  2116.6000    631.5403      1.9050     35.2517      0.0000
  2116.7000    631.5403      1.9050     35.2517      0.0000
  2116.8000    629.7205      1.9074     38.7281      0.0000
  2116.9000    629.7205      1.9074     38.7281      0.0000
  2117.0000    628.1183      1.9165     43.6399      0.0000
  2117.1000    628.1183      1.9165     43.6399      0.0000
  2117.2000    628.1183      1.9165     43.6399      0.0000
  2117.3000    627.1099      1.9356     49.2414      0.0000
  2117.4000    627.1099      1.9356     49.2414      0.0000
  2117.5000    627.6194      1.9587     54.9319      0.0000
  2117.6000    627.6194      1.9587     54.9319      0.0000
  2117.7000    627.6194      1.9587     54.9319      0.0000
  2117.8000    630.6888      1.9863     60.4353      0.0000
  2117.9000    630.6888      1.9863     60.4353      0.0000
  2118.0000    636.7305      2.0235     65.5163      0.0000
  2118.1000    636.7305      2.0235     65.5163      0.0000
  2118.2000    636.7305      2.0235     65.5163      0.0000
  2118.3000    644.5648      2.0633     69.9774      0.0000
  2118.4000    644.5648      2.0633     69.9774      0.0000
  2118.5000    651.3289      2.0889     73.9076      0.0000
  2118.6000    651.3289      2.0889     73.9076      0.0000
  2118.7000    651.3289      2.0889     73.9076      0.0000
  2118.8000    654.2264      2.0974     77.3532      0.0000
  2118.9000    654.2264      2.0974     77.3532      0.0000
  2119.0000    652.8083      2.1090     79.7797      0.0000
  2119.1000    652.8083      2.1090     79.7797      0.0000
  2119.2000    652.8083      2.1090     79.7797      0.0000
  2119.3000    649.3064      2.1407     80.5612      0.0000
  2119.4000    649.3064      2.1407     80.5612      0.0000
  2119.5000    646.8821      2.1799     80.0307      0.0000
  2119.6000    646.8821      2.1799     80.0307      0.0000
  2119.7000    646.8821      2.1799     80.0307      0.0000
  2119.8000    648.0552      2.2000     79.2956      0.0000
  2119.9000    648.0552      2.2000     79.2956      0.0000
  2120.0000    654.3231      2.1986     78.8633      0.0000
  2120.1000    654.3231      2.1986     78.8633      0.0000
  2120.2000    654.3231      2.1986     78.8633      0.0000
  2120.3000    665.5773      2.1998     78.1051      0.0000
  2120.4000    665.5773      2.1998     78.1051      0.0000
  2120.5000    678.7941      2.2161     76.2675      0.0000
  2120.6000    678.7941      2.2161     76.2675      0.0000
  2120.7000    678.7941      2.2161     76.2675      0.0000
  2120.8000    688.4589      2.2282     73.5940      0.0000
  2120.9000    688.4589      2.2282     73.5940      0.0000
  2121.0000    690.6702      2.2156     71.3006      0.0000
  2121.1000    690.6702      2.2156     71.3006      0.0000
  2121.2000    690.6702      2.2156     71.3006      0.0000
  2121.3000    687.3961      2.1885     70.6209      0.0000
  2121.4000    687.3961      2.1885     70.6209      0.0000
  2121.5000    684.8295      2.1715     71.9046      0.0000
  2121.6000    684.8295      2.1715     71.9046      0.0000
  2121.7000    684.8295      2.1715     71.9046      0.0000
  2121.8000    686.4348      2.1680     74.4996      0.0000
  2121.9000    686.4348      2.1680     74.4996      0.0000
  2122.0000    688.9156      2.1607     77.3585      0.0000
  2122.1000    688.9156      2.1607     77.3585      0.0000
  2122.2000    688.9156      2.1607     77.3585      0.0000
  2122.3000    686.2805      2.1425     79.7791      0.0000
  2122.4000    686.2805      2.1425     79.7791      0.0000
  2122.5000    676.8772      2.1263     81.7753      0.0000
  2122.6000    676.8772      2.1263     81.7753      0.0000
  2122.7000    676.8772      2.1263     81.7753      0.0000
  2122.8000    665.0663      2.1195     83.8783      0.0000
  2122.9000    665.0663      2.1195     83.8783      0.0000
  2123.0000    656.7975      2.1089     86.5320      0.0000
  2123.1000    656.7975      2.1089     86.5320      0.0000
  2123.2000    656.7975      2.1089     86.5320      0.0000
  2123.3000    655.0704      2.0797     89.4563      0.0000
  2123.4000    655.0704      2.0797     89.4563      0.0000
  2123.5000    659.0753      2.0387     91.3897      0.0000
  2123.6000    659.0753      2.0387     91.3897      0.0000
  2123.7000    659.0753      2.0387     91.3897      0.0000
  2123.8000    665.9697      2.0036     90.6407      0.0000
  2123.9000    665.9697      2.0036     90.6407      0.0000
