~Version Information
VERS.                      2.0: CWLS Log ASCII Standard - VERSION 2.0
WRAP.                       NO: One line per depth step
~Well Information Block
STRT.FT               630.0000: 
STOP.FT              1156.0000: 
STEP.FT                 0.2500: 
NULL.                -999.2500: 
COMP.          Pioneer Natural Resources: COMPANY
WELL.          Drewmeister 34-34: WELL
FLD.           Purgatoire River: FIELD
LOC.           958' FSL & 1857' FEL: LOCATION
STAT.                 Colorado: State
CNTY.               Las Animas: COUNTY
CTRY. USA : Country
SECT. 34 : Section
TOWN. 32S : Township
RANG. 65W : Range
SRVC.                Patterson: SERVICE COMPANY
DATE.          Mon Oct 03 23:24:37 2005: LOG DATE
API.           05 071 08131 00: UNIQUE WELL ID
~Curve Information Block
DEPT.FT            0 000 00 00: Depth
SN.Ohm-m                      : IEL Short Normal
SP.mV                         : IEL Spontaneous Potential
DIR.Ohm-m                     : IEL Induction Resistivity
GR.GAPI                       : Gamma Ray
~Parameter Information Block
~A  Depth        SN          SP         DIR          GR     
# ...
   764.0000     26.2008    799.9761     36.1706     80.3943
   764.2500     27.8535    799.9761     38.6964     80.1792
   764.5000     29.8796    799.9761     41.2604     79.8761
   764.7500     32.3376    799.9761     43.7014     78.6102
   765.0000     34.9618    799.9761     45.7823     74.6405
   765.2500     37.1174    799.9761     47.2049     71.2818
   765.5000     38.1844    799.9761     47.6243     67.0569
   765.7500     37.9305    799.9761     46.7128     65.5204
   766.0000     36.5646    799.9761     44.3335     64.9472
   766.2500     34.8257    799.9761     40.7280     65.0705
   766.5000     33.7892    799.9761     36.5026     65.1996
   766.7500     34.1588    799.9761     32.3626     65.1592
   767.0000     35.7610    799.9761     28.8387     64.8298
   767.2500     37.6803    799.9761     26.2109     64.2458
   767.5000     38.9204    799.9758     24.6103     62.7422
   767.7500     39.1604    799.9736     24.1999     61.6006
   768.0000     38.8790    799.9622     25.4279     60.3406
   768.2500     38.7289    799.9161     29.6084     60.0552
   768.5000     38.9666    799.7712     41.3831     60.7102
   768.7500     39.5812    799.4168     91.5802     61.9713
   769.0000     41.4384    798.7488 100000.0000     64.9332
   769.2500     49.1937    797.7900 100000.0000     67.1903
   769.5000     75.0486    796.7638 100000.0000     69.9949
   769.7500    132.9096    795.9605 100000.0000     71.1250
   770.0000    212.1522    795.4734 100000.0000     72.0261
   770.2500    264.8422    795.1505 100000.0000     72.7574
   770.5000    251.4710    794.8970 100000.0000     75.3202
   770.7500    187.2478    794.9174 100000.0000     78.4401
   771.0000    116.5577    795.4984 100000.0000     85.2214
   771.2500     67.0795    796.6112 100000.0000     90.7749
   771.5000     41.0402    797.8771 100000.0000     99.5114
   771.7500     29.4910    798.8953 100000.0000    104.6942
   772.0000     24.6466    799.4934 100000.0000    110.1218
   772.2500     22.7474    799.6667 100000.0000    112.0004
   772.5000     22.0506    799.3141 100000.0000    113.4345
   772.7500     21.4123    797.9336 100000.0000    114.6200
   773.0000     20.4245    794.4161 100000.0000    117.8988
   773.2500     19.9900    787.1749 100000.0000    120.8560
   773.5000     23.2483    774.8229 100000.0000    125.3128
   773.7500     38.2473    757.1522 100000.0000    127.8510
   774.0000     80.7143    735.5386 100000.0000    130.6651
   774.2500    166.9203    712.0499 100000.0000    131.6025
   774.5000    287.1246    687.9402 100000.0000    131.2732
   774.7500    385.5161    663.2789 100000.0000    130.2253
   775.0000    405.4201    638.3815 100000.0000    128.5837
   775.2500    369.6252    615.2901      5.8844    127.7307
   775.5000    355.7914    597.0206      1.9240    125.8641
   775.7500    385.8092    584.6943      1.1056    123.3703
   776.0000    407.1305    575.4884      0.8267    117.4682
   776.2500    364.6384    564.0865      0.7551    112.9171
   776.5000    258.4237    546.4999      0.8164    106.9879
   776.7500    144.8997    522.1225      1.0085    103.9579
   777.0000     73.4666    491.8755      1.3727     99.6333
   777.2500     46.2265    455.0073      2.0066     95.8363
   777.5000     48.1181    408.8682      3.1298     87.7020
   777.7500     73.7535    352.6859      5.2573     80.7939
   778.0000    110.0862    291.3613      9.4450     69.6202
   778.2500    123.5845    234.4529     16.2455     62.7961
   778.5000     96.4939    190.6530     20.8629     55.0861
   778.7500     53.4283    163.0592     20.3144     51.9808
   779.0000     24.8431    149.1247     22.0150     50.2214
   779.2500     14.4326    143.9961     49.6161     50.7380
   779.5000     11.6065    143.9810 100000.0000     53.3801
   779.7500      9.5564    148.5907 100000.0000     55.7378
   780.0000      7.8281    160.9675 100000.0000     59.0171
   780.2500      7.4878    186.5345 100000.0000     60.8116
   780.5000      7.9408    230.2220 100000.0000     63.5895
   780.7500      8.0002    293.5916 100000.0000     66.0160
   781.0000      7.5676    373.3351 100000.0000     70.4714
   781.2500      7.4044    461.8378 100000.0000     73.3232
   781.5000      8.0880    549.4369     22.7036     76.0153
   781.7500      9.5321    627.1494      3.5425     76.2387
   782.0000     11.4962    688.5909      1.5955     74.4058
   782.2500     14.1722    730.7363      0.9102     72.5689
   782.5000     17.5927    754.0635      0.5804     70.8711
   782.7500     20.9978    762.2418      0.4009     71.0776
   783.0000     23.3014    760.7266      0.3035     72.7690
   783.2500     23.6135    754.2441      0.2594     74.0478
   783.5000     21.6050    744.7396      0.2551     75.8984
   783.7500     18.0324    731.4505      0.2857     77.6827
   784.0000     14.4814    712.7820      0.3503     82.5953
   784.2500     12.4044    688.1528      0.4493     87.9013
   784.5000     12.8045    658.5499      0.5805     98.7889
   784.7500     16.9159    625.8428      0.7368    107.1822
   785.0000     28.3663    591.5978      0.9060    119.2965
   785.2500     57.6671    556.4447      1.0736    125.9604
   785.5000    124.4631    520.7189      1.2297    132.9937
   785.7500    246.6174    485.4957      1.3778    135.6978
   786.0000    417.0591    452.1360      1.5392    137.2101
   786.2500    594.2070    420.3871      1.7524    136.9910
   786.5000    725.6670    387.8340      2.0736    135.6037
   786.7500    783.1271    352.3675      2.5852    134.0883
   787.0000    775.6686    314.7551      3.4217    130.8074
   787.2500    742.0479    277.0296      4.8290    128.2533
   787.5000    725.6115    238.0177      7.3450    125.2357
   787.7500    732.4166    192.5059     12.6249    124.4773
   788.0000    722.0601    136.4355     31.0710    125.2993
   788.2500    670.9860     71.9622 100000.0000    126.5547
   788.5000    627.9278      6.1525 100000.0000    128.1094
   788.7500    654.1196    -54.2832 100000.0000    128.3731
   789.0000    733.3126   -105.7646 100000.0000    127.5597
   789.2500    803.7811   -146.8240 100000.0000    126.5839
   789.5000    838.5050   -176.6501 100000.0000    125.1770
   789.7500    849.1064   -194.9705 100000.0000    124.4766
   790.0000    851.1862   -202.3118 100000.0000    123.5519
   790.2500    851.4546   -199.7911 100000.0000    122.6257
   790.5000    851.4747   -188.6447 100000.0000    120.3375
   790.7500    851.4747   -169.8263 100000.0000    118.5089
   791.0000    851.4747   -143.8035 100000.0000    116.6113
   791.2500    851.4747   -110.6768 100000.0000    116.5299
   791.5000    851.4747    -70.5684 100000.0000    118.1236
   791.7500    851.4747    -24.0144 100000.0000    119.7684
   792.0000    851.4747     28.0049 100000.0000    122.2648
   792.2500    851.4747     84.5220 100000.0000    123.8249
   792.5000    851.4747    145.0191      2.8952    125.8306
   792.7500    851.4030    208.5782      1.1971    126.4862
   793.0000    850.5732    271.1206      0.7145    125.4726
   793.2500    844.4318    323.0418      0.5215    123.2405
   793.5000    815.2646    351.7360      0.4545    117.6790
   793.7500    726.3936    349.9617      0.4763    112.6108
   794.0000    552.9750    323.5483      0.6013    103.4967
   794.2500    337.5872    290.1516      0.9128     97.1447
   794.5000    170.5016    268.8254      1.7140     88.6944
   794.7500     92.7123    268.9750      4.4051     84.2378
   795.0000     68.6876    286.8506     18.8300     79.1215
   795.2500     52.8304    310.3497     27.3549     76.4956
   795.5000     33.8847    327.2141      6.7893     74.0061
   795.7500     19.1711    331.2971      2.8141     73.9548
   796.0000     12.2659    324.5076      1.6617     77.3623
   796.2500     11.0955    315.0767      1.2320     81.9695
   796.5000     11.9729    313.8182      1.0801     91.0220
   796.7500     12.2386    329.5014      1.0756     97.3340
   797.0000     12.6341    364.7151      1.1648    105.8960
   797.2500     19.2075    414.6814      1.2945    110.8426
