~Version Information
 VERS.                      2.0: CWLS Log ASCII Standard - VERSION 2.0
 WRAP.                       NO: One line per depth step
 ~Well Information Block
 STRT.FT               763.7500: 
 STOP.FT              2577.0000: 
 STEP.FT                 0.2500: 
 NULL.                -999.2500: 
 COMP.          Petrogulf Corporation: COMPANY
 WELL.               J&P 12-33V: WELL
 FLD.           Purgatorie River: FIELD
 LOC.           2005' FSL & 1928' FEL: LOCATION
 CNTY.               Las Animas: COUNTY
 SRVC.                         : SERVICE COMPANY
 DATE.          Sat Aug 28 09:00:36 2004: LOG DATE
 UWI.           05 071 08092 00: UNIQUE WELL ID
 STAT.                 Colorado: STATE
 PROV.                         :Province
 ~Curve Information Block
 DEPT.FT            0 000 00 00: Depth
 SP.mV                         : DIL Spontaneous Potential
 RILD.Ohm-m                    : DIL Deep Resistivity
 RILM.Ohm-m                    : DIL Medium Resistivity
 RLL3.Ohm-m                    : DIL Shallow Resistivity
 GR.GAPI                       : Gamma Ray
 ~Parameter Information Block
 ~A  Depth        SP         RILD        RILM        RLL3         GR     
# ...
  1967.7500    -27.2311     23.7219     34.2350     55.5751    107.8712
  1968.0000    -27.2826     25.1499     36.5933     59.9563    102.6025
  1968.2500    -27.3173     26.5466     39.0475     64.1772     98.3915
  1968.5000    -27.3371     27.7872     41.4596     68.1504     91.9814
  1968.7500    -27.3441     28.7573     43.6271     71.8672     88.3812
  1969.0000    -27.3389     29.3860     45.2981     75.4763     83.8813
  1969.2500    -27.3211     29.6697     46.2196     79.1159     80.7444
  1969.5000    -27.2883     29.6705     46.2192     82.5781     75.1611
  1969.7500    -27.2372     29.4885     45.2809     85.0970     71.4161
  1970.0000    -27.1647     29.2258     43.5662     85.5005     67.8475
  1970.2500    -27.0698     28.9582     41.3603     82.7196     68.0275
  1970.5000    -26.9547     28.7239     38.9777     76.3906     73.4225
  1970.7500    -26.8258     28.5264     36.6834     67.1975     80.6165
  1971.0000    -26.6931     28.3494     34.6560     56.7309     95.7687
  1971.2500    -26.5686     28.1733     32.9894     46.9168    107.2674
  1971.5000    -26.4637     27.9859     31.7135     39.3259    123.0590
  1971.7500    -26.3870     27.7847     30.8158     34.7198    130.7237
  1972.0000    -26.3428     27.5722     30.2597     33.0051    136.3590
  1972.2500    -26.3305     27.3517     29.9961     33.5102    136.4992
  1972.5000    -26.3451     27.1277     29.9709     35.3698    133.0305
  1972.7500    -26.3795     26.9070     30.1305     37.8424    129.2320
  1973.0000    -26.4267     26.7000     30.4246     40.4700    121.9163
  1973.2500    -26.4816     26.5189     30.8093     43.0726    115.8102
  1973.5000    -26.5429     26.3771     31.2484     45.6161    104.9075
  1973.7500    -26.6129     26.2895     31.7132     48.0446     97.3354
  1974.0000    -26.6963     26.2726     32.1827     50.1804     87.8442
  1974.2500    -26.7978     26.3411     32.6425     51.7438     83.6376
  1974.5000    -26.9208     26.5016     33.0833     52.4760     80.1704
  1974.7500    -27.0655     26.7493     33.5001     52.2887     78.8595
  1975.0000    -27.2298     27.0683     33.8910     51.3448     76.8958
  1975.2500    -27.4101     27.4397     34.2556     50.0144     74.9945
  1975.5000    -27.6022     27.8483     34.5952     48.7297     70.6843
  1975.7500    -27.8019     28.2840     34.9128     47.8202     66.8407
  1976.0000    -28.0053     28.7374     35.2142     47.4039     60.3673
  1976.2500    -28.2083     29.1933     35.5088     47.3723     56.2955
  1976.5000    -28.4070     29.6325     35.8102     47.4822     51.5409
  1976.7500    -28.5987     30.0424     36.1343     47.5106     49.4252
  1977.0000    -28.7834     30.4311     36.4976     47.3801     47.4375
  1977.2500    -28.9651     30.8300     36.9132     47.1695     46.5346
  1977.5000    -29.1521     31.2800     37.3878     47.0187     45.3517
  1977.7500    -29.3554     31.8114     37.9200     47.0287     44.5552
  1978.0000    -29.5857     32.4304     38.4991     47.2306     43.2728
  1978.2500    -29.8500     33.1257     39.1069     47.6257     42.3648
  1978.5000    -30.1478     33.8822     39.7205     48.2306     41.1658
  1978.7500    -30.4694     34.6873     40.3159     49.0776     40.7997
  1979.0000    -30.7952     35.5153     40.8719     50.1752     41.3636
  1979.2500    -31.0990     36.2968     41.3731     51.4685     42.3830
  1979.5000    -31.3523     36.9052     41.8110     52.8341     44.0230
  1979.7500    -31.5294     37.1858     42.1833     54.0966     44.6608
  1980.0000    -31.6131     37.0301     42.4926     55.0468     44.7762
  1980.2500    -31.5981     36.4494     42.7450     55.4715     44.7732
  1980.5000    -31.4913     35.5836     42.9498     55.2266     45.8994
  1980.7500    -31.3105     34.6407     43.1201     54.3464     47.8322
  1981.0000    -31.0804     33.8127     43.2732     53.1122     52.0086
  1981.2500    -30.8279     33.2288     43.4292     51.9947     54.7962
  1981.5000    -30.5783     32.9505     43.6084     51.4796     57.6793
  1981.7500    -30.3517     32.9953     43.8262     51.8827     58.5211
  1982.0000    -30.1618     33.3619     44.0888     53.2752     58.4954
  1982.2500    -30.0148     34.0422     44.3906     55.5479     57.8052
  1982.5000    -29.9089     35.0133     44.7136     58.5384     55.8171
  1982.7500    -29.8349     36.2151     45.0301     62.1059     53.9333
  1983.0000    -29.7774     37.5284     45.3041     66.0823     50.7405
  1983.2500    -29.7175     38.7742     45.4941     70.1379     48.7673
  1983.5000    -29.6363     39.7525     45.5527     73.7113     46.7247
  1983.7500    -29.5192     40.3149     45.4266     76.1398     46.2963
  1984.0000    -29.3584     40.4260     45.0601     76.9506     47.2878
  1984.2500    -29.1544     40.1704     44.4044     76.0767     48.9557
  1984.5000    -28.9146     39.6983     43.4312     73.8084     52.7215
  1984.7500    -28.6514     39.1547     42.1467     70.5432     56.0539
  1985.0000    -28.3785     38.6295     40.5973     66.5787     62.4359
  1985.2500    -28.1089     38.1446     38.8649     62.0986     67.5823
  1985.5000    -27.8529     37.6675     37.0500     57.2759     75.7614
  1985.7500    -27.6180     37.1402     35.2525     52.3390     80.3111
  1986.0000    -27.4092     36.5141     33.5557     47.5575     83.1322
  1986.2500    -27.2289     35.7747     32.0175     43.2124     81.4051
  1986.5000    -27.0774     34.9465     30.6692     39.5824     74.2050
  1986.7500    -26.9520     34.0809     29.5182     36.9052     67.8937
  1987.0000    -26.8460     33.2297     28.5525     35.2903     58.7769
  1987.2500    -26.7486     32.4252     27.7462     34.6559     53.7243
  1987.5000    -26.6458     31.6714     27.0632     34.7772     47.9567
  1987.7500    -26.5218     30.9490     26.4631     35.4320     45.1884
  1988.0000    -26.3623     30.2294     25.9051     36.5062     42.2121
  1988.2500    -26.1571     29.4912     25.3544     37.9457     40.8107
  1988.5000    -25.9026     28.7300     24.7868     39.5795     40.1233
  1988.7500    -25.6032     27.9590     24.1919     40.9828     41.7304
  1989.0000    -25.2708     27.1999     23.5729     41.5471     49.8202
  1989.2500    -24.9230     26.4715     22.9433     40.7704     59.8590
  1989.5000    -24.5812     25.7819     22.3210     38.5841     80.6507
  1989.7500    -24.2671     25.1282     21.7225     35.4626     96.0717
  1990.0000    -24.0008     24.5030     21.1594     32.2116    116.8065
  1990.2500    -23.7986     23.9013     20.6366     29.5740    126.9846
  1990.5000    -23.6721     23.3234     20.1532     27.9168    136.0177
  1990.7500    -23.6275     22.7742     19.7057     27.1664    139.0422
  1991.0000    -23.6655     22.2616     19.2904     26.9697    142.0878
  1991.2500    -23.7814     21.7977     18.9068     26.9310    144.1642
  1991.5000    -23.9660     21.4027     18.5578     26.7787    147.1246
  1991.7500    -24.2063     21.1051     18.2510     26.4092    148.5281
  1992.0000    -24.4873     20.9364     17.9969     25.8403    150.1001
  1992.2500    -24.7944     20.9220     17.8078     25.1504    151.5191
  1992.5000    -25.1146     21.0728     17.6970     24.4417    154.8855
  1992.7500    -25.4383     21.3818     17.6779     23.8238    157.5594
  1993.0000    -25.7596     21.8257     17.7637     23.3918    160.6296
  1993.2500    -26.0763     22.3714     17.9677     23.2084    161.2769
  1993.5000    -26.3882     22.9823     18.3033     23.3205    160.0801
  1993.7500    -26.6954     23.6252     18.7833     23.8279    158.4461
  1994.0000    -26.9968     24.2749     19.4187     24.9881    155.6729
  1994.2500    -27.2885     24.9179     20.2172     27.2880    153.4673
  1994.5000    -27.5640     25.5564     21.1800     31.4030    148.0707
  1994.7500    -27.8148     26.2095     22.2992     37.9677    141.8754
  1995.0000    -28.0319     26.9113     23.5548     47.1685    127.4529
  1995.2500    -28.2079     27.7050     24.9143     58.3204    114.8618
  1995.5000    -28.3383     28.6345     26.3338     69.7272     94.4714
