~Version Information
VERS.                      2.0: CWLS Log ASCII Standard - VERSION 2.0
WRAP.                       NO: One line per depth step
~Well Information Block
STRT.FT               400.0000: 
STOP.FT              2201.0000: 
STEP.FT                 0.2500: 
NULL.                -999.2500: 
COMP.          Evergreen Operating Corporation: COMPANY
WELL.            Triumph 13-10: WELL
FLD.           Purgatorie River: FIELD
LOC.           1551' FSL & 522' FWL: LOCATION
PROV.                 Colorado: PROVINCE
CNTY.               Las Animas: COUNTRY
SRVC.                Patterson: SERVICE COMPANY
DATE.          Fri Jul 23 20:28:37 2004: LOG DATE
UWI.           05 071 08108 00: UNIQUE WELL ID
~Curve Information Block
DEPT.FT            0 000 00 00: Depth
SN.Ohm-m                      : IEL Short Normal
SP.mV                         : IEL Spontaneous Potential
DIR.Ohm-m                     : IEL Induction Resistivity
GR.GAPI                       : Gamma Ray
~Parameter Information Block
~A  Depth        SN          SP         DIR          GR     
# ...
  1941.0000     35.3521    110.0405     29.8703     89.6011
  1941.2500     35.9389    110.0166     31.0798     91.4260
  1941.5000     36.7507    109.9992     32.2715     90.4184
  1941.7500     37.7926    109.9813     33.4209     88.1797
  1942.0000     39.0629    109.9701     34.5126     84.4329
  1942.2500     40.5362    109.9824     35.5282     82.2714
  1942.5000     42.1188    110.0345     36.4546     79.3693
  1942.7500     43.6504    110.1350     37.3031     77.2940
  1943.0000     44.9785    110.2808     38.1153     73.5893
  1943.2500     46.0308    110.4584     38.9402     70.7454
  1943.5000     46.8137    110.6472     39.8001     66.2613
  1943.7500     47.3483    110.8265     40.6723     63.3848
  1944.0000     47.6234    110.9836     41.4915     59.6563
  1944.2500     47.6432    111.1182     42.1654     57.7807
  1944.5000     47.4793    111.2385     42.5880     56.1102
  1944.7500     47.2002    111.3510     42.6459     55.6792
  1945.0000     46.7948    111.4557     42.2208     55.5347
  1945.2500     46.2216    111.5502     41.1928     55.4667
  1945.5000     45.4970    111.6387     39.4646     55.3264
  1945.7500     44.6690    111.7333     37.0166     55.4054
  1946.0000     43.7003    111.8489     33.9669     56.1085
  1946.2500     42.4966    111.9950     30.5780     56.9920
  1946.5000     41.0377    112.1711     27.1786     58.7179
  1946.7500     39.3068    112.3687     24.0535     59.9296
  1947.0000     37.1622    112.5765     21.3737     61.6358
  1947.2500     34.4467    112.7870     19.1934     62.9255
  1947.5000     31.2162    112.9998     17.4835     66.2356
  1947.7500     27.8167    113.2212     16.1741     70.2048
  1948.0000     24.7238    113.4573     15.1852     79.7801
  1948.2500     22.2509    113.7071     14.4424     88.6596
  1948.5000     20.3990    113.9592     13.8817    104.9623
  1948.7500     19.0090    114.1942     13.4487    116.7836
  1949.0000     17.9678    114.3924     13.0991    133.0741
  1949.2500     17.2390    114.5416     12.8024    141.1189
  1949.5000     16.7970    114.6425     12.5461    147.2231
  1949.7500     16.5678    114.7088     12.3366    147.7247
  1950.0000     16.4184    114.7639     12.1951    145.3712
  1950.2500     16.2322    114.8326     12.1496    142.8296
  1950.5000     16.0205    114.9320     12.2268    137.8866
  1950.7500     15.9683    115.0651     12.4474    133.4305
  1951.0000     16.3499    115.2198     12.8244    124.9035
  1951.2500     17.3681    115.3760     13.3634    118.7937
  1951.5000     19.0451    115.5185     14.0635    111.0704
  1951.7500     21.1945    115.6432     14.9159    107.6175
  1952.0000     23.4737    115.7535     15.9036    104.7504
  1952.2500     25.5495    115.8545     17.0024    103.7557
  1952.5000     27.2893    115.9549     18.1858    102.7587
  1952.7500     28.7859    116.0668     19.4288    102.2251
  1953.0000     30.1819    116.1998     20.7110    101.5325
  1953.2500     31.4988    116.3536     22.0151    101.0180
  1953.5000     32.6606    116.5181     23.3233     99.9531
  1953.7500     33.6407    116.6791     24.6132     99.1683
  1954.0000     34.5356    116.8257     25.8564     98.3522
  1954.2500     35.4833    116.9558     27.0168     98.0619
  1954.5000     36.5200    117.0733     28.0464     97.2268
  1954.7500     37.5533    117.1808     28.8832     95.8593
  1955.0000     38.4588    117.2739     29.4644     92.4717
  1955.2500     39.1452    117.3444     29.7513     89.8556
  1955.5000     39.5557    117.3904     29.7477     86.5839
  1955.7500     39.6714    117.4250     29.4921     85.1915
  1956.0000     39.5046    117.4731     29.0432     84.2561
  1956.2500     39.0675    117.5559     28.4754     84.4190
  1956.5000     38.3988    117.6792     27.8834     86.2802
  1956.7500     37.6218    117.8323     27.3714     88.7743
  1957.0000     36.9047    117.9910     27.0215     93.8432
  1957.2500     36.3545    118.1240     26.8620     97.2728
  1957.5000     35.9877    118.2070     26.8613    100.8741
  1957.7500     35.7842    118.2356     26.9518    101.7324
  1958.0000     35.7342    118.2246     27.0644    101.3033
  1958.2500     35.8584    118.1973     27.1504    101.0382
  1958.5000     36.2085    118.1809     27.1902    102.7603
  1958.7500     36.8373    118.2188     27.2008    105.5288
  1959.0000     37.7253    118.3807     27.2398    109.8710
  1959.2500     38.7342    118.7369     27.3830    110.9711
  1959.5000     39.7154    119.2950     27.6773    108.5355
  1959.7500     40.6649    119.9589     28.1090    105.1107
  1960.0000     41.6592    120.5736     28.6151     99.9529
  1960.2500     42.6616    121.0270     29.1308     97.2051
  1960.5000     43.4976    121.3074     29.6241     93.2584
  1960.7500     43.9826    121.4732     30.0871     90.0416
  1961.0000     43.9982    121.5895     30.4907     84.6027
  1961.2500     43.4798    121.6907     30.7506     81.4907
  1961.5000     42.4237    121.7790     30.7512     79.0947
  1961.7500     40.9349    121.8370     30.4315     79.2716
  1962.0000     39.2013    121.8411     29.8625     81.2760
  1962.2500     37.4003    121.7720     29.2220     82.6471
  1962.5000     35.6982    121.6227     28.6748     82.9519
  1962.7500     34.3086    121.4008     28.2703     81.6350
  1963.0000     33.4541    121.1249     27.9400     78.0574
  1963.2500     33.2836    120.8179     27.5903     75.2118
  1963.5000     33.8038    120.5059     27.2059     70.7872
  1963.7500     34.7896    120.2223     26.8734     67.7965
  1964.0000     35.8650    120.0115     26.7194     63.7675
  1964.2500     36.7724    119.9204     26.8335     62.2518
  1964.5000     37.4395    119.9775     27.2313     63.5967
  1964.7500     37.8395    120.1728     27.8560     67.3981
  1965.0000     37.9970    120.4558     28.6022     76.2162
  1965.2500     38.0701    120.7571     29.3451     82.3977
  1965.5000     38.2425    121.0186     29.9631     88.5618
  1965.7500     38.5768    121.2167     30.3424     88.9808
  1966.0000     39.1039    121.3682     30.3643     83.2548
  1966.2500     39.9756    121.5192     29.9171     76.0861
  1966.5000     41.2387    121.7226     28.9570     63.3707
  1966.7500     42.3668    122.0148     27.5790     55.4719
  1967.0000     42.3941    122.4057     26.0011     46.9819
  1967.2500     40.7730    122.8861     24.4493     44.5251
  1967.5000     37.8261    123.4411     23.0453     46.4308
  1967.7500     34.3176    124.0580     21.7847     51.2278
  1968.0000     30.9174    124.7218     20.5941     62.1072
  1968.2500     28.0224    125.4048     19.4072     70.3526
  1968.5000     25.7456    126.0612     18.2083     81.6478
  1968.7500     23.9607    126.6405     17.0275     87.4396
  1969.0000     22.4570    127.1104     15.9110     93.0099
  1969.2500     21.1128    127.4721     14.8997     95.0123
  1969.5000     19.9501    127.7521     14.0235     97.0319
  1969.7500     19.0528    127.9804     13.3038     99.0600
  1970.0000     18.4279    128.1730     12.7503    105.2320
  1970.2500     17.9747    128.3320     12.3549    111.7558
  1970.5000     17.5879    128.4546     12.0887    123.2425
  1970.7500     17.2282    128.5411     11.9076    129.9347
  1971.0000     16.9024    128.5959     11.7670    135.6451
  1971.2500     16.6273    128.6259     11.6364    136.4716
  1971.5000     16.4195    128.6405     11.5059    135.6441
  1971.7500     16.2877    128.6494     11.3807    135.2950
  1972.0000     16.2230    128.6631     11.2724    135.7500
  1972.2500     16.2078    128.6933     11.1920    135.8937
  1972.5000     16.2297    128.7500     11.1489    134.3423
  1972.7500     16.2774    128.8347     11.1505    132.1097
  1973.0000     16.3415    128.9366     11.2022    128.5351
  1973.2500     16.4164    129.0389     11.3055    127.1337
  1973.5000     16.4924    129.1321     11.4571    127.1889
  1973.7500     16.5695    129.2217     11.6500    128.0450
  1974.0000     16.6723    129.3257     11.8772    128.8615
  1974.2500     16.8238    129.4622     12.1353    128.5714
