~Version Information
 VERS.                                  2.0 : CWLS LAS VERSION
 WRAP.                                   NO : WRAPING MODE
 SWARE .                 MController 2.5.0J : SOFTWARE VERSION
~Well Information
 WELL.                        Montoya 7-12R : WELL
 COMP.                       Petrogulf Corp : COMPANY
 FLD.                      Purgatorie River : FIELD
 LOC.                 SW/NW Sec 7 T33S R67W : LOCATION
 DATE.                    11/18/04 11/19/04 : DATE(S) LOGGED
 SRVC.       Blanco Geological Services LLC : SERVICE COMPANY
 STAT.                                   CO : STATE
 CNTY.                           Las Animas : COUNTY
 CTRY.                                  USA : COUNTRY
 API.                       05-071-08240-00 : API NUMBER
 STRT.FT                              30.00 : START DEPTH
 STOP.FT                            2040.00 : STOP DEPTH
 STEP.FT                               1.00 : DEPTH INCREMENT
 NULL.                                -9999 : NULL VALUE
~Curve information
 DEPTH.FT                                   :
 ROP.MIN/FT                                 :
 GAS.UNITS                                  :
~ASCII Log data
# ...
       430.0         0.30          5.1 
       431.0         0.30          4.9 
       432.0         0.30          4.4 
       433.0         0.30          4.2 
       434.0         0.33          4.4 
       435.0         0.30          4.6 
       436.0         0.30          4.1 
       437.0         0.30          2.9 
       438.0         0.40          3.3 
       439.0         0.37          3.2 
       440.0         0.38          4.1 
       441.0         0.33          1.8 
       442.0         0.27          2.3 
       443.0         0.20          2.3 
       444.0         0.40          2.4 
       445.0         0.30          4.0 
       446.0         0.27          4.3 
       447.0         0.30          4.9 
       448.0         0.32          3.8 
       449.0         0.30          4.4 
       450.0         0.33          3.9 
       451.0         0.27          3.9 
       452.0         0.27          4.1 
       453.0         0.30          4.1 
       454.0         0.33          4.5 
       455.0         0.33          5.1 
       456.0         0.40          3.6 
       457.0         0.27          3.5 
       458.0         0.33          3.6 
       459.0         0.32          3.0 
       460.0         0.17          3.9 
       461.0         0.17          4.8 
       462.0         0.17          4.1 
       463.0         0.23          4.2 
       464.0         0.27          4.1 
       465.0         0.27          5.2 
       466.0         0.17          5.3 
       467.0         0.13          5.1 
       468.0         0.17          4.7 
       469.0         0.30          6.4 
       470.0         0.37          7.8 
       471.0         0.30          7.4 
       472.0         0.33          5.4 
       473.0         0.48          7.6 
       474.0         1.13          7.2 
       475.0         0.27          7.6 
       476.0         0.37          8.8 
       477.0         0.37         10.3 
       478.0         0.30          8.4 
       479.0         0.43          6.2 
       480.0         0.72          7.1 
       481.0         0.63          6.7 
       482.0         0.63          6.5 
       483.0         0.20          6.9 
       484.0         0.17          7.9 
       485.0         0.13          8.5 
       486.0         0.17          8.0 
       487.0         0.40          7.7 
       488.0         0.38          6.9 
       489.0         0.50          7.0 
       490.0         0.37          7.0 
       491.0         0.20          6.7 
       492.0         0.17          7.0 
       493.0         0.20          6.7 
       494.0         0.13          6.8 
       495.0         0.17          7.3 
       496.0         0.17          7.0 
       497.0         0.20          7.1 
       498.0         0.30          6.8 
       499.0         0.20          6.8 
       500.0         0.27          7.1 
       501.0         0.33          7.2 
       502.0         0.32          7.1 
       503.0         0.30          7.0 
       504.0         0.33          6.6 
       505.0         0.50          6.4 
       506.0         0.90          8.0 
       507.0         0.23          8.1 
       508.0         0.30          7.4 
       509.0         0.40          9.0 
       510.0         0.52         10.1 
       511.0         0.27          9.2 
       512.0         0.30          7.1 
       513.0         0.30          6.1 
       514.0         0.27          6.2 
       515.0         0.27          6.1 
       516.0         0.30          6.1 
       517.0         0.37          6.6 
       518.0         0.33          6.6 
       519.0         0.33          7.6 
       520.0         0.35          7.7 
       521.0         0.27          6.9 
       522.0         0.30          8.4 
       523.0         0.30          8.0 
       524.0         0.33          7.3 
       525.0         0.30          6.9 
       526.0         0.33          6.9 
       527.0         0.37          6.6 
       528.0         0.27          7.4 
       529.0         0.30          6.4 
       530.0         0.55          7.2 
       531.0         0.50          6.6 
       532.0         0.20          7.0 
       533.0         0.17          7.9 
       534.0         0.27          7.5 
       535.0         0.20          7.4 
       536.0         0.17          7.5 
       537.0         0.13         10.6 
       538.0         0.17          9.7 
       539.0         0.13         10.0 
       540.0         0.10          9.5 
       541.0         0.17         10.1 
       542.0         0.13         10.2 
       543.0         0.13         10.7 
       544.0         0.17         10.2 
       545.0         0.17         10.7 
       546.0         0.20         10.7 
       547.0         0.17         10.6 
       548.0         0.20         10.5 
       549.0         0.20         10.9 
       550.0         0.17         10.0 
       551.0         0.13         10.6 
       552.0         0.13         10.2 
       553.0         0.18         10.7 
       554.0         0.17         10.5 
       555.0         0.17         10.4 
       556.0         0.17         10.5 
       557.0         0.13         10.4 
       558.0         0.17         10.6 
       559.0         0.17         10.7 
       560.0         0.17         10.3 
       561.0         0.13         10.3 
       562.0         0.17          9.9 
       563.0         0.20          9.8 
       564.0         0.13         10.3 
       565.0         0.13         10.0 
       566.0         0.13         10.0 
       567.0         0.13         10.6 
       568.0         0.17         10.2 
       569.0         0.13         10.7 
       570.0         0.10         10.5 
       571.0         0.17         10.4 
       572.0         0.13         10.5 
       573.0         0.13         10.5 
       574.0         0.17         10.6 
       575.0         0.17         10.7 
       576.0         0.20         10.3 
       577.0         0.17         10.3 
       578.0         0.20          9.9 
       579.0         0.20          9.8 
       580.0         0.17         10.3 
       581.0         0.13         10.0 
       582.0         0.13         10.3 
       583.0         0.18         11.5 
       584.0         0.17         10.2 
       585.0         0.17         10.3 
       586.0         0.17         10.4 
       587.0         0.13         10.4 
       588.0         0.17         10.4 
       589.0         0.17         10.5 
       590.0         0.17         10.6 
       591.0         0.13         10.6 
       592.0         0.17         10.4 
       593.0         0.20         10.1 
       594.0         0.13         10.1 
       595.0         0.13          9.8 
       596.0         0.27         10.7 
       597.0         0.17         10.3 
       598.0         0.17         10.6 
       599.0         0.20         10.1 
       600.0         0.20         10.2 
       601.0         0.20         10.7 
       602.0         0.17         10.0 
       603.0         0.20         10.2 
       604.0         0.17         10.5 
       605.0         0.17         10.1 
       606.0         0.20         10.3 
       607.0         0.17         10.9 
       608.0         0.17         10.6 
       609.0         0.17         10.4 
       610.0         0.17         10.1 
       611.0         0.18         10.0 
       612.0         0.17         10.6 
       613.0         0.13         10.4 
       614.0         0.10         10.4 
       615.0         0.10         10.2 
       616.0         0.13         10.2 
       617.0         0.13         10.5 
       618.0         0.17         10.7 
       619.0         0.13         10.5 
       620.0         0.13         10.5 
       621.0         0.20         10.3 
       622.0         0.17         10.0 
       623.0         0.17         10.5 
       624.0         0.17         10.1 
       625.0         0.13         10.1 
       626.0         0.27         10.1 
       627.0         0.20         10.5 
       628.0         0.17         10.3 
       629.0         0.17          9.9 
