~Version Information
VERS.                      2.0: CWLS Log ASCII Standard - VERSION 2.0
WRAP.                       NO: One line per depth step
~Well Information Block
STRT.FT               340.0000: 
STOP.FT              1542.5000: 
STEP.FT                 0.1000: 
NULL.                -999.2500: 
COMP.          Petrogulf Corporation: COMPANY
WELL.            Montoya 7-21R: WELL
FLD.           Purgatorie River: FIELD
LOC.           445' FNL & 1942' FWL: LOCATION
PROV.                 Colorado: PROVINCE
CNTY.               Las Animas: COUNTRY
SRVC.                Patterson: SERVICE COMPANY
DATE.          Thu Sep 15 10:33:27 2005: LOG DATE
UWI.                          : UNIQUE WELL ID
~Curve Information Block
DEPT.FT            0 000 00 00: Depth
DCAL.in                       : CDL Caliper
RHOB.g/cc                     : CDL Bulk Density
RHOC.g/cc                     : CDL Density Correction
DPOR.pu                       : CDL Density Porosity
GR.GAPI                       : Gamma Ray
NPOR.pu                       : Neutron Porosity
~Parameter Information Block
~A  Depth       DCAL        RHOB        RHOC        DPOR         GR         NPOR    
# ...
   973.6000      8.0041      2.6125      0.0924      2.2706    106.6668     22.5597
   973.7000      8.0041      2.6177      0.0833      1.9576    109.6643     22.5027
   973.8000      8.0215      2.6129      0.0455      2.2497    117.2861     22.1143
   973.9000      8.0215      2.6046      0.0481      2.7532    125.3030     21.9398
   974.0000      8.0228      2.5911      0.0383      3.5674    128.1571     22.3168
   974.1000      8.0228      2.5644      0.0354      5.1897    126.6438     22.8379
   974.2000      8.0228      2.5312     -0.0128      7.1974    123.6023     22.9591
   974.3000      8.0087      2.5082     -0.0032      8.5937    119.1859     22.7525
   974.4000      8.0087      2.4952      0.0341      9.3812    112.4221     22.3206
   974.5000      7.9917      2.4869     -0.0378      9.8854    106.0825     21.5910
   974.6000      7.9917      2.4934      0.0117      9.4908    103.0367     20.9680
   974.7000      7.9917      2.5219      0.0338      7.7618    103.2599     20.8162
   974.8000      7.9744      2.5551      0.0790      5.7522    103.5747     20.6940
   974.9000      7.9744      2.5672      0.0505      5.0166    100.8460     20.2300
   975.0000      7.9573      2.5650     -0.0080      5.1492     96.7582     19.7779
   975.1000      7.9573      2.5754      0.0682      4.5191     92.3840     19.6253
   975.2000      7.9573      2.5934      0.1044      3.4301     88.4361     19.5414
   975.3000      7.9570      2.5944      0.0859      3.3686     86.9351     19.2642
   975.4000      7.9570      2.5807      0.0467      4.2007     87.2248     18.7999
   975.5000      7.9563      2.5720      0.0664      4.7302     86.9879     18.3160
   975.6000      7.9563      2.5759      0.0705      4.4931     86.0536     18.0211
   975.7000      7.9563      2.5882      0.0794      3.7435     85.5734     18.0418
   975.8000      7.9647      2.5938      0.1142      3.4054     86.1303     18.2936
   975.9000      7.9647      2.5763      0.0972      4.4689     87.6156     18.4821
   976.0000      7.9678      2.5451      0.0050      6.3564     89.8890     18.5209
   976.1000      7.9678      2.5179      0.0248      8.0040     92.6290     18.7599
   976.2000      7.9678      2.4857      0.0518      9.9595     95.4404     19.4042
   976.3000      7.9597      2.4428     -0.0136     12.5565    100.0384     20.0731
   976.4000      7.9597      2.4050      0.0272     14.8456    105.6579     20.6042
   976.5000      7.9560      2.3793      0.0102     16.4064    108.4903     21.4282
   976.6000      7.9560      2.3602      0.0403     17.5666    111.4612     22.5524
   976.7000      7.9560      2.3453      0.0369     18.4652    119.6531     23.7311
   976.8000      7.9602      2.3393      0.0283     18.8305    128.9368     25.0078
   976.9000      7.9602      2.3427      0.0637     18.6213    134.0067     26.3484
   977.0000      8.0254      2.3511      0.0695     18.1135    135.7345     27.3631
   977.1000      8.0254      2.3657      0.0949     17.2274    135.3611     28.0207
   977.2000      8.0254      2.3870      0.1161     15.9364    133.6231     28.6584
   977.3000      8.0444      2.4114      0.0560     14.4634    132.6915     29.3495
   977.4000      8.0444      2.4351      0.0982     13.0262    134.2212     30.0673
   977.5000      8.0386      2.4524      0.0713     11.9759    138.0087     30.5679
   977.6000      8.0386      2.4679      0.0748     11.0363    141.7248     30.3772
   977.7000      8.0386      2.4887      0.0909      9.7760    141.5970     29.3838
   977.8000      8.0324      2.5002      0.1213      9.0760    138.1489     27.9714
   977.9000      8.0324      2.4818      0.0849     10.1952    134.8542     26.5844
   978.0000      8.0011      2.4305      0.0673     13.3034    133.5289     25.5575
   978.1000      8.0011      2.3619      0.0380     17.4609    133.4748     25.1890
   978.2000      8.0011      2.2975      0.0466     21.3662    132.3996     25.5891
   978.3000      7.9954      2.2467      0.0383     24.4410    131.2197     26.1488
   978.4000      7.9954      2.2068      0.0160     26.8632    131.5600     26.2534
   978.5000      7.9932      2.1767      0.0178     28.6824    130.6485     26.1990
   978.6000      7.9932      2.1685     -0.0200     29.1847    127.1691     26.3788
   978.7000      7.9932      2.1990      0.0303     27.3340    123.0700     26.8376
   978.8000      8.0022      2.2654      0.0939     23.3113    120.8308     27.6494
   978.9000      8.0022      2.3444      0.1799     18.5237    123.1775     28.4571
   979.0000      8.0172      2.4129      0.2093     14.3688    130.7153     28.5417
   979.1000      8.0172      2.4620      0.1176     11.3969    139.1691     28.1197
   979.2000      8.0172      2.4923      0.0791      9.5556    143.8434     27.9388
   979.3000      8.0001      2.5037      0.0810      8.8678    143.8571     28.0071
   979.4000      8.0001      2.5064      0.0423      8.7052    141.6817     27.9636
   979.5000      7.9932      2.5191      0.0589      7.9317    142.2036     27.5858
   979.6000      7.9932      2.5383      0.0962      6.7678    147.5021     26.7979
   979.7000      7.9932      2.5458      0.0803      6.3146    153.0406     25.9722
   979.8000      7.9990      2.5443      0.0571      6.4060    153.7852     25.4504
   979.9000      7.9990      2.5490      0.0676      6.1193    151.0423     25.2122
   980.0000      8.0064      2.5628      0.1003      5.2837    148.7735     25.1125
   980.1000      8.0064      2.5813      0.1107      4.1641    147.5822     25.0040
   980.2000      8.0064      2.6000      0.1311      3.0290    146.2725     24.9573
   980.3000      7.9811      2.6108      0.1002      2.3752    146.3751     24.8272
   980.4000      7.9811      2.6102      0.0991      2.4091    148.9788     24.3459
   980.5000      7.9799      2.6090      0.0951      2.4868    148.8555     23.9306
   980.6000      7.9799      2.6198      0.0844      1.8295    143.0921     23.9626
   980.7000      7.9799      2.6370      0.0898      0.7884    138.2601     24.1915
   980.8000      7.9878      2.6413      0.1048      0.5302    137.6935     24.1923
   980.9000      7.9878      2.6269      0.0786      1.3989    137.0486     23.9648
   981.0000      7.9706      2.6134      0.0296      2.2166    134.7518     24.0667
   981.1000      7.9706      2.6216      0.0422      1.7197    131.0269     24.5790
   981.2000      7.9706      2.6427      0.0970      0.4406    126.6865     24.8304
   981.3000      7.9681      2.6489      0.0782      0.0695    124.5835     24.5990
   981.4000      7.9681      2.6302      0.0642      1.2005    124.8249     24.4184
   981.5000      7.9677      2.6072     -0.0127      2.5932    124.6385     24.5469
   981.6000      7.9677      2.6030      0.0518      2.8462    124.4077     24.7684
   981.7000      7.9677      2.6189      0.0228      1.8842    125.9034     25.0302
   981.8000      7.9640      2.6472      0.0713      0.1679    126.8092     25.3461
   981.9000      7.9640      2.6715      0.0646     -1.3039    125.3429     25.3104
   982.0000      7.9590      2.6792      0.0578     -1.7706    123.0816     24.6057
   982.1000      7.9590      2.6758      0.0856     -1.5662    120.9458     23.4837
   982.2000      7.9590      2.6713      0.0461     -1.2933    118.2087     22.5354
   982.3000      7.9593      2.6741      0.0385     -1.4581    114.5418     22.2542
   982.4000      7.9593      2.6789      0.0626     -1.7530    112.5898     22.4266
   982.5000      7.9885      2.6791     -0.0160     -1.7608    113.4652     22.3668
   982.6000      7.9885      2.6841      0.0083     -2.0656    114.3627     21.8609
   982.7000      7.9885      2.6885      0.0692     -2.3320    115.0544     21.2595
   982.8000      7.9971      2.6719      0.0397     -1.3290    115.6338     20.9970
   982.9000      7.9971      2.6395      0.0155      0.6369    114.2837     21.0370
   983.0000      7.9931      2.6182     -0.0078      1.9287    112.4676     20.6517
   983.1000      7.9931      2.6237      0.0258      1.5917    113.5532     19.6249
