~Version Information
VERS.                      2.0: CWLS Log ASCII Standard - VERSION 2.0
WRAP.                       NO: One line per depth step
~Well Information Block
STRT.FT                -9.7500: 
STOP.FT              2374.2500: 
STEP.FT                 0.2500: 
NULL.                -999.2500: 
COMP.          Pioneer Natural Resources: COMPANY
WELL.            Chevron 13-13: WELL
FLD.           Purgatorie River: FIELD
LOC.           1560' FSL & 711' FWL--: LOCATION
CNTY.               Las Animas: COUNTY
SRVC.          Superior Well Services: SERVICE COMPANY
DATE.          Wed Apr 11 08:47:55 2007: LOG DATE
UWI.           05 071 08319 00: UNIQUE WELL ID
STAT.                       CO: STATE
~Curve Information Block
DEPT.FT            0 000 00 00: Depth
CCL.                          : Casing Collar Locator
TT3.usec                      : CBL 3' Travel Time
AMP3.mV                       : CBL 3' Amplitude
GR.GAPI                       : Gamma Ray
~Parameter Information Block
~A  Depth       CCL         TT3         AMP3         GR     
# ...
   626.7500      0.0000    266.8301     49.2503     68.6933
   627.0000      0.0000    266.5895     50.0494     70.6469
   627.2500      0.0000    266.2402     51.9333     73.5552
   627.5000      0.0000    265.7217     55.4081     77.0714
   627.7500      0.0000    264.9821     60.2315     80.3935
   628.0000      0.0000    264.0230     65.2730     82.6180
   628.2500      0.0000    262.9512     69.2815     83.5172
   628.5000      0.0000    261.9619     71.7910     83.4969
   628.7500      0.0000    261.2308     73.1390     82.7419
   629.0000      0.0000    260.8091     73.8254     80.9556
   629.2500      0.0000    260.6251     74.1211     78.2179
   629.5000      0.0000    260.5675     74.1413     75.7242
   629.7500      0.0000    260.5565     73.9889     75.0944
   630.0000      0.0000    260.5575     73.7658     76.8083
   630.2500      0.0000    260.5613     73.5408     79.7111
   630.5000      0.0000    260.5661     73.3496     82.2595
   630.7500      0.0000    260.5716     73.2048     83.7574
   631.0000      0.0000    260.5782     73.0951     84.1487
   631.2500      0.0000    260.5858     72.9814     83.4028
   631.5000      0.0000    260.5926     72.8208     81.7257
   631.7500      0.0000    260.5963     72.6095     79.8860
   632.0000      0.0000    260.5981     72.3997     78.6967
   632.2500      0.0000    260.6029     72.2670     78.2904
   632.5000      0.0000    260.6159     72.2539     78.2152
   632.7500      0.0000    260.6383     72.3394     78.1649
   633.0000      0.0000    260.6667     72.4573     78.3975
   633.2500      0.0000    260.6962     72.5460     79.4126
   633.5000      0.0000    260.7233     72.5848     81.2943
   633.7500      0.0000    260.7462     72.5959     83.5341
   634.0000      0.0000    260.7641     72.6181     85.6479
   634.2500      0.0000    260.7784     72.6808     87.7018
   634.5000      0.0000    260.7929     72.7931     89.7688
   634.7500      0.0000    260.8123     72.9460     91.0614
   635.0000      0.0000    260.8380     73.1088     90.4235
   635.2500      0.0000    260.8661     73.2274     87.8123
   635.5000      0.0000    260.8904     73.2411     84.6544
   635.7500      0.0000    260.9079     73.1163     82.6569
   636.0000      0.0000    260.9220     72.8675     82.6033
   636.2500      0.0000    260.9397     72.5515     83.9768
   636.5000      0.0000    260.9658     72.2452     85.1982
   636.7500      0.0000    261.0004     72.0190     84.5323
   637.0000      0.0000    261.0398     71.9115     81.4978
   637.2500      0.0000    261.0785     71.9140     77.6899
   637.5000      0.0000    261.1107     71.9753     75.9062
   637.7500      0.0000    261.1315     72.0223     77.9881
   638.0000      0.0000    261.1396     71.9893     83.2166
   638.2500      0.0000    261.1385     71.8473     88.8279
   638.5000      0.0000    261.1349     71.6165     92.1394
   638.7500      0.0000    261.1337     71.3483     92.0837
   639.0000      0.0000    261.1371     71.0886     88.9799
   639.2500      0.0000    261.1451     70.8575     83.6560
   639.5000      0.0000    261.1579     70.6580     77.2246
   639.7500      0.0000    261.1741     70.4977     71.1411
   640.0000      0.0000    261.1898     70.3966     66.7242
   640.2500      0.0000    261.2000     70.3718     64.5496
   640.5000      0.0000    261.2018     70.4164     64.5442
   640.7500      0.0000    261.1974     70.4997     66.5525
   641.0000      0.0000    261.1927     70.5906     70.2946
   641.2500      0.0000    261.1932     70.6757     74.6922
   641.5000      0.0000    261.2007     70.7532     77.8991
   641.7500      0.0000    261.2126     70.8177     78.5158
   642.0000      0.0000    261.2250     70.8559     76.5224
   642.2500      0.0000    261.2338     70.8545     72.7690
   642.5000      0.0000    261.2355     70.8071     68.0004
   642.7500      0.0000    261.2286     70.7203     62.9570
   643.0000      0.0000    261.2151     70.6110     59.1039
   643.2500      0.0000    261.2012     70.4939     58.2860
   643.5000      0.0000    261.1938     70.3699     61.1610
   643.7500      0.0000    261.1961     70.2365     66.1939
   644.0000      0.0000    261.2056     70.1136     70.5770
   644.2500      0.0000    261.2158     70.0465     72.3358
   644.5000      0.0000    261.2195     70.0732     71.5961
   644.7500      0.0000    261.2124     70.1891     70.0373
   645.0000      0.0000    261.1943     70.3513     69.3280
   645.2500      0.0000    261.1696     70.5172     69.9686
   645.5000      0.0000    261.1436     70.6684     71.3167
   645.7500      0.0000    261.1196     70.8045     72.5649
   646.0000      0.0000    261.0991     70.9277     73.6490
   646.2500      0.0000    261.0838     71.0373     75.1430
   646.5000      0.0000    261.0764     71.1287     77.5171
   646.7500      0.0000    261.0765     71.1947     80.9659
   647.0000      0.0000    261.0782     71.2291     85.7266
   647.2500      0.0000    261.0725     71.2311     91.6716
   647.5000      0.0000    261.0540     71.2029     97.5247
   647.7500      0.0000    261.0241     71.1458    101.4158
   648.0000      0.0000    260.9902     71.0600    102.4103
   648.2500      0.0000    260.9597     70.9458    100.8958
   648.5000      0.0000    260.9345     70.8013     97.7070
   648.7500      0.0000    260.9104     70.6222     93.7339
   649.0000      0.0000    260.8819     70.4135     90.2078
   649.2500      0.0000    260.8474     70.2022     88.4108
   649.5000      0.0000    260.8099     70.0317     88.8724
   649.7500      0.0000    260.7733     69.9424     91.1309
   650.0000      0.0000    260.7401     69.9531     94.1522
   650.2500      0.0000    260.7120     70.0500     96.7466
   650.5000      0.0000    260.6880     70.1867     98.1198
   650.7500      0.0000    260.6645     70.3017     98.5941
   651.0000      0.0000    260.6364     70.3480     99.3833
   651.2500      0.0000    260.6018     70.3135    101.0428
   651.5000      0.0000    260.5631     70.2175    102.4193
   651.7500      0.0000    260.5251     70.0917    101.6231
   652.0000      0.0000    260.4908     69.9657     97.9241
   652.2500      0.0000    260.4617     69.8664     92.3999
   652.5000      0.0000    260.4380     69.8165     86.8201
   652.7500      0.0000    260.4193     69.8249     82.1985
   653.0000      0.0000    260.4023     69.8777     78.4813
   653.2500      0.0000    260.3812     69.9467     75.3948
   653.5000      0.0000    260.3518     70.0101     73.3539
   653.7500      0.0000    260.3150     70.0664     73.4003
   654.0000      0.0000    260.2767     70.1313     76.2424
   654.2500      0.0000    260.2437     70.2231     81.3611
   654.5000      0.0000    260.2205     70.3558     87.1303
   654.7500      0.0000    260.2081     70.5393     91.8085
   655.0000      0.0000    260.2055     70.7743     94.4340
   655.2500      0.0000    260.2092     71.0427     95.0223
   655.5000      0.0000    260.2133     71.3082     94.2889
   655.7500      0.0000    260.2122     71.5388     93.3393
   656.0000      0.0000    260.2043     71.7298     93.3910
   656.2500      0.0000    260.1927     71.9046     95.3142
   656.5000      0.0000    260.1821     72.0946     98.9756
   656.7500      0.0000    260.1747     72.3143    102.8741
   657.0000      0.0000    260.1704     72.5476    104.7302
   657.2500      0.0000    260.1679     72.7487    102.8892
   657.5000      0.0000    260.1659     72.8669     97.3700
   657.7500      0.0000    260.1625     72.8840     89.6299
   658.0000      0.0000    260.1553     72.8277     81.5000
   658.2500      0.0000    260.1428     72.7455     74.4917
   658.5000      0.0000    260.1263     72.6727     69.8791
   658.7500      0.0000    260.1098     72.6281     68.7769
   659.0000      0.0000    260.0975     72.6264     71.5617
   659.2500      0.0000    260.0922     72.6827     77.1436
   659.5000      0.0000    260.0937     72.8048     83.1073
   659.7500      0.0000    260.0998     72.9795     87.0070
   660.0000      0.0000    260.1073     73.1654     87.7809
