~Version Information
VERS.                      2.0: CWLS Log ASCII Standard - VERSION 2.0
WRAP.                       NO: One line per depth step
~Well Information Block
STRT.FT                -8.0000: 
STOP.FT              2410.0000: 
STEP.FT                 0.2500: 
NULL.                -999.2500: 
COMP.          Petrogulf Corporation: COMPANY
WELL.            Torcom 17-33V: WELL
FLD.           Purgatorie River: FIELD
LOC.           1544' FSL & 1746' FEL--: LOCATION
PROV.                       CO: PROVINCE
CNTY.               Las Animas: COUNTRY
SRVC.          Patterson Wireline: SERVICE COMPANY
DATE.          Wed Dec 10 17:24:27 2003: LOG DATE
UWI.                          : UNIQUE WELL ID
~Curve Information Block
DEPT.FT            0 000 00 00: Depth
CCL.                          : Casing Collar Locator
TT3.usec                      : CBL 3' Travel Time
AMP3.mV                       : CBL 3' Amplitude
GR.GAPI                       : Gamma Ray
~Parameter Information Block
~A  Depth       CCL         TT3         AMP3         GR     
# ...
  1097.5000      0.0000    830.5953      2.4473    143.3616
  1097.7500      0.0000    837.6097      2.2493    146.0951
  1098.0000      0.0000    838.8546      2.1215    148.5589
  1098.2500      0.0000    837.0389      2.1149    150.1091
  1098.5000      0.0000    835.0144      2.1876    149.9007
  1098.7500      0.0000    834.7703      2.2474    146.9251
  1099.0000      0.0000    836.3962      2.2347    140.7496
  1099.2500      0.0000    838.0422      2.1575    132.4455
  1099.5000      0.0000    837.0087      2.0567    124.7659
  1099.7500      0.0000    830.9532      1.9578    120.8434
  1100.0000      0.0000    819.1981      1.8644    121.9071
  1100.2500      0.0000    804.1953      1.7837    126.0145
  1100.5000      0.0000    791.4464      1.7366    129.3303
  1100.7500      0.0000    786.5288      1.7333    128.9035
  1101.0000      0.0000    791.4371      1.7433    124.5197
  1101.2500      0.0000    803.3268      1.7017    118.2824
  1101.5000      0.0000    815.6498      1.5572    112.5145
  1101.7500      0.0000    820.6528      1.3204    107.8463
  1102.0000      0.0000    813.3090      1.0696    103.2561
  1102.2500      0.0000    795.1544      0.9047     97.8442
  1102.5000      0.0000    774.8026      0.8886     92.0946
  1102.7500      0.0000    763.1986      1.0194     87.3096
  1103.0000      0.0000    765.6328      1.2466     84.4571
  1103.2500      0.0000    776.6938      1.5052     84.0438
  1103.5000      0.0000    784.3221      1.7436     86.7055
  1103.7500      0.0000    780.8923      1.9434     93.1915
  1104.0000      0.0000    769.8584      2.1239    103.5174
  1104.2500      0.0000    760.6815      2.3216    116.3583
  1104.5000      0.0000    759.3619      2.5627    129.4883
  1104.7500      0.0000    765.3065      2.8607    140.7166
  1105.0000      0.0000    774.5442      3.2334    148.3955
  1105.2500      0.0000    782.8994      3.7038    151.6436
  1105.5000      0.0000    786.8669      4.2725    150.9026
  1105.7500      0.0000    784.3461      4.8951    148.1624
  1106.0000      0.0000    776.0961      5.4999    145.7646
  1106.2500      0.0000    765.8925      6.0311    144.5750
  1106.5000      0.0000    758.0886      6.4735    143.5325
  1106.7500      0.0000    754.3798      6.8433    140.9980
  1107.0000      0.0000    753.0230      7.1698    136.4830
  1107.2500      0.0000    750.9423      7.4920    131.1964
  1107.5000      0.0000    746.2718      7.8489    127.0110
  1107.7500      0.0000    738.7153      8.2489    125.1143
  1108.0000      0.0000    728.5403      8.6400    125.7802
  1108.2500      0.0000    717.6832      8.9162    128.8223
  1108.5000      0.0000    712.2980      8.9654    133.3375
  1108.7500      0.0000    720.0108      8.7338    137.2263
  1109.0000      0.0000    740.8558      8.2595    138.0956
  1109.2500      0.0000    764.2068      7.6335    135.2073
  1109.5000      0.0000    779.0805      6.9254    130.3051
  1109.7500      0.0000    785.3976      6.1607    126.2749
  1110.0000      0.0000    792.0334      5.3654    124.9434
  1110.2500      0.0000    805.6088      4.6099    126.0876
  1110.5000      0.0000    823.7539      4.0020    128.2018
  1110.7500      0.0000    838.7499      3.6413    129.7675
  1111.0000      0.0000    845.6766      3.5685    130.0800
  1111.2500      0.0000    845.9268      3.7382    129.6255
  1111.5000      0.0000    843.7369      4.0344    129.6625
  1111.7500      0.0000    841.0258      4.3345    130.8152
  1112.0000      0.0000    836.1193      4.5764    132.0302
  1112.2500      0.0000    826.2883      4.7693    131.4107
  1112.5000      0.0000    811.0153      4.9472    128.0227
  1112.7500      0.0000    793.6649      5.1242    122.5261
  1113.0000      0.0000    779.9807      5.2791    116.4088
  1113.2500      0.0000    773.9444      5.3629    111.2547
  1113.5000      0.0000    774.8948      5.3190    108.2951
  1113.7500      0.0000    779.1613      5.1178    107.7765
  1114.0000      0.0000    783.6497      4.7893    108.8390
  1114.2500      0.0000    786.4576      4.4232    110.5306
  1114.5000      0.0000    785.1533      4.1270    112.7667
  1114.7500      0.0000    777.5434      3.9718    115.9549
  1115.0000      0.0000    765.1364      3.9681    119.8991
  1115.2500      0.0000    753.6107      4.0817    123.3488
  1115.5000      0.0000    748.1599      4.2619    124.4414
  1115.7500      0.0000    749.0642      4.4651    121.5923
  1116.0000      0.0000    752.6663      4.6723    114.3771
  1116.2500      0.0000    755.9796      4.8937    103.8267
  1116.5000      0.0000    759.0134      5.1464     91.9042
  1116.7500      0.0000    762.6365      5.4235     80.6366
  1117.0000      0.0000    765.7395      5.6865     71.4326
  1117.2500      0.0000    765.4827      5.8808     64.7923
  1117.5000      0.0000    759.8205      5.9582     60.4204
  1117.7500      0.0000    749.3083      5.9054     57.5926
  1118.0000      0.0000    736.7598      5.7741     55.5710
  1118.2500      0.0000    725.2755      5.6698     53.9197
  1118.5000      0.0000    716.2084      5.6820     52.5583
  1118.7500      0.0000    708.8730      5.8145     51.4471
  1119.0000      0.0000    702.2721      5.9883     50.2014
  1119.2500      0.0000    696.9322      6.1042     48.2925
  1119.5000      0.0000    694.7953      6.0926     45.8335
  1119.7500      0.0000    697.2115      5.9259     43.9723
  1120.0000      0.0000    703.3303      5.6095     44.1045
  1120.2500      0.0000    710.7469      5.1713     46.4245
  1120.5000      0.0000    717.5692      4.6631     49.3939
  1120.7500      0.0000    723.5564      4.1693     50.9540
  1121.0000      0.0000    729.3921      3.7935     50.1480
  1121.2500      0.0000    735.1664      3.6085     47.2915
  1121.5000      0.0000    739.6758      3.6182     43.0412
  1121.7500      0.0000    741.2609      3.7694     38.0737
  1122.0000      0.0000    739.4701      3.9860     33.4963
  1122.2500      0.0000    735.8726      4.1881     30.7125
  1122.5000      0.0000    732.8730      4.2986     30.4828
  1122.7500      0.0000    731.4659      4.2614     32.2942
  1123.0000      0.0000    730.5406      4.0736     34.8314
  1123.2500      0.0000    728.6865      3.8015     36.9763
  1123.5000      0.0000    725.9451      3.5549     38.2881
  1123.7500      0.0000    723.3381      3.4364     38.8545
  1124.0000      0.0000    721.5804      3.5038     39.1052
  1124.2500      0.0000    721.1716      3.7492     39.7743
  1124.5000      0.0000    723.1468      4.0889     41.6997
  1124.7500      0.0000    728.9194      4.3856     45.3811
  1125.0000      0.0000    739.2287      4.5096     50.7603
  1125.2500      0.0000    752.7171      4.4071     57.4753
  1125.5000      0.0000    764.9550      4.1405     65.0699
  1125.7500      0.0000    770.2620      3.8739     72.6778
  1126.0000      0.0000    766.7426      3.7918     78.8825
  1126.2500      0.0000    758.7976      3.9972     82.6794
  1126.5000      0.0000    752.5006      4.4662     84.5892
  1126.7500      0.0000    749.2134      5.0831     86.2221
  1127.0000      0.0000    745.7133      5.7168     88.8929
  1127.2500      0.0000    739.7311      6.2869     93.0236
  1127.5000      0.0000    733.0194      6.7870     98.4058
  1127.7500      0.0000    728.5529      7.2726    104.6190
  1128.0000      0.0000    725.9943      7.8361    111.6380
  1128.2500      0.0000    720.2667      8.5582    120.0594
  1128.5000      0.0000    704.4620      9.4315    130.0111
  1128.7500      0.0000    676.0496     10.3259    139.9539
  1129.0000      0.0000    642.0168     11.0532    147.4037
  1129.2500      0.0000    616.1754     11.4794    150.8160
  1129.5000      0.0000    608.4818     11.5835    150.4357
  1129.7500      0.0000    618.1637     11.4332    147.8004
  1130.0000      0.0000    638.6241     11.1296    144.7727
  1130.2500      0.0000    665.5106     10.7776    142.5330
  1130.5000     -2.0000    697.1536     10.4714    141.1304
  1130.7500     -1.5152    729.7063     10.2547    140.0063
