~Version Information
VERS.                      2.0: CWLS Log ASCII Standard - VERSION 2.0
WRAP.                       NO: One line per depth step
~Well Information Block
STRT.FT               360.0000: 
STOP.FT              2515.2000: 
STEP.FT                 0.1000: 
NULL.                -999.2500: 
COMP.          Pioneer Natural Resources: COMPANY
WELL.            Rancher 12-35: WELL
FLD.           Purgatoire River: FIELD
LOC.           2131' FNL & 297' FWL: LOCATION
PROV.                 Colorado: PROVINCE
CNTY.               Las Animas: COUNTRY
SRVC.                Patterson: SERVICE COMPANY
DATE.          Tue Oct 12 09:11:02 2004: LOG DATE
UWI.           05 071 08179 00: UNIQUE WELL ID
~Curve Information Block
DEPT.FT            0 000 00 00: Depth
DCAL.in                       : CDL Caliper
RHOB.g/cc                     : CDL Bulk Density
RHOC.g/cc                     : CDL Density Correction
DPOR.pu                       : CDL Density Porosity
NPOR.pu                       : Neutron Porosity
GR.GAPI                       : Gamma Ray
~Parameter Information Block
~A  Depth       DCAL        RHOB        RHOC        DPOR        NPOR         GR     
# ...
  1915.2000      8.0612      2.6375      0.0860      0.7576     22.4528     73.8478
  1915.3000      8.0557      2.6020      0.0207      2.9102     22.5020     68.5589
  1915.4000      8.0557      2.5666     -0.0517      5.0526     22.5207     67.1225
  1915.5000      8.0616      2.5638     -0.0232      5.2256     22.7229     65.6036
  1915.6000      8.0616      2.5771     -0.0072      4.4201     22.8397     60.8879
  1915.7000      8.0616      2.5760      0.0033      4.4851     22.7728     56.7633
  1915.8000      8.0637      2.5517      0.0258      5.9602     22.6641     54.9348
  1915.9000      8.0637      2.5170     -0.0193      8.0611     22.0733     53.7574
  1916.0000      8.0521      2.4963     -0.0228      9.3175     20.6807     52.9040
  1916.1000      8.0521      2.4983      0.0070      9.1943     19.0905     52.8068
  1916.2000      8.0521      2.5039      0.0459      8.8524     17.8539     54.0996
  1916.3000      8.0421      2.4929      0.0418      9.5212     17.3581     55.6677
  1916.4000      8.0421      2.4709      0.0179     10.8570     17.5982     55.3661
  1916.5000      8.0358      2.4600     -0.0155     11.5173     17.6082     53.7222
  1916.6000      8.0358      2.4640      0.0496     11.2702     17.0158     52.7623
  1916.7000      8.0358      2.4665      0.0469     11.1189     16.3493     52.5583
  1916.8000      8.0350      2.4621      0.0416     11.3908     15.6125     52.2236
  1916.9000      8.0350      2.4588      0.0256     11.5893     14.5427     50.6546
  1917.0000      8.0420      2.4614      0.0400     11.4319     13.7250     46.5578
  1917.1000      8.0420      2.4641      0.0475     11.2689     13.6049     42.0953
  1917.2000      8.0420      2.4610      0.0459     11.4572     13.3975     39.4191
  1917.3000      8.0501      2.4565      0.0422     11.7261     12.1830     37.1092
  1917.4000      8.0501      2.4572      0.0210     11.6835     10.3430     34.9922
  1917.5000      8.0579      2.4590      0.0549     11.5757      9.2255     34.1051
  1917.6000      8.0579      2.4536      0.0340     11.9037      9.3783     33.6534
  1917.7000      8.0579      2.4419      0.0410     12.6132     10.2321     33.0174
  1917.8000      8.0634      2.4342     -0.0061     13.0795     11.0763     33.7662
  1917.9000      8.0634      2.4424      0.0220     12.5821     11.4872     35.2478
  1918.0000      8.0630      2.4607      0.0243     11.4710     11.6469     35.0526
  1918.1000      8.0630      2.4687      0.0522     10.9898     12.1512     35.0462
  1918.2000      8.0630      2.4581      0.0265     11.6314     13.0011     39.0712
  1918.3000      8.0582      2.4419      0.0129     12.6105     13.8985     47.1345
  1918.4000      8.0582      2.4362     -0.0188     12.9560     14.9254     54.4688
  1918.5000      8.0552      2.4438      0.0287     12.4997     15.7084     54.4849
  1918.6000      8.0552      2.4567      0.0023     11.7160     15.8218     47.9443
  1918.7000      8.0552      2.4669      0.0505     11.0952     15.3820     43.2669
  1918.8000      8.0586      2.4705      0.0366     10.8763     14.4043     44.1710
  1918.9000      8.0586      2.4716      0.0150     10.8137     13.2138     47.5003
  1919.0000      8.0629      2.4722      0.0154     10.7774     12.4632     50.0610
  1919.1000      8.0629      2.4708      0.0081     10.8580     12.1681     50.2492
  1919.2000      8.0629      2.4727     -0.0023     10.7480     11.6258     47.7788
  1919.3000      8.0644      2.4794      0.0394     10.3395     11.1698     43.3557
  1919.4000      8.0644      2.4810      0.0440     10.2398     11.8280     40.4831
  1919.5000      8.0630      2.4726      0.0274     10.7489     12.4950     43.0280
  1919.6000      8.0630      2.4593      0.0314     11.5600     11.6517     48.4897
  1919.7000      8.0630      2.4458      0.0045     12.3756     10.2499     50.5369
  1919.8000      8.0589      2.4351      0.0344     13.0238      9.7443     48.4423
  1919.9000      8.0589      2.4345      0.0210     13.0617      9.6095     46.1006
  1920.0000      8.0543      2.4505      0.0037     12.0933      8.8899     44.9987
  1920.1000      8.0543      2.4690      0.0207     10.9694      8.0268     44.0326
  1920.2000      8.0543      2.4699      0.0442     10.9178      8.2159     42.6258
  1920.3000      8.0502      2.4554      0.0170     11.7967      9.7509     42.0343
  1920.4000      8.0502      2.4455      0.0109     12.3952     11.4144     42.1720
  1920.5000      8.0443      2.4488      0.0374     12.1962     12.0036     40.3406
  1920.6000      8.0443      2.4553      0.0246     11.8014     11.6440     38.6143
  1920.7000      8.0443      2.4528      0.0281     11.9505     10.9998     40.0284
  1920.8000      8.0402      2.4400      0.0011     12.7271     10.4178     42.3942
  1920.9000      8.0402      2.4288      0.0087     13.4039      9.9285     43.0402
  1921.0000      8.0404      2.4303     -0.0031     13.3170      9.4964     40.8708
  1921.1000      8.0404      2.4396      0.0522     12.7494      9.3564     38.1937
  1921.2000      8.0404      2.4404      0.0315     12.7061      9.3979     37.1442
  1921.3000      8.0406      2.4316     -0.0021     13.2381      9.1454     35.4101
  1921.4000      8.0406      2.4291      0.0175     13.3851      9.2989     32.2738
  1921.5000      8.0391      2.4390      0.0372     12.7877     10.4359     30.4226
  1921.6000      8.0391      2.4495      0.0657     12.1519     11.4822     31.9363
  1921.7000      8.0391      2.4524      0.0347     11.9779     11.7654     34.5701
  1921.8000      8.0386      2.4580      0.0496     11.6380     11.4779     35.8272
  1921.9000      8.0386      2.4691      0.0868     10.9616     10.9576     39.5787
  1922.0000      8.0406      2.4761      0.0328     10.5398     10.8193     46.6298
  1922.1000      8.0406      2.4744      0.0790     10.6422     11.0178     51.2512
  1922.2000      8.0406      2.4639      0.0230     11.2780     10.8881     52.2797
  1922.3000      8.0429      2.4525      0.0453     11.9709     10.1639     52.0913
  1922.4000      8.0429      2.4442      0.0160     12.4751      9.4604     51.0657
  1922.5000      8.0435      2.4349     -0.0053     13.0347      9.4079     48.7532
  1922.6000      8.0435      2.4269      0.0076     13.5222      9.7321     47.0504
  1922.7000      8.0435      2.4255     -0.0015     13.6074     10.1922     44.6388
  1922.8000      8.0392      2.4321      0.0116     13.2085     11.1964     38.0835
  1922.9000      8.0392      2.4411      0.0281     12.6626     12.0775     31.8354
  1923.0000      8.0317      2.4420      0.0444     12.6056     11.8351     32.4403
  1923.1000      8.0317      2.4292      0.0468     13.3824     11.0910     37.2500
  1923.2000      8.0317      2.4110      0.0201     14.4832     10.6043     39.1766
  1923.3000      8.0284      2.4069      0.0128     14.7361     10.3190     37.5004
  1923.4000      8.0284      2.4244      0.0256     13.6722     10.3708     37.0136
  1923.5000      8.0315      2.4471      0.0953     12.2999     11.2478     39.4296
  1923.6000      8.0315      2.4602      0.0308     11.5011     12.9000     41.8557
  1923.7000      8.0315      2.4648      0.0761     11.2222     14.1471     42.1759
  1923.8000      8.0337      2.4603      0.0258     11.4976     14.1119     40.4433
  1923.9000      8.0337      2.4559     -0.0117     11.7660     13.3084     36.3027
  1924.0000      8.0334      2.4634      0.0551     11.3094     12.6592     31.3136
  1924.1000      8.0334      2.4743      0.0696     10.6463     12.4658     30.5460
  1924.2000      8.0334      2.4776      0.0590     10.4498     12.4461     34.5840
  1924.3000      8.0390      2.4748      0.0633     10.6175     11.9803     38.4863
  1924.4000      8.0390      2.4695      0.0672     10.9365     11.2946     38.7474
  1924.5000      8.0477      2.4642      0.0441     11.2609     11.5380     36.4673
  1924.6000      8.0477      2.4597      0.0650     11.5326     12.1835     34.9643
  1924.7000      8.0477      2.4524      0.0513     11.9751     11.9657     35.0013
