~Version Information
VERS.                      2.0: CWLS Log ASCII Standard - VERSION 2.0
WRAP.                       NO: One line per depth step
~Well Information Block
STRT.FT               375.0000: 
STOP.FT              2637.0000: 
STEP.FT                 0.1000: 
NULL.                -999.2500: 
COMP.          Pioneer Natural Resources: COMPANY
WELL.            Cortina 23-25: WELL
FLD.           Purgatoire River: FIELD
LOC.           2344' FWL & 2526' FSL----: LOCATION
PROV.                 Colorado: PROVINCE
CNTY.               Las Animas: COUNTRY
SRVC.                Patterson: SERVICE COMPANY
DATE.          Thu Mar 24 07:44:45 2005: LOG DATE
UWI.           05 071 08340 00: UNIQUE WELL ID
~Curve Information Block
DEPT.FT            0 000 00 00: Depth
DCAL.in                       : CDL Caliper
DPOR.pu                       : CDL Density Porosity
NPOR.pu                       : Neutron Porosity
RHOB.g/cc                     : CDL Bulk Density
RHOC.g/cc                     : CDL Density Correction
GR.GAPI                       : Gamma Ray
~Parameter Information Block
~A  Depth       DCAL        DPOR        NPOR        RHOB        RHOC         GR     
# ...
   528.6000      8.0533      5.6329     23.3191      2.5571      0.0676     81.6942
   528.7000      8.0533      5.9295     23.5078      2.5522      0.0307     84.2356
   528.8000      8.0495      6.0828     23.5539      2.5496      0.0160     80.0151
   528.9000      8.0495      6.1698     23.3788      2.5482      0.0953     72.7844
   529.0000      8.0472      6.7508     22.9768      2.5386      0.0538     67.3426
   529.1000      8.0472      7.8502     22.3301      2.5205      0.0690     64.7161
   529.2000      8.0472      9.1008     21.6285      2.4998      0.0340     62.3586
   529.3000      8.0472     10.0257     21.2339      2.4846      0.0242     59.1832
   529.4000      8.0472     10.3629     21.1660      2.4790      0.0132     56.8600
   529.5000      8.0492     10.2942     21.1793      2.4801      0.0233     56.1257
   529.6000      8.0492      9.9206     21.2399      2.4863      0.0553     57.0213
   529.7000      8.0492      9.3246     21.2780      2.4961      0.0758     59.0497
   529.8000      8.0525      8.8981     21.1848      2.5032      0.0676     59.3193
   529.9000      8.0525      9.1772     21.1164      2.4986      0.0583     56.5484
   530.0000      8.0548     10.3350     21.0810      2.4795      0.0313     53.8200
   530.1000      8.0548     11.8571     21.0648      2.4544     -0.0115     53.9445
   530.2000      8.0548     12.6259     21.2037      2.4417     -0.0117     55.6750
   530.3000      8.0537     12.0148     21.3154      2.4518      0.0284     56.3108
   530.4000      8.0537     10.7961     21.2070      2.4719      0.0793     54.9030
   530.5000      8.0521      9.8713     21.2080      2.4871      0.0459     55.1759
   530.6000      8.0521      8.8260     21.5727      2.5044     -0.0223     61.3809
   530.7000      8.0521      7.4645     21.9587      2.5268      0.0654     68.9032
   530.8000      8.0529      6.8704     22.0535      2.5366      0.0379     68.8237
   530.9000      8.0529      7.2733     22.0745      2.5300      0.0524     62.5855
   531.0000      8.0549      7.8414     22.2717      2.5206      0.0337     60.6142
   531.1000      8.0549      7.8035     22.4756      2.5212      0.0405     66.1815
   531.2000      8.0549      6.8457     22.8169      2.5370      0.0437     73.4218
   531.3000      8.0560      5.3733     23.8114      2.5613      0.0667     78.1646
   531.4000      8.0560      4.5137     25.1463      2.5755      0.0697     80.2485
   531.5000      8.0554      5.1555     25.9445      2.5649      0.0627     81.4592
   531.6000      8.0554      6.3799     26.1855      2.5447      0.0167     82.9757
   531.7000      8.0554      6.2869     26.5746      2.5463      0.0517     82.8637
   531.8000      8.0553      4.5371     27.4428      2.5751      0.0327     81.6812
   531.9000      8.0553      2.5674     28.4203      2.6076      0.1157     81.9432
   532.0000      8.0567      1.9629     29.2108      2.6176      0.1238     83.6653
   532.1000      8.0567      2.6249     29.8525      2.6067      0.0672     87.2829
   532.2000      8.0567      3.2127     30.1468      2.5970      0.0652     92.6911
   532.3000      8.0578      3.2758     29.9485      2.5959      0.0770     96.2791
   532.4000      8.0578      3.5310     29.5617      2.5917      0.0620     97.4662
   532.5000      8.0565      4.5732     29.4542      2.5745      0.0367    101.2496
   532.6000      8.0565      5.6779     29.8654      2.5563     -0.0108    109.4891
   532.7000      8.0565      5.9418     30.5358      2.5520      0.0583    116.9226
   532.8000      8.0549      5.8651     30.7726      2.5532      0.0118    121.8575
   532.9000      8.0549      6.1321     30.0461      2.5488      0.0356    125.7066
   533.0000      8.0535      6.1937     28.7986      2.5478     -0.0187    124.7779
   533.1000      8.0535      5.0440     28.0561      2.5668      0.0036    118.8865
   533.2000      8.0535      3.2535     28.0156      2.5963      0.0426    116.2718
   533.3000      8.0519      2.4702     27.8499      2.6092      0.0760    119.4108
   533.4000      8.0519      2.7956     27.2630      2.6039      0.0328    122.8454
   533.5000      8.0517      3.1148     26.9954      2.5986      0.0677    124.4312
   533.6000      8.0517      3.4364     27.2123      2.5933      0.0392    124.5086
   533.7000      8.0517      4.1514     27.3309      2.5815      0.0263    121.9664
   533.8000      8.0525      4.6520     27.3694      2.5732      0.0119    118.1768
   533.9000      8.0525      4.3717     27.7051      2.5779      0.0564    116.0965
   534.0000      8.0526      3.6597     28.0881      2.5896      0.0339    116.0286
   534.1000      8.0526      2.9817     28.1915      2.6008      0.0068    117.6066
   534.2000      8.0526      2.8091     28.3288      2.6036      0.0763    120.0798
   534.3000      8.0538      3.3371     28.7162      2.5949      0.0195    119.3473
   534.4000      8.0538      3.7543     29.0188      2.5881      0.0292    114.5692
   534.5000      8.0568      3.6406     29.0624      2.5899      0.0041    110.9332
   534.6000      8.0568      3.8173     29.1177      2.5870      0.0862    111.2510
   534.7000      8.0568      4.8912     29.2397      2.5693      0.0053    114.2912
   534.8000      8.0579      5.8503     29.2286      2.5535      0.0095    119.8205
   534.9000      8.0579      5.7389     29.3179      2.5553      0.0087    123.9392
   535.0000      8.0559      5.3065     29.8671      2.5624      0.0341    120.4119
   535.1000      8.0559      5.7560     30.4310      2.5550      0.0129    114.7182
   535.2000      8.0559      6.9174     30.4237      2.5359      0.0042    115.5339
   535.3000      8.0547      7.9931     30.0614      2.5181      0.0267    119.1122
   535.4000      8.0547      8.3190     29.6229      2.5127     -0.0442    120.9627
   535.5000      8.0552      7.0117     29.0986      2.5343     -0.0155    123.9529
   535.6000      8.0552      4.4310     28.6992      2.5769      0.0076    128.5391
   535.7000      8.0552      2.5659     28.6582      2.6077      0.0533    130.9604
   535.8000      8.0548      2.5225     28.7993      2.6084      0.0471    130.3584
   535.9000      8.0548      3.2682     28.8250      2.5961      0.0385    126.7163
   536.0000      8.0538      3.4437     28.7269      2.5932      0.0213    119.4001
   536.1000      8.0538      3.2270     28.7088      2.5968      0.0534    112.9540
   536.2000      8.0538      3.9156     28.6820      2.5854      0.0746    113.0857
   536.3000      8.0535      5.4413     28.4248      2.5602     -0.0015    119.2737
   536.4000      8.0535      6.1232     28.0772      2.5490      0.0021    124.4011
   536.5000      8.0535      5.1527     27.7746      2.5650      0.0154    122.0959
   536.6000      8.0535      3.4727     27.5521      2.5927      0.0560    115.9650
   536.7000      8.0535      2.4940     27.5026      2.6088      0.0395    112.5087
   536.8000      8.0532      3.0215     27.7057      2.6001      0.1126    113.6251
   536.9000      8.0532      5.4213     28.1326      2.5605      0.0538    117.5613
   537.0000      8.0525      8.8204     28.3353      2.5045      0.0328    119.4181
   537.1000      8.0525     11.3703     27.7698      2.4624      0.0464    118.4438
   537.2000      8.0525     11.9920     26.9209      2.4521      0.0354    118.4989
   537.3000      8.0514     10.7538     26.5436      2.4726      0.0583    120.6419
   537.4000      8.0514      8.3918     26.4749      2.5115      0.1181    122.4348
   537.5000      8.0514      6.0417     26.2383      2.5503      0.1255    120.1969
   537.6000      8.0514      4.5914     25.8459      2.5742      0.1265    115.6239
   537.7000      8.0514      3.5883     25.7217      2.5908      0.0937    116.6279
   537.8000      8.0507      2.3012     26.0083      2.6120      0.1632    120.9037
   537.9000      8.0507      1.1325     26.4905      2.6313      0.1386    117.2537
   538.0000      8.0509      0.0782     27.0566      2.6487      0.1575    105.8824
   538.1000      8.0509     -1.1320     27.7638      2.6687      0.1655     94.1731
