~Version Information
VERS.                      2.0: CWLS Log ASCII Standard - VERSION 2.0
WRAP.                       NO: One line per depth step
~Well Information Block
STRT.FT                -3.0000: 
STOP.FT              1828.0000: 
STEP.FT                 0.2500: 
NULL.                -999.2500: 
COMP.          Pioneer Natural Resources: COMPANY
WELL.           Guajardo 24-16: WELL
FLD.           Purgatorie River: FIELD
LOC.           883' FSL & 2147' FWL--: LOCATION
PROV.                       CO: PROVINCE
CNTY.               Las Animas: COUNTRY
SRVC.          Patterson Wireline: SERVICE COMPANY
DATE.          Wed Aug 10 11:02:25 2005: LOG DATE
UWI.           05 071 08377 00: UNIQUE WELL ID
~Curve Information Block
DEPT.FT            0 000 00 00: Depth
CCL.                          : Casing Collar Locator
TT3.usec                      : CBL 3' Travel Time
AMP3.mV                       : CBL 3' Amplitude
GR.GAPI                       : Gamma Ray
~Parameter Information Block
~A  Depth       CCL         TT3         AMP3         GR     
# ...
  1337.0000      0.0000    771.6392      8.8426    130.3921
  1337.2500      0.0000    778.7513      8.9336    131.3088
  1337.5000      0.0000    784.0380      8.9096    131.9044
  1337.7500      0.0000    785.4461      8.8453    131.2595
  1338.0000      0.0000    782.1718      8.7724    128.5762
  1338.2500      0.0000    774.2836      8.6967    123.6917
  1338.5000      0.0000    763.6763      8.6158    117.1802
  1338.7500      0.0000    754.5358      8.5277    110.0047
  1339.0000      0.0000    751.1272      8.4344    103.1083
  1339.2500      0.0000    754.2150      8.3394     97.2221
  1339.5000      0.0000    760.0765      8.2414     92.6180
  1339.7500      0.0000    763.5457      8.1338     88.8806
  1340.0000      0.0000    762.0152      8.0131     85.3465
  1340.2500      0.0000    756.6709      7.8889     82.0686
  1340.5000      0.0000    750.4890      7.7817     80.0285
  1340.7500      0.0000    745.4777      7.7093     80.1124
  1341.0000      0.0000    741.6542      7.6733     82.0729
  1341.2500      0.0000    738.1475      7.6611     84.6147
  1341.5000      0.0000    734.7683      7.6594     86.2173
  1341.7500      0.0000    732.1927      7.6663     85.8646
  1342.0000      0.0000    730.7045      7.6867     83.6026
  1342.2500      0.0000    729.6066      7.7186     80.9106
  1342.5000      0.0000    728.3884      7.7496     80.1768
  1342.7500      0.0000    727.6773      7.7674     82.9999
  1343.0000      0.0000    728.2217      7.7723     88.8135
  1343.2500      0.0000    729.5242      7.7750     95.4653
  1343.5000      0.0000    730.1371      7.7857    101.1629
  1343.7500      0.0000    728.8738      7.8081    105.7642
  1344.0000      0.0000    725.7189      7.8424    110.3487
  1344.2500      0.0000    722.3427      7.8912    115.7076
  1344.5000      0.0000    721.8373      7.9574    121.2536
  1344.7500      0.0000    726.7777      8.0381    125.4241
  1345.0000      0.0000    736.4802      8.1256    127.0834
  1345.2500      0.0000    746.5020      8.2129    126.4470
  1345.5000      0.0000    751.7694      8.2928    124.7737
  1345.7500      0.0000    750.1866      8.3522    123.3346
  1346.0000      0.0000    743.1222      8.3767    122.5135
  1346.2500      0.0000    733.5770      8.3636    121.7116
  1346.5000      0.0000    724.4871      8.3236    120.2148
  1346.7500      0.0000    717.7530      8.2693    118.2262
  1347.0000      0.0000    713.7964      8.2054    116.9687
  1347.2500      0.0000    711.9279      8.1326    117.7374
  1347.5000      0.0000    711.2206      8.0569    120.8501
  1347.7500      0.0000    711.0717      7.9906    125.4645
  1348.0000      0.0000    711.2149      7.9448    130.2738
  1348.2500      0.0000    711.4341      7.9210    134.2598
  1348.5000      0.0000    711.1227      7.9109    136.9433
  1348.7500      0.0000    708.9043      7.9046    138.3650
  1349.0000      0.0000    703.1061      7.8965    139.0698
  1349.2500      0.0000    693.5803      7.8876    139.8618
  1349.5000      0.0000    683.3576      7.8831    141.0532
  1349.7500      0.0000    677.3734      7.8887    141.7868
  1350.0000      0.0000    678.3740      7.9060    140.5419
  1350.2500      0.0000    684.2501      7.9323    136.6493
  1350.5000      0.0000    690.1127      7.9650    131.1279
  1350.7500      0.0000    692.9273      8.0035    125.9472
  1351.0000      0.0000    693.6312      8.0463    122.5635
  1351.2500      0.0000    694.9177      8.0888    121.0409
  1351.5000      0.0000    697.7998      8.1246    120.2927
  1351.7500      0.0000    700.8352      8.1452    118.9641
  1352.0000      0.0000    702.2064      8.1413    116.0683
  1352.2500      0.0000    701.7331      8.1091    111.1005
  1352.5000      0.0000    700.5713      8.0570    104.1528
  1352.7500      0.0000    699.4203      8.0011     96.3616
  1353.0000      0.0000    697.8204      7.9540     89.8968
  1353.2500      0.0000    695.5040      7.9204     86.7839
  1353.5000      0.0000    693.6489      7.9009     87.4294
  1353.7500      0.0000    693.8412      7.8965     90.3983
  1354.0000      0.0000    696.0403      7.9096     93.6811
  1354.2500      0.0000    698.5671      7.9412     96.2253
  1354.5000      0.0000    700.1714      7.9859     98.4638
  1354.7500      0.0000    701.1890      8.0333    101.5911
  1355.0000      0.0000    702.3660      8.0744    106.2281
  1355.2500      0.0000    703.4565      8.1088    111.5679
  1355.5000      0.0000    703.6812      8.1426    115.8112
  1355.7500      0.0000    703.1329      8.1791    117.5583
  1356.0000      0.0000    702.9441      8.2125    116.8353
  1356.2500      0.0000    704.0054      8.2323    114.8843
  1356.5000      0.0000    705.9879      8.2331    113.1494
  1356.7500      0.0000    707.7682      8.2176    112.4388
  1357.0000      0.0000    708.3988      8.1898    112.7377
  1357.2500      0.0000    707.5287      8.1485    113.5412
  1357.5000      0.0000    705.4045      8.0912    114.2147
  1357.7500      0.0000    702.8167      8.0242    114.1704
  1358.0000      0.0000    700.6027      7.9628    113.0986
  1358.2500      0.0000    698.6598      7.9210    111.2355
  1358.5000      0.0000    695.7665      7.9017    109.1580
  1358.7500      0.0000    691.0518      7.8986    107.2134
  1359.0000      0.0000    685.6799      7.9039    105.3211
  1359.2500      0.0000    682.7642      7.9128    103.3932
  1359.5000      0.0000    685.6196      7.9219    101.7677
  1359.7500      0.0000    695.9593      7.9265    101.2168
  1360.0000      0.0000    712.9275      7.9215    102.6527
  1360.2500      0.0000    732.8635      7.9033    106.6514
  1360.5000      0.0000    749.9603      7.8735    112.9134
  1360.7500      0.0000    758.3248      7.8396    119.9774
  1361.0000      0.0000    754.8491      7.8104    125.7222
  1361.2500      0.0000    741.1957      7.7895    128.6324
  1361.5000      0.0000    723.2828      7.7766    128.7921
  1361.7500      0.0000    707.8560      7.7734    127.7119
  1362.0000      0.0000    697.8648      7.7856    127.1312
  1362.2500      0.0000    690.8919      7.8185    127.5968
  1362.5000      0.0000    683.0107      7.8720    127.9179
  1362.7500      0.0000    673.7612      7.9398    126.2121
  1363.0000      0.0000    666.1984      8.0123    121.7237
  1363.2500      0.0000    662.8394      8.0802    115.5395
  1363.5000      0.0000    663.2439      8.1358    109.4940
  1363.7500      0.0000    665.3455      8.1735    104.5654
  1364.0000      0.0000    667.7549      8.1890    100.3955
  1364.2500      0.0000    670.3549      8.1825     96.1997
  1364.5000      0.0000    673.3186      8.1604     92.1017
  1364.7500      0.0000    676.0775      8.1318     89.5771
  1365.0000      0.0000    677.4238      8.1019     90.3306
  1365.2500      0.0000    676.6664      8.0697     94.3682
  1365.5000      0.0000    674.3903      8.0338     99.3842
  1365.7500      0.0000    671.8312      7.9982    102.5400
  1366.0000      0.0000    669.6183      7.9674    102.7357
  1366.2500      0.0000    667.1786      7.9376    100.9405
  1366.5000      0.0000    663.0083      7.8970     98.9071
  1366.7500      0.0000    655.5078      7.8399     98.0770
  1367.0000      0.0000    644.2998      7.7765     99.2979
  1367.2500      0.0000    631.6738      7.7257    102.9042
  1367.5000      0.0000    622.8633      7.7006    108.7898
  1367.7500      0.0000    623.7662      7.7020    116.1661
  1368.0000      0.0000    636.7386      7.7249    123.1275
  1368.2500      0.0000    657.9867      7.7644    126.8881
  1368.5000      0.0000    679.8464      7.8190    125.2615
  1368.7500      0.0000    696.0682      7.8867    118.3924
  1369.0000      0.0000    704.8923      7.9624    108.9482
  1369.2500      0.0000    708.1862      8.0376    100.4021
  1369.5000      0.0000    709.2205      8.1055     95.1021
  1369.7500      0.0000    710.8900      8.1670     93.5922
  1370.0000      0.0000    714.2655      8.2291     94.8795
  1370.2500      0.0000    718.2563      8.2985     97.0898
