~Version Information
VERS.                      2.0: CWLS Log ASCII Standard - VERSION 2.0
WRAP.                       NO: One line per depth step
~Well Information Block
STRT.FT               481.5000: 
STOP.FT              2033.5000: 
STEP.FT                 0.2500: 
NULL.                -999.2500: 
COMP.          Petrogulf Corporation: COMPANY
WELL.            Montoya 7-12R: WELL
FLD.           Purgatorie River: FIELD
LOC.           1769' FNL & 658' FWL: LOCATION
CNTY.               Las Animas: COUNTY
SRVC.                         : SERVICE COMPANY
DATE.          Sat Nov 20 02:31:05 2004: LOG DATE
UWI.           05 071 08240 00: UNIQUE WELL ID
STAT.                 Colorado: STATE
~Curve Information Block
DEPT.FT            0 000 00 00: Depth
SP.mV                         : DIL Spontaneous Potential
RILD.Ohm-m                    : DIL Deep Resistivity
RILM.Ohm-m                    : DIL Medium Resistivity
RLL3.Ohm-m                    : DIL Shallow Resistivity
GR.GAPI                       : Gamma Ray
~Parameter Information Block
~A  Depth        SP         RILD        RILM        RLL3         GR     
# ...
  1293.5000    -96.3495     18.6139     21.4289     35.8969    109.0300
  1293.7500    -95.1948     18.9729     22.6353     41.7364    105.2758
  1294.0000    -93.7859     19.2610     23.8560     49.0744    100.2275
  1294.2500    -92.3399     19.4545     24.9774     57.9436     97.2615
  1294.5000    -91.0281     19.5313     25.8504     67.9526     92.0793
  1294.7500    -89.9455     19.4742     26.3164     78.1621     87.2130
  1295.0000    -89.1094     19.2737     26.2531     87.1439     77.4287
  1295.2500    -88.4810     18.9315     25.6215     93.2709     69.9464
  1295.5000    -88.0072     18.4605     24.4858     95.1751     59.5297
  1295.7500    -87.6531     17.8842     22.9919     92.2051     54.6648
  1296.0000    -87.4263     17.2330     21.3171     84.6797     52.5308
  1296.2500    -87.3745     16.5396     19.6205     73.8138     54.7018
  1296.5000    -87.5595     15.8353     18.0174     61.3451     61.4141
  1296.7500    -88.0208     15.1468     16.5756     49.0273     66.4923
  1297.0000    -88.7451     14.4951     15.3251     38.1976     73.1823
  1297.2500    -89.6491     13.8960     14.2714     29.5653     77.0789
  1297.5000    -90.5937     13.3609     13.4065     23.2431     83.0982
  1297.7500    -91.4127     12.8982     12.7170     18.9411     87.4593
  1298.0000    -91.9532     12.5143     12.1887     16.2031     93.8012
  1298.2500    -92.1096     12.2146     11.8085     14.5944     97.3433
  1298.5000    -91.8417     12.0035     11.5658     13.7972    101.4927
  1298.7500    -91.1718     11.8849     11.4521     13.6234    103.7861
  1299.0000    -90.1653     11.8621     11.4607     13.9755    106.6017
  1299.2500    -88.9041     11.9377     11.5866     14.7931    107.5095
  1299.5000    -87.4608     12.1136     11.8253     16.0095    106.1494
  1299.7500    -85.8925     12.3906     12.1732     17.5247    103.2312
  1300.0000    -84.2488     12.7681     12.6265     19.2112     96.8988
  1300.2500    -82.5918     13.2440     13.1822     20.9388     92.3755
  1300.5000    -81.0194     13.8138     13.8376     22.6085     86.4713
  1300.7500    -79.6759     14.4702     14.5913     24.1791     83.4886
  1301.0000    -78.7401     15.2032     15.4435     25.6770     80.5444
  1301.2500    -78.3902     16.0002     16.3958     27.1839     79.4622
  1301.5000    -78.7472     16.8464     17.4521     28.8030     78.7140
  1301.7500    -79.8269     17.7262     18.6174     30.6162     78.4909
  1302.0000    -81.5157     18.6248     19.8980     32.6542     78.0427
  1302.2500    -83.5818     19.5301     21.3015     34.8916     77.4240
  1302.5000    -85.7226     20.4327     22.8375     37.2738     75.9670
  1302.7500    -87.6329     21.3268     24.5169     39.7623     74.8593
  1303.0000    -89.0711     22.2078     26.3509     42.3711     73.2565
  1303.2500    -89.9032     23.0704     28.3478     45.1715     72.0619
  1303.5000    -90.1169     23.9045     30.5058     48.2562     69.6758
  1303.7500    -89.8089     24.6911     32.8024     51.6778     67.8209
  1304.0000    -89.1430     25.4000     35.1823     55.4008     65.4047
  1304.2500    -88.3039     25.9888     37.5450     59.3003     64.2487
  1304.5000    -87.4447     26.4055     39.7351     63.2118     62.6630
  1304.7500    -86.6525     26.5964     41.5474     67.0079     61.2676
  1305.0000    -85.9272     26.5159     42.7467     70.6561     58.6995
  1305.2500    -85.1952     26.1401     43.1119     74.2130     57.1760
  1305.5000    -84.3505     25.4742     42.4951     77.7472     55.9719
  1305.7500    -83.3097     24.5545     40.8773     81.2159     55.8443
  1306.0000    -82.0686     23.4414     38.3873     84.3577     55.7366
  1306.2500    -80.7246     22.2062     35.2782     86.6613     55.1579
  1306.5000    -79.4661     20.9188     31.8568     87.4472     53.4360
  1306.7500    -78.5157     19.6378     28.4108     86.0480     52.2805
  1307.0000    -78.0551     18.4061     25.1586     82.0335     52.0000
  1307.2500    -78.1610     17.2518     22.2328     75.3900     53.4630
  1307.5000    -78.7690     16.1899     19.6918     66.5833     58.5004
  1307.7500    -79.6870     15.2264     17.5408     56.4733     63.5431
  1308.0000    -80.6470     14.3617     15.7536     46.1085     72.8001
  1308.2500    -81.3827     13.5925     14.2894     36.4796     79.3478
  1308.5000    -81.6972     12.9140     13.1035     28.3162     88.1443
  1308.7500    -81.5128     12.3205     12.1526     21.9873     92.6496
  1309.0000    -80.8787     11.8062     11.3984     17.5127     97.3973
  1309.2500    -79.9491     11.3652     10.8076     14.6539     99.7476
  1309.5000    -78.9314     10.9921     10.3524     13.0358    102.7923
  1309.7500    -78.0352     10.6814     10.0097     12.2563    104.6466
  1310.0000    -77.4138     10.4280      9.7606     11.9629    107.3507
  1310.2500    -77.1376     10.2268      9.5898     11.8916    109.2485
  1310.5000    -77.1862     10.0726      9.4848     11.8736    112.0592
  1310.7500    -77.4614      9.9605      9.4354     11.8241    113.3667
  1311.0000    -77.8247      9.8852      9.4337     11.7206    113.2930
  1311.2500    -78.1413      9.8417      9.4728     11.5783    111.6727
  1311.5000    -78.3155      9.8249      9.5468     11.4277    108.0478
  1311.7500    -78.3173      9.8299      9.6504     11.3003    106.0110
  1312.0000    -78.1748      9.8518      9.7782     11.2182    104.7639
  1312.2500    -77.9619      9.8862      9.9245     11.1897    104.9825
  1312.5000    -77.7622      9.9283     10.0832     11.2088    105.8199
  1312.7500    -77.6438      9.9732     10.2472     11.2595    106.2026
  1313.0000    -77.6458     10.0160     10.4090     11.3221    106.0713
  1313.2500    -77.7765     10.0513     10.5602     11.3801    105.3824
  1313.5000    -78.0130     10.0744     10.6930     11.4254    103.4788
  1313.7500    -78.3148     10.0811     10.7997     11.4582    101.9263
  1314.0000    -78.6168     10.0681     10.8741     11.4844     99.9876
  1314.2500    -78.8355     10.0338     10.9112     11.5101     99.3131
  1314.5000    -78.8713      9.9777     10.9078     11.5377     99.3319
  1314.7500    -78.6208      9.9007     10.8623     11.5631     99.8995
  1315.0000    -78.0008      9.8046     10.7745     11.5772    101.3537
  1315.2500    -76.9724      9.6920     10.6460     11.5677    102.6183
  1315.5000    -75.5589      9.5658     10.4803     11.5222    104.7078
  1315.7500    -73.8547      9.4295     10.2831     11.4307    106.0962
  1316.0000    -72.0111      9.2872     10.0627     11.2880    108.2706
  1316.2500    -70.2189      9.1433      9.8289     11.0960    110.0203
  1316.5000    -68.6758      9.0025      9.5929     10.8643    113.2424
  1316.7500    -67.5673      8.8695      9.3657     10.6104    115.4771
  1317.0000    -67.0269      8.7483      9.1570     10.3563    118.0137
  1317.2500    -67.1183      8.6421      8.9740     10.1242    118.7049
  1317.5000    -67.8180      8.5527      8.8214      9.9319    118.0146
  1317.7500    -69.0151      8.4803      8.7010      9.7900    116.6351
  1318.0000    -70.5263      8.4238      8.6116      9.7015    114.0113
  1318.2500    -72.1352      8.3807      8.5506      9.6626    112.3573
  1318.5000    -73.6404      8.3483      8.5136      9.6645    110.4824
  1318.7500    -74.8975      8.3240      8.4961      9.6946    109.7672
  1319.0000    -75.8566      8.3058      8.4940      9.7372    109.4588
  1319.2500    -76.5595      8.2931      8.5038      9.7749    109.4279
  1319.5000    -77.1136      8.2864      8.5236      9.7926    108.7537
  1319.7500    -77.6492      8.2873      8.5523      9.7820    107.7077
  1320.0000    -78.2644      8.2977      8.5898      9.7459    106.1141
  1320.2500    -78.9971      8.3194      8.6361      9.7000    105.8662
  1320.5000    -79.8074      8.3532      8.6914      9.6684    107.3598
  1320.7500    -80.6022      8.3984      8.7551      9.6764    109.1748
  1321.0000    -81.2738      8.4533      8.8264      9.7415    111.7366
  1321.2500    -81.7359      8.5147      8.9035      9.8670    112.8260
