~Version Information
VERS.                      2.0: CWLS Log ASCII Standard - VERSION 2.0
WRAP.                       NO: One line per depth step
~Well Information Block
STRT.FT                -8.0000: 
STOP.FT              1357.5000: 
STEP.FT                 0.2500: 
NULL.                -999.2500: 
COMP.          Pioneer Natural Resources: COMPANY
WELL.          Lorencito 6-3-34-66: WELL
FLD.           Purgatorie River: FIELD
LOC.           2545' FNL & 1914' FWL: LOCATION
STAT.                       CO: State
CNTY.               Las Animas: COUNTY
CTRY. USA : Country
SECT. 3 : Section
TOWN. 34S : Township
RANG. 66W : Range
SRVC.          Patterson Wireline: SERVICE COMPANY
DATE.          Tue Sep 27 11:36:13 2005: LOG DATE
API.           05 071 08369 00: UNIQUE WELL ID
~Curve Information Block
DEPT.FT            0 000 00 00: Depth
CCL.                          : Casing Collar Locator
TT3.usec                      : CBL 3' Travel Time
AMP3.mV                       : CBL 3' Amplitude
GR.GAPI                       : Gamma Ray
~Parameter Information Block
~A  Depth       CCL         TT3         AMP3         GR     
# ...
   260.0000      0.0000    734.9679      9.4123     49.1093
   260.2500      0.0000    722.5346      9.2846     44.6714
   260.5000      0.0000    710.7769      9.2055     42.6927
   260.7500      0.0000    705.0243      9.1554     41.6211
   261.0000      0.0000    710.4947      9.1225     40.0608
   261.2500      0.0000    726.4119      9.1077     37.4039
   261.5000      0.0000    746.2729      9.1212     34.4417
   261.7500      0.0000    763.5266      9.1736     33.3382
   262.0000      0.0000    775.7499      9.2693     36.3230
   262.2500      0.0000    783.9929      9.4039     43.7306
   262.5000      0.0000    790.0962      9.5663     53.1771
   262.7500      0.0000    795.0660      9.7416     60.9933
   263.0000      0.0000    798.9604      9.9137     64.7277
   263.2500      0.0000    801.4853     10.0675     64.3016
   263.5000      0.0000    802.4631     10.1904     61.0921
   263.7500      0.0000    801.7689     10.2749     56.5816
   264.0000      0.0000    799.2322     10.3207     52.0309
   264.2500      0.0000    795.2103     10.3347     48.5610
   264.5000      0.0000    791.3284     10.3276     46.7190
   264.7500      0.0000    789.9259     10.3107     46.0529
   265.0000      0.0000    792.1016     10.2945     45.4550
   265.2500      0.0000    796.6352     10.2863     43.9095
   265.5000      0.0000    801.3079     10.2875     41.0312
   265.7500      0.0000    804.9885     10.2929     37.3788
   266.0000      0.0000    808.1168     10.2927     34.3967
   266.2500      0.0000    811.5201     10.2785     33.5000
   266.5000      0.0000    815.2397     10.2484     34.7586
   266.7500      0.0000    818.5850     10.2083     36.6952
   267.0000      0.0000    821.0643     10.1671     37.5928
   267.2500      0.0000    822.7554     10.1304     36.8213
   267.5000      0.0000    823.6579     10.0986     34.9437
   267.7500      0.0000    823.2106     10.0698     33.0248
   268.0000      0.0000    820.8651     10.0441     32.0342
   268.2500      0.0000    816.9428     10.0234     32.5126
   268.5000      0.0000    812.6447     10.0111     34.3408
   268.7500      0.0000    809.1962     10.0102     36.7008
   269.0000      0.0000    807.0989     10.0212     38.4530
   269.2500      0.0000    806.1914     10.0392     38.7679
   269.5000      0.0000    806.1903     10.0561     37.5524
   269.7500      0.0000    807.1037     10.0676     35.5198
   270.0000      0.0000    809.2169     10.0761     33.9433
   270.2500      0.0000    812.6681     10.0865     34.0563
   270.5000      0.0000    816.8977     10.1005     36.2924
   270.7500      0.0000    820.5707     10.1172     39.9101
   271.0000      0.0000    822.3245     10.1363     43.3717
   271.2500      0.0000    821.8127     10.1598     45.3088
   271.5000      0.0000    820.0510     10.1886     45.5129
   271.7500      0.0000    818.5286     10.2201     45.2785
   272.0000      0.0000    817.7661     10.2496     46.7194
   272.2500      0.0000    816.9393     10.2746     51.3874
   272.5000      0.0000    815.1199     10.2944     59.2427
   272.7500      0.0000    812.4855     10.3080     68.7947
   273.0000      0.0000    809.9951     10.3105     78.0921
   273.2500      0.0000    808.3076     10.2953     85.6049
   273.5000      0.0000    807.4371     10.2596     90.6358
   273.7500      0.0000    807.1912     10.2079     93.3474
   274.0000      0.0000    807.5101     10.1484     94.4201
   274.2500      0.0000    808.2518     10.0866     94.5222
   274.5000      0.0000    808.6095     10.0262     94.1135
   274.7500      0.0000    806.9484      9.9736     93.7395
   275.0000      0.0000    801.8383      9.9383     94.0724
   275.2500      0.0000    793.6581      9.9264     95.1178
   275.5000      0.0000    784.7686      9.9359     95.5731
   275.7500      0.0000    777.7159      9.9592     93.7698
   276.0000      0.0000    773.5134      9.9879     89.6163
   276.2500      0.0000    771.7412     10.0154     85.1061
   276.5000      0.0000    771.8044     10.0363     82.5390
   276.7500      0.0000    773.8481     10.0479     82.3980
   277.0000      0.0000    778.6722     10.0499     82.9416
   277.2500      0.0000    786.5352     10.0445     81.6355
   277.5000      0.0000    795.4772     10.0360     77.2811
   277.7500      0.0000    801.1212     10.0325     71.3189
   278.0000      0.0000    799.4777     10.0434     67.2254
   278.2500      0.0000    790.6346     10.0745     68.2300
   278.5000      0.0000    779.1476     10.1223     74.9299
   278.7500      0.0000    770.3923     10.1737     84.6438
   279.0000      0.0000    766.7503     10.2116     93.2177
   279.2500      0.0000    767.0842     10.2246     98.0383
   279.5000      0.0000    768.9299     10.2127     99.6507
   279.7500      0.0000    770.5921     10.1835    100.4500
   280.0000      0.0000    771.6015     10.1429    101.9720
   280.2500      0.0000    772.1196     10.0930    103.6297
   280.5000      0.0000    772.3668     10.0377    103.7968
   280.7500      0.0000    772.4511      9.9875    101.6904
   281.0000      0.0000    772.4253      9.9513     98.0728
   281.2500      0.0000    772.3484      9.9250     94.2725
   281.5000      0.0000    772.2900      9.8910     90.8618
   281.7500      0.0000    772.2946      9.8329     87.4302
   282.0000      0.0000    772.3469      9.7524     83.3789
   282.2500      0.0000    772.3118      9.6753     78.7017
   282.5000      0.0000    771.8277      9.6379     74.1910
   282.7500      0.0000    770.3153      9.6673     71.2170
   283.0000      0.0000    767.5239      9.7704     71.0453
   283.2500      0.0000    764.5112      9.9327     73.7269
   283.5000      0.0000    764.2554     10.1184     77.5687
   283.7500      0.0000    770.5336     10.2775     79.9817
   284.0000      0.0000    784.4161     10.3725     78.9658
   284.2500      0.0000    800.7952     10.4029     74.0445
   284.5000      0.0000    810.2919     10.3995     66.3252
   284.7500      0.0000    807.3207     10.4008     57.8538
   285.0000      0.0000    795.5278     10.4394     50.5848
   285.2500      0.0000    783.4479     10.5401     45.5840
   285.5000      0.0000    776.3561     10.7171     42.9425
   285.7500      0.0000    773.9429     10.9633     42.2720
   286.0000      0.0000    773.6526     11.2392     43.2240
   286.2500      0.0000    773.7349     11.4739     45.5933
   286.5000      0.0000    773.6821     11.5964     49.0739
   286.7500      0.0000    773.5442     11.5862     53.1128
   287.0000      0.0000    773.4377     11.4930     57.1314
   287.2500      0.0000    773.3634     11.3971     60.9004
   287.5000      0.0000    773.2437     11.3523     64.6693
   287.7500      0.0000    773.0083     11.3648     68.8962
   288.0000      0.0000    772.6697     11.4114     73.6667
   288.2500      0.0000    772.3173     11.4632     78.1779
   288.5000      0.0000    772.0398     11.4989     81.0197
   288.7500      0.0000    771.8641     11.5079     81.3305
   289.0000      0.0000    771.7598     11.4896     79.7639
   289.2500      0.0000    771.6821     11.4480     78.1181
   289.5000      0.0000    771.6058     11.3857     77.7797
   289.7500      0.0000    771.5425     11.3011     78.5370
   290.0000      0.0000    771.5377     11.1934     79.0976
   290.2500      0.0000    771.5846     11.0699     78.6730
   290.5000      0.0000    771.4798     10.9470     77.8229
   290.7500      0.0000    770.7398     10.8439     77.7594
   291.0000      0.0000    768.7350     10.7732     79.0377
   291.2500      0.0000    765.0802     10.7324     81.0821
   291.5000      0.0000    760.0741     10.7035     82.9016
   291.7500      0.0000    754.8286     10.6605     83.8386
   292.0000      0.0000    750.9631     10.5812     83.5563
   292.2500      0.0000    750.0233     10.4589     81.9595
   292.5000      0.0000    752.6346     10.3103     79.4817
   292.7500      0.0000    757.7680     10.1718     77.1154
   293.0000      0.0000    763.1213     10.0852     76.0213
   293.2500      0.0000    766.8156     10.0800     77.0436
