~Version Information
 VERS.                                  2.0 : CWLS LAS VERSION
 WRAP.                                   NO : WRAPING MODE
 SWARE .                 MController 2.5.0E : SOFTWARE VERSION
~Well Information
 WELL.                        Rimrock 14-29 : WELL
 COMP.             Evergreen Operating Corp : COMPANY
 FLD.                      Purgatorie River : FIELD
 LOC.                SW SW Sec 29 T32S R65W : LOCATION
 DATE.                              9/20/04 : DATE(S) LOGGED
 SRVC.       Blanco Geological Services LLC : SERVICE COMPANY
 STAT.                                   CO : STATE
 CNTY.                           Las Animas : COUNTY
 CTRY.                                  USA : COUNTRY
 API.                       05-071-08136-00 : API NUMBER
 STRT.FT                             517.00 : START DEPTH
 STOP.FT                            1705.00 : STOP DEPTH
 STEP.FT                               1.00 : DEPTH INCREMENT
 NULL.                                -9999 : NULL VALUE
~Curve information
 DEPTH.FT                                   :
 ROP.MIN/FT                                 :
 GAS.UNITS                                  :
~ASCII Log data
# ...
      917.00        0.100          4.0 
      918.00        0.233          4.7 
      919.00        0.233          4.5 
      920.00        0.200          4.6 
      921.00        0.200          3.9 
      922.00        0.233          4.2 
      923.00        0.167          4.6 
      924.00        0.167          4.6 
      925.00        0.167          3.7 
      926.00        1.483          4.8 
      927.00        0.367          5.9 
      928.00        0.233          8.5 
      929.00        0.233         12.8 
      930.00        0.300         17.1 
      931.00        0.167         17.4 
      932.00        0.167         16.8 
      933.00        0.133         14.8 
      934.00        0.200         12.8 
      935.00        0.267         10.8 
      936.00        0.167          8.0 
      937.00        0.217          6.6 
      938.00        0.167          5.4 
      939.00        0.167          4.6 
      940.00        0.267          3.8 
      941.00        0.133          3.2 
      942.00        0.167          3.0 
      943.00        0.133          2.6 
      944.00        0.133          2.6 
      945.00        0.100          2.1 
      946.00        0.100          2.3 
      947.00        0.100          2.2 
      948.00        0.100          2.4 
      949.00        0.100          2.3 
      950.00        0.233          2.3 
      951.00        0.167          2.3 
      952.00        0.233          2.4 
      953.00        0.200          2.5 
      954.00        0.200          3.0 
      955.00        0.200          3.0 
      956.00        1.783          8.8 
      957.00        0.633         16.3 
      958.00        0.300         26.9 
      959.00        0.333         34.8 
      960.00        0.233         35.3 
      961.00        0.167         33.4 
      962.00        0.133         30.6 
      963.00        0.217         26.3 
      964.00        0.233         22.9 
      965.00        0.267         17.7 
      966.00        0.333         13.2 
      967.00        0.200          9.5 
      968.00        0.133          7.8 
      969.00        0.133          7.1 
      970.00        0.133          6.0 
      971.00        0.133          5.2 
      972.00        0.200          4.5 
      973.00        0.200          3.6 
      974.00        0.200          2.6 
      975.00        0.200          2.3 
      976.00        0.200          2.0 
      977.00        0.233          1.8 
      978.00        0.233          1.4 
      979.00        0.250          1.1 
      980.00        0.233          1.0 
      981.00        0.167          0.9 
      982.00        0.167          1.0 
      983.00        0.167          1.2 
      984.00        0.100          1.1 
      985.00        1.433          2.8 
      986.00        0.300          3.2 
      987.00        0.200          3.3 
      988.00        0.333          3.6 
      989.00        0.250          2.2 
      990.00        0.200          1.5 
      991.00        0.133          1.1 
      992.00        0.133          0.9 
      993.00        0.133          0.8 
      994.00        0.100          0.4 
      995.00        0.200          0.4 
      996.00        0.200          0.6 
      997.00        0.233          0.5 
      998.00        0.200          0.5 
      999.00        0.267          0.8 
     1000.00        0.200          0.7 
     1001.00        0.100          0.6 
     1002.00        0.133          0.5 
     1003.00        0.133          0.6 
     1004.00        0.100          0.7 
     1005.00        0.167          0.8 
     1006.00        0.133          0.8 
     1007.00        0.133          0.9 
     1008.00        0.100          0.8 
     1009.00        0.167          0.9 
     1010.00        0.150          0.6 
     1011.00        0.200          0.7 
     1012.00        0.133          0.8 
     1013.00        0.200          0.8 
     1014.00        0.233          0.8 
     1015.00        0.200          1.3 
     1016.00        2.000         32.1 
     1017.00        0.267         19.9 
     1018.00        0.250         23.6 
     1019.00        0.200         28.3 
     1020.00        0.167         31.2 
     1021.00        0.200         30.9 
     1022.00        0.200         30.1 
     1023.00        0.200         25.5 
     1024.00        0.133         21.2 
     1025.00        0.167         17.7 
     1026.00        0.167         14.8 
     1027.00        0.167         11.8 
     1028.00        0.233          9.3 
     1029.00        0.233          7.2 
     1030.00        0.267          5.7 
     1031.00        0.233          4.8 
     1032.00        0.167          4.0 
     1033.00        0.233          3.3 
     1034.00        0.350          3.0 
     1035.00        0.167          2.8 
     1036.00        0.167          2.1 
     1037.00        0.167          1.7 
     1038.00        0.200          0.7 
     1039.00        0.167          0.5 
     1040.00        0.167          0.4 
     1041.00        0.233          0.4 
     1042.00        0.267          0.5 
     1043.00        0.233          0.7 
     1044.00        0.167          0.5 
     1045.00        0.133          0.5 
     1046.00        1.750          1.4 
     1047.00        0.300          1.3 
     1048.00        0.267          1.2 
     1049.00        0.200          1.3 
     1050.00        0.233          1.3 
     1051.00        0.200          1.3 
     1052.00        0.200          1.3 
     1053.00        0.133          1.4 
     1054.00        0.167          1.2 
     1055.00        0.133          1.2 
     1056.00        0.133          1.3 
     1057.00        0.167          1.4 
     1058.00        0.167          1.4 
     1059.00        0.133          1.4 
     1060.00        0.150          1.6 
     1061.00        0.167          1.6 
     1062.00        0.267          1.7 
     1063.00        0.167          1.6 
     1064.00        0.167          1.8 
     1065.00        0.133          1.8 
     1066.00        0.133          2.1 
     1067.00        0.200          1.8 
     1068.00        0.200          1.8 
     1069.00        0.133          1.6 
     1070.00        0.167          1.7 
     1071.00        0.200          1.7 
     1072.00        0.200          1.7 
     1073.00        0.167          1.8 
     1074.00        0.200          1.7 
     1075.00        0.200          1.8 
     1076.00        1.383          2.0 
     1077.00        0.267          1.9 
     1078.00        0.300          2.0 
     1079.00        0.367          2.1 
     1080.00        0.300          2.0 
     1081.00        0.333          2.2 
     1082.00        0.233          2.0 
     1083.00        0.167          1.9 
     1084.00        0.167          2.1 
     1085.00        0.167          2.1 
     1086.00        0.133          2.1 
     1087.00        0.183          2.1 
     1088.00        0.200          2.2 
     1089.00        0.200          2.2 
     1090.00        0.167          2.0 
     1091.00        0.133          2.0 
     1092.00        0.200          2.1 
     1093.00        0.267          2.3 
     1094.00        0.200          2.2 
     1095.00        0.200          2.1 
     1096.00        0.200          2.1 
     1097.00        0.200          2.2 
     1098.00        0.233          2.2 
     1099.00        0.167          2.1 
     1100.00        0.133          2.2 
     1101.00        0.200          2.2 
     1102.00        0.233          2.0 
     1103.00        0.233          2.2 
     1104.00        0.150          2.3 
     1105.00        0.133          2.3 
     1106.00        2.533          2.3 
     1107.00        0.267          2.0 
     1108.00        0.233          2.0 
     1109.00        0.250          2.3 
     1110.00        0.267          2.2 
     1111.00        0.200          2.1 
     1112.00        0.200          2.1 
     1113.00        0.200          2.1 
     1114.00        0.233          2.1 
     1115.00        0.200          2.1 
     1116.00        0.233          2.2 
