~Version Information
 VERS.                                  2.0 : CWLS LAS VERSION
 WRAP.                                   NO : WRAPING MODE
 SWARE .                 MController 2.5.0J : SOFTWARE VERSION
~Well Information
 WELL.                           Elmo 14-21 : WELL
 COMP.    PIONEER NATURAL RESOURCES USA INC : COMPANY
 FLD.                      PURGATOIRE RIVER : FIELD
 LOC.               SW/SW Sec 21 T33S  R66W : LOCATION
 DATE.                         5/16-17/2005 : DATE(S) LOGGED
 SRVC.       Blanco Geological Services LLC : SERVICE COMPANY
 STAT.                                   CO : STATE
 CNTY.                           Las Animas : COUNTY
 CTRY.                                  USA : COUNTRY
 API.                       05-071-08360-00 : API NUMBER
 STRT.FT                             300.00 : START DEPTH
 STOP.FT                            1680.00 : STOP DEPTH
 STEP.FT                               1.00 : DEPTH INCREMENT
 NULL.                                -9999 : NULL VALUE
~Curve information
 DEPTH.FT                                   :
 ROP.MIN/FT                                 :
 GAS.UNITS                                  :
~ASCII Log data
# ...
       700.0         0.27         27.6 
       701.0         0.23         27.6 
       702.0         0.27         27.6 
       703.0         0.33         27.5 
       704.0         0.20         27.5 
       705.0         0.20         27.6 
       706.0         0.27         27.5 
       707.0         0.23         27.4 
       708.0         0.20         27.4 
       709.0         0.30         27.3 
       710.0         0.20         27.2 
       711.0         0.30         27.5 
       712.0         0.28         27.2 
       713.0         0.23         26.7 
       714.0         0.27         27.0 
       715.0         0.33         26.9 
       716.0         0.33         26.4 
       717.0         0.33         26.0 
       718.0         0.17         25.4 
       719.0         0.23         25.7 
       720.0         0.23         25.4 
       721.0         0.30         25.6 
       722.0         0.27         25.6 
       723.0         0.30         25.5 
       724.0         0.23         25.4 
       725.0         0.35         25.8 
       726.0         0.27         25.8 
       727.0         0.27         26.0 
       728.0         0.37         26.0 
       729.0         0.17         26.3 
       730.0         0.23         26.1 
       731.0         0.40         26.0 
       732.0         0.60         26.0 
       733.0         0.53         26.1 
       734.0         0.82         25.5 
       735.0         0.70         25.4 
       736.0         0.33         25.4 
       737.0         0.30         25.3 
       738.0         0.33         25.1 
       739.0         0.27         24.6 
       740.0         0.40         24.7 
       741.0         0.42         24.1 
       742.0         0.27         24.2 
       743.0         0.40         23.9 
       744.0         0.17         23.6 
       745.0         0.27         23.5 
       746.0         0.47         23.4 
       747.0         0.27         23.0 
       748.0         0.40         22.8 
       749.0         0.27         22.8 
       750.0         0.33         22.7 
       751.0         0.17         23.0 
       752.0         0.25         22.9 
       753.0         0.33         22.8 
       754.0         0.43         22.9 
       755.0         0.37         23.0 
       756.0         0.40         23.0 
       757.0         0.43         23.0 
       758.0         0.40         22.9 
       759.0         0.20         23.0 
       760.0         0.27         22.8 
       761.0         0.23         22.7 
       762.0         0.18         22.7 
       763.0         0.23         22.5 
       764.0         0.27         22.4 
       765.0         0.27         22.5 
       766.0         0.20         22.1 
       767.0         0.27         22.2 
       768.0         0.27         22.2 
       769.0         0.23         22.2 
       770.0         0.17         22.1 
       771.0         0.27         21.6 
       772.0         0.23         21.4 
       773.0         0.27         21.8 
       774.0         0.17         21.7 
       775.0         0.23         21.3 
       776.0         0.28         21.5 
       777.0         0.27         21.3 
       778.0         0.23         21.3 
       779.0         0.23         21.3 
       780.0         0.20         21.2 
       781.0         0.23         21.2 
       782.0         0.40         21.1 
       783.0         0.37         20.9 
       784.0         0.23         20.5 
       785.0         0.43         20.9 
       786.0         0.33         20.8 
       787.0         0.28         20.1 
       788.0         0.33         20.7 
       789.0         0.27         20.6 
       790.0         0.33         20.3 
       791.0         0.27         20.2 
       792.0         0.17         20.4 
       793.0         0.30         20.2 
       794.0         0.43         20.3 
       795.0         0.23         20.0 
       796.0         0.30         20.2 
       797.0         0.47         20.1 
       798.0         0.45         20.2 
       799.0         0.37         19.9 
       800.0         0.30         19.4 
       801.0         0.43         19.6 
       802.0         0.37         19.8 
       803.0         0.27         19.5 
       804.0         0.23         19.8 
       805.0         0.17         19.9 
       806.0         0.27         19.3 
       807.0         0.33         19.8 
       808.0         0.23         20.0 
       809.0         0.22         20.4 
       810.0         0.23         20.6 
       811.0         0.33         20.4 
       812.0         0.37         20.1 
       813.0         0.33         20.6 
       814.0         0.23         20.7 
       815.0         0.33         20.6 
       816.0         0.23         20.5 
       817.0         0.27         20.6 
       818.0         0.33         20.1 
       819.0         0.32         20.2 
       820.0         0.43         19.7 
       821.0         0.37         20.0 
       822.0         0.17         19.5 
       823.0         0.27         19.5 
       824.0         0.43         19.3 
       825.0         0.27         19.4 
       826.0         0.17         18.8 
       827.0         0.33         18.7 
       828.0         0.37         19.6 
       829.0         0.30         19.6 
       830.0         0.28         19.4 
       831.0         0.30         19.8 
       832.0         0.20         19.2 
       833.0         0.27         19.6 
       834.0         0.20         19.8 
       835.0         0.30         21.5 
       836.0         0.20         19.6 
       837.0         0.27         19.6 
       838.0         0.37         19.4 
       839.0         0.20         19.5 
       840.0         0.37         19.7 
       841.0         0.20         19.6 
       842.0         0.38         19.6 
       843.0         0.20         19.0 
       844.0         0.43         19.8 
       845.0         0.43         20.4 
       846.0         0.47         20.6 
       847.0         0.30         20.6 
       848.0         0.53         20.8 
       849.0         0.47         20.7 
       850.0         0.48         20.5 
       851.0      1015.53        107.5 
       852.0         1.58         75.0 
       853.0         0.17         76.0 
       854.0         0.33         74.5 
       855.0         0.27         61.1 
       856.0         0.27         54.2 
       857.0         0.23         55.3 
       858.0         0.30         57.9 
       859.0         0.27         58.1 
       860.0         0.18         54.7 
       861.0         0.30         53.2 
       862.0         0.27         49.6 
       863.0         0.40         51.9 
       864.0         0.30        104.9 
       865.0         0.37        102.7 
       866.0         0.23         28.1 
       867.0         0.20         37.7 
       868.0         0.30         40.1 
       869.0         0.27         37.1 
       870.0         0.33         32.7 
       871.0         0.35         38.3 
       872.0         0.30         39.3 
       873.0         0.13         33.1 
       874.0         0.37         39.0 
       875.0         0.20         40.2 
       876.0         0.30         38.0 
       877.0         0.27         47.0 
       878.0         0.23         48.7 
       879.0         0.23         46.0 
       880.0         0.40         38.4 
       881.0         0.30         45.2 
       882.0         0.23         48.6 
       883.0         0.30         49.8 
       884.0         0.25         47.7 
       885.0         0.30         46.8 
       886.0         0.20         43.9 
       887.0         0.40         46.5 
       888.0         0.27         44.9 
       889.0         0.37         36.8 
       890.0         0.37         54.6 
       891.0         0.27         61.4 
       892.0         0.17         58.0 
       893.0         0.20         48.4 
       894.0         0.20         47.9 
       895.0         0.33         48.0 
       896.0         0.18         38.1 
       897.0         0.27         47.2 
       898.0         0.13         50.1 
       899.0         0.33         51.0 
