~Version Information
 VERS.                                  2.0 : CWLS LAS VERSION
 WRAP.                                   NO : WRAPING MODE
 SWARE .                 MController 2.5.0J : SOFTWARE VERSION
~Well Information
 WELL.                       Beacon 11-18TR : WELL
 COMP.        Pioneer Natural Resources Inc : COMPANY
 FLD.                      Purgatoire River : FIELD
 LOC.                NW/NW Sec 18 T32S R66W : LOCATION
 DATE.                           1/15-16/05 : DATE(S) LOGGED
 SRVC.       Blanco Geological Services LLC : SERVICE COMPANY
 STAT.                                   CO : STATE
 CNTY.                           Las Animas : COUNTY
 CTRY.                                  USA : COUNTRY
 API.                          05-071-08251 : API NUMBER
 STRT.FT                             283.00 : START DEPTH
 STOP.FT                            2753.00 : STOP DEPTH
 STEP.FT                               1.00 : DEPTH INCREMENT
 NULL.                                -9999 : NULL VALUE
~Curve information
 DEPTH.FT                                   :
 ROP.MIN/FT                                 :
 GAS.UNITS                                  :
~ASCII Log data
# ...
      2083.0         0.23         52.3 
      2084.0         0.27         51.2 
      2085.0         0.20         49.7 
      2086.0         0.23         48.8 
      2087.0         0.20         37.2 
      2088.0         0.23         35.5 
      2089.0         0.23         37.5 
      2090.0         0.20         39.8 
      2091.0         0.17         43.9 
      2092.0         0.20         51.4 
      2093.0         0.17         58.4 
      2094.0         0.23         69.0 
      2095.0         0.23         78.1 
      2096.0         0.23         85.3 
      2097.0         0.30         94.7 
      2098.0         0.40        101.3 
      2099.0         0.55        101.5 
      2100.0         0.40         96.6 
      2101.0         0.37         99.2 
      2102.0         0.40        100.3 
      2103.0         0.37         99.7 
      2104.0         0.27         98.1 
      2105.0         0.30        100.6 
      2106.0         0.27        102.4 
      2107.0         0.37        103.3 
      2108.0         0.35        103.2 
      2109.0         0.37        102.2 
      2110.0         0.37         99.3 
      2111.0         0.37         95.8 
      2112.0         0.40         92.1 
      2113.0         0.37         89.3 
      2114.0         0.37         87.9 
      2115.0         0.43         87.8 
      2116.0         0.35         86.3 
      2117.0         0.37         84.9 
      2118.0         0.37         84.2 
      2119.0         0.37         83.4 
      2120.0         0.33         82.5 
      2121.0         0.37         88.8 
      2122.0         0.40         87.7 
      2123.0         0.40        119.7 
      2124.0         0.45        161.7 
      2125.0         0.40        190.3 
      2126.0         0.27        201.6 
      2127.0         0.23        203.7 
      2128.0         0.33        203.4 
      2129.0         0.30        194.0 
      2130.0         0.27        179.9 
      2131.0         0.17        165.9 
      2132.0         0.30        156.8 
      2133.0         0.27        140.4 
      2134.0         0.23        129.1 
      2135.0         0.28        121.1 
      2136.0         0.23        114.5 
      2137.0         0.23        111.5 
      2138.0         0.27        109.6 
      2139.0         0.20        108.3 
      2140.0         0.27        107.4 
      2141.0         0.30        106.4 
      2142.0         0.27        105.0 
      2143.0         0.23        103.8 
      2144.0         0.23        103.5 
      2145.0         0.27        103.6 
      2146.0         0.23        106.1 
      2147.0         0.28        308.4 
      2148.0         0.23        225.4 
      2149.0         0.23        225.4 
      2150.0         0.23        247.8 
      2151.0         0.23        284.7 
      2152.0         0.23        332.1 
      2153.0         0.23        391.7 
      2154.0         0.23        440.9 
      2155.0         0.23       1011.1 
      2156.0         0.30       1220.9 
      2157.0         0.20       1382.0 
      2158.0         0.23       1562.8 
      2159.0         0.40       1805.2 
      2160.0         0.30       1917.3 
      2161.0         0.27       1937.6 
      2162.0         0.35       1925.0 
      2163.0         0.27       1850.6 
      2164.0         0.23       1779.7 
      2165.0         0.27       1707.8 
      2166.0         0.27       1615.7 
      2167.0         0.20       1555.7 
      2168.0         0.27       1518.7 
      2169.0         0.27       1475.8 
      2170.0         0.23       1431.0 
      2171.0         0.27       1395.2 
      2172.0         0.23       1344.6 
      2173.0         0.17       1297.0 
      2174.0         0.18       1264.4 
      2175.0         0.23       1236.4 
      2176.0         0.23       1205.8 
      2177.0         0.23        889.0 
      2178.0         0.27        820.6 
      2179.0         0.23        829.3 
      2180.0         0.27        926.7 
      2181.0         0.23       1041.1 
      2182.0         0.23       1192.9 
      2183.0         0.20       1314.0 
      2184.0         0.20       1421.0 
      2185.0         0.23       1539.6 
      2186.0         0.17       1616.3 
      2187.0         0.37       1750.1 
      2188.0         0.37       1770.0 
      2189.0         0.33       1753.9 
      2190.0         0.28       1611.2 
      2191.0         0.23       1459.7 
      2192.0         0.23       1334.0 
      2193.0         0.20       1215.1 
      2194.0         0.17       1132.0 
      2195.0         0.20       1092.6 
      2196.0         0.23       1073.0 
      2197.0         0.23       1059.4 
      2198.0         0.27       1062.0 
      2199.0         0.30       1064.0 
      2200.0         0.27       1060.1 
      2201.0         0.23       1053.0 
      2202.0         0.20       1042.4 
      2203.0         0.17       1032.4 
      2204.0         0.42       1026.2 
      2205.0         0.23       1006.6 
      2206.0         0.20        813.9 
      2207.0         0.23        937.6 
      2208.0         0.23       1056.9 
      2209.0         0.23       1201.9 
      2210.0         0.23       1322.7 
      2211.0         0.17       1391.1 
      2212.0         0.13       1441.0 
      2213.0         0.10       1479.0 
      2214.0         0.13       1525.4 
      2215.0         0.17       1576.7 
      2216.0         0.33       1629.5 
      2217.0         0.27       1628.2 
      2218.0         0.27       1608.3 
      2219.0         0.45       1550.9 
      2220.0         0.23       1360.1 
      2221.0         0.17       1269.2 
      2222.0         0.30       1211.9 
      2223.0         0.20       1117.8 
      2224.0         0.20       1069.4 
      2225.0         0.17       1030.8 
      2226.0         0.17       1001.8 
      2227.0         0.20        987.9 
      2228.0         0.23        976.0 
      2229.0         0.23        965.0 
      2230.0         0.23        951.5 
      2231.0         0.22        939.9 
      2232.0         0.23        927.3 
      2233.0         0.27        908.6 
      2234.0         0.20        889.3 
      2235.0         0.13        876.7 
      2236.0         0.13        871.2 
      2237.0         0.20        884.1 
      2238.0         0.20        679.5 
      2239.0         0.27        802.6 
      2240.0         0.37       1008.8 
      2241.0         0.30       1161.0 
      2242.0         0.20       1233.5 
      2243.0         0.13       1266.7 
      2244.0         0.20       1283.7 
      2245.0         0.22       1284.1 
      2246.0         0.27       1281.5 
      2247.0         0.33       1277.3 
      2248.0         0.27       1254.1 
      2249.0         0.23       1210.6 
      2250.0         0.27       1168.4 
      2251.0         0.30       1110.0 
      2252.0         0.20       1025.0 
      2253.0         0.37        974.7 
      2254.0         0.27        886.1 
      2255.0         0.27        830.3 
      2256.0         0.23        794.2 
      2257.0         0.28        778.7 
      2258.0         0.40        770.0 
      2259.0         0.23        766.5 
      2260.0         0.27        755.2 
      2261.0         0.20        734.0 
      2262.0         0.17        721.7 
      2263.0         0.17        714.6 
      2264.0         0.20        706.2 
      2265.0         0.23        692.4 
      2266.0         0.20        674.0 
      2267.0         0.17        595.1 
      2268.0         0.17        567.3 
      2269.0         0.23        536.4 
      2270.0         0.20        513.8 
      2271.0         0.22        527.7 
      2272.0         0.23        565.4 
      2273.0         0.23        635.3 
      2274.0         0.30        755.9 
      2275.0         0.23        841.9 
      2276.0         0.23        914.7 
      2277.0         0.30        969.9 
      2278.0         0.27        979.8 
      2279.0         0.20        978.6 
      2280.0         0.37        959.5 
      2281.0         0.23        905.1 
      2282.0         0.27        861.6 
