~Version Information
VERS.                      2.0: CWLS Log ASCII Standard - VERSION 2.0
WRAP.                       NO: One line per depth step
~Well Information Block
STRT.FT               400.0000: 
STOP.FT              2201.0000: 
STEP.FT                 0.2500: 
NULL.                -999.2500: 
COMP.          Evergreen Operating Corporation: COMPANY
WELL.            Triumph 13-10: WELL
FLD.           Purgatorie River: FIELD
LOC.           1551' FSL & 522' FWL: LOCATION
PROV.                 Colorado: PROVINCE
CNTY.               Las Animas: COUNTRY
SRVC.                Patterson: SERVICE COMPANY
DATE.          Fri Jul 23 20:28:37 2004: LOG DATE
UWI.           05 071 08108 00: UNIQUE WELL ID
~Curve Information Block
DEPT.FT            0 000 00 00: Depth
SN.Ohm-m                      : IEL Short Normal
SP.mV                         : IEL Spontaneous Potential
DIR.Ohm-m                     : IEL Induction Resistivity
GR.GAPI                       : Gamma Ray
~Parameter Information Block
~A  Depth        SN          SP         DIR          GR     
# ...
  1003.0000      1.3384   -116.1867      5.4207     57.7910
  1003.2500      1.2357   -108.4333      1.3499     63.5396
  1003.5000      1.1960   -100.5851      0.6655     74.1517
  1003.7500      1.2479    -91.2614      0.4175     82.5363
  1004.0000      1.4316    -79.5941      0.3111     96.7118
  1004.2500      1.9586    -66.0010      0.2746    106.2464
  1004.5000      3.2683    -52.0662      0.2873    117.8845
  1004.7500      5.7342    -39.5851      0.3518    122.4417
  1005.0000      9.1247    -29.6030      0.4955    123.9777
  1005.2500     12.5943    -22.1812      0.8028    122.5607
  1005.5000     15.4190    -16.8216      1.5957    120.0343
  1005.7500     17.4915    -12.9696      5.3219    119.8295
  1006.0000     19.0482    -10.2300 100000.0000    122.9882
  1006.2500     20.2235     -8.3450 100000.0000    126.8507
  1006.5000     20.9643     -7.1110 100000.0000    132.8810
  1006.7500     21.1946     -6.3364 100000.0000    135.7597
  1007.0000     20.9712     -5.8614 100000.0000    137.8195
  1007.2500     20.4937     -5.6074 100000.0000    138.2530
  1007.5000     19.9362     -5.5981 100000.0000    138.4025
  1007.7500     19.2974     -5.9300 100000.0000    138.1913
  1008.0000     18.4577     -6.7385      8.6743    137.4187
  1008.2500     17.3652     -8.2024      1.9311    137.0627
  1008.5000     16.0979    -10.5792      0.9419    137.6786
  1008.7500     14.7124    -14.2479      0.5979    138.7581
  1009.0000     13.1492    -19.7424      0.4576    140.0239
  1009.2500     11.3263    -27.7306      0.4229    139.7160
  1009.5000      9.2586    -38.8856      0.4753    136.6744
  1009.7500      7.0915    -53.6487      0.6411    132.8998
  1010.0000      5.0537    -72.0009      1.0154    125.0181
  1010.2500      3.3813    -93.4333      1.8611    118.6224
  1010.5000      2.2298   -117.1873      3.7999    107.8357
  1010.7500      1.5933   -142.4914      7.6171     99.9603
  1011.0000      1.3156   -168.3791     13.5372     87.1198
  1011.2500      1.2062   -193.2100     36.8979     78.1261
  1011.5000      1.1534   -214.6843 100000.0000     65.2606
  1011.7500      1.1333   -230.7481 100000.0000     58.0537
  1012.0000      1.1125   -240.6028 100000.0000     50.3485
  1012.2500      1.0109   -244.7033 100000.0000     47.3429
  1012.5000      0.8356   -243.8294 100000.0000     45.5826
  1012.7500      0.7354   -238.4363 100000.0000     45.9423
  1013.0000      0.8309   -228.9878     17.3207     48.4008
  1013.2500      1.0780   -216.5282      3.0221     51.1396
  1013.5000      1.2863   -202.4148      1.5194     56.5515
  1013.7500      1.2990   -187.4376      1.0529     60.7420
  1014.0000      1.1598   -171.4771      0.9047     67.1384
  1014.2500      1.0101   -154.1019      0.9288     70.8963
  1014.5000      0.9123   -135.4030      1.0942     75.0142
  1014.7500      0.8567   -116.2823      1.3566     76.7928
  1015.0000      0.8580    -98.0227      1.4865     79.1469
  1015.2500      0.9814    -81.5445      1.2126     81.4636
  1015.5000      1.3649    -66.9741      0.7812     87.1597
  1015.7500      2.3359    -53.8468      0.4731     92.3557
  1016.0000      4.3568    -41.7113      0.3001    100.9628
  1016.2500      7.5788    -30.5863      0.2170    106.3399
  1016.5000     11.5142    -20.9383      0.1944    113.2446
  1016.7500     15.3749    -13.2772      0.2238    117.4737
  1017.0000     18.6704     -7.7458      0.3236    124.2848
  1017.2500     21.3905     -4.0173      0.5596    129.1007
  1017.5000     23.7670     -1.5251      1.1971    135.0813
  1017.7500     25.9703      0.2204      4.7173    136.9670
  1018.0000     28.0001      1.4862 100000.0000    135.7150
  1018.2500     29.7834      2.3692 100000.0000    132.8115
  1018.5000     31.2884      2.9063 100000.0000    127.6560
  1018.7500     32.5529      3.1476 100000.0000    124.7432
  1019.0000     33.7289      3.1926 100000.0000    121.3825
  1019.2500     35.1276      3.1777 100000.0000    119.2926
  1019.5000     37.0518      3.2071 100000.0000    115.6010
  1019.7500     39.4576      3.2931 100000.0000    112.6531
  1020.0000     41.8589      3.3789 100000.0000    107.5932
  1020.2500     43.6307      3.4130 100000.0000    103.8742
  1020.5000     44.3663      3.3979 100000.0000     97.8799
  1020.7500     43.9728      3.3803 100000.0000     93.6201
  1021.0000     42.5543      3.4098 100000.0000     87.1317
  1021.2500     40.3241      3.5052 100000.0000     83.4500
  1021.5000     37.6281      3.6513 100000.0000     81.0234
  1021.7500     34.8960      3.8186 100000.0000     82.5760
  1022.0000     32.4449      3.9801 100000.0000     89.8655
  1022.2500     30.3037      4.1151 100000.0000     96.9982
  1022.5000     28.2473      4.2074 100000.0000    108.4278
  1022.7500     26.0595      4.2533 100000.0000    115.2254
  1023.0000     23.7852      4.2766 100000.0000    123.0811
  1023.2500     21.7081      4.3263 100000.0000    126.7214
  1023.5000     20.1056      4.4445 100000.0000    130.3514
  1023.7500     19.0428      4.6301 100000.0000    131.9812
  1024.0000     18.3699      4.8377     47.9947    133.6720
  1024.2500     17.8798      5.0119     20.5733    134.2332
  1024.5000     17.4542      5.1180     14.2287    133.8061
  1024.7500     17.0881      5.1541     11.7344    132.6560
  1025.0000     16.8128      5.1516     10.5972    130.7482
  1025.2500     16.6133      5.1621     10.0824    130.6036
  1025.5000     16.4030      5.2252      9.9076    133.7888
  1025.7500     16.0782      5.3434      9.9516    137.9987
  1026.0000     15.6118      5.4874     10.1502    144.8920
  1026.2500     15.0864      5.6238     10.4443    148.0869
  1026.5000     14.6210      5.7361     10.7581    149.5428
  1026.7500     14.2725      5.8223     11.0079    148.9246
  1027.0000     14.0105      5.8814     11.1311    147.4700
  1027.2500     13.7717      5.9040     11.1116    146.6792
  1027.5000     13.5224      5.8769     10.9752    145.2730
  1027.7500     13.2681      5.7992     10.7638    143.6288
  1028.0000     13.0024      5.6973     10.5130    140.1786
  1028.2500     12.6562      5.6258     10.2469    138.1924
  1028.5000     12.1316      5.6443      9.9839    137.7374
  1028.7500     11.4119      5.7860      9.7409    139.5218
  1029.0000     10.6003      6.0383      9.5329    144.1563
  1029.2500      9.8269      6.3496      9.3698    147.4229
  1029.5000      9.1733      6.6446      9.2564    151.3005
  1029.7500      8.7049      6.8380      9.1939    153.0037
  1030.0000      8.4949      6.8580      9.1833    154.1832
  1030.2500      8.5905      6.6869      9.2261    153.8774
  1030.5000      9.0126      6.3833      9.3243    151.5525
  1030.7500      9.7626      6.0555      9.4775    149.0554
  1031.0000     10.7599      5.8029      9.6818    145.2855
  1031.2500     11.7972      5.6667      9.9303    143.7414
  1031.5000     12.5998      5.6194     10.2150    143.7107
  1031.7500     12.9192      5.5974     10.5294    144.7428
  1032.0000     12.6432      5.5576     10.8684    145.9334
  1032.2500     11.9249      5.5185     11.2279    145.5568
  1032.5000     11.1891      5.5486     11.6078    142.9325
  1032.7500     10.9757      5.7111     12.0185    140.2607
  1033.0000     11.7133      6.0136     12.4857    136.2456
  1033.2500     13.4681      6.4027     13.0424    134.4570
  1033.5000     15.8532      6.7962     13.7087    133.8992
  1033.7500     18.2826      7.1223     14.4728    134.6362
  1034.0000     20.3364      7.3431     15.2878    136.0041
  1034.2500     21.8489      7.4567     16.0898    136.3384
  1034.5000     22.7629      7.4829     16.8259    135.4765
  1034.7500     23.0782      7.4478     17.4690    134.2225
  1035.0000     22.9221      7.3786     18.0103    132.1192
  1035.2500     22.5095      7.3017     18.4431    130.8276
  1035.5000     22.0146      7.2354     18.7539    128.9448
  1035.7500     21.5429      7.1813     18.9293    127.6773
  1036.0000     21.1668      7.1267     18.9682    126.0872
  1036.2500     20.9298      7.0596     18.8876    125.4268
