~Version Information
VERS.                      2.0: CWLS Log ASCII Standard - VERSION 2.0
WRAP.                       NO: One line per depth step
~Well Information Block
STRT.FT               472.0000: 
STOP.FT              2430.5000: 
STEP.FT                 0.2500: 
NULL.                -999.2500: 
COMP.          Pioneer Natural Resources: COMPANY
WELL.          Flying Horse 12-11: WELL
FLD.           Purgatoire River: FIELD
LOC.           2428' FNL & 308' FWL: LOCATION
PROV.                 Colorado: PROVINCE
CNTY.               Las Animas: COUNTRY
SRVC.                Patterson: SERVICE COMPANY
DATE.          Sun May 29 11:58:35 2005: LOG DATE
UWI.           05 071 08378 00: UNIQUE WELL ID
~Curve Information Block
DEPT.FT            0 000 00 00: Depth
SN.Ohm-m                      : IEL Short Normal
SP.mV                         : IEL Spontaneous Potential
DIR.Ohm-m                     : IEL Induction Resistivity
GR.GAPI                       : Gamma Ray
~Parameter Information Block
~A  Depth        SN          SP         DIR          GR     
# ...
  2381.5000     44.6269     18.2037     33.7192    152.6442
  2381.7500     47.3726     18.0050     34.8566    146.1704
  2382.0000     50.2030     17.7869     36.1784    130.2120
  2382.2500     52.8807     17.5473     37.7292    117.8023
  2382.5000     55.1575     17.2849     39.4533    101.5689
  2382.7500     56.9399     16.9971     41.1454     94.6513
  2383.0000     58.2581     16.6801     42.4852     91.6192
  2383.2500     59.0994     16.3282     43.1786     93.8302
  2383.5000     59.3374     15.9310     43.1229    100.6963
  2383.7500     58.8067     15.4705     42.4519    105.8381
  2384.0000     57.4417     14.9193     41.4268    112.3106
  2384.2500     55.3847     14.2465     40.2958    115.4859
  2384.5000     52.9588     13.4396     39.2218    119.2802
  2384.7500     50.4951     12.5290     38.2772    121.8574
  2385.0000     48.1573     11.5891     37.4592    126.5852
  2385.2500     45.9426     10.7064     36.7072    130.4167
  2385.5000     43.8398      9.9391     35.9214    136.8274
  2385.7500     41.9138      9.2977     34.9916    140.9519
  2386.0000     40.2371      8.7494     33.8337    145.2549
  2386.2500     38.8148      8.2392     32.4204    145.8834
  2386.5000     37.5963      7.7144     30.7841    142.6704
  2386.7500     36.5222      7.1452     28.9915    137.9926
  2387.0000     35.5493      6.5328     27.1129    128.3966
  2387.2500     34.6353      5.9019     25.2085    121.1259
  2387.5000     33.6900      5.2790     23.3310    110.1417
  2387.7500     32.5460      4.6721     21.5320    103.3970
  2388.0000     31.0116      4.0666     19.8595     95.3752
  2388.2500     28.9840      3.4404     18.3490     92.1299
  2388.5000     26.5285      2.7877     17.0161     90.8225
  2388.7500     23.8503      2.1296     15.8578     91.8164
  2389.0000     21.1898      1.5073     14.8596     94.4295
  2389.2500     18.7501      0.9666     14.0020     96.0748
  2389.5000     16.6727      0.5456     13.2638     98.0513
  2389.7500     15.0126      0.2711     12.6228     99.4704
  2390.0000     13.7535      0.1586     12.0581    102.5833
  2390.2500     12.8507      0.2106     11.5560    105.2442
  2390.5000     12.2434      0.4127     11.1154    108.9904
  2390.7500     11.8740      0.7350     10.7483    110.7087
  2391.0000     11.7180      1.1453     10.4727    112.0946
  2391.2500     11.7516      1.6241     10.3052    112.6531
  2391.5000     11.9134      2.1655     10.2538    113.3538
  2391.7500     12.1444      2.7667     10.3167    113.4978
  2392.0000     12.4333      3.4202     10.4838    112.6473
  2392.2500     12.7955      4.1206     10.7398    111.4117
  2392.5000     13.2335      4.8761     11.0702    109.3629
  2392.7500     13.7300      5.7051     11.4661    108.4094
  2393.0000     14.2703      6.6172     11.9266    108.1792
  2393.2500     14.8734      7.5975     12.4566    109.0063
  2393.5000     15.6109      8.6099     13.0632    111.8736
  2393.7500     16.6048      9.6148     13.7530    114.7676
  2394.0000     17.9889     10.5852     14.5342    119.8494
  2394.2500     19.8092     11.5110     15.4237    123.0259
  2394.5000     21.9349     12.3883     16.4494    126.0594
  2394.7500     24.1219     13.2048     17.6414    126.1683
  2395.0000     26.1788     13.9353     19.0071    122.8333
  2395.2500     28.0556     14.5599     20.5073    118.5258
  2395.5000     29.8112     15.0927     22.0548    110.0236
  2395.7500     31.5265     15.5903     23.5482    103.5546
  2396.0000     33.2122     16.1204     24.9206     93.2765
  2396.2500     34.7626     16.7196     26.1610     86.4951
  2396.5000     35.9933     17.3762     27.2923     77.4501
  2396.7500     36.7505     18.0453     28.3295     72.5420
  2397.0000     37.0222     18.6778     29.2572     66.7280
  2397.2500     36.9586     19.2440     30.0356     63.6450
  2397.5000     36.7742     19.7395     30.6215     60.1825
  2397.7500     36.6308     20.1739     30.9830     58.8802
  2398.0000     36.5902     20.5539     31.1086     58.8929
  2398.2500     36.6246     20.8759     31.0172     60.3418
  2398.5000     36.6508     21.1294     30.7670     64.5431
  2398.7500     36.5820     21.3037     30.4437     68.4729
  2399.0000     36.3627     21.3912     30.1278     75.6246
  2399.2500     35.9653     21.3903     29.8640     80.9390
  2399.5000     35.3791     21.3097     29.6512     88.9846
  2399.7500     34.6107     21.1695     29.4596     93.8067
  2400.0000     33.6891     20.9962     29.2587     99.1644
  2400.2500     32.6911     20.8149     29.0379    100.9706
  2400.5000     31.7561     20.6450     28.8068    100.6035
  2400.7500     31.0505     20.4968     28.5783     98.5035
  2401.0000     30.6972     20.3682     28.3553     93.8196
  2401.2500     30.7330     20.2442     28.1328     90.7002
  2401.5000     31.1136     20.1037     27.9128     87.2518
  2401.7500     31.7353     19.9283     27.7125     85.7316
  2402.0000     32.4679     19.7022     27.5557     83.6505
  2402.2500     33.2007     19.4041     27.4504     81.9887
  2402.5000     33.8872     19.0014     27.3762     79.3444
  2402.7500     34.5589     18.4541     27.2972     77.9457
  2403.0000     35.2566     17.7291     27.1998     76.8673
  2403.2500     35.9438     16.8192     27.1216     76.6792
  2403.5000     36.5302     15.7548     27.1344     76.5316
  2403.7500     36.9585     14.5990     27.2872     76.2763
  2404.0000     37.2287     13.4237     27.5591     75.7096
  2404.2500     37.3600     12.2846     27.8625     75.3223
  2404.5000     37.3551     11.2091     28.0991     74.8287
  2404.7500     37.1754     10.2058     28.2212     74.6542
  2405.0000     36.7470      9.2872     28.2493     74.9363
  2405.2500     36.0451      8.4873     28.2415     75.6324
  2405.5000     35.1644      7.8595     28.2516     77.3827
  2405.7500     34.2351      7.4512     28.3077     78.7887
  2406.0000     33.3140      7.2785     28.4092     80.6376
  2406.2500     32.4223      7.3206     28.5325     81.3217
  2406.5000     31.6307      7.5365     28.6414     81.0559
  2406.7500     31.0581      7.8858     28.7029     79.8279
  2407.0000     30.7964      8.3414     28.7030     76.1774
  2407.2500     30.8598      8.8852     28.6531     72.6176
  2407.5000     31.2159      9.4966     28.5813     66.4897
  2407.7500     31.8225     10.1492     28.5188     62.7427
  2408.0000     32.5924     10.8235     28.4899     58.8917
  2408.2500     33.3610     11.5201     28.5101     57.7490
  2408.5000     33.9472     12.2578     28.5844     57.7522
  2408.7500     34.2497     13.0568     28.7058     58.4571
  2409.0000     34.2736     13.9224     28.8558     59.9530
  2409.2500     34.0942     14.8384     29.0095     60.9742
  2409.5000     33.8022     15.7698     29.1423     62.1185
  2409.7500     33.4511     16.6746     29.2310     62.5548
  2410.0000     33.0422     17.5178     29.2520     63.0516
  2410.2500     32.5495     18.2805     29.1772     63.2549
  2410.5000     31.9601     18.9608     28.9787     61.6955
  2410.7500     31.3109     19.5695     28.6442     57.7005
  2411.0000     30.6841     20.1212     28.1961     45.6776
  2411.2500     30.1652     20.6241     27.6981     34.7688
  2411.5000     29.8174     21.0755     27.2343     18.6928
  2411.7500     29.6521     21.4680     26.8718     10.5809
  2412.0000     29.5966     21.7965     26.6272      3.5068
  2412.2500     29.5236     22.0579     26.4629      1.4103
  2412.5000     29.3427     22.2475     26.3135      0.2735
  2412.7500     29.0625     22.3594     26.1258      0.0753
  2413.0000     28.7491     22.3878     25.8808      0.0070
  2413.2500     28.4660     22.3258     25.5778      0.0000
  2413.5000     28.2644     22.1650     25.2038   -999.2500
  2413.7500     28.1503     21.9010     24.7248   -999.2500
  2414.0000     28.0509     21.5442     24.1103   -999.2500
  2414.2500     27.8944     21.1241     23.3643   -999.2500
  2414.5000     27.6554     20.6815     22.5319   -999.2500
  2414.7500     27.2507     20.2517     21.6816   -999.2500
