~Version Information
VERS.                      2.0: CWLS Log ASCII Standard - VERSION 2.0
WRAP.                       NO: One line per depth step
~Well Information Block
STRT.FT                -7.0000: 
STOP.FT              2736.0000: 
STEP.FT                 0.2500: 
NULL.                -999.2500: 
COMP.          Pioneer Natural Resources: COMPANY
WELL.              Getem 21-23: WELL
FLD.           Purgatorie River: FIELD
LOC.           2623' FWL & 790' FNL----: LOCATION
PROV.                       CO: PROVINCE
CNTY.               Las Animas: COUNTRY
SRVC.          Patterson Wireline: SERVICE COMPANY
DATE.          Mon Jun 27 09:57:55 2005: LOG DATE
UWI.           05 071 08411 00: UNIQUE WELL ID
~Curve Information Block
DEPT.FT            0 000 00 00: Depth
CCL.                          : Casing Collar Locator
TT3.usec                      : CBL 3' Travel Time
AMP3.mV                       : CBL 3' Amplitude
GR.GAPI                       : Gamma Ray
~Parameter Information Block
~A  Depth       CCL         TT3         AMP3         GR     
# ...
  2170.5000      0.0000    687.3286      3.6255     50.0763
  2170.7500      0.0000    681.7944      3.2895     47.9551
  2171.0000      0.0000    674.4745      3.1086     46.2561
  2171.2500      0.0000    665.6928      3.1115     44.6687
  2171.5000      0.0000    655.9788      3.2378     43.0441
  2171.7500      0.0000    645.7764      3.3916     41.6056
  2172.0000      0.0000    635.9083      3.4861     40.8428
  2172.2500      0.0000    627.6287      3.4693     41.1862
  2172.5000      0.0000    621.8224      3.3554     42.5566
  2172.7500      0.0000    618.4607      3.2355     44.1552
  2173.0000      0.0000    617.0718      3.2319     44.9148
  2173.2500      0.0000    617.6589      3.4134     44.3122
  2173.5000      0.0000    621.1967      3.7383     42.7653
  2173.7500      0.0000    629.2039      4.0737     41.2722
  2174.0000      0.0000    642.3770      4.2760     40.6520
  2174.2500      0.0000    659.1978      4.2740     40.9579
  2174.5000      0.0000    676.0922      4.1089     41.4988
  2174.7500      0.0000    689.4778      3.9097     41.5488
  2175.0000      0.0000    697.8409      3.8086     41.1343
  2175.2500      0.0000    701.9565      3.8404     41.0629
  2175.5000      0.0000    703.5634      3.9110     42.1848
  2175.7500      0.0000    704.0934      3.8820     44.6812
  2176.0000      0.0000    704.2733      3.7022     47.8960
  2176.2500      0.0000    704.2938      3.4536     50.7690
  2176.5000      0.0000    704.0197      3.2589     52.6949
  2176.7500      0.0000    703.0545      3.1531     54.1152
  2177.0000      0.0000    700.7579      3.0697     56.0531
  2177.2500      0.0000    696.5646      2.9495     59.0144
  2177.5000      0.0000    690.6473      2.8243     62.5053
  2177.7500      0.0000    684.4208      2.7675     65.4529
  2178.0000      0.0000    680.1714      2.7938     66.8634
  2178.2500      0.0000    679.8409      2.8440     66.2727
  2178.5000      0.0000    683.6348      2.8663     63.8723
  2178.7500      0.0000    689.7623      2.8804     60.3153
  2179.0000      0.0000    696.1330      2.9596     56.4709
  2179.2500      0.0000    702.2013      3.1516     53.3384
  2179.5000     -2.0000    707.9833      3.4038     51.9274
  2179.7500      0.0000    711.7579      3.5745     52.8182
  2180.0000      0.0000    711.1011      3.5524     55.5357
  2180.2500      0.0000    706.4192      3.3723     58.3914
  2180.5000      0.0000    701.2156      3.1871     59.2698
  2180.7500      0.0000    698.2093      3.1309     57.0112
  2181.0000      0.0000    696.6055      3.2370     52.4299
  2181.2500      0.0000    693.6349      3.4737     48.0540
  2181.5000      0.0000    687.8052      3.7910     46.4070
  2181.7500      0.0000    680.2617      4.1106     48.0443
  2182.0000      0.0000    673.4785      4.3187     51.1802
  2182.2500      0.0000    669.1732      4.3243     53.3657
  2182.5000      0.0000    667.4006      4.1449     53.5642
  2182.7500      0.0000    667.1710      3.9245     52.6024
  2183.0000      0.0000    667.4384      3.8421     51.8108
  2183.2500      0.0000    667.5823      3.9696     51.6062
  2183.5000      0.0000    667.3613      4.2062     51.5203
  2183.7500      0.0000    666.7457      4.3549     51.1655
  2184.0000      0.0000    665.8403      4.2756     50.6611
  2184.2500      0.0000    664.8659      3.9868     50.2381
  2184.5000      0.0000    664.1277      3.6497     49.9536
  2184.7500      0.0000    663.9847      3.4629     49.7934
  2185.0000      0.0000    664.9053      3.5389     49.5913
  2185.2500      0.0000    667.5217      3.8393     48.9128
  2185.5000      0.0000    672.3768      4.2070     47.5453
  2185.7500      0.0000    679.3004      4.4657     46.0480
  2186.0000      0.0000    687.0430      4.5101     45.2583
  2186.2500      0.0000    693.8405      4.3354     45.3428
  2186.5000      0.0000    698.5265      4.0145     45.8651
  2186.7500      0.0000    701.0789      3.6599     46.6412
  2187.0000      0.0000    702.2220      3.3937     47.9685
  2187.2500      0.0000    702.7318      3.3190     50.1837
  2187.5000      0.0000    703.0433      3.4829     53.5868
  2187.7500      0.0000    703.1696      3.8449     58.6892
  2188.0000      0.0000    702.6675      4.2852     65.8960
  2188.2500      0.0000    700.6199      4.6559     74.6026
  2188.5000      0.0000    695.7723      4.8432     82.9918
  2188.7500      0.0000    686.7058      4.8024     89.3342
  2189.0000      0.0000    671.5243      4.5534     93.5995
  2189.2500      0.0000    647.4099      4.1551     97.3882
  2189.5000      0.0000    611.9432      3.6847    102.0148
  2189.7500      0.0000    566.6841      3.2336    107.0467
  2190.0000      0.0000    519.3320      2.9071    110.9962
  2190.2500      0.0000    480.7201      2.8045    112.9523
  2190.5000      0.0000    459.2870      2.9727    113.0900
  2190.7500      0.0000    458.7557      3.3690    112.1486
  2191.0000      0.0000    479.0919      3.8711    110.9581
  2191.2500      0.0000    516.3366      4.3307    110.0887
  2191.5000      0.0000    561.2092      4.6297    109.4195
  2191.7500      0.0000    601.2076      4.7094    108.2110
  2192.0000      0.0000    626.9912      4.5710    105.9177
  2192.2500      0.0000    637.5605      4.2608    102.9810
  2192.5000      0.0000    639.7000      3.8461    100.9005
  2192.7500      0.0000    642.6957      3.3902    101.4662
  2193.0000      0.0000    652.2682      2.9393    105.4996
  2193.2500      0.0000    667.6082      2.5268    111.8879
  2193.5000      0.0000    683.3842      2.1835    117.9077
  2193.7500      0.0000    694.5287      1.9400    121.1801
  2194.0000      0.0000    699.2866      1.8253    121.7895
  2194.2500      0.0000    698.9146      1.8631    122.3163
  2194.5000      0.0000    696.2283      2.0612    125.3019
  2194.7500      0.0000    694.5601      2.3968    130.6591
  2195.0000      0.0000    696.6136      2.8146    135.8826
  2195.2500      0.0000    703.2596      3.2466    138.6362
  2195.5000      0.0000    713.3894      3.6397    138.4655
  2195.7500      0.0000    724.8522      3.9727    136.0722
  2196.0000      0.0000    735.3591      4.2552    131.9606
  2196.2500      0.0000    743.0425      4.5073    126.4688
  2196.5000      0.0000    746.8346      4.7353    120.6600
  2196.7500      0.0000    746.4456      4.9269    116.3046
  2197.0000      0.0000    742.0393      5.0650    114.5901
  2197.2500      0.0000    734.1489      5.1412    115.0294
  2197.5000      0.0000    723.5585      5.1554    115.9766
  2197.7500      0.0000    710.5099      5.1073    116.1908
  2198.0000      0.0000    694.1979      4.9953    115.5634
  2198.2500      0.0000    674.4855      4.8227    114.4266
  2198.5000      0.0000    654.9543      4.6026    112.8406
  2198.7500      0.0000    642.8876      4.3563    110.9389
  2199.0000      0.0000    644.0223      4.1040    109.5694
  2199.2500      0.0000    657.0165      3.8563    110.1002
  2199.5000      0.0000    674.3350      3.6130    113.4966
  2199.7500      0.0000    688.5671      3.3679    119.4631
  2200.0000      0.0000    696.9780      3.1161    126.3157
  2200.2500      0.0000    700.8257      2.8612    131.8783
  2200.5000      0.0000    702.3948      2.6143    134.8314
  2200.7500      0.0000    703.2302      2.3891    135.2590
  2201.0000      0.0000    703.9767      2.1980    134.0441
  2201.2500      0.0000    704.7635      2.0501    131.9873
  2201.5000      0.0000    705.5199      1.9469    129.5284
  2201.7500      0.0000    706.1302      1.8780    127.1377
  2202.0000      0.0000    706.4777      1.8274    125.6210
  2202.2500      0.0000    706.4745      1.7869    125.5323
  2202.5000      0.0000    706.2772      1.7606    126.2945
  2202.7500      0.0000    706.8853      1.7560    126.5692
  2203.0000      0.0000    710.6216      1.7732    125.6806
  2203.2500      0.0000    720.2565      1.8028    124.0814
  2203.5000      0.0000    736.7352      1.8308    122.4569
  2203.7500      0.0000    757.7281      1.8450    121.2792
