~Version Information
VERS.                      2.0: CWLS Log ASCII Standard - VERSION 2.0
WRAP.                       NO: One line per depth step
~Well Information Block
STRT.FT               647.0000: 
STOP.FT              1167.5000: 
STEP.FT                 0.2500: 
NULL.                -999.2500: 
COMP.          Pioneer Natural Resources: COMPANY
WELL.             Linda T 32-3: WELL
FLD.           Purgatoire River: FIELD
LOC.           1350' FNL & 2290' FEL: LOCATION
PROV.                 Colorado: PROVINCE
CNTY.               Las Animas: COUNTRY
SRVC.                Patterson: SERVICE COMPANY
DATE.          Sat Feb 05 06:41:02 2005: LOG DATE
UWI.           05 071 08215 00: UNIQUE WELL ID
~Curve Information Block
DEPT.FT            0 000 00 00: Depth
SN.Ohm-m                      : IEL Short Normal
SP.mV                         : IEL Spontaneous Potential
DIR.Ohm-m                     : IEL Induction Resistivity
GR.GAPI                       : Gamma Ray
~Parameter Information Block
~A  Depth        SN          SP         DIR          GR     
# ...
  1015.5000     19.3958     53.4379     19.3966     69.9969
  1015.7500     19.2833     53.3210     19.4124     70.5453
  1016.0000     19.1877     53.2165     19.4471     70.7234
  1016.2500     19.1040     53.1042     19.4749     70.3002
  1016.5000     19.0287     52.9522     19.4622     69.1869
  1016.7500     18.9740     52.7385     19.4025     68.6101
  1017.0000     18.9563     52.4697     19.3424     68.7584
  1017.2500     18.9965     52.1811     19.3642     69.5644
  1017.5000     19.1294     51.9172     19.5404     71.0775
  1017.7500     19.3844     51.7120     19.8941     71.7582
  1018.0000     19.7590     51.5821     20.3941     72.0601
  1018.2500     20.2305     51.5299     20.9797     72.1031
  1018.5000     20.7881     51.5454     21.6011     72.5116
  1018.7500     21.4412     51.6064     22.2436     72.9261
  1019.0000     22.1943     51.6832     22.9195     72.8694
  1019.2500     23.0280     51.7525     23.6350     71.8699
  1019.5000     23.9123     51.8103     24.3641     68.8331
  1019.7500     24.8277     51.8727     25.0481     66.2141
  1020.0000     25.7486     51.9673     25.6184     62.5658
  1020.2500     26.6128     52.1199     26.0231     61.0531
  1020.5000     27.3312     52.3414     26.2410     60.9812
  1020.7500     27.8121     52.6169     26.2820     62.2537
  1021.0000     27.9878     52.9074     26.1768     64.7817
  1021.2500     27.8514     53.1678     25.9550     65.9555
  1021.5000     27.4575     53.3687     25.6235     66.2126
  1021.7500     26.8658     53.5062     25.1654     65.5538
  1022.0000     26.0975     53.5950     24.5662     64.1338
  1022.2500     25.1693     53.6542     23.8420     63.3910
  1022.5000     24.1586     53.7004     23.0412     63.2142
  1022.7500     23.1820     53.7497     22.2201     63.9801
  1023.0000     22.3078     53.8196     21.4210     66.7513
  1023.2500     21.5270     53.9229     20.6692     69.6627
  1023.5000     20.8002     54.0593     19.9805     75.1332
  1023.7500     20.1059     54.2161     19.3666     79.1278
  1024.0000     19.4483     54.3806     18.8311     85.1961
  1024.2500     18.8491     54.5440     18.3662     89.0693
  1024.5000     18.3310     54.6927     17.9543     93.9138
  1024.7500     17.8913     54.8027     17.5749     96.0035
  1025.0000     17.5114     54.8502     17.2131     97.0473
  1025.2500     17.2044     54.8317     16.8691     96.5477
  1025.5000     17.0221     54.7724     16.5654     94.9189
  1025.7500     16.9886     54.7154     16.3437     93.9697
  1026.0000     17.0476     54.7003     16.2457     93.7059
  1026.2500     17.1181     54.7420     16.2867     94.1937
  1026.5000     17.1825     54.8208     16.4414     94.4077
  1026.7500     17.2767     54.8893     16.6521     93.1846
  1027.0000     17.4383     54.8981     16.8567     88.8373
  1027.2500     17.6826     54.8227     17.0145     84.9281
  1027.5000     17.9915     54.6752     17.1120     79.2846
  1027.7500     18.3270     54.4950     17.1530     76.4033
  1028.0000     18.6534     54.3276     17.1502     73.8063
  1028.2500     18.9376     54.2057     17.1253     73.0986
  1028.5000     19.1642     54.1408     17.1102     73.0258
  1028.7500     19.3608     54.1254     17.1356     73.3060
  1029.0000     19.5526     54.1411     17.2147     74.0522
  1029.2500     19.7046     54.1651     17.3393     74.9875
  1029.5000     19.7642     54.1747     17.4951     77.5979
  1029.7500     19.7323     54.1542     17.6831     80.2293
  1030.0000     19.6535     54.1054     17.9231     84.8267
  1030.2500     19.5680     54.0501     18.2343     87.5126
  1030.5000     19.5007     54.0186     18.6106     89.7794
  1030.7500     19.4813     54.0307     19.0154     90.0818
  1031.0000     19.5435     54.0860     19.3968     89.6840
  1031.2500     19.6992     54.1701     19.7137     89.4098
  1031.5000     19.9257     54.2689     19.9525     89.2561
  1031.7500     20.1860     54.3773     20.1301     89.3074
  1032.0000     20.4513     54.4956     20.2799     89.9916
  1032.2500     20.7034     54.6272     20.4293     91.2035
  1032.5000     20.9310     54.7799     20.5765     93.8965
  1032.7500     21.1314     54.9676     20.6846     95.3490
  1033.0000     21.3014     55.2031     20.7011     95.1881
  1033.2500     21.4133     55.4887     20.5946     93.1392
  1033.5000     21.4075     55.8140     20.3745     87.9826
  1033.7500     21.2219     56.1617     20.0831     84.0740
  1034.0000     20.8399     56.5125     19.7710     78.8823
  1034.2500     20.3094     56.8465     19.4775     76.2625
  1034.5000     19.7215     57.1444     19.2226     73.6232
  1034.7500     19.1662     57.3889     19.0046     72.6012
  1035.0000     18.6831     57.5634     18.8010     71.9032
  1035.2500     18.2599     57.6480     18.5777     71.6977
  1035.5000     17.8900     57.6249     18.3067     71.1164
  1035.7500     17.5825     57.4940     17.9852     70.3938
  1036.0000     17.3258     57.2882     17.6403     69.3037
  1036.2500     17.1100     57.0659     17.3136     69.0437
  1036.5000     16.9648     56.8821     17.0381     69.6103
  1036.7500     16.9267     56.7599     16.8261     70.2930
  1037.0000     16.9893     56.6857     16.6713     70.8669
  1037.2500     17.1044     56.6269     16.5610     70.6329
  1037.5000     17.2240     56.5483     16.4857     69.5036
  1037.7500     17.3318     56.4184     16.4410     68.5768
  1038.0000     17.4276     56.2159     16.4245     67.4220
  1038.2500     17.5043     55.9446     16.4302     66.8261
  1038.5000     17.5551     55.6413     16.4460     65.7135
  1038.7500     17.5918     55.3609     16.4568     64.4889
  1039.0000     17.6277     55.1426     16.4533     61.9965
  1039.2500     17.6479     54.9861     16.4387     60.4728
  1039.5000     17.6165     54.8588     16.4260     59.5894
  1039.7500     17.5130     54.7264     16.4254     60.1739
  1040.0000     17.3524     54.5759     16.4344     62.1589
  1040.2500     17.1676     54.4147     16.4374     63.5971
  1040.5000     16.9816     54.2567     16.4144     65.1530
  1040.7500     16.8030     54.1105     16.3498     65.5750
  1041.0000     16.6332     53.9674     16.2351     65.1701
  1041.2500     16.4754     53.7991     16.0687     64.2910
  1041.5000     16.3383     53.5785     15.8548     62.5300
  1041.7500     16.2218     53.3159     15.6034     61.4883
  1042.0000     16.1129     53.0676     15.3279     60.9351
  1042.2500     16.0046     52.9027     15.0397     61.5947
  1042.5000     15.8927     52.8619     14.7443     64.2472
  1042.7500     15.7584     52.9443     14.4432     66.9578
  1043.0000     15.5701     53.1220     14.1421     72.2198
  1043.2500     15.2909     53.3605     13.8588     76.5597
  1043.5000     14.9033     53.6328     13.6228     84.3954
  1043.7500     14.4398     53.9240     13.4623     90.3596
  1044.0000     13.9664     54.2281     13.3897     99.6007
  1044.2500     13.5372     54.5411     13.3942    105.0286
  1044.5000     13.1800     54.8565     13.4477    109.9025
  1044.7500     12.9243     55.1630     13.5192    109.9670
  1045.0000     12.8230     55.4461     13.5889    105.2575
  1045.2500     12.9291     55.6913     13.6535     99.9645
  1045.5000     13.2560     55.8838     13.7196     91.2938
  1045.7500     13.7587     56.0077     13.7960     86.2342
  1046.0000     14.3536     56.0519     13.8894     80.8931
  1046.2500     14.9876     56.0233     14.0068     78.9406
  1046.5000     15.6669     55.9535     14.1580     77.7233
  1046.7500     16.3666     55.8843     14.3527     77.4416
  1047.0000     16.9802     55.8459     14.5933     77.2242
  1047.2500     17.4218     55.8459     14.8681     77.2354
  1047.5000     17.6979     55.8756     15.1542     77.7269
  1047.7500     17.8497     55.9245     15.4284     78.5123
  1048.0000     17.8950     55.9907     15.6761     80.5843
  1048.2500     17.8448     56.0795     15.8897     82.4892
  1048.5000     17.7325     56.1949     16.0603     85.4194
  1048.7500     17.5960     56.3304     16.1752     86.9214
