~Version Information
VERS.                      2.0: CWLS Log ASCII Standard - VERSION 2.0
WRAP.                       NO: One line per depth step
~Well Information Block
STRT.FT               682.0000: 
STOP.FT              2190.5000: 
STEP.FT                 0.1000: 
NULL.                -999.2500: 
COMP.          Pioneer Natural Resources: COMPANY
WELL.               King 22-13: WELL
FLD.           Purgatoire River: FIELD
LOC.           2419' FNL & 1806' FWL----: LOCATION
PROV.                 Colorado: PROVINCE
CNTY.               Las Animas: COUNTRY
SRVC.                Patterson: SERVICE COMPANY
DATE.          Fri Apr 01 07:38:12 2005: LOG DATE
UWI.           05 071 08318 00: UNIQUE WELL ID
~Curve Information Block
DEPT.FT            0 000 00 00: Depth
DCAL.in                       : CDL Caliper
RHOB.g/cc                     : CDL Bulk Density
RHOC.g/cc                     : CDL Density Correction
DPOR.pu                       : CDL Density Porosity
NPOR.pu                       : Neutron Porosity
GR.GAPI                       : Gamma Ray
~Parameter Information Block
~A  Depth       DCAL        RHOB        RHOC        DPOR        NPOR         GR     
# ...
  1776.4000      8.0095      2.4272      0.0578     13.5023     27.5897    122.5531
  1776.5000      8.0046      2.4143      0.1113     14.2828     27.7489    122.7331
  1776.6000      8.0046      2.3969      0.0821     15.3394     28.0395    120.8041
  1776.7000      8.0046      2.3847      0.0317     16.0768     27.7326    114.3047
  1776.8000      8.0186      2.3893      0.0517     15.8013     27.0174    111.4761
  1776.9000      8.0186      2.4063      0.0954     14.7715     26.5391    115.3991
  1777.0000      8.0473      2.4236      0.1135     13.7205     25.9961    117.3470
  1777.1000      8.0473      2.4329      0.1204     13.1591     25.2177    114.8714
  1777.2000      8.0473      2.4361      0.1013     12.9616     24.8017    114.7243
  1777.3000      8.0615      2.4449      0.0938     12.4319     24.7989    118.6538
  1777.4000      8.0615      2.4687      0.0756     10.9891     24.6615    120.4077
  1777.5000      8.0494      2.5028      0.1079      8.9208     24.1593    116.1933
  1777.6000      8.0494      2.5277      0.0867      7.4143     23.2005    110.4863
  1777.7000      8.0494      2.5335      0.0416      7.0634     22.1045    107.4760
  1777.8000      8.0258      2.5333      0.0469      7.0722     21.5878    106.3069
  1777.9000      8.0258      2.5406      0.0295      6.6313     21.6478    107.5483
  1778.0000      8.0080      2.5504      0.0795      6.0369     21.8734    111.6858
  1778.1000      8.0080      2.5514      0.0637      5.9770     22.0561    116.1138
  1778.2000      8.0080      2.5478      0.0418      6.1937     22.1264    118.2328
  1778.3000      7.9998      2.5544      0.0071      5.7936     22.2652    119.3611
  1778.4000      7.9998      2.5696      0.0818      4.8741     22.5316    117.8841
  1778.5000      7.9963      2.5765      0.0769      4.4529     22.4845    111.7777
  1778.6000      7.9963      2.5662      0.0599      5.0800     22.0988    105.8664
  1778.7000      7.9963      2.5437      0.0336      6.4425     22.0472    101.5961
  1778.8000      7.9921      2.5282      0.0099      7.3792     22.6739     94.2431
  1778.9000      7.9921      2.5359      0.0083      6.9131     23.3274     87.7393
  1779.0000      7.9836      2.5584      0.0534      5.5514     23.3201     90.9132
  1779.1000      7.9836      2.5752      0.0534      4.5358     23.2717    101.7545
  1779.2000      7.9836      2.5787      0.0418      4.3210     23.7639    113.6454
  1779.3000      7.9760      2.5764      0.0613      4.4626     24.4662    122.8056
  1779.4000      7.9760      2.5768      0.0535      4.4379     24.8242    123.5586
  1779.5000      7.9754      2.5831      0.1129      4.0570     24.2412    114.9491
  1779.6000      7.9754      2.5912      0.0752      3.5635     22.9657    108.6735
  1779.7000      7.9754      2.5969      0.0768      3.2207     22.1456    112.3539
  1779.8000      7.9812      2.6026      0.0900      2.8730     22.1855    119.0434
  1779.9000      7.9812      2.6108      0.1002      2.3770     22.4289    121.2409
  1780.0000      7.9899      2.6161      0.1037      2.0557     22.5769    118.4286
  1780.1000      7.9899      2.6116      0.1251      2.3298     23.0730    114.3776
  1780.2000      7.9899      2.5965      0.0990      3.2427     23.6173    112.2992
  1780.3000      7.9954      2.5798      0.0581      4.2565     23.4201    109.2753
  1780.4000      7.9954      2.5711      0.0459      4.7800     22.7649    104.5163
  1780.5000      7.9962      2.5730      0.0433      4.6692     22.4023    106.4096
  1780.6000      7.9962      2.5785      0.0772      4.3325     22.5689    115.3359
  1780.7000      7.9962      2.5756      0.0421      4.5103     22.8987    119.1983
  1780.8000      7.9912      2.5559      0.0568      5.7019     22.8496    114.3249
  1780.9000      7.9912      2.5297      0.0401      7.2915     22.5764    108.8914
  1781.0000      7.9805      2.5236      0.0461      7.6582     22.4365    107.1824
  1781.1000      7.9805      2.5465      0.0636      6.2738     22.2304    105.8824
  1781.2000      7.9805      2.5748      0.1120      4.5595     21.8819    106.6922
  1781.3000      7.9736      2.5869      0.0709      3.8240     21.8822    114.1998
  1781.4000      7.9736      2.5873      0.1138      3.8013     22.1127    124.2268
  1781.5000      7.9745      2.5794      0.1019      4.2796     22.1130    127.8357
  1781.6000      7.9745      2.5576      0.0830      5.6005     22.2128    122.5322
  1781.7000      7.9745      2.5309      0.0414      7.2208     22.6181    113.8623
  1781.8000      7.9803      2.5189      0.0476      7.9468     22.7298    108.6801
  1781.9000      7.9803      2.5331      0.0328      7.0862     22.4281    108.5153
  1782.0000      7.9846      2.5684      0.0716      4.9480     22.6434    107.5351
  1782.1000      7.9846      2.5964      0.1288      3.2479     23.5893    101.5294
  1782.2000      7.9846      2.5936      0.0937      3.4159     24.1671    100.3425
  1782.3000      7.9820      2.5724      0.0812      4.7025     23.7117    109.9251
  1782.4000      7.9820      2.5555      0.0697      5.7253     23.0678    122.2164
  1782.5000      7.9781      2.5505      0.0864      6.0305     23.0106    129.1192
  1782.6000      7.9781      2.5496      0.0991      6.0839     23.2555    126.6114
  1782.7000      7.9781      2.5464      0.0908      6.2793     23.1785    119.0208
  1782.8000      7.9749      2.5473      0.0874      6.2252     22.6548    115.3864
  1782.9000      7.9749      2.5551      0.1103      5.7492     22.1428    116.2748
  1783.0000      7.9726      2.5617      0.1037      5.3487     21.7679    115.7365
  1783.1000      7.9726      2.5592      0.1231      5.5016     21.7363    110.4197
  1783.2000      7.9726      2.5483      0.0833      6.1633     22.0161    103.6223
  1783.3000      7.9741      2.5419      0.0702      6.5516     21.8932    104.6072
  1783.4000      7.9741      2.5503      0.0763      6.0404     21.2898    111.1855
  1783.5000      7.9795      2.5683      0.0682      4.9497     20.9511    111.5023
  1783.6000      7.9795      2.5778      0.0930      4.3739     21.1428    110.6003
  1783.7000      7.9795      2.5632      0.0752      5.2605     21.4558    112.8859
  1783.8000      7.9838      2.5375      0.0280      6.8189     21.5340    111.1425
  1783.9000      7.9838      2.5285      0.0417      7.3615     21.1273    109.8732
  1784.0000      7.9808      2.5409      0.0725      6.6091     20.6257    111.9586
  1784.1000      7.9808      2.5571      0.0482      5.6302     21.1008    107.0446
  1784.2000      7.9808      2.5617      0.1016      5.3506     22.4895     95.3282
  1784.3000      7.9773      2.5554      0.0473      5.7360     23.3254     89.7988
  1784.4000      7.9773      2.5512      0.0586      5.9856     22.8429     94.6514
  1784.5000      7.9786      2.5563      0.0318      5.6809     21.7945    104.0002
  1784.6000      7.9786      2.5669      0.0809      5.0369     21.2247    114.3752
  1784.7000      7.9786      2.5746      0.0890      4.5723     21.2805    123.2755
  1784.8000      7.9805      2.5767      0.0996      4.4395     21.6298    125.5967
  1784.9000      7.9805      2.5751      0.0873      4.5404     22.1936    119.6606
  1785.0000      7.9798      2.5655      0.1001      5.1203     22.4615    111.3304
  1785.1000      7.9798      2.5503      0.0625      6.0409     22.1955    108.2198
  1785.2000      7.9798      2.5444      0.0242      6.3982     22.2102    111.3812
  1785.3000      7.9853      2.5550      0.0710      5.7584     22.4519    115.1936
  1785.4000      7.9853      2.5772      0.0531      4.4119     22.0035    113.3945
  1785.5000      8.0016      2.6052      0.0807      2.7169     21.0116    106.1310
  1785.6000      8.0016      2.6280      0.0718      1.3361     20.3651    102.2098
  1785.7000      8.0016      2.6341      0.0618      0.9636     20.5649    107.1393
  1785.8000      8.0164      2.6199      0.0799      1.8243     21.1633    113.0170
  1785.9000      8.0164      2.5895      0.0595      3.6639     21.3169    112.9474
