~Version Information
VERS.                      2.0: CWLS Log ASCII Standard - VERSION 2.0
WRAP.                       NO: One line per depth step
~Well Information Block
STRT.FT               910.3000: 
STOP.FT              1932.5000: 
STEP.FT                 0.1000: 
NULL.                -999.2500: 
COMP.          Petrogulf Corporation: COMPANY
WELL.             State 16-34R: WELL
FLD.           Purgatorie River: FIELD
LOC.           1095' FSL & 1498' FEL: LOCATION
CNTY.               Las Animas: COUNTY
SRVC.                         : SERVICE COMPANY
DATE.          Thu May 06 14:28:18 2004: LOG DATE
UWI.           05 071 08032 00: UNIQUE WELL ID
STAT.                 Colorado: STATE
~Curve Information Block
DEPT.FT            0 000 00 00: Depth
DCAL.in                       : CDL Caliper
RHOB.g/cc                     : CDL Bulk Density
RHOC.g/cc                     : CDL Density Correction
DPOR.pu                       : CDL Density Porosity
NPOR.pu                       : Neutron Porosity
GR.GAPI                       : Gamma Ray
~Parameter Information Block
~A  Depth       DCAL        RHOB        RHOC        DPOR        NPOR         GR     
# ...
  1303.9000      7.9244      2.5088     -0.0111      8.5560     24.8224    112.7125
  1304.0000      7.9256      2.5318      0.0265      7.1615     24.7786    111.3806
  1304.1000      7.9256      2.5720      0.0523      4.7289     25.0225    109.6477
  1304.2000      7.9256      2.6144      0.0558      2.1576     25.2589    110.7266
  1304.3000      7.9256      2.6485      0.0873      0.0916     25.2437    111.9874
  1304.4000      7.9256      2.6640      0.1017     -0.8472     25.1072    110.7357
  1304.5000      7.9240      2.6575      0.0846     -0.4570     25.1821    109.2850
  1304.6000      7.9240      2.6384      0.0647      0.7028     25.4326    111.3388
  1304.7000      7.9240      2.6155      0.0680      2.0880     25.5774    116.1048
  1304.8000      7.9212      2.5951      0.0039      3.3276     25.6720    117.6944
  1304.9000      7.9212      2.5902      0.0280      3.6229     26.0613    115.6352
  1305.0000      7.9207      2.6036     -0.0132      2.8141     26.7627    113.2584
  1305.1000      7.9207      2.6134      0.0204      2.2182     27.3231    110.8824
  1305.2000      7.9207      2.6010      0.0015      2.9692     27.4301    109.7033
  1305.3000      7.9195      2.5805     -0.0133      4.2113     27.2016    111.6012
  1305.4000      7.9195      2.5738      0.0423      4.6193     26.8237    115.4818
  1305.5000      7.9193      2.5775      0.0685      4.3938     26.4759    117.4896
  1305.6000      7.9193      2.5798      0.0648      4.2540     26.3820    113.5015
  1305.7000      7.9193      2.5776      0.0609      4.3852     26.4428    104.7683
  1305.8000      7.9146      2.5723      0.0610      4.7096     26.2105     98.9649
  1305.9000      7.9146      2.5748      0.0045      4.5553     25.7095    103.3398
  1306.0000      7.9168      2.5880      0.0848      3.7597     25.3781    113.6985
  1306.1000      7.9168      2.5905      0.0758      3.6037     25.3469    118.2785
  1306.2000      7.9168      2.5770      0.0021      4.4227     25.3250    115.1226
  1306.3000      7.9189      2.5693      0.0123      4.8905     25.1151    111.9657
  1306.4000      7.9189      2.5819      0.0156      4.1288     24.9290    111.3409
  1306.5000      7.9130      2.5998      0.0750      3.0434     24.7528    110.3135
  1306.6000      7.9130      2.5958      0.0810      3.2862     24.4161    108.6042
  1306.7000      7.9130      2.5719      0.0240      4.7351     23.9995    109.5147
  1306.8000      7.9137      2.5499      0.0643      6.0656     23.6638    112.1822
  1306.9000      7.9137      2.5359      0.0325      6.9172     23.5611    111.6204
  1307.0000      7.9158      2.5296      0.0130      7.2964     23.6338    108.3466
  1307.1000      7.9158      2.5366      0.0170      6.8727     23.7633    108.4538
  1307.2000      7.9158      2.5583      0.0267      5.5585     23.9529    112.5853
  1307.3000      7.9165      2.5799      0.0898      4.2507     24.1213    114.2172
  1307.4000      7.9165      2.5788      0.0575      4.3125     24.0884    111.7456
  1307.5000      7.9149      2.5533      0.0155      5.8576     24.0114    108.3457
  1307.6000      7.9149      2.5260     -0.0047      7.5132     24.0518    107.5579
  1307.7000      7.9149      2.5258     -0.0451      7.5245     24.1250    112.3235
  1307.8000      7.9160      2.5502      0.0374      6.0480     24.3277    116.3556
  1307.9000      7.9160      2.5630      0.0847      5.2750     24.8096    111.8221
  1308.0000      7.9146      2.5536      0.0234      5.8446     25.4001    103.6798
  1308.1000      7.9146      2.5500      0.0141      6.0600     25.8227     98.3068
  1308.2000      7.9146      2.5665      0.0175      5.0616     25.9541     95.8623
  1308.3000      7.9339      2.5856      0.0164      3.9059     25.8013     95.7957
  1308.4000      7.9339      2.5922      0.0439      3.5040     25.5099     99.2941
  1308.5000      7.9611      2.5912      0.0561      3.5608     25.2541    106.2601
  1308.6000      7.9611      2.5923      0.0381      3.4966     24.9631    110.3677
  1308.7000      7.9611      2.5943      0.0787      3.3754     24.5703    108.8392
  1308.8000      7.9440      2.5941      0.0465      3.3849     24.3756    107.1243
  1308.9000      7.9440      2.5944      0.0504      3.3712     24.5812    108.1442
  1309.0000      7.9270      2.5957      0.0493      3.2904     25.0708    110.5863
  1309.1000      7.9270      2.6018      0.0438      2.9233     25.7411    111.6613
  1309.2000      7.9270      2.6126      0.0822      2.2676     26.2450    109.6492
  1309.3000      7.9410      2.6164      0.1135      2.0373     25.9860    108.1014
  1309.4000      7.9410      2.6087      0.0514      2.5049     25.2635    110.5538
  1309.5000      7.9439      2.6011      0.0856      2.9657     24.9712    114.6028
  1309.6000      7.9439      2.6027      0.0721      2.8693     25.2808    117.0798
  1309.7000      7.9439      2.6140      0.0754      2.1817     25.7887    116.4687
  1309.8000      7.9364      2.6213      0.0924      1.7391     26.2632    111.7186
  1309.9000      7.9364      2.6016      0.1023      2.9355     26.7218    104.0573
  1310.0000      7.9446      2.5633     -0.0241      5.2567     26.8108     97.8856
  1310.1000      7.9446      2.5454     -0.0040      6.3392     26.2829     98.3863
  1310.2000      7.9446      2.5601      0.0195      5.4491     25.6351    106.5695
  1310.3000      7.9494      2.5879      0.0024      3.7663     25.1908    117.5289
  1310.4000      7.9494      2.6097      0.0460      2.4426     24.7587    123.7171
  1310.5000      7.9530      2.6205      0.0049      1.7855     24.3073    122.1932
  1310.6000      7.9530      2.6210      0.0809      1.7560     23.9113    117.7941
  1310.7000      7.9530      2.6095      0.0389      2.4521     23.5833    114.5283
  1310.8000      7.9466      2.5975      0.0423      3.1798     23.6513    109.7388
  1310.9000      7.9466      2.6013      0.0073      2.9526     24.3632    103.6353
  1311.0000      7.9021      2.6125      0.0814      2.2702     25.3631    100.6351
  1311.1000      7.9021      2.6045      0.0621      2.7579     26.3418     99.2280
  1311.2000      7.9021      2.5777      0.0095      4.3802     27.2358     96.6934
  1311.3000      7.9399      2.5594      0.0071      5.4886     27.6621     95.5528
  1311.4000      7.9399      2.5659     -0.0320      5.0960     27.7737     97.9658
  1311.5000      7.9457      2.5871      0.0544      3.8150     28.2274    105.3037
  1311.6000      7.9457      2.5936      0.0347      3.4155     28.9936    115.4484
  1311.7000      7.9457      2.5778      0.0195      4.3784     29.5031    122.8223
  1311.8000      7.9532      2.5586     -0.0132      5.5415     29.2863    126.4149
  1311.9000      7.9532      2.5466      0.0034      6.2673     28.4325    128.1560
  1312.0000      7.9536      2.5425      0.0101      6.5181     27.5093    131.4915
  1312.1000      7.9536      2.5490      0.0203      6.1220     26.9695    136.7704
  1312.2000      7.9536      2.5585      0.0581      5.5456     26.9921    139.2430
  1312.3000      7.9558      2.5613      0.0342      5.3768     27.5078    141.1555
  1312.4000      7.9558      2.5613      0.0063      5.3755     27.9980    146.4082
  1312.5000      7.9752      2.5597      0.0465      5.4751     27.9224    151.4341
  1312.6000      7.9752      2.5531      0.0494      5.8719     27.2689    152.4527
  1312.7000      7.9752      2.5417      0.0742      6.5631     26.7079    149.5169
  1312.8000      7.9947      2.5246      0.0341      7.5970     26.7344    145.4912
  1312.9000      7.9947      2.5075     -0.0139      8.6371     26.9972    144.8823
  1313.0000      8.0106      2.5042     -0.0305      8.8374     27.2536    148.4433
  1313.1000      8.0106      2.5162      0.0169      8.1095     27.5266    153.0072
  1313.2000      8.0106      2.5251      0.0047      7.5719     27.4506    153.6141
  1313.3000      8.0214      2.5253     -0.0243      7.5590     26.9159    147.8843
  1313.4000      8.0214      2.5322     -0.0219      7.1389     26.4291    141.9045
