~Version Information
 VERS.                                  2.0 : CWLS LAS VERSION
 WRAP.                                   NO : WRAPING MODE
 SWARE .                 MController 2.5.0J : SOFTWARE VERSION
~Well Information
 WELL.                        McLeod 09-42R : WELL
 COMP.                Petrogulf Corporation : COMPANY
 FLD.                      Purgatoire River : FIELD
 LOC.                SE/NE Sec 09 T33S R67W : LOCATION
 DATE.                          08/13-14/05 : DATE(S) LOGGED
 SRVC.       BLANCO Geological Services LLC : SERVICE COMPANY
 STAT.                                   CO : STATE
 CNTY.                           Las Animas : COUNTY
 CTRY.                                  USA : COUNTRY
 API.                       05 071 08092 00 : API NUMBER
 STRT.FT                               6.00 : START DEPTH
 STOP.FT                            1775.00 : STOP DEPTH
 STEP.FT                               1.00 : DEPTH INCREMENT
 NULL.                                -9999 : NULL VALUE
~Curve information
 DEPTH.FT                                   :
 ROP.MIN/FT                                 :
 GAS.UNITS                                  :
~ASCII Log data
# ...
       806.0         0.33         30.8 
       807.0         0.33         32.7 
       808.0         2.68        168.2 
       809.0         0.30         36.6 
       810.0         0.30         32.6 
       811.0         0.33         30.4 
       812.0         0.27         26.9 
       813.0         0.28         24.2 
       814.0         0.37         22.9 
       815.0         0.17         22.9 
       816.0         0.20         23.4 
       817.0         0.30         23.1 
       818.0         0.30         21.4 
       819.0         0.30         23.5 
       820.0         0.20         24.6 
       821.0         0.30         24.9 
       822.0         0.30         24.4 
       823.0         0.13         23.2 
       824.0         0.17         23.0 
       825.0         0.17         22.2 
       826.0         0.20         21.8 
       827.0         0.22         21.0 
       828.0         0.27         21.3 
       829.0         0.27         19.6 
       830.0         0.23         19.7 
       831.0         0.23         20.2 
       832.0         0.27         20.9 
       833.0         0.53         21.6 
       834.0         0.33         20.1 
       835.0         0.27         18.5 
       836.0         0.30         26.4 
       837.0         0.33         43.4 
       838.0         2.65        142.1 
       839.0         0.30         25.0 
       840.0         0.37         24.9 
       841.0         0.35         23.4 
       842.0         0.17         21.8 
       843.0         0.17         21.7 
       844.0         0.30         20.0 
       845.0         0.27         19.1 
       846.0         0.27         19.4 
       847.0         0.27         19.5 
       848.0         0.27         18.3 
       849.0         0.27         18.1 
       850.0         0.27         18.0 
       851.0         0.30         18.6 
       852.0         0.33         18.9 
       853.0         0.32         19.5 
       854.0         0.40         19.5 
       855.0         0.40         18.9 
       856.0         0.27         18.0 
       857.0         0.27         17.9 
       858.0         0.27         18.1 
       859.0         0.27         18.2 
       860.0         0.30         18.1 
       861.0         0.27         17.6 
       862.0         0.23         17.3 
       863.0         0.23         16.2 
       864.0         0.25         16.7 
       865.0         0.20         20.0 
       866.0         0.27         30.8 
       867.0         0.40         54.9 
       868.0         1.23         80.8 
       869.0         0.37         31.2 
       870.0         0.32         22.4 
       871.0         0.30         19.9 
       872.0         0.20         19.7 
       873.0         0.23         19.0 
       874.0         0.23         17.8 
       875.0         0.27         17.3 
       876.0         0.13         16.5 
       877.0         0.17         17.3 
       878.0         0.23         18.6 
       879.0         0.27         19.6 
       880.0         0.20         19.9 
       881.0         0.20         19.7 
       882.0         0.20         19.3 
       883.0         0.23         19.1 
       884.0         0.27         19.2 
       885.0         0.22         18.8 
       886.0         0.23         18.5 
       887.0         0.23         18.2 
       888.0         0.23         18.0 
       889.0         0.27         17.5 
       890.0         0.27         17.6 
       891.0         0.27         17.5 
       892.0         0.23         17.5 
       893.0         0.20         17.2 
       894.0         0.20         16.3 
       895.0         0.23         14.9 
       896.0         0.30         19.2 
       897.0         0.33         33.5 
       898.0         1.52         81.7 
       899.0         0.23         36.4 
       900.0         0.20         27.4 
       901.0         0.30         22.7 
       902.0         0.40         20.2 
       903.0         0.33         19.0 
       904.0         0.30         20.7 
       905.0         0.22         21.0 
       906.0         0.20         19.1 
       907.0         0.17         19.0 
       908.0         0.17         18.0 
       909.0         0.17         17.6 
       910.0         0.30         16.6 
       911.0         0.27         16.2 
       912.0         0.30         15.3 
       913.0         0.30         15.9 
       914.0         0.23         15.4 
       915.0         0.30         15.0 
       916.0         0.27         15.2 
       917.0         0.27         14.6 
       918.0         0.28         15.7 
       919.0         0.23         16.8 
       920.0         0.23         17.7 
       921.0         0.30         16.6 
       922.0         0.20         14.3 
       923.0         0.20         14.8 
       924.0         0.13         15.7 
       925.0         0.17         17.8 
       926.0         0.13         18.9 
       927.0         0.33         21.4 
       928.0         2.92         79.0 
       929.0         0.33         30.9 
       930.0         0.30         26.3 
       931.0         0.30         23.3 
       932.0         0.20         20.8 
       933.0         0.13         18.8 
       934.0         0.13         17.8 
       935.0         0.13         17.0 
       936.0         0.22         16.2 
       937.0         0.23         15.4 
       938.0         0.17         15.1 
       939.0         0.27         14.8 
       940.0         0.20         14.4 
       941.0         0.23         13.9 
       942.0         0.23         14.0 
       943.0         0.20         14.1 
       944.0         0.20         16.8 
       945.0         0.20         24.8 
       946.0         0.20         27.5 
       947.0         0.20         28.3 
       948.0         0.20         28.1 
       949.0         0.20         26.6 
       950.0         0.13         26.1 
       951.0         0.10         26.1 
       952.0         0.13         25.9 
       953.0         0.25         25.7 
       954.0         0.23         25.4 
       955.0         0.30         23.9 
       956.0         0.30         23.0 
       957.0         0.30         32.6 
       958.0         2.25         92.6 
       959.0         0.33         98.9 
       960.0         0.27        107.7 
       961.0         0.27        112.0 
       962.0         0.27        112.4 
       963.0         0.27        111.7 
       964.0         0.27        109.1 
       965.0         0.23        105.6 
       966.0         0.23        103.3 
       967.0         0.17        101.1 
       968.0         0.17        100.1 
       969.0         0.20         99.1 
       970.0         0.20         97.8 
       971.0         0.25         96.5 
       972.0         0.23         95.1 
       973.0         0.17         93.8 
       974.0         0.20         92.9 
       975.0         0.20         91.9 
       976.0         0.20         90.9 
       977.0         0.20         90.3 
       978.0         0.20         89.6 
       979.0         0.20         89.1 
       980.0         0.20         88.7 
       981.0         0.20         87.9 
       982.0         0.20         86.1 
       983.0         0.17         81.8 
       984.0         0.20         81.6 
       985.0         0.20         98.4 
       986.0         0.20        126.7 
       987.0         0.22        165.9 
       988.0         1.93        297.1 
       989.0         0.23        100.0 
       990.0         0.23         90.0 
       991.0         0.23         83.7 
       992.0         0.20         80.1 
       993.0         0.20         77.4 
       994.0         0.25         75.1 
       995.0         0.27         72.6 
       996.0         0.20         71.3 
       997.0         0.40         70.5 
       998.0         0.37         68.9 
       999.0         0.27         67.4 
      1000.0         0.27         66.3 
      1001.0         0.23         66.5 
      1002.0         0.27         65.8 
      1003.0         0.37         64.3 
      1004.0         0.27         69.2 
      1005.0         0.13         72.6 
