~Version Information
VERS.                      2.0: CWLS Log ASCII Standard - VERSION 2.0
WRAP.                       NO: One line per depth step
~Well Information Block
STRT.FT               235.0000: 
STOP.FT              1633.0000: 
STEP.FT                 0.1000: 
NULL.                -999.2500: 
COMP.          Petrogulf Corporation: COMPANY
WELL.             State 16-41R: WELL
FLD.           Purgatorie River: FIELD
LOC.           280' FNL & 907' FEL: LOCATION
PROV.                 Colorado: PROVINCE
CNTY.               Las Animas: COUNTRY
SRVC.                Patterson: SERVICE COMPANY
DATE.          Wed Oct 19 07:05:20 2005: LOG DATE
API.           05-071-08345    : API
~Curve Information Block
DEPT.FT            0 000 00 00: Depth
DCAL.in                       : CDL Caliper
RHOB.g/cc                     : CDL Bulk Density
RHOC.g/cc                     : CDL Density Correction
DPOR.pu                       : CDL Density Porosity
GR.GAPI                       : Gamma Ray
NPOR.pu                       : Neutron Porosity
~Parameter Information Block
~A  Depth       DCAL        RHOB        RHOC        DPOR         GR         NPOR    
# ...
   791.8000      7.8865      2.6037      0.1274      2.8047    140.4469     25.7485
   791.9000      7.8865      2.6063      0.1227      2.6467    139.9847     25.9715
   792.0000      7.9194      2.6189      0.0999      1.8824    137.1768     26.0973
   792.1000      7.9194      2.6502      0.1223     -0.0138    134.0736     26.1895
   792.2000      7.9194      2.6865      0.1482     -2.2132    134.3523     26.3767
   792.3000      7.9278      2.7123      0.1452     -3.7752    138.2082     26.6224
   792.4000      7.9278      2.7211      0.1165     -4.3090    143.1153     26.7614
   792.5000      7.9266      2.7132      0.0935     -3.8306    144.9084     26.8306
   792.6000      7.9266      2.6938      0.0855     -2.6550    142.2848     26.8618
   792.7000      7.9266      2.6662      0.0769     -0.9804    137.9649     26.5503
   792.8000      7.9281      2.6371      0.0464      0.7814    134.9572     25.8876
   792.9000      7.9281      2.6183      0.0346      1.9211    135.1091     25.5563
   793.0000      7.9270      2.6123      0.0635      2.2819    138.5616     25.9656
   793.1000      7.9270      2.6162      0.0270      2.0508    142.3809     26.6060
   793.2000      7.9270      2.6284      0.0889      1.3064    144.0666     26.9269
   793.3000      7.9334      2.6440      0.0664      0.3662    144.0146     26.9798
   793.4000      7.9334      2.6553      0.0569     -0.3203    144.2193     27.0202
   793.5000      7.9466      2.6546      0.1176     -0.2762    146.0746     27.1498
   793.6000      7.9466      2.6440      0.0749      0.3617    148.2550     27.2031
   793.7000      7.9466      2.6361      0.1006      0.8396    149.4037     27.0198
   793.8000      7.9552      2.6285      0.0833      1.3036    149.2143     26.8421
   793.9000      7.9552      2.6107      0.0832      2.3808    146.8613     26.8222
   794.0000      7.9474      2.5871      0.0531      3.8107    143.2512     26.7255
   794.1000      7.9474      2.5678      0.0486      4.9793    140.0234     26.5479
   794.2000      7.9474      2.5534      0.0565      5.8520    135.1863     26.4867
   794.3000      7.9504      2.5469     -0.0037      6.2497    128.1776     26.5475
   794.4000      7.9504      2.5536      0.0904      5.8399    123.1995     26.4722
   794.5000      7.9577      2.5703      0.0246      4.8306    123.8990     26.0463
   794.6000      7.9577      2.6015      0.1032      2.9401    129.2606     25.6105
   794.7000      7.9577      2.6511      0.1319     -0.0639    133.6210     25.5362
   794.8000      7.9484      2.7026      0.1755     -3.1886    132.2541     25.5970
   794.9000      7.9484      2.7395      0.1372     -5.4223    127.5938     25.5020
   795.0000      7.9468      2.7675      0.1226     -7.1235    125.2671     25.3800
   795.1000      7.9468      2.7989      0.1513     -9.0250    125.9543     25.5063
   795.2000      7.9468      2.8311      0.1498    -10.9729    126.1821     25.9429
   795.3000      7.9412      2.8489      0.1476    -12.0565    125.6592     26.4492
   795.4000      7.9412      2.8345      0.1820    -11.1841    123.7422     26.7674
   795.5000      7.9166      2.7925      0.0893     -8.6375    120.2493     26.8063
   795.6000      7.9166      2.7534      0.0109     -6.2694    120.1259     26.6545
   795.7000      7.9166      2.7323      0.0034     -4.9894    124.1711     26.5383
   795.8000      7.9306      2.7165     -0.0165     -4.0280    126.5568     26.4333
   795.9000      7.9306      2.6881     -0.0374     -2.3085    125.7230     26.2335
   796.0000      7.9771      2.6531     -0.0429     -0.1902    125.2444     26.1653
   796.1000      7.9771      2.6329      0.0240      1.0335    126.7372     26.4515
   796.2000      7.9771      2.6315      0.0414      1.1188    128.0273     26.9566
   796.3000      7.9801      2.6390      0.0644      0.6687    127.2215     27.3481
   796.4000      7.9801      2.6463      0.0519      0.2241    127.5584     27.5558
   796.5000      7.9889      2.6505      0.0632     -0.0295    132.2730     27.7219
   796.6000      7.9889      2.6503      0.0327     -0.0169    136.4629     27.9049
   796.7000      7.9889      2.6423      0.0387      0.4679    136.2628     27.9570
   796.8000      8.0109      2.6228      0.0099      1.6503    135.4525     27.7331
   796.9000      8.0109      2.5985     -0.0014      3.1190    137.6857     27.4554
   797.0000      8.0609      2.5739      0.0611      4.6108    143.7651     27.4213
   797.1000      8.0609      2.5401     -0.0009      6.6628    150.6440     27.6265
   797.2000      8.0609      2.5068     -0.0564      8.6789    152.5853     27.8759
   797.3000      8.1251      2.4891      0.0160      9.7534    148.0592     28.1125
   797.4000      8.1251      2.4781      0.0171     10.4203    141.2496     28.5161
   797.5000      8.1566      2.4705      0.0084     10.8805    136.7614     29.0349
   797.6000      8.1566      2.4744      0.0388     10.6395    135.9114     29.3290
   797.7000      8.1566      2.4819      0.0964     10.1871    137.5956     29.4453
   797.8000      8.1864      2.4717      0.1257     10.8081    138.0765     29.6392
   797.9000      8.1864      2.4332      0.1288     13.1373    134.4379     29.8264
   798.0000      8.2144      2.3645      0.1320     17.3014    129.2188     29.8596
   798.1000      8.2144      2.2618      0.0967     23.5280    124.4428     29.8075
   798.2000      8.2144      2.1339      0.0202     31.2766    118.1713     30.0053
   798.3000      8.2192      2.0044     -0.0138     39.1270    110.5984     30.6181
   798.4000      8.2192      1.8828     -0.0701     46.4962    104.4357     31.1926
   798.5000      8.1808      1.7586     -0.0683     54.0260     99.7075     31.3202
   798.6000      8.1808      1.6324     -0.1307     61.6743     94.2785     31.3097
   798.7000      8.1808      1.5262     -0.1114     68.1118     87.9653     31.5169
   798.8000      8.2261      1.4553     -0.0942     72.4079     80.8243     31.7755
   798.9000      8.2261      1.4215     -0.0311     74.4567     72.0932     32.0336
   799.0000      8.5355      1.4147      0.0437     74.8663     66.1293     32.4500
   799.1000      8.5355      1.4124      0.0566     75.0044     65.7782     32.8534
   799.2000      8.5355      1.3983      0.0435     75.8632     65.5764     32.9834
   799.3000      8.7796      1.3822     -0.0128     76.8380     61.9105     32.9105
   799.4000      8.7796      1.3864     -0.0201     76.5820     58.3568     32.8152
   799.5000      8.6094      1.4068      0.0638     75.3480     58.7548     32.8743
   799.6000      8.6094      1.4253     -0.0067     74.2255     62.3180     33.1452
   799.7000      8.6094      1.4514     -0.0534     72.6419     65.2440     33.4412
   799.8000      8.5203      1.5058     -0.0048     69.3448     66.4643     33.7570
   799.9000      8.5203      1.5917      0.0732     64.1396     69.9229     34.0265
   800.0000      8.5732      1.6970      0.1587     57.7587     78.0804     33.9685
   800.1000      8.5732      1.8094      0.1543     50.9451     88.0838     33.6607
   800.2000      8.5732      1.9263      0.1726     43.8628     97.1125     33.3696
   800.3000      8.6560      2.0433      0.1889     36.7702    104.8624     33.0750
   800.4000      8.6560      2.1497      0.2096     30.3217    110.8173     32.7735
   800.5000      8.2977      2.2427      0.1585     24.6824    118.0487     32.5705
   800.6000      8.2977      2.3311      0.1659     19.3267    132.3178     32.3257
   800.7000      8.2977      2.4134      0.2183     14.3384    147.4476     32.0206
   800.8000      8.1153      2.4692      0.2141     10.9552    153.0871     31.9107
   800.9000      8.1153      2.4888      0.1020      9.7684    153.3170     31.9134
   801.0000      8.0502      2.4893      0.0863      9.7399    155.3600     31.6215
   801.1000      8.0502      2.4833      0.0756     10.1045    158.3348     31.0386
   801.2000      8.0502      2.4717      0.0521     10.8051    159.5408     30.5858
   801.3000      8.0031      2.4643      0.0218     11.2545    159.5221     30.3636
