~Version Information
VERS.                      2.0: CWLS Log ASCII Standard - VERSION 2.0
WRAP.                       NO: One line per depth step
~Well Information Block
STRT.FT               240.0000: 
STOP.FT               966.2000: 
STEP.FT                 0.1000: 
NULL.                -999.2500: 
COMP.          Pioneer Natural Resources: COMPANY
WELL.          New Mexico 21-5: WELL
FLD.           Purgatoire River: FIELD
LOC.           175' FNL & 1700' FWL: LOCATION
PROV.                 Colorado: PROVINCE
CNTY.               Las Animas: COUNTRY
SRVC.                Patterson: SERVICE COMPANY
DATE.          Mon Dec 13 06:55:26 2004: LOG DATE
UWI.           05 071 08234 00: UNIQUE WELL ID
~Curve Information Block
DEPT.FT            0 000 00 00: Depth
DCAL.in                       : CDL Caliper
RHOB.g/cc                     : CDL Bulk Density
RHOC.g/cc                     : CDL Density Correction
DPOR.pu                       : CDL Density Porosity
NPOR.pu                       : Neutron Porosity
GR.GAPI                       : Gamma Ray
~Parameter Information Block
~A  Depth       DCAL        RHOB        RHOC        DPOR        NPOR         GR     
# ...
   336.0000      8.1435      2.3046      0.0066     20.9315     21.4227    146.1407
   336.1000      8.1435      2.3427      0.0814     18.6249     20.8739    139.3184
   336.2000      8.1435      2.3991      0.1174     15.2036     20.2339    128.9497
   336.3000      8.1044      2.4636      0.1740     11.2967     19.5070    121.9743
   336.4000      8.1044      2.5364      0.2119      6.8867     19.0711    120.6978
   336.5000      8.0723      2.6037      0.2727      2.8066     19.3832    119.2808
   336.6000      8.0723      2.6426      0.2705      0.4477     20.1472    113.4811
   336.7000      8.0723      2.6481      0.2511      0.1177     20.7055    108.7407
   336.8000      8.0543      2.6441      0.1796      0.3560     20.9224    111.5717
   336.9000      8.0543      2.6503      0.2119     -0.0172     21.1343    117.0730
   337.0000      8.0408      2.6530      0.1837     -0.1800     21.5462    117.4046
   337.1000      8.0408      2.6335      0.1653      0.9989     22.1513    116.2696
   337.2000      8.0408      2.6022      0.0898      2.8978     22.8096    116.0970
   337.3000      8.0342      2.5842      0.0759      3.9891     23.1759    111.2546
   337.4000      8.0342      2.5856      0.0305      3.9010     23.0760    106.0986
   337.5000      8.0355      2.5959      0.0757      3.2797     22.9971    108.6346
   337.6000      8.0355      2.6031      0.0565      2.8418     23.4285    115.0152
   337.7000      8.0355      2.5971      0.0772      3.2068     24.0174    118.8431
   337.8000      8.0377      2.5764      0.0243      4.4632     24.3108    118.4330
   337.9000      8.0377      2.5544     -0.0027      5.7933     24.4762    115.0555
   338.0000      8.0378      2.5416      0.0065      6.5673     24.6131    111.0773
   338.1000      8.0378      2.5400      0.0154      6.6685     24.5100    109.8753
   338.2000      8.0378      2.5522      0.0012      5.9284     24.2456    111.7695
   338.3000      8.0365      2.5781      0.0438      4.3549     24.2480    112.6988
   338.4000      8.0365      2.6084      0.0499      2.5189     24.6368    109.9522
   338.5000      8.0357      2.6310      0.0585      1.1490     24.8889    106.2143
   338.6000      8.0357      2.6483      0.0642      0.1024     24.5866    105.5388
   338.7000      8.0357      2.6686      0.0812     -1.1252     24.0331    108.5226
   338.8000      8.0358      2.6863      0.1003     -2.2027     23.7052    111.9807
   338.9000      8.0358      2.6978      0.0491     -2.8987     23.7524    111.1969
   339.0000      8.0363      2.7048      0.0918     -3.3222     24.2004    105.9969
   339.1000      8.0363      2.7020      0.1078     -3.1507     24.8558    101.4840
   339.2000      8.0363      2.7005      0.0123     -3.0608     25.2489     98.5969
   339.3000      8.0374      2.7133      0.0551     -3.8369     25.2871     93.7906
   339.4000      8.0374      2.7162      0.0691     -4.0092     25.4401     87.7095
   339.5000      8.0381      2.6917      0.0419     -2.5293     25.8046     82.6999
   339.6000      8.0381      2.6617     -0.0278     -0.7107     25.8844     79.3665
   339.7000      8.0381      2.6475      0.0155      0.1538     25.6486     77.6080
   339.8000      8.0376      2.6358      0.0475      0.8613     25.6219     77.4008
   339.9000      8.0376      2.6037      0.0214      2.8040     25.6999     78.8139
   340.0000      8.0371      2.5581      0.0332      5.5689     25.4510     81.8015
   340.1000      8.0371      2.5371     -0.0140      6.8423     24.9667     86.9256
   340.2000      8.0371      2.5596      0.0645      5.4775     24.5526     93.1716
   340.3000      8.0363      2.5932      0.0542      3.4443     24.4088     96.5842
   340.4000      8.0363      2.6083      0.0752      2.5274     24.4202     95.0173
   340.5000      8.0357      2.6086      0.0410      2.5082     24.1912     91.5513
   340.6000      8.0357      2.6052      0.0522      2.7122     23.6998     89.3810
   340.7000      8.0357      2.6040      0.0657      2.7904     23.1175     87.8561
   340.8000      8.0366      2.6119      0.0364      2.3116     22.4925     87.8014
   340.9000      8.0366      2.6282      0.0631      1.3205     21.9905     91.0106
   341.0000      8.0374      2.6344      0.0921      0.9469     21.8198     96.0045
   341.1000      8.0374      2.6185      0.0927      1.9117     22.1459    100.8378
   341.2000      8.0374      2.5945      0.0548      3.3625     22.8631    104.6851
   341.3000      8.0371      2.5811      0.0835      4.1756     23.4269    105.4681
   341.4000      8.0371      2.5809      0.0606      4.1878     23.5395    101.2608
   341.5000      8.0370      2.5882      0.0641      3.7443     23.3446     95.3708
   341.6000      8.0370      2.5948      0.0624      3.3463     22.8956     93.1508
   341.7000      8.0370      2.5977      0.0404      3.1686     22.4107     96.1769
   341.8000      8.0377      2.5991      0.0233      3.0835     22.2226    102.0671
   341.9000      8.0377      2.5884      0.0711      3.7360     22.3571    104.7404
   342.0000      8.0366      2.5564      0.0375      5.6728     22.6973     99.8527
   342.1000      8.0366      2.5223      0.0024      7.7373     23.1296     93.1931
   342.2000      8.0366      2.5069      0.0161      8.6756     23.4616     92.6594
   342.3000      8.0312      2.5091     -0.0184      8.5408     23.7075     96.3186
   342.4000      8.0312      2.5205      0.0025      7.8511     23.9614     99.6926
   342.5000      8.0228      2.5356      0.0065      6.9309     23.8953    103.8025
   342.6000      8.0228      2.5571      0.0292      5.6288     23.4076    110.3770
   342.7000      8.0228      2.5823      0.0778      4.1023     22.8411    115.8875
   342.8000      8.0145      2.5983      0.0776      3.1338     22.4306    118.0457
   342.9000      8.0145      2.5973      0.0529      3.1925     22.2884    120.2733
   343.0000      8.0095      2.5814      0.0636      4.1558     22.4477    121.5824
   343.1000      8.0095      2.5567      0.1213      5.6566     22.7852    119.6601
   343.2000      8.0095      2.5343      0.0696      7.0112     23.1395    116.2110
   343.3000      8.0081      2.5312      0.0516      7.2028     23.4183    111.1993
   343.4000      8.0081      2.5485      0.0843      6.1493     23.5700    104.9815
   343.5000      8.0082      2.5715      0.0829      4.7551     23.5188    101.2986
   343.6000      8.0082      2.5972      0.0790      3.1987     23.3391    103.0829
   343.7000      8.0082      2.6236      0.1510      1.5970     23.2659    107.4302
   343.8000      8.0088      2.6323      0.1584      1.0703     23.1762    109.7073
   343.9000      8.0088      2.6232      0.1126      1.6242     22.8422    110.7277
   344.0000      8.0107      2.6163      0.0822      2.0422     22.7048    112.3587
   344.1000      8.0107      2.6204      0.0610      1.7925     23.1283    114.1480
   344.2000      8.0107      2.6294      0.0792      1.2504     23.7124    115.2489
   344.3000      8.0119      2.6278      0.0820      1.3455     24.0483    114.7550
   344.4000      8.0119      2.6100      0.0610      2.4257     24.1317    111.2146
   344.5000      8.0116      2.5946      0.0088      3.3569     24.1124    105.2261
   344.6000      8.0116      2.5989      0.0417      3.0961     24.0877    101.5523
   344.7000      8.0116      2.6125      0.0609      2.2700     24.0837    101.7351
   344.8000      8.0107      2.6206      0.0606      1.7835     24.2015    102.3726
   344.9000      8.0107      2.6231      0.0736      1.6297     24.4507    100.4024
   345.0000      8.0108      2.6227      0.0673      1.6520     24.6701     97.1177
   345.1000      8.0108      2.6209      0.0701      1.7616     24.8288     95.5743
   345.2000      8.0108      2.6203      0.0486      1.7987     25.1679     99.8687
   345.3000      8.0115      2.6203      0.0838      1.7980     25.4677    107.9597
   345.4000      8.0115      2.6181      0.0794      1.9315     25.1961    111.2872
   345.5000      8.0102      2.6161      0.0554      2.0517     24.5343    110.6442
