~Version Information
 VERS.                      2.0: CWLS Log ASCII Standard - VERSION 2.0
 WRAP.                       NO: One line per depth step
 ~Well Information Block
 STRT.FT               763.7500: 
 STOP.FT              2577.0000: 
 STEP.FT                 0.2500: 
 NULL.                -999.2500: 
 COMP.          Petrogulf Corporation: COMPANY
 WELL.               J&P 12-33V: WELL
 FLD.           Purgatorie River: FIELD
 LOC.           2005' FSL & 1928' FEL: LOCATION
 CNTY.               Las Animas: COUNTY
 SRVC.                         : SERVICE COMPANY
 DATE.          Sat Aug 28 09:00:36 2004: LOG DATE
 UWI.           05 071 08092 00: UNIQUE WELL ID
 STAT.                 Colorado: STATE
 PROV.                         :Province
 ~Curve Information Block
 DEPT.FT            0 000 00 00: Depth
 SP.mV                         : DIL Spontaneous Potential
 RILD.Ohm-m                    : DIL Deep Resistivity
 RILM.Ohm-m                    : DIL Medium Resistivity
 RLL3.Ohm-m                    : DIL Shallow Resistivity
 GR.GAPI                       : Gamma Ray
 ~Parameter Information Block
 ~A  Depth        SP         RILD        RILM        RLL3         GR     
# ...
  1015.7500   2000.0000     13.0694     15.9840   1998.0000    132.6943
  1016.0000   2000.0000     12.6600     15.6149   1998.0000    135.5826
  1016.2500   2000.0000     12.3625     15.2595   1998.0000    136.6008
  1016.5000   2000.0000     12.1647     14.9230   1998.0000    138.3953
  1016.7500   2000.0000     12.0449     14.6078   1998.0000    140.4153
  1017.0000   2000.0000     11.9818     14.3130   1998.0000    144.5168
  1017.2500   2000.0000     11.9614     14.0358   1998.0000    147.3795
  1017.5000   2000.0000     11.9766     13.7733   1998.0000    150.7849
  1017.7500   2000.0000     12.0229     13.5250   1998.0000    151.9728
  1018.0000   2000.0000     12.0920     13.2940   1998.0000    151.6906
  1018.2500   2000.0000     12.1703     13.0873   1998.0000    150.2899
  1018.5000   2000.0000     12.2429     12.9145   1998.0000    147.4847
  1018.7500   2000.0000     12.3006     12.7855   1998.0000    145.9654
  1019.0000   2000.0000     12.3433     12.7071   1998.0000    145.0507
  1019.2500   2000.0000     12.3767     12.6814   1998.0000    145.3260
  1019.5000   2000.0000     12.4046     12.7046   1998.0000    146.4533
  1019.7500   2000.0000     12.4236     12.7680   1998.0000    147.2144
  1020.0000   2000.0000     12.4258     12.8595   1998.0000    147.5816
  1020.2500   2000.0000     12.4078     12.9664   1998.0000    146.9545
  1020.5000   2000.0000     12.3781     13.0777   1998.0000    144.6073
  1020.7500   2000.0000     12.3554     13.1851   1998.0000    142.4332
  1021.0000   2000.0000     12.3576     13.2828   1998.0000    139.1271
  1021.2500   2000.0000     12.3912     13.3666   1998.0000    137.2139
  1021.5000   2000.0000     12.4482     13.4330   1998.0000    134.8136
  1021.7500   2000.0000     12.5124     13.4784   1998.0000    133.5669
  1022.0000   2000.0000     12.5703     13.4997   1998.0000    132.9544
  1022.2500   2000.0000     12.6160     13.4949   1998.0000    133.9628
  1022.5000   2000.0000     12.6489     13.4636   1998.0000    137.7025
  1022.7500   2000.0000     12.6664     13.4064   1998.0000    140.9257
  1023.0000   2000.0000     12.6601     13.3252   1998.0000    144.9614
  1023.2500   2000.0000     12.6186     13.2218   1998.0000    146.3447
  1023.5000   2000.0000     12.5340     13.0982   1998.0000    146.2330
  1023.7500   2000.0000     12.4089     12.9570   1998.0000    145.0597
  1024.0000   2000.0000     12.2560     12.8022   1998.0000    142.6053
  1024.2500   2000.0000     12.0946     12.6397   1998.0000    141.0382
  1024.5000   2000.0000     11.9452     12.4780   1998.0000    139.3485
  1024.7500   2000.0000     11.8260     12.3278   1998.0000    138.7249
  1025.0000   2000.0000     11.7532     12.2017   1998.0000    138.2763
  1025.2500   2000.0000     11.7401     12.1137   1998.0000    138.0294
  1025.5000   2000.0000     11.7962     12.0780   1998.0000    137.4700
  1025.7500   2000.0000     11.9252     12.1088   1998.0000    137.1812
  1026.0000   2000.0000     12.1244     12.2195   1998.0000    137.6594
  1026.2500   2000.0000     12.3872     12.4223   1998.0000    138.7934
  1026.5000   2000.0000     12.7094     12.7282   1998.0000    141.1657
  1026.7500   2000.0000     13.0945     13.1468   1998.0000    142.6776
  1027.0000   2000.0000     13.5561     13.6865   1998.0000    144.4188
  1027.2500   2000.0000     14.1129     14.3548   1998.0000    145.2512
  1027.5000   2000.0000     14.7777     15.1592   1998.0000    145.8325
  1027.7500   2000.0000     15.5443     16.1072   1998.0000    145.2298
  1028.0000   2000.0000     16.3802     17.2084   1998.0000    141.4412
  1028.2500   2000.0000     17.2347     18.4756   1998.0000    136.5646
  1028.5000   2000.0000     18.0621     19.9274   1998.0000    126.5001
  1028.7500   2000.0000     18.8502     21.5893   1998.0000    119.0078
  1029.0000   2000.0000     19.6315     23.4952   1998.0000    108.3201
  1029.2500   2000.0000     20.4708     25.6854   1998.0000    102.3847
  1029.5000   2000.0000     21.4424     28.1996   1998.0000     96.6075
  1029.7500   2000.0000     22.6097     31.0631   1998.0000     95.2947
  1030.0000   2000.0000     24.0109     34.2643   1998.0000     96.2767
  1030.2500   2000.0000     25.6453     37.7317   1998.0000     97.4137
  1030.5000   2000.0000     27.4550     41.3155   1998.0000     97.2736
  1030.7500   2000.0000     29.3103     44.8041   1998.0000     95.4650
  1031.0000   2000.0000     31.0152     47.9741   1998.0000     91.2165
  1031.2500   2000.0000     32.3419     50.6726   1998.0000     88.2285
  1031.5000   2000.0000     33.1025     52.8700   1998.0000     84.3419
  1031.7500   2000.0000     33.2320     54.6544   1998.0000     82.3494
  1032.0000   2000.0000     32.8369     56.1655   1998.0000     80.3417
  1032.2500   2000.0000     32.1630     57.5153   1998.0000     79.3297
  1032.5000   2000.0000     31.4951     58.7322   1998.0000     77.1825
  1032.7500   2000.0000     31.0541     59.7524   1998.0000     74.9880
  1033.0000   2000.0000     30.9407     60.4515   1998.0000     71.2833
  1033.2500   2000.0000     31.1339     60.7214   1998.0000     69.3022
  1033.5000   2000.0000     31.5261     60.5339   1998.0000     67.5630
  1033.7500   2000.0000     31.9849     59.9845   1998.0000     66.8536
  1034.0000   2000.0000     32.4222     59.2694   1998.0000     65.4811
  1034.2500   2000.0000     32.8306     58.6380   1998.0000     64.0712
  1034.5000   2000.0000     33.2669     58.3347   1998.0000     61.4438
  1034.7500   2000.0000     33.7966     58.5562   1998.0000     59.6911
  1035.0000   2000.0000     34.4326     59.4333   1998.0000     57.4302
  1035.2500   2000.0000     35.1088     61.0215   1998.0000     56.1963
  1035.5000   2000.0000     35.7017     63.2805   1998.0000     54.8475
  1035.7500   2000.0000     36.0974     66.0629   1998.0000     54.4915
  1036.0000   2000.0000     36.2616     69.1001   1998.0000     55.1114
  1036.2500   2000.0000     36.2608     72.0206   1998.0000     56.2200
  1036.5000   2000.0000     36.2143     74.4210   1998.0000     58.2266
  1036.7500   2000.0000     36.2323     75.9720   1998.0000     59.2405
  1037.0000   2000.0000     36.3859     76.5116   1998.0000     59.5924
  1037.2500   2000.0000     36.7212     76.0757   1998.0000     58.9694
  1037.5000   2000.0000     37.2912     74.8483   1998.0000     57.1130
  1037.7500   2000.0000     38.1677     73.0886   1998.0000     55.6303
  1038.0000   2000.0000     39.4193     71.0660   1998.0000     53.7279
  1038.2500   2000.0000     41.0719     69.0259   1998.0000     52.9895
  1038.5000   2000.0000     43.0630     67.1662   1998.0000     52.8085
  1038.7500   2000.0000     45.2269     65.6358   1998.0000     53.1556
  1039.0000   2000.0000     47.3237     64.5213   1998.0000     54.0224
  1039.2500   2000.0000     49.1146     63.8444   1998.0000     54.6560
  1039.5000   2000.0000     50.4510     63.5601   1998.0000     55.3825
  1039.7500   2000.0000     51.3188     63.5691   1998.0000     55.5721
  1040.0000   2000.0000     51.8164     63.7331   1998.0000     55.4107
  1040.2500   2000.0000     52.1080     63.9059   1998.0000     55.1482
  1040.5000   2000.0000     52.3823     63.9665   1998.0000     54.8151
  1040.7500   2000.0000     52.8409     63.8497   1998.0000     54.7762
  1041.0000   2000.0000     53.6974     63.5481   1998.0000     55.1082
  1041.2500   2000.0000     55.1726     63.1075   1998.0000     55.4599
  1041.5000   2000.0000     57.4783     62.5948   1998.0000     55.5395
  1041.7500   2000.0000     60.7708     62.0784   1998.0000     54.9198
  1042.0000   2000.0000     65.0649     61.6138   1998.0000     53.0430
  1042.2500   2000.0000     70.0952     61.2416   1998.0000     51.6504
  1042.5000   2000.0000     75.1857     60.9919   1998.0000     50.3246
  1042.7500   2000.0000     79.3506     60.8944   1998.0000     50.2019
  1043.0000   2000.0000     81.7463     60.9820   1998.0000     50.8325
  1043.2500   2000.0000     82.2120     61.2861   1998.0000     51.3513
  1043.5000   2000.0000     81.3435     61.8317   1998.0000     51.7178
