~Version Information
VERS.                      2.0: CWLS Log ASCII Standard - VERSION 2.0
WRAP.                       NO: One line per depth step
~Well Information Block
STRT.FT               840.0000: 
STOP.FT              2019.0000: 
STEP.FT                 0.2500: 
NULL.                -999.2500: 
COMP.          Petrogulf Corporation: COMPANY
WELL.           Lavedure 7-44R: WELL
FLD.           Purgatorie River: FIELD
LOC.           946' FSL & 521' FEL: LOCATION
PROV.                 Colorado: PROVINCE
CNTY.               Las Animas: COUNTRY
SRVC.                Patterson: SERVICE COMPANY
DATE.          Mon Sep 26 08:35:42 2005: LOG DATE
UWI.                          : UNIQUE WELL ID
~Curve Information Block
DEPT.FT            0 000 00 00: Depth
SP.mV                         : DIL Spontaneous Potential
RILD.Ohm-m                    : DIL Deep Resistivity
RILM.Ohm-m                    : DIL Medium Resistivity
RLL3.Ohm-m                    : DIL Shallow Resistivity
GR.GAPI                       : Gamma Ray
~Parameter Information Block
~A  Depth        SP         RILD        RILM        RLL3         GR     
# ...
  1064.0000    125.5523     33.6343     32.2676     42.8736     80.1958
  1064.2500    124.5254     34.9452     33.3684     44.9318     87.2894
  1064.5000    123.5614     34.5793     34.3550     44.5948     92.4268
  1064.7500    122.4885     35.1715     34.3323     44.0976     91.3217
  1065.0000    121.4166     36.3164     36.0875     45.2301     68.1142
  1065.2500    120.4774     37.1855     37.3661     46.3896     60.9421
  1065.5000    119.5987     36.8690     37.4901     46.6456     74.8514
  1065.7500    118.8912     37.2434     38.5494     46.7310     90.3521
  1066.0000    118.2918     39.7732     38.9029     46.9358     84.0654
  1066.2500    117.8141     39.7266     40.2369     46.8471     92.5470
  1066.5000    117.3867     40.0875     42.0014     48.1972     90.3948
  1066.7500    117.0175     39.3762     42.3355     53.6958     85.1672
  1067.0000    116.6645     40.1925     43.1322     63.0512     84.3488
  1067.2500    116.1988     41.2960     43.8443     64.8957    101.2807
  1067.5000    115.9268     39.4798     43.0808     60.1029    111.5620
  1067.7500    115.7744     40.4530     41.8045     59.3098     97.6807
  1068.0000    115.6878     41.2041     42.2176     61.6816     90.7473
  1068.2500    115.6940     42.3439     41.5086     61.2934     96.9336
  1068.5000    115.7744     41.9305     42.1677     56.8843    104.9184
  1068.7500    115.9206     43.1645     40.6939     54.7932     82.9740
  1069.0000    116.1835     43.3765     40.5031     54.1576     72.7172
  1069.2500    116.5023     44.3069     40.6684     52.2190     70.0883
  1069.5000    116.9876     43.8784     42.0070     50.9625     80.0701
  1069.7500    117.6667     44.6092     42.6937     51.5678     98.9138
  1070.0000    118.6119     45.7645     44.3320     54.6750     89.8710
  1070.2500    119.7613     44.6972     45.8851     60.3895     88.4810
  1070.5000    120.9540     44.9081     47.3811     67.0914     88.4526
  1070.7500    122.2413     43.6823     45.4780     72.3412     78.1571
  1071.0000    123.5286     44.0007     43.9347     71.3109     96.7128
  1071.2500    124.7027     45.6401     42.4853     61.5774    112.3976
  1071.5000    125.6938     45.8926     42.0392     55.6054     83.9311
  1071.7500    126.4582     46.4839     40.4372     53.3729     78.0639
  1072.0000    127.1027     47.6974     42.1265     52.9086     75.5765
  1072.2500    127.7433     47.5444     42.7741     53.4611     74.6044
  1072.5000    128.4437     47.5070     43.1132     55.0292     82.2120
  1072.7500    129.1237     47.6698     42.8826     56.7190     75.2836
  1073.0000    129.8415     48.3006     43.5302     54.4044     83.8703
  1073.2500    130.5046     49.3261     43.7068     50.8735     92.6941
  1073.5000    131.1340     48.3449     44.6314     50.9159     82.8981
  1073.7500    131.7684     48.9013     45.8402     51.4820     85.5717
  1074.0000    132.3248     48.1102     43.7861     51.7622     83.0944
  1074.2500    132.9749     48.0516     46.1051     52.9852     83.7619
  1074.5000    133.7322     47.5291     46.8472     55.0083     71.7333
  1074.7500    134.5045     47.0095     46.6736     58.0669     75.7602
  1075.0000    135.2437     46.7631     47.7929     62.4463     70.0476
  1075.2500    135.9945     48.1136     47.1026     63.4989     65.3960
  1075.5000    136.7508     48.2276     46.5697     63.2088     69.7272
  1075.7500    137.4142     48.5539     45.9798     61.6763     73.9500
  1076.0000    137.9272     48.2802     45.0199     59.6650     78.9249
  1076.2500    138.2319     48.0075     44.1046     58.7941     65.6617
  1076.5000    138.4147     48.6927     43.8397     57.9824     69.6611
  1076.7500    138.5412     47.7546     45.1173     57.4186     63.4624
  1077.0000    138.5324     46.8669     44.6552     56.6019     59.6658
  1077.2500    138.3255     46.6316     45.0974     58.1429     66.7758
  1077.5000    138.0227     46.4901     46.2140     62.7909     70.3962
  1077.7500    137.7576     48.0878     45.6362     66.6057     78.1500
  1078.0000    137.4848     46.8273     45.9202     67.7685     58.0737
  1078.2500    137.2004     47.6675     45.9324     66.8326     62.4355
  1078.5000    136.8440     47.9924     45.6830     64.7264     63.2238
  1078.7500    136.4846     48.5176     46.5869     63.1341     59.0708
  1079.0000    136.1835     49.0935     47.9933     63.6871     49.6655
  1079.2500    135.9585     48.2719     49.0550     65.4049     49.9091
  1079.5000    135.8366     49.1469     48.8936     66.4879     68.1220
  1079.7500    135.7823     49.0449     50.2759     67.4094     61.6221
  1080.0000    135.6740     50.9986     50.8425     70.0364     71.8702
  1080.2500    135.5733     49.0205     49.9170     72.2772     81.8281
  1080.5000    135.4674     48.7700     49.9714     72.8990     64.6932
  1080.7500    135.2022     48.6286     51.4803     73.0317     66.5264
  1081.0000    134.8929     48.3482     51.9678     72.2409     59.7827
  1081.2500    134.5872     49.3429     51.1127     69.6403     57.6616
  1081.5000    134.3822     50.4929     51.6190     67.6539     58.7714
  1081.7500    134.1933     48.0205     52.3676     67.5397     54.7120
  1082.0000    133.9908     48.4539     50.3774     67.5702     50.2868
  1082.2500    133.9536     51.0156     52.2756     67.6281     60.4342
  1082.5000    134.0359     50.8983     50.8648     67.1434     53.3418
  1082.7500    134.2096     48.9496     48.6324     66.5986     50.0696
  1083.0000    134.3544     48.8474     50.3479     67.1731     58.2043
  1083.2500    134.5790     48.9677     51.5785     67.1464     57.9340
  1083.5000    134.9243     50.5935     48.7688     66.0927     58.2191
  1083.7500    135.3089     48.7399     50.2775     64.0260     50.4046
  1084.0000    135.7267     49.4534     50.6742     60.6525     63.2074
  1084.2500    136.2133     47.0144     48.3435     59.8674     74.2655
  1084.5000    136.7305     45.6459     47.2460     62.2521     79.3344
  1084.7500    137.3537     44.6641     47.2378     63.0330     72.6292
  1085.0000    137.9465     44.3976     47.8457     60.9070     55.1285
  1085.2500    138.3441     44.0734     46.2748     59.0666     49.5593
  1085.5000    138.5664     42.6867     45.6891     59.6942     74.9110
  1085.7500    138.7126     40.8588     42.5406     59.4595     80.4179
  1086.0000    138.8444     39.6278     40.2102     58.0502     78.3543
  1086.2500    138.8803     38.4973     38.5050     56.1963     93.5955
  1086.5000    138.9304     38.7130     34.2924     53.4630     87.4854
  1086.7500    138.9879     38.0235     32.4698     48.0415     84.0654
  1087.0000    139.1158     37.7859     32.4872     37.9284     93.0227
  1087.2500    139.1949     38.1589     31.2981     28.7420    107.1769
  1087.5000    139.2548     38.0935     31.4967     25.5997    116.5858
  1087.7500    139.3441     36.6283     32.0382     27.5467    126.0042
  1088.0000    139.5278     36.5793     34.4492     34.1906    119.8791
  1088.2500    139.8780     35.2395     34.5857     43.6152    117.1598
  1088.5000    140.3492     35.2078     36.1036     49.1200    104.3378
  1088.7500    140.8995     33.9710     36.2551     49.6025    109.0808
  1089.0000    141.5390     31.6226     35.7320     49.4530    113.4899
  1089.2500    142.3067     30.2090     35.2163     50.7965    102.3943
  1089.5000    143.0490     29.8108     35.1794     52.1826    111.9131
  1089.7500    143.6254     28.8563     33.6474     52.8725    129.8222
  1090.0000    144.0793     28.7755     31.6462     52.3331    139.4574
  1090.2500    144.4052     28.2832     30.4759     44.7356    116.8194
  1090.5000    144.6917     28.0940     27.6278     34.3952    101.0136
  1090.7500    144.8401     27.8973     26.2148     27.5160     88.6682
  1091.0000    144.8542     27.5561     24.9553     25.4362    118.4655
  1091.2500    144.7796     26.5327     23.8772     24.2993    113.4345
  1091.5000    144.6877     26.0535     23.9684     22.4756    113.6436
  1091.7500    144.6442     25.2175     23.5033     22.7780    124.8080
