~Version Information
VERS.                      2.0: CWLS Log ASCII Standard - VERSION 2.0
WRAP.                       NO: One line per depth step
~Well Information Block
STRT.FT               -12.5000: 
STOP.FT              1647.5000: 
STEP.FT                 0.2500: 
NULL.                -999.2500: 
COMP.          Pioneer Natural Resources: COMPANY
WELL.            Harlee L 34-9: WELL
FLD.           Purgatorie River`: FIELD
LOC.           600' FSL & 2125' FEL----: LOCATION
PROV.                       CO: PROVINCE
CNTY.               Las Animas: COUNTRY
SRVC.                Patterson: SERVICE COMPANY
DATE.          Sat Feb 12 09:31:33 2005: LOG DATE
UWI.           05 071 08009 00: UNIQUE WELL ID
~Curve Information Block
DEPT.FT            0 000 00 00: Depth
CCL.                          : Casing Collar Locator
TT3.usec                      : CBL 3' Travel Time
AMP3.mV                       : CBL 3' Amplitude
AMP5.mV                       : CBL 5' Amplitude
GR.GAPI                       : Gamma Ray
~Parameter Information Block
~A  Depth       CCL         TT3         AMP3        AMP5         GR     
# ...
   967.5000      0.0000    543.6395      6.3210      1.0830    119.8775
   967.7500      0.0000    543.0120      6.2722      0.9684    118.9808
   968.0000      0.0000    547.8278      6.2954      0.5865    118.7409
   968.2500      0.0000    552.8057      6.3849      1.1593    116.9373
   968.5000      0.0000    550.7913      6.5281      0.9684    113.2351
   968.7500      0.0000    540.4857      6.7137      0.8157    109.2321
   969.0000      0.0000    528.6527      6.9328      1.1975    106.5738
   969.2500      0.0000    523.9544      7.1706      0.6247    105.3779
   969.5000      0.0000    530.0707      7.3976      1.0448    104.5326
   969.7500      0.0000    545.0867      7.5750      1.0066    103.3128
   970.0000      0.0000    564.8221      7.6739      0.8157    102.2966
   970.2500      0.0000    584.7454      7.6901      1.1211    102.6446
   970.5000      0.0000    600.5670      7.6379      0.8538    104.8877
   970.7500      0.0000    609.8438      7.5276      1.0066    108.7264
   971.0000      0.0000    613.2830      7.3552      1.0066    113.6951
   971.2500      0.0000    613.5621      7.1145      0.4338    119.4000
   971.5000      0.0000    613.0006      6.8166      1.0448    124.9636
   971.7500      0.0000    612.5450      6.4934      1.1211    128.7366
   972.0000      0.0000    612.2416      6.1820      0.3956    128.9876
   972.2500      0.0000    611.9487      5.9024      1.0830    124.8291
   972.5000      0.0000    611.6772      5.6491      0.8157    116.5893
   972.7500      0.0000    611.7238      5.4059      0.3574    105.9365
   973.0000      0.0000    612.7198      5.1695      0.8920     95.7266
   973.2500      0.0000    615.4341      4.9572      0.3574     88.8716
   973.5000      0.0000    620.0750      4.7934      0.2811     86.7635
   973.7500      0.0000    625.6257      4.6895      0.7775     88.9180
   974.0000      0.0000    630.2498      4.6379      0.2047     93.8444
   974.2500      0.0000    632.5784      4.6224      0.5102     99.8100
   974.5000      0.0000    632.1246      4.6344      0.6247    105.2900
   974.7500      0.0000    628.4456      4.6769      0.1283    109.5518
   975.0000      0.0000    620.6356      4.7555      0.6247    112.7286
   975.2500      0.0000    607.7745      4.8631      0.5865    114.9353
   975.5000      0.0000    589.6605      4.9755      0.2811    115.6984
   975.7500      0.0000    567.9619      5.0644      0.7775    114.6781
   976.0000      0.0000    547.3813      5.1191      0.5102    112.5514
   976.2500      0.0000    534.7138      5.1539      0.3574    110.7227
   976.5000      0.0000    535.0759      5.1985      0.7775    110.3345
   976.7500      0.0000    548.0618      5.2782      0.3956    111.6459
   977.0000      0.0000    567.6109      5.3998      0.6247    114.1335
   977.2500      0.0000    586.2009      5.5483      0.7775    117.0230
   977.5000      0.0000    599.5239      5.7005      0.3192    119.6110
   977.7500      0.0000    607.4941      5.8466      0.9302    121.1235
   978.0000      0.0000    611.4721      5.9991      0.7011    120.6255
   978.2500      0.0000    611.3593      6.1823      0.3956    117.5379
   978.5000      0.0000    605.6714      6.4149      1.1975    112.3834
   978.7500      0.0000    594.3484      6.7062      0.9302    106.9441
   979.0000      0.0000    580.8011      7.0626      0.5102    103.5060
   979.2500      0.0000    570.5518      7.4870      1.2739    103.5391
   979.5000      0.0000    567.7995      7.9635      1.0066    106.6737
   979.7500      0.0000    573.1019      8.4511      1.0448    110.9363
   980.0000      0.0000    583.5552      8.8991      1.4266    114.0922
   980.2500      0.0000    595.0535      9.2699      1.1211    114.8020
   980.5000      0.0000    604.8846      9.5487      1.3885    112.8662
   980.7500      0.0000    612.5108      9.7351      1.4648    108.9725
   981.0000      0.0000    618.2156      9.8338      1.0448    104.2947
   981.2500      0.0000    621.7233      9.8511      1.3885    100.0228
   981.5000      0.0000    622.4970      9.7994      1.4648     97.0813
   981.7500      0.0000    620.7933      9.7036      1.1593     95.9534
   982.0000      0.0000    617.7161      9.5981      1.5030     96.2431
   982.2500      0.0000    614.4260      9.5159      1.5030     96.5031
   982.5000      0.0000    611.5720      9.4784      1.2357     95.2668
   982.7500      0.0000    609.4293      9.4903      1.5794     92.7431
   983.0000      0.0000    608.2905      9.5337      1.4266     91.1362
   983.2500      0.0000    608.3796      9.5695      1.1211     92.7863
   983.5000      0.0000    609.1232      9.5547      1.4266     97.9731
   983.7500      0.0000    608.9820      9.4646      1.3885    104.6018
   984.0000      0.0000    607.1058      9.3057      0.8157    109.7045
   984.2500      0.0000    605.4181      9.1126      1.0066    111.2139
   984.5000      0.0000    607.6091      8.9350      0.7775    109.0943
   984.7500      0.0000    614.8165      8.8136      0.7775    105.3770
   985.0000      0.0000    623.2236      8.7561      1.3885    102.8225
   985.2500      0.0000    627.3933      8.7292      1.1975    103.0874
   985.5000      0.0000    625.5078      8.6755      0.5484    105.7734
   985.7500      0.0000    620.2511      8.5470      0.9684    108.7126
   986.0000      0.0000    614.9485      8.3344      1.1211    109.1156
   986.2500      0.0000    609.4728      8.0686      0.5484    105.2377
   986.5000      0.0000    599.4089      7.7933      1.2357     97.6260
   986.7500      0.0000    579.0663      7.5368      1.2357     88.5967
   987.0000      0.0000    546.8630      7.3106      0.7393     80.3167
   987.2500      0.0000    509.5201      7.1213      0.3574     73.6838
   987.5000      0.0000    480.7130      6.9722      1.1211     68.9125
   987.7500      0.0000    473.4432      6.8564      0.9684     66.3858
   988.0000      0.0000    491.1601      6.7599      0.4338     66.6511
   988.2500      0.0000    524.9568      6.6723      0.7775     69.9698
   988.5000      0.0000    559.8771      6.5910      1.0066     76.0373
   988.7500      0.0000    584.9429      6.5140      0.4338     84.0076
   989.0000      0.0000    598.0894      6.4350      0.3956     92.8786
   989.2500      0.0000    603.3882      6.3460      1.0066    102.0219
   989.5000      0.0000    605.5501      6.2460      0.6629    111.3478
   989.7500      0.0000    606.9839      6.1452      0.3192    121.0504
   990.0000      0.0000    608.1417      6.0599      0.8538    131.2155
   990.2500      0.0000    608.9312      6.0051      0.8920    141.3405
   990.5000      0.0000    609.4478      5.9920      0.3956    149.9864
   990.7500      0.0000    609.8522      6.0248      0.8920    155.1518
   991.0000      0.0000    610.0053      6.0923      1.2357    155.4294
   991.2500      0.0000    609.3721      6.1615      0.5865    150.9723
   991.5000      0.0000    607.3848      6.1912      0.5484    143.3107
   991.7500      0.0000    604.2455      6.1639      1.0066    134.2583
   992.0000      0.0000    601.1945      6.1107      0.7393    124.9824
   992.2500      0.0000    599.0354      6.1044      0.4720    115.7971
   992.5000      0.0000    595.9250      6.2063      0.6629    106.6172
   992.7500      0.0000    588.0203      6.4094      1.0066     97.8015
   993.0000      2.1985    573.5475      6.6387      0.8157     90.5857
   993.2500      0.0000    555.8525      6.8106      0.2811     86.3471
   993.5000      0.0000    542.0142      6.8879      1.0448     85.3805
   993.7500      0.0000    538.8261      6.9037      1.0448     86.7310
   994.0000      0.0000    548.9588      6.9447      0.7775     89.2332
   994.2500      0.0000    568.7614      7.0673      0.4338     92.3389
   994.5000      0.0000    589.5974      7.2033      0.5102     95.8945
   994.7500      0.0000    603.3649      7.1954      1.0830     99.7085
   995.0000      0.0000    608.1171      6.9647      0.8157    103.7525
   995.2500      0.0000    608.3666      6.5972      0.2811    108.4152
