~Version Information
VERS.                      2.0: CWLS Log ASCII Standard - VERSION 2.0
WRAP.                       NO: One line per depth step
~Well Information Block
STRT.FT               970.5000: 
STOP.FT              2720.0000: 
STEP.FT                 0.1000: 
NULL.                -999.2500: 
COMP.          Petrogulf Corporation: COMPANY
WELL.             Burson 8-31V: WELL
FLD.           Purgatorie River: FIELD
LOC.           1113' FNL & 2152' FEL: LOCATION
CNTY.               Las Animas: COUNTY
SRVC.                         : SERVICE COMPANY
DATE.          Wed Nov 12 14:59:14 2003: LOG DATE
UWI.                          : UNIQUE WELL ID
STAT.                 Colorado: STATE
~Curve Information Block
DEPT.FT            0 000 00 00: Depth
DCAL.in                       : CDL Caliper
DPOR.pu                       : CDL Density Porosity
NEU.NAPI                      : Neutron
NPOR.pu                       : Neutron Porosity
RHOB.g/cc                     : CDL Bulk Density
RHOC.g/cc                     : CDL Density Correction
GR.GAPI                       : Gamma Ray
~Parameter Information Block
~A  Depth       DCAL        DPOR        NEU         NPOR        RHOB        RHOC         GR     
# ...
   995.7000   -999.2500   -999.2500    487.4411     56.5902   -999.2500   -999.2500     58.8403
   995.8000   -999.2500   -999.2500    494.0555     56.2832   -999.2500   -999.2500     71.3994
   995.9000   -999.2500   -999.2500    502.4221     55.8916   -999.2500   -999.2500     71.3994
   996.0000   -999.2500   -999.2500    507.8329     55.6365   -999.2500   -999.2500     75.4111
   996.1000   -999.2500   -999.2500    504.1513     55.8103   -999.2500   -999.2500     75.4111
   996.2000   -999.2500   -999.2500    501.9135     55.9156   -999.2500   -999.2500     75.4111
   996.3000   -999.2500   -999.2500    513.5502     55.3653   -999.2500   -999.2500     85.0746
   996.4000   -999.2500   -999.2500    527.7501     54.6847   -999.2500   -999.2500     85.0746
   996.5000   -999.2500   -999.2500    527.9302     54.6760   -999.2500   -999.2500     82.4315
   996.6000   -999.2500   -999.2500    516.9460     55.2034   -999.2500   -999.2500     82.4315
   996.7000   -999.2500   -999.2500    508.4447     55.6075   -999.2500   -999.2500     82.4315
   996.8000   -999.2500   -999.2500    508.1324     55.6223   -999.2500   -999.2500    102.3702
   996.9000   -999.2500   -999.2500    514.1122     55.3385   -999.2500   -999.2500    102.3702
   997.0000   -999.2500   -999.2500    523.8847     54.8709   -999.2500   -999.2500    108.9996
   997.1000   -999.2500   -999.2500    532.2902     54.4650   -999.2500   -999.2500    108.9996
   997.2000   -999.2500   -999.2500    536.9453     54.2388   -999.2500   -999.2500    108.9996
   997.3000   -999.2500   -999.2500    543.3004     53.9283   -999.2500   -999.2500     76.5823
   997.4000   -999.2500   -999.2500    557.8727     53.2095   -999.2500   -999.2500     76.5823
   997.5000   -999.2500   -999.2500    575.5437     52.3254   -999.2500   -999.2500     82.9364
   997.6000   -999.2500   -999.2500    582.2632     51.9858   -999.2500   -999.2500     82.9364
   997.7000   -999.2500   -999.2500    573.8589     52.4103   -999.2500   -999.2500     82.9364
   997.8000   -999.2500   -999.2500    558.9029     53.1583   -999.2500   -999.2500     82.3510
   997.9000   -999.2500   -999.2500    550.6837     53.5653   -999.2500   -999.2500     82.3510
   998.0000   -999.2500   -999.2500    552.8346     53.4591   -999.2500   -999.2500     74.3457
   998.1000   -999.2500   -999.2500    553.0110     53.4504   -999.2500   -999.2500     74.3457
   998.2000   -999.2500   -999.2500    547.3281     53.7306   -999.2500   -999.2500     74.3457
   998.3000   -999.2500   -999.2500    544.2477     53.8819   -999.2500   -999.2500     87.7884
   998.4000   -999.2500   -999.2500    545.6305     53.8140   -999.2500   -999.2500     87.7884
   998.5000   -999.2500   -999.2500    547.7187     53.7114   -999.2500   -999.2500     87.6242
   998.6000   -999.2500   -999.2500    554.0748     53.3977   -999.2500   -999.2500     87.6242
   998.7000   -999.2500   -999.2500    565.0148     52.8538   -999.2500   -999.2500     87.6242
   998.8000   -999.2500   -999.2500    569.0447     52.6521   -999.2500   -999.2500     91.5726
   998.9000   -999.2500   -999.2500    562.6339     52.9726   -999.2500   -999.2500     91.5726
   999.0000   -999.2500   -999.2500    558.0794     53.1992   -999.2500   -999.2500     82.5445
   999.1000   -999.2500   -999.2500    559.5179     53.1277   -999.2500   -999.2500     82.5445
   999.2000   -999.2500   -999.2500    559.3231     53.1374   -999.2500   -999.2500     82.5445
   999.3000   -999.2500   -999.2500    555.1403     53.3450   -999.2500   -999.2500     86.3410
   999.4000   -999.2500   -999.2500    546.3970     53.7764   -999.2500     -0.4845     86.3410
   999.5000      8.1563   -999.2500    536.0252     54.2836   -999.2500     -0.3540    101.5443
   999.6000      8.1563   -999.2500    535.8234     54.2934   -999.2500     -0.5135    101.5443
   999.7000      8.1563   -999.2500    549.9977     53.5991   -999.2500     -0.4981    101.5443
   999.8000      8.1769   -999.2500    566.5526     52.7769   -999.2500     -0.3053     91.1335
   999.9000      8.1769     37.6867    577.4414     52.2297      2.0282     -0.5028     91.1335
  1000.0000      8.1857     36.1203    583.3491     51.9308      2.0540     -0.4297     73.1488
  1000.1000      8.1857     34.3900    583.3785     51.9293      2.0826     -0.2815     73.1488
  1000.2000      8.1857     34.5758    581.3590     52.0316      2.0795     -0.3577     73.1488
  1000.3000      8.1804     36.3187    582.8736     51.9549      2.0507     -0.3780     77.9165
  1000.4000      8.1804     38.6310    584.2429     51.8854      2.0126     -0.3815     77.9165
  1000.5000      8.1869     40.4652    578.9415     52.1539      1.9823     -0.5211     74.2274
  1000.6000      8.1869     39.9163    567.5078     52.7291      1.9914     -0.5256     74.2274
  1000.7000      8.1869     37.6076    555.9516     53.3048      2.0295     -0.4026     74.2274
  1000.8000      8.1825     37.0172    549.9514     53.6014      2.0392     -0.3606     83.3995
  1000.9000      8.1825     39.1529    548.1643     53.6894      2.0040     -0.4651     83.3995
  1001.0000      8.1857     41.3470    546.5529     53.7687      1.9678     -0.4922     92.1832
  1001.1000      8.1857     41.3173    546.4134     53.7756      1.9683     -0.4889     92.1832
  1001.2000      8.1857     39.6434    550.2842     53.5850      1.9959     -0.4165     92.1832
  1001.3000      8.1647     38.2593    556.1868     53.2931      2.0187     -0.4161     93.3733
  1001.4000      8.1647     37.8457    558.2991     53.1883      2.0255     -0.3868     93.3733
  1001.5000      8.1860     38.3026    557.8563     53.2103      2.0180     -0.3997     89.9145
  1001.6000      8.1860     39.4742    557.3913     53.2334      1.9987     -0.4635     89.9145
  1001.7000      8.1860     40.6080    554.5766     53.3729      1.9800     -0.4790     89.9145
  1001.8000      8.1916     41.2776    548.4458     53.6756      1.9689     -0.4735     93.4134
  1001.9000      8.1916     41.9387    540.8007     54.0507      1.9580     -0.4869     93.4134
  1002.0000      8.1891     42.8478    535.9003     54.2897      1.9430     -0.5269     87.4594
  1002.1000      8.1891     44.0549    533.5789     54.4025      1.9231     -0.5185     87.4594
  1002.2000      8.1891     45.6437    532.2131     54.4688      1.8969     -0.4519     87.4594
  1002.3000      8.1973     46.0191    533.4714     54.4077      1.8907     -0.6331     86.1885
  1002.4000      8.1973     43.6306    535.2913     54.3193      1.9301     -0.4168     86.1885
  1002.5000      8.2113     40.5583    533.3217     54.4150      1.9808     -0.3788     79.1828
  1002.6000      8.2113     38.8739    531.1722     54.5192      2.0086     -0.4309     79.1828
  1002.7000      8.2113     38.0399    529.1973     54.6148      2.0223     -0.4558     79.1828
  1002.8000      8.1943     38.1256    522.5512     54.9350      2.0209     -0.3828     87.3673
  1002.9000      8.1943     39.8693    518.2120     55.1429      1.9922     -0.4586     87.3673
  1003.0000      8.2005     41.9015    523.0294     54.9120      1.9586     -0.5413     95.7733
  1003.1000      8.2005     42.2785    529.4492     54.6026      1.9524     -0.5471     95.7733
  1003.2000      8.2005     41.7579    528.2063     54.6627      1.9610     -0.4025     95.7733
  1003.3000      8.1938     41.7296    523.5085     54.8890      1.9615     -0.4794     91.8727
  1003.4000      8.1938     41.3821    526.0978     54.7644      1.9672     -0.5160     91.8727
  1003.5000      8.2005     40.2500    532.7409     54.4432      1.9859     -0.3945     90.9997
  1003.6000      8.2005     39.3637    532.4109     54.4592      2.0005     -0.4357     90.9997
  1003.7000      8.2005     38.7860    529.8846     54.5815      2.0100     -0.4274     90.9997
  1003.8000      8.1928     38.0676    534.1633     54.3741      2.0219     -0.4164     89.8411
  1003.9000      8.1928     38.1172    538.0668     54.1841      2.0211     -0.3339     89.8411
  1004.0000      8.1995     39.6284    534.1185     54.3763      1.9961     -0.4025     92.2944
