~Version Information
VERS.                      2.0: CWLS Log ASCII Standard - VERSION 2.0
WRAP.                       NO: One line per depth step
~Well Information Block
STRT.FT               954.0000: 
STOP.FT              2517.0000: 
STEP.FT                 0.2500: 
NULL.                -999.2500: 
COMP.          Petrogulf Corporation: COMPANY
WELL.             Royal 8-33 V: WELL
FLD.           Purgatoire River: FIELD
LOC.           2365' FSL & 2336' FEL: LOCATION
PROV.                 Colorado: PROVINCE
CNTY.               Las Animas: COUNTRY
SRVC.                Patterson: SERVICE COMPANY
DATE.          Fri Dec 05 04:39:41 2003: LOG DATE
UWI.                          : UNIQUE WELL ID
~Curve Information Block
DEPT.FT            0 000 00 00: Depth
SP.mV                         : DIL Spontaneous Potential
RILD.Ohm-m                    : DIL Deep Resistivity
RILM.Ohm-m                    : DIL Medium Resistivity
RLL3.Ohm-m                    : DIL Shallow Resistivity
GR.GAPI                       : Gamma Ray
~Parameter Information Block
~A  Depth        SP         RILD        RILM        RLL3         GR     
# ...
  1290.0000   2000.0000      9.0891     10.2879   2000.0000    112.3624
  1290.2500   2000.0000      9.2043     10.5485   2000.0000    111.6390
  1290.5000   2000.0000      9.3367     10.8257   2000.0000    109.8519
  1290.7500   2000.0000      9.4815     11.1125   2000.0000    108.5123
  1291.0000   2000.0000      9.6323     11.3995   2000.0000    107.2536
  1291.2500   2000.0000      9.7880     11.6711   2000.0000    107.6041
  1291.5000   2000.0000      9.9544     11.9061   2000.0000    110.7566
  1291.7500   2000.0000     10.1412     12.0824   2000.0000    114.5788
  1292.0000   2000.0000     10.3558     12.1873   2000.0000    121.9535
  1292.2500   2000.0000     10.6006     12.2255   2000.0000    127.2157
  1292.5000   2000.0000     10.8729     12.2213   2000.0000    134.5684
  1292.7500   2000.0000     11.1692     12.2149   2000.0000    138.8131
  1293.0000   2000.0000     11.4897     12.2536   2000.0000    144.4233
  1293.2500   2000.0000     11.8398     12.3832   2000.0000    147.9852
  1293.5000   2000.0000     12.2276     12.6424   2000.0000    152.8173
  1293.7500   2000.0000     12.6587     13.0603   2000.0000    154.8469
  1294.0000   2000.0000     13.1348     13.6586   2000.0000    154.7141
  1294.2500   2000.0000     13.6580     14.4524   2000.0000    152.5655
  1294.5000   2000.0000     14.2357     15.4495   2000.0000    147.4945
  1294.7500   2000.0000     14.8814     16.6449   2000.0000    143.3098
  1295.0000   2000.0000     15.6069     18.0167   2000.0000    135.1340
  1295.2500   2000.0000     16.4128     19.5257   2000.0000    127.7242
  1295.5000   2000.0000     17.2872     21.1213   2000.0000    113.8189
  1295.7500   2000.0000     18.2155     22.7479   2000.0000    104.0579
  1296.0000   2000.0000     19.1909     24.3466   2000.0000     92.3276
  1296.2500   2000.0000     20.2122     25.8562   2000.0000     88.2070
  1296.5000   2000.0000     21.2606     27.2215   2000.0000     88.4888
  1296.7500   2000.0000     22.2725     28.4025   2000.0000     92.2963
  1297.0000   2000.0000     23.1291     29.3700   2000.0000    100.9884
  1297.2500   2000.0000     23.6806     30.0828   2000.0000    107.0751
  1297.5000   2000.0000     23.7995     30.4695   2000.0000    114.1605
  1297.7500   2000.0000     23.4322     30.4336   2000.0000    116.6949
  1298.0000   2000.0000     22.6171     29.8899   2000.0000    116.7841
  1298.2500   2000.0000     21.4633     28.8118   2000.0000    114.4434
  1298.5000   2000.0000     20.1128     27.2611   2000.0000    108.1172
  1298.7500   2000.0000     18.7075     25.3781   2000.0000    103.1074
  1299.0000   2000.0000     17.3671     23.3373   2000.0000     96.9842
  1299.2500   2000.0000     16.1752     21.3006   2000.0000     95.0798
  1299.5000   2000.0000     15.1739     19.3903   2000.0000     96.1980
  1299.7500   2000.0000     14.3670     17.6830   2000.0000     99.1431
  1300.0000   2000.0000     13.7286     16.2142   2000.0000    105.1512
  1300.2500   2000.0000     13.2161     14.9886   2000.0000    109.1898
  1300.5000   2000.0000     12.7831     13.9937   2000.0000    114.5756
  1300.7500   2000.0000     12.3922     13.2119   2000.0000    118.0400
  1301.0000   2000.0000     12.0201     12.6276   2000.0000    123.6951
  1301.2500   2000.0000     11.6586     12.2267   2000.0000    127.5280
  1301.5000   2000.0000     11.3085     11.9913   2000.0000    132.0175
  1301.7500   2000.0000     10.9757     11.8924   2000.0000    133.3634
  1302.0000   2000.0000     10.6682     11.8853   2000.0000    132.0760
  1302.2500   2000.0000     10.3948     11.9126   2000.0000    128.9456
  1302.5000   2000.0000     10.1639     11.9160   2000.0000    121.6546
  1302.7500   2000.0000      9.9810     11.8562   2000.0000    116.1466
  1303.0000   2000.0000      9.8464     11.7262   2000.0000    109.4573
  1303.2500   2000.0000      9.7540     11.5500   2000.0000    107.4953
  1303.5000   2000.0000      9.6921     11.3642   2000.0000    109.7373
  1303.7500   2000.0000      9.6459     11.1986   2000.0000    114.4736
  1304.0000   2000.0000      9.6017     11.0647   2000.0000    124.0761
  1304.2500   2000.0000      9.5503     10.9564   2000.0000    130.0340
  1304.5000   2000.0000      9.4889     10.8580   2000.0000    135.1564
  1304.7500   2000.0000      9.4210     10.7557   2000.0000    135.3795
  1305.0000   2000.0000      9.3540     10.6461   2000.0000    132.1376
  1305.2500   2000.0000      9.2977     10.5399   2000.0000    128.9720
  1305.5000   2000.0000      9.2609     10.4587   2000.0000    124.7161
  1305.7500   2000.0000      9.2490     10.4289   2000.0000    122.7397
  1306.0000   2000.0000      9.2596     10.4735   2000.0000    120.9269
  1306.2500   2000.0000      9.2809     10.6045   2000.0000    120.0110
  1306.5000   2000.0000      9.2953     10.8163   2000.0000    117.9630
  1306.7500   2000.0000      9.2874     11.0814   2000.0000    115.4320
  1307.0000   2000.0000      9.2524     11.3514   2000.0000    109.0134
  1307.2500   2000.0000      9.1975     11.5666   2000.0000    103.1674
  1307.5000   2000.0000      9.1369     11.6770   2000.0000     94.1201
  1307.7500   2000.0000      9.0833     11.6640   2000.0000     89.8155
  1308.0000   2000.0000      9.0437     11.5489   2000.0000     88.6353
  1308.2500   2000.0000      9.0184     11.3782   2000.0000     91.5890
  1308.5000   2000.0000      9.0022     11.1978   2000.0000     99.4831
  1308.7500   2000.0000      8.9852     11.0351   2000.0000    105.1646
  1309.0000   2000.0000      8.9542     10.8946   2000.0000    111.7367
  1309.2500   2000.0000      8.8954     10.7664   2000.0000    114.1129
  1309.5000   2000.0000      8.7994     10.6372   2000.0000    114.8581
  1309.7500   2000.0000      8.6656     10.4970   2000.0000    114.2218
  1310.0000   2000.0000      8.5033     10.3401   2000.0000    113.2429
  1310.2500   2000.0000      8.3277     10.1631   2000.0000    113.3764
  1310.5000   2000.0000      8.1548      9.9642   2000.0000    115.3256
  1310.7500   2000.0000      7.9957      9.7460   2000.0000    117.4827
  1311.0000   2000.0000      7.8552      9.5184   2000.0000    120.4665
  1311.2500   2000.0000      7.7332      9.2974   2000.0000    121.3316
  1311.5000   2000.0000      7.6292      9.1016   2000.0000    120.5482
  1311.7500   2000.0000      7.5437      8.9468   2000.0000    119.2777
  1312.0000   2000.0000      7.4781      8.8428   2000.0000    117.5400
  1312.2500   2000.0000      7.4323      8.7919   2000.0000    116.5535
  1312.5000   2000.0000      7.4030      8.7890   2000.0000    114.1823
  1312.7500   2000.0000      7.3852      8.8229   2000.0000    111.3530
  1313.0000   2000.0000      7.3735      8.8792   2000.0000    105.4888
  1313.2500   2000.0000      7.3648      8.9430   2000.0000    101.4549
  1313.5000   2000.0000      7.3594      9.0019   2000.0000     96.9624
  1313.7500   2000.0000      7.3601      9.0472   2000.0000     95.3767
  1314.0000   2000.0000      7.3701      9.0762   2000.0000     94.4744
  1314.2500   2000.0000      7.3897      9.0926   2000.0000     94.2787
  1314.5000   2000.0000      7.4158      9.1050   2000.0000     94.2440
  1314.7500   2000.0000      7.4427      9.1232   2000.0000     94.6031
  1315.0000   2000.0000      7.4655      9.1549   2000.0000     96.0532
  1315.2500   2000.0000      7.4812      9.2027   2000.0000     97.4331
  1315.5000   2000.0000      7.4897      9.2638   2000.0000     99.2147
  1315.7500   2000.0000      7.4931      9.3295   2000.0000     99.8012
  1316.0000   2000.0000      7.4945      9.3872   2000.0000     99.9899
  1316.2500   2000.0000      7.4984      9.4243   2000.0000    100.1169
  1316.5000   2000.0000      7.5107      9.4321   2000.0000    100.6160
  1316.7500   2000.0000      7.5373      9.4104   2000.0000    100.7667
  1317.0000   2000.0000      7.5810      9.3683   2000.0000     99.6887
  1317.2500   2000.0000      7.6398      9.3222   2000.0000     97.7859
  1317.5000   2000.0000      7.7075      9.2913   2000.0000     93.4651
  1317.7500   2000.0000      7.7759      9.2945   2000.0000     90.1934
