~Version Information
VERS.                      2.0: CWLS Log ASCII Standard - VERSION 2.0
WRAP.                       NO: One line per depth step
~Well Information Block
STRT.FT               750.3000: 
STOP.FT              1254.0000: 
STEP.FT                 0.1000: 
NULL.                -999.2500: 
COMP.          Petrogulf Corporation: COMPANY
WELL.           Montoya 13-41V: WELL
FLD.           Purgatorie River: FIELD
LOC.           449' FNL & 891' FEL: LOCATION
CNTY.               Las Animas: COUNTY
SRVC.                         : SERVICE COMPANY
DATE.          Tue Aug 17 15:47:43 2004: LOG DATE
UWI.           05 071 08021 00: UNIQUE WELL ID
STAT.                 Colorado: STATE
~Curve Information Block
DEPT.FT            0 000 00 00: Depth
DCAL.in                       : CDL Caliper
RHOB.g/cc                     : CDL Bulk Density
RHOC.g/cc                     : CDL Density Correction
DPOR.pu                       : CDL Density Porosity
GR.GAPI                       : Gamma Ray
NPOR.pu                       : Neutron Porosity
~Parameter Information Block
~A  Depth       DCAL        RHOB        RHOC        DPOR         GR         NPOR    
# ...
   961.5000      8.4002      2.4283      0.0558     13.4349    145.6880     25.6874
   961.6000      8.4002      2.4287      0.0180     13.4137    144.6921     24.8872
   961.7000      8.4002      2.4438      0.0538     12.4979    138.2521     24.6075
   961.8000      8.3643      2.4773      0.0701     10.4696    130.9063     25.1658
   961.9000      8.3643      2.5155      0.1012      8.1514    121.5668     25.5714
   962.0000      8.4183      2.5434      0.0973      6.4597    110.3880     25.2635
   962.1000      8.4183      2.5521      0.1271      5.9362    106.1840     24.7813
   962.2000      8.4183      2.5418      0.0977      6.5589    112.3595     24.4776
   962.3000      8.4249      2.5353      0.0579      6.9522    117.4618     24.0174
   962.4000      8.4249      2.5532      0.0695      5.8666    114.6706     23.5484
   962.5000      8.4320      2.5781      0.1242      4.3605    112.2434     23.2535
   962.6000      8.4320      2.5854      0.1054      3.9163    115.5839     22.7825
   962.7000      8.4320      2.5721      0.0969      4.7211    116.7715     22.2341
   962.8000      8.4649      2.5432      0.0296      6.4740    112.2304     22.3181
   962.9000      8.4649      2.5097      0.0336      8.5013    111.6392     22.8341
   963.0000      8.4693      2.4818     -0.0164     10.1922    118.5796     22.9777
   963.1000      8.4693      2.4594     -0.0342     11.5539    125.7872     23.0656
   963.2000      8.4693      2.4357     -0.0011     12.9870    127.9576     23.8827
   963.3000      8.4631      2.4130     -0.0470     14.3625    125.4465     25.0482
   963.4000      8.4631      2.4052     -0.0389     14.8393    122.2467     25.4372
   963.5000      8.4324      2.4178     -0.0176     14.0732    123.9147     25.0493
   963.6000      8.4324      2.4423      0.0066     12.5877    130.7742     25.0209
   963.7000      8.4324      2.4656      0.0679     11.1742    133.8398     25.7841
   963.8000      8.4298      2.4818      0.0490     10.1941    127.4292     26.5009
   963.9000      8.4298      2.4931      0.0519      9.5091    120.2643     26.4043
   964.0000      8.4495      2.4987      0.1066      9.1698    122.7890     26.3751
   964.1000      8.4495      2.4986      0.1201      9.1763    132.3635     27.2032
   964.2000      8.4495      2.5069      0.1118      8.6743    141.9036     28.0863
   964.3000      8.4670      2.5387      0.1542      6.7467    145.9915     28.3792
   964.4000      8.4670      2.5881      0.1379      3.7494    144.2060     28.3239
   964.5000      8.5732      2.6377      0.1337      0.7433    142.6969     28.3060
   964.6000      8.5732      2.6803      0.1694     -1.8360    141.1317     28.5155
   964.7000      8.5732      2.7194      0.2005     -4.2051    139.9333     28.7336
   964.8000      8.8189      2.7501      0.2679     -6.0674    142.2400     28.5890
   964.9000      8.8189      2.7561      0.2811     -6.4303    142.0220     28.1198
   965.0000      8.9015      2.7308      0.2492     -4.8957    134.3309     27.5889
   965.1000      8.9015      2.6890      0.1459     -2.3619    124.3833     27.0293
   965.2000      8.9015      2.6486      0.0758      0.0839    115.9622     26.5960
   965.3000      8.8323      2.6082      0.0460      2.5351    109.7876     26.3312
   965.4000      8.8323      2.5636     -0.0545      5.2365    108.7502     26.0248
   965.5000      8.4603      2.5320     -0.0756      7.1518    110.0392     25.9618
   965.6000      8.4603      2.5242     -0.0471      7.6235    110.0241     26.2138
   965.7000      8.4603      2.5267     -0.0120      7.4745    109.8269     25.9830
   965.8000      8.2896      2.5310     -0.0304      7.2098    109.3423     25.1580
   965.9000      8.2896      2.5415      0.0385      6.5783    106.7926     24.5613
   966.0000      8.2493      2.5553      0.0380      5.7389    103.5060     24.6664
   966.1000      8.2493      2.5704      0.0364      4.8237    102.6584     25.0387
   966.2000      8.2493      2.5893      0.0838      3.6814    104.3029     25.2293
   966.3000      8.2445      2.6053      0.0750      2.7084    110.0463     25.3688
   966.4000      8.2445      2.6010      0.0785      2.9700    116.0842     25.5289
   966.5000      8.2455      2.5699      0.0577      4.8575    113.5694     25.3722
   966.6000      8.2455      2.5352      0.0019      6.9551    106.0264     24.8106
   966.7000      8.2455      2.5219      0.0248      7.7650    103.4233     23.9658
   966.8000      8.2443      2.5201      0.0619      7.8750    109.0359     22.9274
   966.9000      8.2443      2.5145      0.0228      8.2117    120.4015     22.4272
   967.0000      8.2454      2.5188      0.0121      7.9506    131.4497     23.0633
   967.1000      8.2454      2.5386      0.0615      6.7533    134.7587     24.4636
   967.2000      8.2454      2.5576      0.0292      5.5986    131.5801     25.6380
   967.3000      8.2461      2.5746      0.0233      4.5693    132.6584     25.9076
   967.4000      8.2461      2.5995      0.0578      3.0625    138.4773     26.0344
   967.5000      8.2450      2.6277      0.1097      1.3530    141.7248     26.6635
   967.6000      8.2450      2.6466      0.0664      0.2035    144.0683     27.0078
   967.7000      8.2450      2.6536      0.0666     -0.2211    145.8412     26.6539
   967.8000      8.2444      2.6491      0.0426      0.0530    140.7325     26.4306
   967.9000      8.2444      2.6324      0.0266      1.0645    128.5783     26.7531
   968.0000      8.2432      2.6097     -0.0232      2.4444    118.3689     26.9343
   968.1000      8.2432      2.5946     -0.0631      3.3587    119.8529     26.4701
   968.2000      8.2432      2.5893     -0.0223      3.6815    130.4754     25.7808
   968.3000      8.2427      2.5774     -0.0231      4.4010    139.9003     25.5008
   968.4000      8.2427      2.5543     -0.0053      5.7998    144.1812     25.5344
   968.5000      8.2431      2.5339     -0.0281      7.0357    145.5002     25.3395
   968.6000      8.2431      2.5227     -0.0168      7.7138    148.1928     24.9108
   968.7000      8.2431      2.5140     -0.0003      8.2409    152.4092     24.5273
   968.8000      8.2440      2.5088     -0.0490      8.5569    152.5999     24.6190
   968.9000      8.2440      2.5116      0.0124      8.3867    146.1982     25.4868
   969.0000      8.2454      2.5174     -0.0384      8.0381    135.4868     26.4614
   969.1000      8.2454      2.5246     -0.0166      7.5976    124.5770     26.8542
   969.2000      8.2454      2.5371     -0.0113      6.8446    118.6704     26.6690
   969.3000      8.2467      2.5533      0.0023      5.8634    117.4312     25.9812
   969.4000      8.2467      2.5640      0.0263      5.2122    117.9763     24.9806
   969.5000      8.2474      2.5648      0.0313      5.1622    121.6158     23.6946
   969.6000      8.2474      2.5608      0.0301      5.4075    126.2868     22.2481
   969.7000      8.2474      2.5593     -0.0042      5.5000    125.6634     21.7268
   969.8000      8.2485      2.5641      0.0246      5.2035    121.2299     22.6924
   969.9000      8.2485      2.5718     -0.0139      4.7370    118.5171     24.0043
   970.0000      8.2444      2.5800     -0.0055      4.2442    114.3865     24.6515
   970.1000      8.2444      2.5865      0.0085      3.8483    111.1100     24.9262
   970.2000      8.2444      2.5827      0.0418      4.0763    118.5036     25.3910
   970.3000      8.2399      2.5653      0.0028      5.1363    130.0645     25.5931
   970.4000      8.2399      2.5439     -0.0152      6.4308    130.2909     24.8653
   970.5000      8.2393      2.5321     -0.0662      7.1457    122.4734     23.9755
   970.6000      8.2393      2.5350     -0.0152      6.9701    119.2910     23.9388
   970.7000      8.2393      2.5440      0.0160      6.4245    119.2162     24.8170
   970.8000      8.2385      2.5512      0.0065      5.9901    117.5283     26.0802
   970.9000      8.2385      2.5548      0.0156      5.7712    116.9048     26.8894
   971.0000      8.2361      2.5507      0.0526      6.0199    117.1199     26.9164
