~Version Information
VERS.                      2.0: CWLS Log ASCII Standard - VERSION 2.0
WRAP.                       NO: One line per depth step
~Well Information Block
STRT.FT               418.4000: 
STOP.FT              1170.0000: 
STEP.FT                 0.1000: 
NULL.                -999.2500: 
COMP.          Evergreen Operating Corporation: COMPANY
WELL.             Bernice 21-3: WELL
FLD.           Purgatoire River: FIELD
LOC.           201' FNL & 2575' FWL: LOCATION
PROV.                 Colorado: PROVINCE
CNTY.               Las Animas: COUNTRY
SRVC.                Patterson: SERVICE COMPANY
DATE.          Mon Jan 26 14:55:16 2004: LOG DATE
UWI.             05 071 07912 : UNIQUE WELL ID
~Curve Information Block
DEPT.FT            0 000 00 00: Depth
DCAL.in                       : CDL Caliper
RHOB.g/cc                     : CDL Bulk Density
RHOC.g/cc                     : CDL Density Correction
DPOR.pu                       : CDL Density Porosity
NPOR.pu                       : Neutron Porosity
GR.GAPI                       : Gamma Ray
~Parameter Information Block
~A  Depth       DCAL        RHOB        RHOC        DPOR        NPOR         GR     
# ...
   946.4000      8.1384      2.5746      0.0354      4.5702     26.2445    101.1418
   946.5000      8.1357      2.5447      0.0309      6.3801     26.7746    100.8628
   946.6000      8.1357      2.5156      0.0241      8.1475     27.3897     99.3895
   946.7000      8.1357      2.4865     -0.0400      9.9064     27.8181     97.3654
   946.8000      8.1367      2.4662     -0.0211     11.1402     28.1550     98.5471
   946.9000      8.1367      2.4520      0.0065     11.9971     28.2937    106.5458
   947.0000      8.1426      2.4383     -0.0374     12.8286     28.2057    118.2941
   947.1000      8.1426      2.4275      0.0003     13.4828     28.2767    128.3999
   947.2000      8.1426      2.4182      0.0066     14.0460     28.6487    134.4218
   947.3000      8.1517      2.4079     -0.0157     14.6706     29.0365    133.4294
   947.4000      8.1517      2.3972     -0.0005     15.3194     29.2341    124.7496
   947.5000      8.1405      2.3894      0.0091     15.7949     29.3786    114.1894
   947.6000      8.1405      2.3875      0.0486     15.9072     29.5696    108.8118
   947.7000      8.1405      2.3900      0.0385     15.7575     29.6155    112.8226
   947.8000      8.1376      2.3982      0.0120     15.2579     29.2213    124.9260
   947.9000      8.1376      2.4137      0.0225     14.3187     28.4167    135.8206
   948.0000      8.1392      2.4284      0.0490     13.4294     27.7250    135.7882
   948.1000      8.1392      2.4368      0.0516     12.9229     27.6407    127.6154
   948.2000      8.1392      2.4443      0.0540     12.4663     27.8944    122.5323
   948.3000      8.1367      2.4560      0.0643     11.7576     27.9502    126.0437
   948.4000      8.1367      2.4692      0.0458     10.9570     27.8172    136.5185
   948.5000      8.1372      2.4794      0.0618     10.3405     27.7159    147.1094
   948.6000      8.1372      2.4869      0.0268      9.8834     27.8254    149.0362
   948.7000      8.1372      2.4909      0.0676      9.6448     28.2385    143.8833
   948.8000      8.1387      2.4844      0.0339     10.0392     28.7250    141.5635
   948.9000      8.1387      2.4679      0.0233     11.0350     28.9742    141.9743
   949.0000      8.1382      2.4524     -0.0158     11.9747     28.8858    138.5742
   949.1000      8.1382      2.4491      0.0089     12.1741     28.5488    130.9757
   949.2000      8.1382      2.4567      0.0147     11.7149     28.2323    122.1840
   949.3000      8.1377      2.4657      0.0384     11.1690     28.1326    116.7077
   949.4000      8.1377      2.4743      0.0560     10.6487     28.1974    118.9470
   949.5000      8.1279      2.4838      0.0718     10.0719     28.2396    124.6489
   949.6000      8.1279      2.4877      0.0687      9.8367     27.9807    125.8456
   949.7000      8.1279      2.4821      0.0455     10.1768     27.4199    124.4413
   949.8000      8.1187      2.4766      0.0229     10.5089     26.9545    126.1570
   949.9000      8.1187      2.4850      0.0011      9.9978     26.8555    129.7856
   950.0000      8.1173      2.5049      0.0686      8.7925     26.9107    128.3192
   950.1000      8.1173      2.5162      0.0426      8.1108     26.9244    122.2673
   950.2000      8.1173      2.5118      0.0317      8.3737     26.9974    120.1260
   950.3000      8.1076      2.5098     -0.0049      8.4948     27.1518    119.7144
   950.4000      8.1076      2.5238      0.0396      7.6514     27.2939    113.1571
   950.5000      8.0947      2.5487      0.0237      6.1404     27.3302    105.8995
   950.6000      8.0947      2.5786      0.0590      4.3301     27.2301    105.8674
   950.7000      8.0947      2.6013      0.0983      2.9497     27.0798    110.0277
   950.8000      8.0973      2.6026      0.0761      2.8752     26.9102    108.8185
   950.9000      8.0973      2.5910      0.0263      3.5788     26.5728     98.5684
   951.0000      8.0971      2.5851      0.0317      3.9344     25.9120     89.2205
   951.1000      8.0971      2.5874      0.0018      3.7934     25.3097     89.1364
   951.2000      8.0971      2.5933      0.0050      3.4389     25.1516     95.0308
   951.3000      8.0972      2.6005      0.0274      2.9996     25.0867    100.4682
   951.4000      8.0972      2.6045      0.0492      2.7597     24.6646    101.4857
   951.5000      8.0978      2.6019      0.0367      2.9139     24.1200    101.2300
   951.6000      8.0978      2.5984      0.0355      3.1294     24.1177    104.1753
   951.7000      8.0978      2.5963      0.0593      3.2551     24.5454    106.3615
   951.8000      8.0921      2.5902      0.0259      3.6263     24.7013    105.0392
   951.9000      8.0921      2.5834      0.0334      4.0372     24.3908    104.8811
   952.0000      8.0962      2.5890      0.0326      3.6967     23.9620    106.6409
   952.1000      8.0962      2.6123      0.0272      2.2868     23.6986    104.9706
   952.2000      8.0962      2.6375      0.0807      0.7594     23.8656     99.6865
   952.3000      8.0962      2.6385      0.0689      0.6943     24.4575     96.5791
   952.4000      8.0962      2.6123      0.0713      2.2818     24.8902     97.8088
   952.5000      8.0959      2.5855      0.0033      3.9112     24.8105    102.2707
   952.6000      8.0959      2.5824      0.0198      4.0994     24.3832    107.9752
   952.7000      8.0959      2.5908      0.0554      3.5887     24.0191    109.3492
   952.8000      8.0941      2.5861     -0.0011      3.8749     24.1349    103.7777
   952.9000      8.0941      2.5712      0.0059      4.7770     24.5815     98.4531
   953.0000      8.0912      2.5636      0.0232      5.2376     24.9221     97.5448
   953.1000      8.0912      2.5702      0.0149      4.8365     25.0499     97.1418
   953.2000      8.0912      2.5822      0.0411      4.1066     25.1038     97.3654
   953.3000      8.0875      2.5848      0.0332      3.9493     25.3044     99.1894
   953.4000      8.0875      2.5743      0.0097      4.5880     25.7165    100.0765
   953.5000      8.0878      2.5595      0.0129      5.4837     26.1145    100.8185
   953.6000      8.0878      2.5509     -0.0054      6.0034     26.2422    102.8391
   953.7000      8.0878      2.5563      0.0197      5.6772     26.2180    104.0781
   953.8000      8.0830      2.5724      0.0492      4.7057     26.3311    102.6709
   953.9000      8.0830      2.5911      0.0206      3.5708     26.5468     99.5320
   954.0000      8.0838      2.6137      0.0466      2.2002     26.6389     95.1959
   954.1000      8.0838      2.6356      0.0423      0.8751     26.4629     89.7045
   954.2000      8.0838      2.6444      0.0822      0.3383     25.9854     84.1774
   954.3000      8.0847      2.6368      0.0607      0.7991     25.3599     82.1510
   954.4000      8.0847      2.6234      0.0141      1.6135     25.1938     86.8953
   954.5000      8.0893      2.6142      0.0322      2.1706     25.6429     96.5424
   954.6000      8.0893      2.6098     -0.0020      2.4368     26.0650    103.1825
   954.7000      8.0893      2.6075      0.0304      2.5733     26.1639    101.9228
   954.8000      8.0865      2.6039     -0.0211      2.7944     25.9901     97.8978
   954.9000      8.0865      2.5954     -0.0056      3.3100     25.6477     95.9307
   955.0000      8.0876      2.5789     -0.0014      4.3115     25.3913     95.5126
   955.1000      8.0876      2.5585      0.0059      5.5444     25.2739     95.4393
   955.2000      8.0876      2.5481      0.0209      6.1782     25.2226     97.6381
   955.3000      8.0884      2.5602      0.0494      5.4422     25.4059    104.0030
   955.4000      8.0884      2.5913      0.0674      3.5585     25.8429    110.9002
   955.5000      8.0872      2.6224      0.1006      1.6718     25.8681    115.7496
   955.6000      8.0872      2.6361      0.1087      0.8427     25.1588    118.5522
   955.7000      8.0872      2.6218      0.0929      1.7103     24.4632    116.9898
   955.8000      8.0851      2.5876      0.0449      3.7827     24.1905    111.6832
   955.9000      8.0851      2.5655      0.0071      5.1229     24.0039    105.2932
