~Version Information
VERS.                      2.0: CWLS Log ASCII Standard - VERSION 2.0
WRAP.                       NO: One line per depth step
~Well Information Block
STRT.FT               235.0000: 
STOP.FT              1634.5000: 
STEP.FT                 0.2500: 
NULL.                -999.2500: 
COMP.          Petrogulf Corporation: COMPANY
WELL.             State 16-41R: WELL
FLD.           Purgatorie River: FIELD
LOC.           280' FNL & 907' FEL: LOCATION
SECT.                       16: SECTION
TOWN.                      33S: TOWNSHIP
RANG.                      67W: RANGE
STAT.                 Colorado: STATE
CNTY.               Las Animas: COUNTY
CTRY.                      USA: COUNTRY
SRVC.                Patterson: SERVICE COMPANY
DATE.         Tue Oct 18 15:59:41 2005: LOG DATE
API.              05-071-08345: UNIQUE WELL ID
~Curve Information Block
DEPT.FT            0 000 00 00: Depth
SP.mV                         : DIL Spontaneous Potential
RILD.Ohm-m                    : DIL Deep Resistivity
RILM.Ohm-m                    : DIL Medium Resistivity
RLL3.Ohm-m                    : DIL Shallow Resistivity
GR.GAPI                       : Gamma Ray
~Parameter Information Block
~A  Depth        SP         RILD        RILM        RLL3         GR     
# ...
  1327.0000    169.9481      8.5756      8.1171      9.5938    152.7615
  1327.2500    169.9742      8.4281      7.9044      9.6388    154.5801
  1327.5000    169.9150      8.3254      7.7205      9.7373    156.7773
  1327.7500    169.7816      8.2783      7.5716      9.7713    156.9468
  1328.0000    169.5900      8.2958      7.4668      9.6301    154.5979
  1328.2500    169.3612      8.3840      7.4177      9.2867    152.0401
  1328.5000    169.1198      8.5440      7.4371      8.8303    149.4006
  1328.7500    168.8912      8.7721      7.5387      8.4442    149.6574
  1329.0000    168.6969      9.0604      7.7362      8.3745    152.6157
  1329.2500    168.5512      9.3994      8.0424      8.9217    154.6741
  1329.5000    168.4617      9.7808      8.4689     10.4157    154.6713
  1329.7500    168.4310     10.2002      9.0253     13.1040    151.3808
  1330.0000    168.4565     10.6596      9.7175     16.9546    141.1088
  1330.2500    168.5246     11.1689     10.5474     21.5122    131.5263
  1330.5000    168.6045     11.7466     11.5119     25.9846    115.7978
  1330.7500    168.6483     12.4181     12.6040     29.5750    105.9758
  1331.0000    168.6028     13.2104     13.8136     31.8422     93.3794
  1331.2500    168.4313     14.1442     15.1295     32.8289     86.2820
  1331.5000    168.1327     15.2238     16.5397     32.9131     77.3572
  1331.7500    167.7490     16.4288     18.0289     32.5537     72.6242
  1332.0000    167.3543     17.7095     19.5746     32.1109     67.0246
  1332.2500    167.0306     18.9903     21.1431     31.7947     63.6979
  1332.5000    166.8403     20.1821     22.6863     31.6833     58.4891
  1332.7500    166.8072     21.2032     24.1454     31.7536     54.9206
  1333.0000    166.9116     22.0008     25.4577     31.9150     50.2065
  1333.2500    167.1009     22.5652     26.5690     32.0605     47.9221
  1333.5000    167.3078     22.9286     27.4434     32.1247     45.9926
  1333.7500    167.4708     23.1518     28.0713     32.1122     45.5435
  1334.0000    167.5483     23.3065     28.4697     32.0727     45.7919
  1334.2500    167.5233     23.4593     28.6782     32.0488     46.5535
  1334.5000    167.3994     23.6591     28.7508     32.0404     48.8090
  1334.7500    167.1918     23.9301     28.7474     32.0140     51.0718
  1335.0000    166.9182     24.2710     28.7254     31.9400     55.1067
  1335.2500    166.5939     24.6604     28.7340     31.8216     57.7443
  1335.5000    166.2325     25.0673     28.8099     31.6961     60.8698
  1335.7500    165.8479     25.4633     28.9766     31.6181     62.0312
  1336.0000    165.4540     25.8317     29.2446     31.6512     61.8985
  1336.2500    165.0611     26.1698     29.6140     31.8730     60.5894
  1336.5000    164.6712     26.4829     30.0769     32.3667     57.6956
  1336.7500    164.2778     26.7771     30.6216     33.1777     55.8539
  1337.0000    163.8730     27.0542     31.2355     34.2488     53.7149
  1337.2500    163.4600     27.3143     31.9092     35.3919     52.4561
  1337.5000    163.0659     27.5619     32.6393     36.3441     50.2746
  1337.7500    162.7452     27.8087     33.4309     36.8987     48.6103
  1338.0000    162.5720     28.0699     34.2979     37.0219     46.2444
  1338.2500    162.6203     28.3536     35.2595     36.8750     45.1439
  1338.5000    162.9415     28.6499     36.3326     36.7564     44.9153
  1338.7500    163.5462     28.9218     37.5177     37.0461     45.9059
  1339.0000    164.3983     29.1026     38.7784     38.1925     48.7985
  1339.2500    165.4220     29.0990     40.0143     40.6775     51.4343
  1339.5000    166.5199     28.8042     41.0347     44.8587     56.7615
  1339.7500    167.5958     28.1244     41.5496     50.6864     61.6579
  1340.0000    168.5776     27.0131     41.2119     57.4881     71.0377
  1340.2500    169.4331     25.4982     39.7336     64.0835     77.9283
  1340.5000    170.1736     23.6820     37.0461     69.2389     87.4257
  1340.7500    170.8419     21.7117     33.3902     72.1062     92.4920
  1341.0000    171.4894     19.7374     29.2383     72.2725     98.3450
  1341.2500    172.1500     17.8800     25.0956     69.4676    101.9095
  1341.5000    172.8241     16.2166     21.3315     63.4012    108.5288
  1341.7500    173.4775     14.7832     18.1285     54.1199    114.4777
  1342.0000    174.0560     13.5836     15.5214     42.6195    125.8282
  1342.2500    174.5088     12.6015     13.4616     30.9053    134.5597
  1342.5000    174.8084     11.8095     11.8680     21.1187    148.0571
  1342.7500    174.9592     11.1761     10.6569     14.4204    156.4403
  1343.0000    174.9929     10.6698      9.7545     10.6422    166.8732
  1343.2500    174.9548     10.2616      9.1014      8.8475    171.9171
  1343.5000    174.8899      9.9264      8.6510      8.0976    175.9626
  1343.7500    174.8320      9.6439      8.3679      7.8333    176.0920
  1344.0000    174.7983      9.3980      8.2239      7.8611    172.6918
  1344.2500    174.7875      9.1771      8.1954      8.2053    168.4744
  1344.5000    174.7811      8.9746      8.2594      8.9833    160.0691
  1344.7500    174.7498      8.7891      8.3906     10.3157    153.6555
  1345.0000    174.6646      8.6243      8.5591     12.2312    144.0054
  1345.2500    174.5092      8.4874      8.7313     14.5464    137.9190
  1345.5000    174.2898      8.3861      8.8728     16.7811    128.8889
  1345.7500    174.0353      8.3261      8.9554     18.2545    122.7410
  1346.0000    173.7899      8.3086      8.9639     18.4072    114.4018
  1346.2500    173.6004      8.3279      8.8997     17.1397    110.5008
  1346.5000    173.5030      8.3711      8.7786     14.8865    108.0310
  1346.7500    173.5137      8.4201      8.6234     12.3775    108.4790
  1347.0000    173.6223      8.4548      8.4566     10.2834    111.9819
  1347.2500    173.7937      8.4584      8.2953      8.9613    116.2285
  1347.5000    173.9764      8.4210      8.1491      8.4073    125.1015
  1347.7500    174.1177      8.3427      8.0217      8.3871    131.9214
  1348.0000    174.1829      8.2341      7.9133      8.6150    141.5448
  1348.2500    174.1697      8.1138      7.8239      8.8680    146.3816
  1348.5000    174.1119      8.0039      7.7550      9.0164    149.8481
  1348.7500    174.0667      7.9247      7.7109      9.0222    149.4582
  1349.0000    174.0896      7.8911      7.6983      8.9308    145.6864
  1349.2500    174.2060      7.9111      7.7248      8.8437    141.8988
  1349.5000    174.3954      7.9862      7.7976      8.8669    135.5936
  1349.7500    174.5963      8.1120      7.9223      9.0651    131.4104
  1350.0000    174.7329      8.2804      8.1020      9.4570    125.4416
  1350.2500    174.7477      8.4818      8.3371     10.0430    121.6160
  1350.5000    174.6233      8.7078      8.6252     10.8324    115.6990
  1350.7500    174.3814      8.9536      8.9614     11.8482    111.3881
  1351.0000    174.0625      9.2185      9.3389     13.1034    104.4668
  1351.2500    173.7006      9.5041      9.7507     14.5344     99.9571
  1351.5000    173.3052      9.8113     10.1906     15.9099     94.2019
  1351.7500    172.8595     10.1376     10.6548     16.8317     91.4603
  1352.0000    172.3324     10.4755     11.1423     16.9500     89.6240
  1352.2500    171.6989     10.8122     11.6529     16.2953     90.2039
  1352.5000    170.9614     11.1297     12.1830     15.4143     93.6486
  1352.7500    170.1643     11.4067     12.7199     15.1199     96.9521
  1353.0000    169.3942     11.6216     13.2355     16.0144    101.3653
  1353.2500    168.7614     11.7576     13.6845     18.1087    102.8275
  1353.5000    168.3634     11.8072     14.0102     20.7541    102.0500
  1353.7500    168.2453     11.7751     14.1596     22.9403     99.9921
  1354.0000    168.3750     11.6784     14.1034     23.8214     96.5210
  1354.2500    168.6466     11.5404     13.8494     23.1148     95.2983
  1354.5000    168.9156     11.3825     13.4397     21.1080     96.7434
  1354.7500    169.0481     11.2152     12.9344     18.3873    100.0612
