~Version Information
VERS.                      2.0: CWLS Log ASCII Standard - VERSION 2.0
WRAP.                       NO: One line per depth step
~Well Information Block
STRT.FT               964.2000: 
STOP.FT              2596.7000: 
STEP.FT                 0.1000: 
NULL.                -999.2500: 
COMP.          Petrogulf Corporation: COMPANY
WELL.             Valejo 8-12V: WELL
FLD.           Purgatorie River: FIELD
LOC.           1510' FNL & 1460' FWL: LOCATION
CNTY.               Las Animas: COUNTY
SRVC.                         : SERVICE COMPANY
DATE.          Sat Nov 15 12:30:37 2003: LOG DATE
UWI.                          : UNIQUE WELL ID
STAT.                 Colorado: STATE
~Curve Information Block
DEPT.FT            0 000 00 00: Depth
DCAL.in                       : CDL Caliper
RHOB.g/cc                     : CDL Bulk Density
RHOC.g/cc                     : CDL Density Correction
DPOR.pu                       : CDL Density Porosity
GR.GAPI                       : Gamma Ray
NPOR.pu                       : Neutron Porosity
~Parameter Information Block
~A  Depth       DCAL        RHOB        RHOC        DPOR         GR         NPOR    
# ...
  1194.6000      9.2452      2.5390      0.0384      6.7298     75.2122     30.7341
  1194.7000      9.2452      2.5470      0.0439      6.2420     73.8172     27.8979
  1194.8000      9.2458      2.5515      0.0459      5.9679     78.2008     23.2579
  1194.9000      9.2458      2.5560      0.0149      5.6965     83.7181     19.6393
  1195.0000      9.2463      2.5602      0.0377      5.4403     82.7042     18.4659
  1195.1000      9.2463      2.5630      0.0259      5.2713     74.7887     18.5248
  1195.2000      9.2463      2.5736      0.0301      4.6330     68.2514     18.2317
  1195.3000      9.2466      2.5934      0.0575      3.4297     68.2997     17.8605
  1195.4000      9.2466      2.6100      0.0625      2.4237     71.7446     18.5419
  1195.5000      9.2471      2.6238      0.0402      1.5868     75.6814     19.8894
  1195.6000      9.2471      2.6375      0.0965      0.7574     79.4472     19.7330
  1195.7000      9.2471      2.6333      0.0815      1.0092     82.2305     17.1884
  1195.8000      9.2484      2.6124      0.0318      2.2762     82.6365     14.5361
  1195.9000      9.2484      2.6034      0.0262      2.8229     79.3544     14.2908
  1196.0000      9.2512      2.6132      0.0557      2.2320     74.9216     16.2069
  1196.1000      9.2512      2.6241      0.0390      1.5686     72.3730     17.9229
  1196.2000      9.2512      2.6272      0.0362      1.3811     71.7701     18.0092
  1196.3000      9.2555      2.6250      0.0206      1.5140     71.4985     17.1236
  1196.4000      9.2555      2.6193      0.0332      1.8621     71.2599     16.2634
  1196.5000      9.2597      2.6082      0.0564      2.5343     71.9870     15.8162
  1196.6000      9.2597      2.5986      0.0005      3.1121     73.3492     16.0343
  1196.7000      9.2597      2.6030      0.0305      2.8513     74.7868     16.4558
  1196.8000      9.2617      2.6174      0.0204      1.9756     74.2460     15.5144
  1196.9000      9.2617      2.6309      0.0451      1.1551     68.9294     13.4532
  1197.0000      9.2602      2.6395      0.0597      0.6363     60.8813     12.5887
  1197.1000      9.2602      2.6503      0.0167     -0.0167     54.1652     14.0444
  1197.2000      9.2602      2.6722      0.0810     -1.3481     50.1597     16.5285
  1197.3000      9.2564      2.7025      0.0608     -3.1834     51.3035     17.4944
  1197.4000      9.2564      2.7275      0.0976     -4.6978     56.6698     17.1623
  1197.5000      9.2525      2.7238      0.1158     -4.4722     58.7068     16.8255
  1197.6000      9.2525      2.6910      0.0232     -2.4857     56.2266     15.5665
  1197.7000      9.2525      2.6648      0.0106     -0.8963     54.3779     13.3576
  1197.8000      9.2498      2.6599     -0.0068     -0.5974     54.9232     12.0983
  1197.9000      9.2498      2.6627     -0.0141     -0.7668     56.9868     12.6084
  1198.0000      9.2489      2.6669      0.0562     -1.0258     58.9521     14.1906
  1198.1000      9.2489      2.6721      0.0490     -1.3407     58.8911     15.6138
  1198.2000      9.2489      2.6785      0.0491     -1.7261     55.1749     16.6863
  1198.3000      9.2499      2.6857      0.0584     -2.1666     49.0658     18.2623
  1198.4000      9.2499      2.6853      0.0830     -2.1410     47.1423     20.4029
  1198.5000      9.2527      2.6670      0.0704     -1.0287     52.4067     22.1282
  1198.6000      9.2527      2.6382      0.0150      0.7175     58.5632     23.3799
  1198.7000      9.2527      2.6159     -0.0137      2.0637     59.2284     25.1186
  1198.8000      9.2572      2.6059     -0.0286      2.6707     56.6314     27.1057
  1198.9000      9.2572      2.6039     -0.0161      2.7955     56.8712     27.6574
  1199.0000      9.2631      2.5999      0.0098      3.0362     61.2760     26.3789
  1199.1000      9.2631      2.5859      0.0003      3.8848     68.9781     25.0005
  1199.2000      9.2631      2.5676      0.0086      4.9956     76.8873     24.8969
  1199.3000      9.2716      2.5514      0.0451      5.9743     81.3050     25.2411
  1199.4000      9.2716      2.5341      0.0345      7.0235     84.4215     25.1143
  1199.5000      9.2856      2.5101      0.0573      8.4772     88.7836     26.1959
  1199.6000      9.2856      2.4781      0.0360     10.4182     92.8081     30.1761
  1199.7000      9.2856      2.4409      0.0208     12.6756     96.4607     34.9441
  1199.8000      9.3100      2.3942      0.0079     15.5047    103.9333     36.5965
  1199.9000      9.3100      2.3256      0.0202     19.6616    112.4902     35.5574
  1200.0000      9.3491      2.2318     -0.0207     25.3457    112.4614     35.2117
  1200.1000      9.3491      2.1247     -0.0759     31.8368    102.7278     36.0141
  1200.2000      9.3491      2.0110     -0.0613     38.7247     91.6187     36.2227
  1200.3000      9.4035      1.8915     -0.1191     45.9677     83.5216     35.7235
  1200.4000      9.4035      1.7753     -0.1532     53.0114     79.2572     35.8476
  1200.5000      9.4679      1.6710     -0.1249     59.3314     76.2604     36.8987
  1200.6000      9.4679      1.5820     -0.1256     64.7298     69.9659     37.6685
  1200.7000      9.4679      1.5048     -0.0672     69.4066     62.2809     36.8865
  1200.8000      9.5302      1.4280      0.0051     74.0607     55.3280     35.0283
  1200.9000      9.5302      1.3542     -0.0151     78.5303     49.3038     33.9155
  1201.0000      9.5698      1.3047     -0.0249     81.5345     45.2695     33.8507
  1201.1000      9.5698      1.2944     -0.0054     82.1568     42.0117     33.9787
  1201.2000      9.5698      1.3290      0.0054     80.0627     38.3105     33.8722
  1201.3000      9.5578      1.4075      0.0548     75.3059     35.4716     33.0489
  1201.4000      9.5578      1.5132      0.1147     68.8961     35.5577     30.5780
  1201.5000      9.4677      1.6244      0.1567     62.1558     38.3119     26.4831
  1201.6000      9.4677      1.7371      0.1712     55.3271     40.8303     22.9192
  1201.7000      9.4677      1.8586      0.1815     47.9653     43.3591     22.0752
  1201.8000      9.2989      1.9888      0.2086     40.0707     48.5325     23.8731
  1201.9000      9.2989      2.1239      0.2027     31.8826     54.7607     25.8661
  1202.0000      9.0893      2.2553      0.2361     23.9217     60.5357     25.7117
  1202.1000      9.0893      2.3677      0.2033     17.1072     68.8079     24.8179
  1202.2000      9.0893      2.4585      0.1445     11.6089     79.1449     25.3822
  1202.3000      8.8963      2.5275      0.1269      7.4266     86.1314     26.2800
  1202.4000      8.8963      2.5648      0.0874      5.1637     88.0652     26.2753
  1202.5000      8.7603      2.5718      0.0724      4.7374     90.7910     25.9747
  1202.6000      8.7603      2.5651      0.0289      5.1458     98.6604     26.3973
  1202.7000      8.7603      2.5598      0.0207      5.4646    106.9545     27.5145
  1202.8000      8.6862      2.5561      0.0340      5.6911    109.8951     27.7257
  1202.9000      8.6862      2.5477      0.0366      6.1994    107.7639     26.3273
  1203.0000      8.6553      2.5361      0.0562      6.9050    102.2079     24.7489
  1203.1000      8.6553      2.5260      0.0238      7.5171     96.5570     24.4395
  1203.2000      8.6553      2.5265      0.0008      7.4868     94.9598     25.2238
  1203.3000      8.6465      2.5410      0.0389      6.6048     97.1040     26.0722
  1203.4000      8.6465      2.5616      0.0432      5.3555     99.0041     26.7263
  1203.5000      8.6460      2.5791      0.0754      4.2947     98.7781     27.6824
  1203.6000      8.6460      2.5833      0.0589      4.0446     98.1811     29.0739
  1203.7000      8.6460      2.5724      0.0380      4.7023    100.2333     30.7072
  1203.8000      8.6473      2.5568      0.0390      5.6464    105.8794     32.3651
  1203.9000      8.6473      2.5449      0.0345      6.3680    109.5292     32.5527
  1204.0000      8.6486      2.5395      0.0345      6.6986    106.4056     30.3140
  1204.1000      8.6486      2.5423      0.0199      6.5250    101.1287     27.7847
