~Version Information
VERS.                      2.0: CWLS Log ASCII Standard - VERSION 2.0
WRAP.                       NO: One line per depth step
~Well Information Block
STRT.FT               270.0000: 
STOP.FT              1771.7000: 
STEP.FT                 0.1000: 
NULL.                -999.2500: 
COMP.          Pioneer Natural Resources: COMPANY
WELL.           Labrador 34-30: WELL
FLD.           Purgatoire River: FIELD
LOC.           926' FSL & 2080' FEL: LOCATION
PROV.                 Colorado: PROVINCE
CNTY.               Las Animas: COUNTRY
SRVC.                Patterson: SERVICE COMPANY
DATE.          Mon Dec 06 08:24:34 2004: LOG DATE
UWI.           05 071 08202 00: UNIQUE WELL ID
~Curve Information Block
DEPT.FT            0 000 00 00: Depth
DCAL.in                       : CDL Caliper
RHOB.g/cc                     : CDL Bulk Density
RHOC.g/cc                     : CDL Density Correction
DPOR.pu                       : CDL Density Porosity
NPOR.pu                       : Neutron Porosity
GR.GAPI                       : Gamma Ray
~Parameter Information Block
~A  Depth       DCAL        RHOB        RHOC        DPOR        NPOR         GR     
# ...
   567.6000      8.1494      2.5686     -0.0403      4.9315     23.2286     62.3844
   567.7000      8.1494      2.5477     -0.0031      6.1971     24.4913     59.6931
   567.8000      8.1534      2.5389     -0.0239      6.7307     25.3284     60.9860
   567.9000      8.1534      2.5247      0.0130      7.5939     25.7911     65.0391
   568.0000      8.1596      2.5038     -0.0268      8.8585     26.2562     70.9492
   568.1000      8.1596      2.4888     -0.0281      9.7720     26.8840     77.8327
   568.2000      8.1596      2.4790      0.0443     10.3643     27.5712     85.6749
   568.3000      8.1632      2.4567      0.0084     11.7124     27.9842     95.6230
   568.4000      8.1632      2.4185      0.0127     14.0286     27.8969    108.9437
   568.5000      8.1677      2.3791     -0.0060     16.4200     27.5203    124.1415
   568.6000      8.1677      2.3585     -0.0020     17.6650     26.9258    132.8393
   568.7000      8.1677      2.3589      0.0834     17.6400     26.0656    130.6216
   568.8000      8.1900      2.3581      0.0950     17.6906     25.0845    125.8110
   568.9000      8.1900      2.3448      0.0587     18.4955     24.1829    124.0137
   569.0000      8.2286      2.3335      0.0264     19.1842     23.4488    123.9217
   569.1000      8.2286      2.3375      0.0826     18.9384     22.7670    126.7444
   569.2000      8.2286      2.3524      0.1133     18.0393     21.8466    131.0488
   569.3000      8.2549      2.3686      0.1393     17.0551     20.5666    131.3099
   569.4000      8.2549      2.3784      0.1407     16.4618     19.2451    128.3671
   569.5000      8.2672      2.3745      0.1112     16.6986     18.3279    125.4962
   569.6000      8.2672      2.3632      0.0635     17.3845     17.8125    122.9725
   569.7000      8.2672      2.3611      0.0294     17.5099     17.3523    122.3769
   569.8000      8.2791      2.3725      0.0218     16.8196     16.8818    123.9265
   569.9000      8.2791      2.3852      0.0496     16.0477     16.7752    125.7024
   570.0000      8.2901      2.3921      0.0063     15.6311     17.3864    127.0384
   570.1000      8.2901      2.4024      0.0113     15.0057     18.3542    128.3414
   570.2000      8.2901      2.4283      0.0158     13.4351     18.8992    128.9416
   570.3000      8.2883      2.4702      0.0343     10.8947     18.8862    128.7410
   570.4000      8.2883      2.5123      0.0871      8.3441     18.8713    129.6150
   570.5000      8.2651      2.5369      0.0857      6.8574     19.0990    130.1504
   570.6000      8.2651      2.5374      0.1544      6.8263     19.4141    127.8099
   570.7000      8.2651      2.5232      0.0735      7.6856     19.7953    127.9359
   570.8000      8.2313      2.5303      0.0551      7.2523     20.2230    132.8366
   570.9000      8.2313      2.5773      0.1928      4.4073     20.4732    134.2260
   571.0000      8.2021      2.6285      0.1922      1.3015     20.5779    128.0981
   571.1000      8.2021      2.6564      0.1183     -0.3862     20.9564    120.3431
   571.2000      8.2021      2.6737      0.1151     -1.4369     21.6348    116.0420
   571.3000      8.1774      2.6915      0.1486     -2.5170     22.2799    113.5366
   571.4000      8.1774      2.7087      0.0756     -3.5583     22.9187    111.7236
   571.5000      8.1654      2.7260      0.0810     -4.6055     23.7610    110.7219
   571.6000      8.1654      2.7340      0.0811     -5.0892     24.7493    107.1965
   571.7000      8.1654      2.7221      0.0647     -4.3725     25.7304     99.5722
   571.8000      8.1631      2.6964      0.0409     -2.8109     26.6729     93.2016
   571.9000      8.1631      2.6683      0.0291     -1.1079     27.4999     93.1799
   572.0000      8.1620      2.6471     -0.0134      0.1728     27.8367     97.4004
   572.1000      8.1620      2.6308      0.0505      1.1624     27.4257    102.0131
   572.2000      8.1620      2.6033      0.0106      2.8314     26.7889    105.6794
   572.3000      8.1594      2.5693     -0.0588      4.8926     26.5877    107.2066
   572.4000      8.1594      2.5505     -0.0210      6.0300     26.8229    108.4325
   572.5000      8.1478      2.5480      0.0050      6.1815     26.9766    112.3743
   572.6000      8.1478      2.5500      0.0107      6.0614     26.7594    119.6010
   572.7000      8.1478      2.5556      0.0102      5.7203     26.4089    130.6288
   572.8000      8.1368      2.5597      0.0355      5.4713     26.1173    140.9052
   572.9000      8.1368      2.5478      0.0293      6.1968     25.9057    144.5903
   573.0000      8.1465      2.5229      0.0214      7.7008     25.7861    144.9767
   573.1000      8.1465      2.5057     -0.0045      8.7465     25.6116    144.6532
   573.2000      8.1465      2.5098     -0.0007      8.4967     25.3614    140.4126
   573.3000      8.1574      2.5252      0.0656      7.5607     25.1615    135.5292
   573.4000      8.1574      2.5324      0.0147      7.1254     25.0120    133.9918
   573.5000      8.1587      2.5256      0.0192      7.5375     24.8554    133.0694
   573.6000      8.1587      2.5069      0.0079      8.6735     24.5594    131.0652
   573.7000      8.1587      2.4873     -0.0454      9.8598     23.8797    131.4227
   573.8000      8.1582      2.4852     -0.0232      9.9893     23.0749    135.9524
   573.9000      8.1582      2.4985      0.0439      9.1796     22.6886    139.3049
   574.0000      8.1579      2.5120      0.0140      8.3647     22.6298    136.2307
   574.1000      8.1579      2.5223      0.0276      7.7387     22.7781    128.4635
   574.2000      8.1579      2.5307      0.0590      7.2289     23.1189    120.8972
   574.3000      8.1578      2.5352      0.0151      6.9580     23.3497    119.5855
   574.4000      8.1578      2.5334      0.0929      7.0695     23.4143    125.3538
   574.5000      8.1598      2.5246      0.0294      7.5976     23.4118    128.8195
   574.6000      8.1598      2.5148      0.0292      8.1912     23.3709    123.9356
   574.7000      8.1598      2.5075      0.0249      8.6371     23.4883    115.9664
   574.8000      8.1627      2.5043      0.0361      8.8274     23.8656    111.5751
   574.9000      8.1627      2.5060      0.0141      8.7288     24.1809    112.7231
   575.0000      8.1647      2.5084      0.0092      8.5848     24.3279    117.9647
   575.1000      8.1647      2.5070      0.0325      8.6665     24.5437    123.5312
   575.2000      8.1647      2.4972      0.0286      9.2626     24.7897    124.4699
   575.3000      8.1644      2.4782      0.0161     10.4093     24.9936    122.8074
   575.4000      8.1644      2.4614      0.0038     11.4275     25.1873    124.8953
   575.5000      8.1628      2.4602      0.0178     11.5054     25.3597    128.9370
   575.6000      8.1628      2.4759      0.0031     10.5510     25.7352    130.2315
   575.7000      8.1628      2.5043      0.0093      8.8318     26.2905    130.6266
   575.8000      8.1607      2.5333      0.0851      7.0731     26.4277    131.3779
   575.9000      8.1607      2.5451      0.0586      6.3605     25.8469    129.6941
   576.0000      8.1611      2.5368      0.0817      6.8584     24.8363    125.9365
   576.1000      8.1611      2.5173      0.0692      8.0420     23.8984    123.1667
   576.2000      8.1611      2.5013      0.0429      9.0092     23.4900    123.0699
   576.3000      8.1694      2.5042      0.0327      8.8365     23.4452    124.0587
   576.4000      8.1694      2.5218      0.0771      7.7709     23.2603    124.0447
   576.5000      8.1764      2.5419      0.0818      6.5517     23.0126    124.6542
   576.6000      8.1764      2.5603      0.0866      5.4368     22.9425    126.3749
   576.7000      8.1764      2.5664      0.1300      5.0640     22.9745    126.2212
   576.8000      8.1695      2.5499      0.0864      6.0694     23.1398    126.6118
   576.9000      8.1695      2.5247      0.0457      7.5935     23.3447    132.8580
   577.0000      8.1599      2.5144      0.0618      8.2152     23.2169    140.5319
   577.1000      8.1599      2.5231      0.0629      7.6909     22.9657    141.1803
