~Version Information
VERS.                      2.0: CWLS Log ASCII Standard - VERSION 2.0
WRAP.                       NO: One line per depth step
~Well Information Block
STRT.FT               754.6000: 
STOP.FT              2329.0000: 
STEP.FT                 0.1000: 
NULL.                -999.2500: 
COMP.          Petrogulf Corporation: COMPANY
WELL.           Anderson 18-42: WELL
FLD.           Purgatoire River: FIELD
LOC.           1668' FNL & 1110' FEL: LOCATION
CNTY.               Las Animas: COUNTY
SRVC.                         : SERVICE COMPANY
DATE.          Tue Dec 16 12:18:55 2003: LOG DATE
UWI.                          : UNIQUE WELL ID
STAT.                 Colorado: STATE
~Curve Information Block
DEPT.FT            0 000 00 00: Depth
DCAL.in                       : CDL Caliper
RHOB.g/cc                     : CDL Bulk Density
RHOC.g/cc                     : CDL Density Correction
DPOR.pu                       : CDL Density Porosity
NPOR.pu                       : Neutron Porosity
GR.GAPI                       : Gamma Ray
~Parameter Information Block
~A  Depth       DCAL        RHOB        RHOC        DPOR        NPOR         GR     
# ...
  1397.8000      8.1700      2.6065      0.0247      2.6336     26.4078    128.2933
  1397.9000      8.1700      2.5919      0.0266      3.5191     26.1232    129.2560
  1398.0000      8.1725      2.5725      0.0417      4.6982     26.4952    128.8577
  1398.1000      8.1725      2.5533      0.0082      5.8594     27.1782    125.8012
  1398.2000      8.1725      2.5507      0.0370      6.0184     27.5971    122.8809
  1398.3000      8.1648      2.5630      0.0361      5.2751     27.3750    123.6138
  1398.4000      8.1648      2.5700      0.0752      4.8498     26.7208    126.3554
  1398.5000      8.1636      2.5681      0.0338      4.9635     26.1385    128.5196
  1398.6000      8.1636      2.5729      0.0532      4.6740     25.8239    128.1952
  1398.7000      8.1636      2.5864      0.0637      3.8569     25.7593    126.6785
  1398.8000      8.1624      2.5979      0.0220      3.1552     25.9739    127.1569
  1398.9000      8.1624      2.6037      0.0263      2.8058     26.3780    129.3759
  1399.0000      8.1643      2.6032      0.0448      2.8367     26.5719    133.8991
  1399.1000      8.1643      2.5939      0.0268      3.4000     26.4549    138.6037
  1399.2000      8.1643      2.5782      0.0161      4.3515     26.4136    136.3161
  1399.3000      8.1621      2.5677     -0.0047      4.9908     26.6349    130.7811
  1399.4000      8.1621      2.5672      0.0234      5.0209     27.0699    130.2911
  1399.5000      8.1480      2.5665      0.0172      5.0591     27.6701    130.9154
  1399.6000      8.1480      2.5648     -0.0028      5.1623     28.2105    127.9907
  1399.7000      8.1480      2.5729      0.0072      4.6728     28.3885    126.1933
  1399.8000      8.1411      2.5877      0.0152      3.7760     28.1068    127.6477
  1399.9000      8.1411      2.5973      0.0223      3.1920     27.6452    127.3289
  1400.0000      8.1524      2.5994      0.0463      3.0684     27.4590    123.8883
  1400.1000      8.1524      2.5940      0.0263      3.3957     27.8054    122.4178
  1400.2000      8.1524      2.5811     -0.0098      4.1761     28.3945    126.2467
  1400.3000      8.1636      2.5663      0.0019      5.0744     28.6513    133.4553
  1400.4000      8.1636      2.5558      0.0021      5.7064     28.6877    142.2853
  1400.5000      8.1654      2.5521     -0.0396      5.9305     28.9853    151.0627
  1400.6000      8.1654      2.5503      0.0071      6.0417     29.1945    156.2464
  1400.7000      8.1654      2.5473      0.0005      6.2264     28.7085    157.6543
  1400.8000      8.1585      2.5514      0.0101      5.9731     27.8452    159.3705
  1400.9000      8.1585      2.5641      0.0382      5.2069     27.1442    160.7413
  1401.0000      8.1593      2.5724      0.0680      4.7002     26.6500    158.3501
  1401.1000      8.1593      2.5696      0.0207      4.8754     26.4768    152.1767
  1401.2000      8.1593      2.5621      0.0211      5.3299     26.7911    147.1337
  1401.3000      8.1625      2.5555      0.0414      5.7247     27.2200    145.4178
  1401.4000      8.1625      2.5529      0.0044      5.8828     27.2414    144.4684
  1401.5000      8.1638      2.5542      0.0372      5.8080     26.9396    148.4185
  1401.6000      8.1638      2.5494      0.0419      6.0956     26.8449    156.3621
  1401.7000      8.1638      2.5329      0.0392      7.0981     27.1045    157.9622
  1401.8000      8.1644      2.5188     -0.0368      7.9488     27.3538    155.8476
  1401.9000      8.1644      2.5326     -0.0045      7.1146     27.3627    158.7049
  1402.0000      8.1627      2.5737      0.0529      4.6232     27.2239    159.4473
  1402.1000      8.1627      2.6058      0.0594      2.6759     27.2806    149.0852
  1402.2000      8.1627      2.5985      0.0375      3.1226     27.8711    137.5542
  1402.3000      8.1610      2.5651     -0.0104      5.1451     28.6777    136.2697
  1402.4000      8.1610      2.5383     -0.0040      6.7690     29.1171    140.7154
  1402.5000      8.1651      2.5254      0.0192      7.5502     29.1261    144.7954
  1402.6000      8.1651      2.5238     -0.0376      7.6468     28.9591    147.2339
  1402.7000      8.1651      2.5386      0.0016      6.7499     29.0344    144.9706
  1402.8000      8.1604      2.5646      0.0124      5.1782     29.5386    142.3964
  1402.9000      8.1604      2.5857      0.0431      3.8989     30.1609    144.4036
  1403.0000      8.1589      2.5882      0.0380      3.7436     30.4308    147.3656
  1403.1000      8.1589      2.5731      0.0172      4.6620     30.0523    146.4889
  1403.2000      8.1589      2.5535      0.0205      5.8477     29.4002    140.4697
  1403.3000      8.1320      2.5399     -0.0146      6.6707     29.1537    137.4657
  1403.4000      8.1320      2.5355      0.0315      6.9399     29.2649    145.7634
  1403.5000      8.1612      2.5369      0.0486      6.8535     29.2736    156.9341
  1403.6000      8.1612      2.5441      0.0218      6.4179     29.1063    165.2341
  1403.7000      8.1612      2.5578      0.0321      5.5906     29.0099    174.4208
  1403.8000      8.1613      2.5646      0.0445      5.1761     29.0314    177.4944
  1403.9000      8.1613      2.5533      0.0607      5.8598     28.9854    171.4921
  1404.0000      8.1653      2.5312      0.0308      7.2003     28.7119    167.0586
  1404.1000      8.1653      2.5118      0.0287      8.3741     28.2133    164.7422
  1404.2000      8.1653      2.4992      0.0566      9.1417     27.5759    159.9998
  1404.3000      8.1678      2.4891      0.0571      9.7486     26.8617    160.4506
  1404.4000      8.1678      2.4825      0.0784     10.1524     26.3924    172.1193
  1404.5000      8.1657      2.4840      0.0645     10.0624     26.6672    188.4116
  1404.6000      8.1657      2.4905      0.0924      9.6669     27.4708    197.7058
  1404.7000      8.1657      2.4955      0.0679      9.3651     27.8031    193.9678
  1404.8000      8.1644      2.5001      0.0808      9.0855     27.1710    182.4692
  1404.9000      8.1644      2.5094      0.0740      8.5204     26.4495    170.0151
  1405.0000      8.1673      2.5250      0.1191      7.5751     26.6043    159.2770
  1405.1000      8.1673      2.5400      0.1428      6.6676     27.2308    154.2041
  1405.2000      8.1673      2.5454      0.1682      6.3424     27.5496    157.1142
  1405.3000      8.1676      2.5444      0.1159      6.3994     27.5731    164.3537
  1405.4000      8.1676      2.5469      0.0983      6.2510     27.6233    172.0530
  1405.5000      8.1546      2.5528      0.0819      5.8889     27.7187    178.1448
  1405.6000      8.1546      2.5552      0.0496      5.7437     27.9757    177.1070
  1405.7000      8.1546      2.5512      0.0139      5.9886     28.4378    166.3697
  1405.8000      8.1385      2.5441      0.0452      6.4204     28.6126    156.5372
  1405.9000      8.1385      2.5385      0.0217      6.7557     28.3842    158.4177
  1406.0000      8.1528      2.5355     -0.0077      6.9395     28.2410    168.3239
  1406.1000      8.1528      2.5308     -0.0050      7.2214     28.2891    172.7881
  1406.2000      8.1528      2.5239      0.0150      7.6417     28.6164    169.9534
  1406.3000      8.1638      2.5170      0.0183      8.0585     29.4237    170.1641
  1406.4000      8.1638      2.5119      0.0065      8.3722     30.1273    179.2078
  1406.5000      8.1621      2.5063      0.0479      8.7070     30.2030    190.6167
  1406.6000      8.1621      2.4909      0.0532      9.6414     29.9748    191.0132
  1406.7000      8.1621      2.4610      0.0454     11.4531     29.5895    178.3853
  1406.8000      8.1659      2.4264     -0.0361     13.5542     28.9873    165.8526
  1406.9000      8.1659      2.4009     -0.0130     15.0960     28.4076    164.7895
  1407.0000      8.1658      2.3916     -0.0172     15.6611     27.7921    169.2684
  1407.1000      8.1658      2.3970      0.0514     15.3316     27.0581    166.3005
  1407.2000      8.1658      2.4054      0.0794     14.8219     26.3469    156.9406
  1407.3000      8.1606      2.4006      0.0706     15.1172     25.7443    150.9600
