~Version Information
 VERS.                                  2.0 : CWLS LAS VERSION
 WRAP.                                   NO : WRAPING MODE
 SWARE .                  MController 2.6.3 : SOFTWARE VERSION
~Well Information
 WELL.                        Chevron 13-13 : WELL
 COMP.    Pioneer Natural Resources USA Inc : COMPANY
 FLD.                      Purgatoire River : FIELD
 LOC.                NW/SW Sec 13 T32S R66W : LOCATION
 DATE.                         2/10-11/2007 : DATE(S) LOGGED
 SRVC.        Ismay Geological Services Ltd : SERVICE COMPANY
 STAT.                                   CO : STATE
 CNTY.                           Las Animas : COUNTY
 CTRY.                                  USA : COUNTRY
 API.                          05-071-08319 : API NUMBER
 STRT.FT                             985.00 : START DEPTH
 STOP.FT                            2410.00 : STOP DEPTH
 STEP.FT                               1.00 : DEPTH INCREMENT
 NULL.                                -9999 : NULL VALUE
~Curve information
 DEPTH.FT                                   :
 ROP.MIN/FT                                 :
 GAS.UNITS                                  :
~ASCII Log data
# ...
     1685.00         0.20         62.8 
     1686.00         0.27         68.2 
     1687.00         0.23         69.5 
     1688.00         0.20         69.1 
     1689.00         0.20         67.5 
     1690.00         0.23         66.0 
     1691.00         0.20         63.3 
     1692.00         0.23         61.7 
     1693.00         0.23         58.0 
     1694.00         0.20         58.0 
     1695.00         0.20         39.2 
     1696.00         0.23         36.9 
     1697.00         0.25         34.2 
     1698.00         0.20         66.4 
     1699.00         0.23         72.5 
     1700.00         0.13        125.9 
     1701.00         2.85        828.9 
     1702.00         0.80         84.5 
     1703.00         0.43         73.3 
     1704.00         0.30         79.0 
     1705.00         0.30         79.4 
     1706.00         0.37         77.3 
     1707.00         0.37         74.4 
     1708.00         0.27         70.2 
     1709.00         0.30         62.4 
     1710.00         0.32         55.4 
     1711.00         0.37         51.2 
     1712.00         0.30         54.7 
     1713.00         0.30         54.8 
     1714.00         0.33         54.3 
     1715.00         0.33         55.1 
     1716.00         0.23         53.5 
     1717.00         0.30         51.0 
     1718.00         0.20         49.5 
     1719.00         0.27         51.0 
     1720.00         0.27         53.0 
     1721.00         0.28         54.4 
     1722.00         0.33         53.6 
     1723.00         0.23         50.5 
     1724.00         0.23         57.0 
     1725.00         0.23         57.0 
     1726.00         0.27         53.6 
     1727.00         0.27         48.1 
     1728.00         0.33         24.9 
     1729.00         0.33         98.1 
     1730.00         0.53        280.2 
     1731.00         1.72       1177.7 
     1732.00         0.47        999.8 
     1733.00         0.60        440.0 
     1734.00         0.77        162.7 
     1735.00         0.55         55.9 
     1736.00         0.47         47.4 
     1737.00         0.47         55.3 
     1738.00         0.30         61.1 
     1739.00         0.27         61.8 
     1740.00         0.23         60.6 
     1741.00         0.23         59.8 
     1742.00         0.27         56.4 
     1743.00         0.50         56.3 
     1744.00         0.45         53.4 
     1745.00         0.30         54.8 
     1746.00         0.33         57.0 
     1747.00         0.27         56.3 
     1748.00         0.40         59.4 
     1749.00         0.27         59.5 
     1750.00         0.27         60.9 
     1751.00         0.33         64.0 
     1752.00         0.27         64.4 
     1753.00         0.27         67.3 
     1754.00         0.30         66.1 
     1755.00         0.28         65.5 
     1756.00         0.30         60.4 
     1757.00         0.27         32.3 
     1758.00         0.30         29.3 
     1759.00         0.30         53.5 
     1760.00         0.47         64.5 
     1761.00         4.38        755.3 
     1762.00         0.47        147.5 
     1763.00         0.38         86.3 
     1764.00         0.33         73.9 
     1765.00         0.30         64.6 
     1766.00         0.30         58.7 
     1767.00         0.23         42.2 
     1768.00         0.30         78.4 
     1769.00         0.60        109.5 
     1770.00         0.53        124.1 
     1771.00         0.27        119.9 
     1772.00         0.25        108.1 
     1773.00         0.20         94.4 
     1774.00         0.13         88.6 
     1775.00         0.27        110.9 
     1776.00         0.30        182.4 
     1777.00         0.43        156.3 
     1778.00         0.53        104.3 
     1779.00         0.37         47.0 
     1780.00         0.23         28.0 
     1781.00         0.23         70.3 
     1782.00         0.78        134.7 
     1783.00         0.37        120.2 
     1784.00         0.37         97.2 
     1785.00         0.40         89.3 
     1786.00         0.30         57.1 
     1787.00         0.60         37.8 
     1788.00         0.63         24.1 
     1789.00         0.33         97.9 
     1790.00         0.42        138.8 
     1791.00         4.45       1215.0 
     1792.00         0.60        154.5 
     1793.00         0.47        120.9 
     1794.00         0.40         92.0 
     1795.00         0.43         73.3 
     1796.00         0.48         67.4 
     1797.00         0.37         65.0 
     1798.00         0.30         65.1 
     1799.00         0.37         67.2 
     1800.00         0.37         66.7
     1801.00         0.37         66.9 
     1802.00         0.37         70.2 
     1803.00         0.33         72.1 
     1804.00         0.30         69.1 
     1805.00         0.30         71.8 
     1806.00         0.20         72.7 
     1807.00         0.25         74.4 
     1808.00         0.30         77.4 
     1809.00         0.30         77.0 
     1810.00         0.33         71.9 
     1811.00         0.30         68.6 
     1812.00         0.37         67.2 
     1813.00         0.27         69.0 
     1814.00         0.20         69.9 
     1815.00         0.30         76.0 
     1816.00         0.37         72.4 
     1817.00         0.33         62.6 
     1818.00         0.35         14.2 
     1819.00         0.30         32.0 
     1820.00         0.30         78.8 
     1821.00         0.37        173.3 
     1822.00         7.53       2127.8 
     1823.00         0.47        149.6 
     1824.00         0.37        115.9 
     1825.00         0.37        103.9 
     1826.00         0.28         96.7 
     1827.00         0.23         87.5 
     1828.00         0.23         80.1 
     1829.00         0.27         74.2 
     1830.00         0.23         73.2 
     1831.00         0.20         72.6 
     1832.00         0.20         73.1 
     1833.00         0.20         63.3 
     1834.00         0.17         61.9 
     1835.00         0.17         61.9 
     1836.00         0.30         88.2 
     1837.00         0.27         96.4 
     1838.00         0.27         84.5 
     1839.00         0.23         88.6 
     1840.00         0.18         89.4 
     1841.00         0.20         90.5 
     1842.00         0.30         86.1 
     1843.00         0.30         84.5 
     1844.00         0.27         51.4 
     1845.00         0.13         33.5 
     1846.00         0.20         24.8 
     1847.00         0.30         37.0 
     1848.00         0.30         84.9 
     1849.00         0.30        114.3 
     1850.00         0.63        120.4 
     1851.00         0.65        107.5 
     1852.00         5.82       2221.8 
     1853.00         0.47        269.3 
     1854.00         0.38        135.2 
     1855.00         0.40         80.8 
     1856.00         0.77         73.1 
     1857.00         0.57         80.9 
     1858.00         0.47        116.4 
     1859.00         0.43        130.9 
     1860.00         0.20        130.1 
     1861.00         0.20        129.3 
     1862.00         0.28        118.4 
     1863.00         0.27        116.8 
     1864.00         0.27        129.9 
     1865.00         0.20        129.0 
     1866.00         0.20        129.0 
     1867.00         0.20        135.4 
     1868.00         0.17        136.9 
     1869.00         0.13        136.0 
     1870.00         0.17        136.0 
     1871.00         0.17        134.3 
     1872.00         0.17        125.5 
     1873.00         0.17        121.3 
     1874.00         0.20        108.1 
     1875.00         0.30        106.8 
     1876.00         0.37         73.8 
     1877.00         0.35         66.1 
     1878.00         0.33         34.3 
     1879.00         0.33         19.2 
     1880.00         0.37         52.4 
     1881.00         0.30         86.6 
     1882.00         5.47        898.8 
     1883.00         0.73        110.6 
     1884.00         0.47        108.4 
     1885.00         0.40        104.4 
