~Version Information
VERS.                      2.0: CWLS Log ASCII Standard - VERSION 2.0
WRAP.                       NO: One line per depth step
~Well Information Block
STRT.FT                -9.5000: 
STOP.FT              2893.0000: 
STEP.FT                 0.2500: 
NULL.                -999.2500: 
COMP.          Pioneer Natural Resources: COMPANY
WELL.          Old Yeller 31-32: WELL
FLD.           Purgatoire River: FIELD
LOC.           1832' FEL & 793' FNL----: LOCATION
STAT.                 Colorado: State
CNTY.               Las Animas: COUNTY
CTRY. USA : Country
SECT. 32 : Section
TOWN. 32S : Township
RANG. 67W : Range
SRVC.                         : SERVICE COMPANY
DATE.          Fri Sep 02 16:45:38 2005: LOG DATE
API. 05-071-08356                         : UNIQUE WELL ID
~Curve Information Block
DEPT.FT            0 000 00 00: Depth
CCL.                          : Casing Collar Locator
TT3.usec                      : CBL 3' Travel Time
AMP5.mV                       : CBL 5' Amplitude
GR.GAPI                       : Gamma Ray
~Parameter Information Block
~A  Depth       CCL         TT3         AMP5         GR     
# ...
  2302.0000      0.0000    602.1721      0.6482    148.1344
  2302.2500      0.0000    624.1464      0.7352    146.2629
  2302.5000      0.0000    643.2946      0.4741    142.8508
  2302.7500      0.0000    657.0539      0.7352    139.6801
  2303.0000      0.0000    662.5579      0.2129    137.4902
  2303.2500      0.0000    655.5088      1.1705    135.7331
  2303.5000      0.0000    632.9861      2.3021    133.8051
  2303.7500      0.0000    597.2123      1.2575    132.0440
  2304.0000      0.0000    556.3551      1.1705    131.2871
  2304.2500      0.0000    520.4916      1.3446    131.7485
  2304.5000      0.0000    495.5923      1.6057    132.7127
  2304.7500      0.0000    481.1159      1.3446    133.2032
  2305.0000      0.0000    472.8347      1.5186    132.6962
  2305.2500      0.0000    467.0014      0.7352    131.3739
  2305.5000      0.0000    462.2181      1.2575    130.0922
  2305.7500      0.0000    459.0038      1.6057    130.0952
  2306.0000      0.0000    458.8130      1.2575    132.2199
  2306.2500      0.0000    463.4696      0.9964    136.0238
  2306.5000      0.0000    475.0409      1.2575    140.1702
  2306.7500      0.0000    495.6317      1.0834    143.9599
  2307.0000      0.0000    526.0344      0.9093    147.9377
  2307.2500      0.0000    563.7721      0.8223    152.7690
  2307.5000      0.0000    603.1757      0.8223    158.1490
  2307.7500      0.0000    637.9755      1.0834    163.1151
  2308.0000      0.0000    663.4406      0.7352    167.0251
  2308.2500      0.0000    677.1235      1.1705    169.8043
  2308.5000      0.0000    679.8409      0.6482    171.1344
  2308.7500      0.0000    676.0303      0.7352    169.8905
  2309.0000      0.0000    671.3742      0.5611    165.1316
  2309.2500      0.0000    669.3133      1.1705    157.5543
  2309.5000      0.0000    669.9332      0.9964    149.4566
  2309.7500      0.0000    671.6704      0.9093    143.3696
  2310.0000      0.0000    673.3762      1.0834    140.8009
  2310.2500      0.0000    675.0445      1.1705    141.6205
  2310.5000      0.0000    677.4828      1.1705    144.2098
  2310.7500      0.0000    681.7264      0.8223    146.6446
  2311.0000      0.0000    688.5111      1.2575    148.2357
  2311.2500      0.0000    697.7230      0.9093    149.9373
  2311.5000      0.0000    707.8546      1.1705    153.1979
  2311.7500      0.0000    716.0463      1.1705    158.2534
  2312.0000      0.0000    719.3740      0.9093    163.3550
  2312.2500      0.0000    716.6998      0.9964    165.8423
  2312.5000      0.0000    709.1981      0.7352    164.2262
  2312.7500      0.0000    699.1641      0.7352    159.1176
  2313.0000      0.0000    688.5737      0.7352    152.3247
  2313.2500      0.0000    678.4158      0.9964    145.6804
  2313.5000      0.0000    668.6963      0.8223    140.7363
  2313.7500      0.0000    659.0605      1.2575    138.8394
  2314.0000      0.0000    649.8640      0.7352    140.8676
  2314.2500      0.0000    642.9315      0.7352    146.4198
  2314.5000      0.0000    640.9495      0.8223    153.1122
  2314.7500      0.0000    645.4673      0.8223    157.2224
  2315.0000      0.0000    655.1487      1.1705    155.8854
  2315.2500      0.0000    666.3491      1.0834    149.2277
  2315.5000      0.0000    675.9312      0.8223    140.5117
  2315.7500      0.0000    683.8792      0.6482    134.0504
  2316.0000      0.0000    692.9780      0.8223    132.5247
  2316.2500      0.0000    705.2984      0.8223    135.6397
  2316.5000      0.0000    719.0975      1.0834    140.6377
  2316.7500      0.0000    730.0240      0.9093    143.8881
  2317.0000      0.0000    735.2955      1.1705    142.8162
  2317.2500      0.0000    735.9937      0.8223    137.3138
  2317.5000      0.0000    735.3761      1.1705    129.4108
  2317.7500      0.0000    735.7230      0.9093    121.3185
  2318.0000      0.0000    736.9311      0.8223    113.9478
  2318.2500      0.0000    737.2910      1.1705    107.2720
  2318.5000      0.0000    735.0710      0.7352    101.4437
  2318.7500      0.0000    730.3894      1.5186     96.9476
  2319.0000      0.0000    725.8770      1.1705     93.7688
  2319.2500      0.0000    724.1741      1.4316     91.0407
  2319.5000      0.0000    724.7142      1.3446     88.0955
  2319.7500      0.0000    724.6088      1.2575     85.7778
  2320.0000      0.0000    722.4208      1.3446     86.1027
  2320.2500      0.0000    719.4623      0.9093     90.3422
  2320.5000      0.0000    717.5347      1.0834     97.6864
  2320.7500      0.0000    716.8056      0.9093    105.8711
  2321.0000      0.0000    716.5065      1.1705    112.8253
  2321.2500      0.0000    717.1704      0.9093    117.5621
  2321.5000      0.0000    720.8090      0.9964    119.8972
  2321.7500      0.0000    728.1259      0.7352    119.8743
  2322.0000      0.0000    736.7519      1.0834    117.7240
  2322.2500      0.0000    743.4573      0.9093    114.2502
  2322.5000      0.0000    747.3879      0.8223    110.9408
  2322.7500      0.0000    750.2395      1.3446    109.4318
  2323.0000      0.0000    753.7087      1.0834    110.6384
  2323.2500      0.0000    757.4049      1.0834    114.1422
  2323.5000      0.0000    758.9790      0.9093    118.3214
  2323.7500      0.0000    756.0521      0.9093    121.1408
  2324.0000      0.0000    748.3694      1.5186    121.1036
  2324.2500      0.0000    738.3111      1.2575    117.9240
  2324.5000      0.0000    729.1420      1.0834    112.7162
  2324.7500      0.0000    722.5320      1.0834    107.5721
  2325.0000      0.0000    717.3859      1.4316    104.5987
  2325.2500      0.0000    710.9230      1.3446    104.9149
  2325.5000      0.0000    701.4230      1.5186    108.4744
  2325.7500      0.0000    689.7059      0.8223    114.7153
  2326.0000      0.0000    676.8696      1.4316    122.9927
  2326.2500      0.0000    661.1395      1.3446    132.3138
  2326.5000      0.0000    638.8639      0.9964    141.1670
  2326.7500      0.0000    609.0272      0.9093    148.1309
  2327.0000      0.0000    576.1588      0.8223    152.7250
  2327.2500      0.0000    548.9741      0.9964    155.3870
  2327.5000      0.0000    536.0750      1.3446    156.4457
  2327.7500      0.0000    541.5143      0.9964    155.5898
  2328.0000      0.0000    562.7672      1.2575    152.8086
  2328.2500      0.0000    592.3028      1.3446    149.2850
  2328.5000      0.0000    621.6835      1.0834    146.4881
  2328.7500      0.0000    645.3476      0.8223    144.4140
  2329.0000      0.0000    661.9584      0.9964    141.3856
  2329.2500      0.0000    673.2283      0.8223    135.9270
  2329.5000      0.0000    681.4195      0.8223    128.6131
  2329.7500      0.0000    687.2024      0.8223    121.8293
  2330.0000      0.0000    689.6882      0.9093    117.8170
  2330.2500      0.0000    688.6743      1.2575    117.0459
  2330.5000      0.0000    686.2826      1.3446    118.4101
  2330.7500      0.0000    685.6124      0.9093    120.8330
  2331.0000      0.0000    687.7969      1.0834    124.5577
  2331.2500      0.0000    690.6539      1.2575    130.8250
  2331.5000      0.0000    689.9661      0.9964    140.1544
  2331.7500      0.0000    681.9015      0.6482    151.0129
  2332.0000      0.0000    664.7174      0.8223    160.4785
  2332.2500      0.0000    639.1550      1.1705    166.3657
  2332.5000      0.0000    607.9516      0.9964    168.5331
  2332.7500      0.0000    575.0439      0.7352    168.2091
  2333.0000      0.0000    544.9039      0.5611    166.4383
  2333.2500      0.0000    522.0862      0.5611    163.3989
  2333.5000      0.0000    510.4395      0.8223    159.0229
  2333.7500      0.0000    511.5757      1.1705    153.8471
  2334.0000      0.0000    523.2016      0.6482    148.9453
  2334.2500      0.0000    538.8999      0.6482    145.2555
  2334.5000      0.0000    550.7619      0.6482    143.3628
  2334.7500      0.0000    554.0092      0.8223    143.6038
  2335.0000      0.0000    550.0301      0.6482    145.5496
  2335.2500      0.0000    544.7761      0.9093    147.4296
