~Version Information
VERS.                      2.0: CWLS Log ASCII Standard - VERSION 2.0
WRAP.                       NO: One line per depth step
~Well Information Block
STRT.FT               866.0000: 
STOP.FT              2027.5000: 
STEP.FT                 0.1000: 
NULL.                -999.2500: 
COMP.          Petrogulf Corporation: COMPANY
WELL.             State 16-21R: WELL
FLD.           Purgatorie River: FIELD
LOC.           203' FNL & 1560' FWL: LOCATION
PROV.                 Colorado: PROVINCE
CNTY.               Las Animas: COUNTRY
SRVC.                Patterson: SERVICE COMPANY
DATE.          Tue Aug 16 13:32:09 2005: LOG DATE
UWI.                071 08313 : UNIQUE WELL ID
~Curve Information Block
DEPT.FT            0 000 00 00: Depth
DCAL.in                       : CDL Caliper
RHOB.g/cc                     : CDL Bulk Density
RHOC.g/cc                     : CDL Density Correction
DPOR.pu                       : CDL Density Porosity
GR.GAPI                       : Gamma Ray
NPOR.pu                       : Neutron Porosity
~Parameter Information Block
~A  Depth       DCAL        RHOB        RHOC        DPOR         GR         NPOR    
# ...
  1778.0000      8.4480      2.7347      0.3723     -5.1323    133.6604     28.9295
  1778.1000      8.4480      2.7009      0.3207     -3.0840    139.6301     29.0202
  1778.2000      8.4480      2.6472      0.2216      0.1701    142.5791     29.0959
  1778.3000      8.3982      2.5993      0.1476      3.0726    139.8319     29.0673
  1778.4000      8.3982      2.5810      0.1177      4.1845    136.1653     28.9691
  1778.5000      8.1871      2.5813      0.1610      4.1667    135.1847     28.8886
  1778.6000      8.1871      2.5801      0.1535      4.2384    138.7164     28.7463
  1778.7000      8.1871      2.5741      0.1427      4.6012    145.0515     28.1539
  1778.8000      8.2236      2.5743      0.0852      4.5891    148.0664     27.4751
  1778.9000      8.2236      2.5906      0.1122      3.5981    144.7119     27.4633
  1779.0000      8.3218      2.6121      0.1321      2.2955    138.7013     27.9846
  1779.1000      8.3218      2.6218      0.1006      1.7113    135.7909     28.5226
  1779.2000      8.3218      2.6140      0.1765      2.1815    136.0157     28.8484
  1779.3000      8.1091      2.5936      0.1196      3.4179    134.8419     28.9491
  1779.4000      8.1091      2.5794      0.1056      4.2794    132.2331     28.8043
  1779.5000      8.1185      2.5798      0.1216      4.2517    132.2660     28.2276
  1779.6000      8.1185      2.5778      0.1199      4.3770    135.2046     26.7241
  1779.7000      8.1185      2.5597      0.0781      5.4727    138.2569     24.2243
  1779.8000      8.1416      2.5341      0.0754      7.0271    140.5448     22.9155
  1779.9000      8.1416      2.5167      0.0313      8.0787    142.7409     24.6449
  1780.0000      8.1860      2.5160      0.0567      8.1236    144.7121     27.4296
  1780.1000      8.1860      2.5255      0.0546      7.5435    145.3319     28.8980
  1780.2000      8.1860      2.5320      0.0634      7.1530    143.2765     29.1990
  1780.3000      8.2596      2.5309      0.0720      7.2193    139.6098     29.1760
  1780.4000      8.2596      2.5310      0.0921      7.2095    138.0270     29.2043
  1780.5000      8.3951      2.5411      0.1236      6.6012    139.0401     29.2251
  1780.6000      8.3951      2.5540      0.1945      5.8173    140.6909     28.8746
  1780.7000      8.3951      2.5579      0.1434      5.5796    143.4383     28.0625
  1780.8000      8.5101      2.5586      0.1320      5.5400    148.4032     27.4055
  1780.9000      8.5101      2.5667      0.1050      5.0471    153.1528     27.3905
  1781.0000      8.8619      2.5752      0.1879      4.5363    154.8353     27.8783
  1781.1000      8.8619      2.5679      0.1880      4.9751    153.9407     28.3507
  1781.2000      8.8619      2.5455      0.1874      6.3308    150.9480     28.5234
  1781.3000      9.1849      2.5236      0.1394      7.6581    144.7997     28.6969
  1781.4000      9.1849      2.5197      0.0938      7.8984    136.6090     29.2246
  1781.5000      9.5204      2.5354      0.1599      6.9483    129.6190     29.8575
  1781.6000      9.5204      2.5508      0.1440      6.0147    126.2541     30.0443
  1781.7000      9.5204      2.5544      0.1243      5.7912    127.0348     29.5300
  1781.8000      9.2475      2.5521      0.1185      5.9329    129.2932     28.6033
  1781.9000      9.2475      2.5415      0.1121      6.5770    130.2939     28.0277
  1782.0000      8.3241      2.5093      0.1263      8.5250    131.2239     28.3124
  1782.1000      8.3241      2.4575      0.0851     11.6651    131.9194     28.8373
  1782.2000      8.3241      2.4062      0.0451     14.7779    130.9408     28.8134
  1782.3000      8.2312      2.3627      0.0659     17.4130    128.6310     28.3437
  1782.4000      8.2312      2.3276      0.0280     19.5376    126.3771     27.6329
  1782.5000      8.6265      2.3199      0.0525     20.0062    126.2363     26.8540
  1782.6000      8.6265      2.3508      0.1493     18.1348    129.0174     26.3966
  1782.7000      8.6265      2.4002      0.2626     15.1384    134.4283     26.3413
  1782.8000      9.0478      2.4392      0.3174     12.7759    140.8452     26.5176
  1782.9000      9.0478      2.4629      0.2823     11.3415    143.3784     26.8040
  1783.0000      9.3727      2.4885      0.2303      9.7885    138.8913     27.2860
  1783.1000      9.3727      2.5195      0.2631      7.9121    131.6832     28.0279
  1783.2000      9.3727      2.5424      0.2246      6.5185    127.9369     28.6271
  1783.3000      9.4398      2.5484      0.2273      6.1588    127.9188     28.7024
  1783.4000      9.4398      2.5269      0.2463      7.4595    128.8394     28.6210
  1783.5000      9.6019      2.4773      0.2110     10.4670    129.4314     28.7142
  1783.6000      9.6019      2.4207      0.1649     13.8945    129.6852     28.8311
  1783.7000      9.6019      2.3775      0.1426     16.5182    130.1139     28.6532
  1783.8000      9.2162      2.3521      0.1275     18.0572    130.7516     28.0834
  1783.9000      9.2162      2.3459      0.0948     18.4295    128.9145     27.4500
  1784.0000      8.9734      2.3626      0.0394     17.4208    123.6068     26.8110
  1784.1000      8.9734      2.3958      0.0746     15.4040    118.3874     26.1352
  1784.2000      8.9734      2.4247      0.1293     13.6547    116.9890     25.7416
  1784.3000      8.3148      2.4339      0.1686     13.0955    118.5007     25.7571
  1784.4000      8.3148      2.4376      0.1432     12.8738    117.5904     25.8737
  1784.5000      8.3366      2.4570      0.2293     11.6958    114.0387     25.7092
  1784.6000      8.3366      2.4822      0.2251     10.1689    110.5768     25.2912
  1784.7000      8.3366      2.4905      0.1599      9.6681    105.1836     24.8031
  1784.8000      8.5216      2.4824      0.1036     10.1562     98.1125     24.4468
  1784.9000      8.5216      2.4713      0.1162     10.8280     93.4160     24.6968
  1785.0000      8.5412      2.4584      0.1137     11.6126     92.2120     25.6327
  1785.1000      8.5412      2.4395      0.1309     12.7605     92.9986     26.6538
  1785.2000      8.5412      2.4193      0.0802     13.9839     94.1955     27.1462
  1785.3000      8.2730      2.4083      0.1066     14.6474     96.2154     26.9627
  1785.4000      8.2730      2.4169      0.0803     14.1248     98.6279     26.3328
  1785.5000      8.1167      2.4554      0.0914     11.7913     95.8713     25.4269
  1785.6000      8.1167      2.5151      0.1684      8.1773     88.4913     24.3125
  1785.7000      8.1167      2.5655      0.2205      5.1216     84.5755     23.2783
  1785.8000      8.0456      2.5956      0.2010      3.2942     84.1623     22.7262
  1785.9000      8.0456      2.6203      0.2345      1.7987     82.4854     22.7420
  1786.0000      8.0469      2.6368      0.2910      0.8002     80.1667     22.9797
  1786.1000      8.0469      2.6346      0.2217      0.9329     78.7723     23.2249
  1786.2000      8.0469      2.6275      0.1782      1.3631     77.3399     23.4216
  1786.3000      8.1260      2.6258      0.1668      1.4666     76.0269     23.2635
  1786.4000      8.1260      2.6181      0.1190      1.9348     75.0575     22.7065
  1786.5000      8.0300      2.5945      0.0812      3.3649     72.5523     22.2848
  1786.6000      8.0300      2.5623      0.0725      5.3140     68.1117     22.2554
  1786.7000      8.0300      2.5378      0.0757      6.8003     66.6892     22.1815
  1786.8000      8.0126      2.5320      0.0560      7.1538     69.6030     21.7929
  1786.9000      8.0126      2.5465      0.0530      6.2702     70.8300     21.4551
  1787.0000      7.9913      2.5707      0.0988      4.8064     68.5250     21.4015
  1787.1000      7.9913      2.5840      0.1363      3.9975     65.7580     21.2996
  1787.2000      7.9913      2.5830      0.0786      4.0602     62.6058     21.0530
  1787.3000      7.9768      2.5826      0.1004      4.0870     59.2238     20.9332
  1787.4000      7.9768      2.5851      0.1055      3.9358     58.5107     20.8067
  1787.5000      7.9704      2.5835      0.1138      4.0292     60.6954     20.3147
