~Version Information
VERS.                      2.0: CWLS Log ASCII Standard - VERSION 2.0
WRAP.                       NO: One line per depth step
~Well Information Block
STRT.FT                -8.5000: 
STOP.FT              1597.7500: 
STEP.FT                 0.2500: 
NULL.                -999.2500: 
COMP.          Pioneer Natural Resources: COMPANY
WELL.          Dude Canyon 22-32 Tr: WELL
FLD.           Purgatorie River: FIELD
LOC.           1741' FnL & 2331' FWL--: LOCATION
PROV.                       CO: PROVINCE
CNTY.               Las Animas: COUNTRY
SRVC.          Patterson Wireline: SERVICE COMPANY
DATE.          Fri Jul 15 14:44:37 2005: LOG DATE
UWI.           05 071 08421 00: UNIQUE WELL ID
~Curve Information Block
DEPT.FT            0 000 00 00: Depth
CCL.                          : Casing Collar Locator
TT3.usec                      : CBL 3' Travel Time
AMP3.mV                       : CBL 3' Amplitude
GR.GAPI                       : Gamma Ray
~Parameter Information Block
~A  Depth       CCL         TT3         AMP3         GR     
    -8.5000   -999.2500   -999.2500   -999.2500     96.2392
    -8.2500   -999.2500   -999.2500   -999.2500    101.5171
    -8.0000   -999.2500   -999.2500   -999.2500    104.1788
    -7.7500   -999.2500   -999.2500   -999.2500    103.6453
    -7.5000   -999.2500   -999.2500   -999.2500    101.0883
    -7.2500   -999.2500   -999.2500   -999.2500     98.2465
    -7.0000   -999.2500   -999.2500   -999.2500     96.1612
    -6.7500   -999.2500   -999.2500   -999.2500     94.7878
    -6.5000   -999.2500   -999.2500   -999.2500     93.5937
    -6.2500   -999.2500   -999.2500   -999.2500     92.3904
    -6.0000   -999.2500   -999.2500   -999.2500     91.5220
    -5.7500   -999.2500   -999.2500   -999.2500     91.3671
    -5.5000   -999.2500   -999.2500   -999.2500     91.7679
    -5.2500   -999.2500   -999.2500   -999.2500     91.9449
    -5.0000   -999.2500   -999.2500   -999.2500     91.0300
    -4.7500   -999.2500   -999.2500   -999.2500     88.8071
    -4.5000   -999.2500   -999.2500   -999.2500     86.0203
    -4.2500   -999.2500   -999.2500   -999.2500     84.0660
    -4.0000   -999.2500   -999.2500   -999.2500     84.1455
    -3.7500   -999.2500   -999.2500   -999.2500     86.1562
    -3.5000   -999.2500   1170.0000      0.6202     88.3947
    -3.2500   -999.2500   1170.0000      0.6250     88.8842
    -3.0000   -999.2500   1170.0000      0.6259     87.1098
    -2.7500   -999.2500   1170.0000      0.6188     84.1969
    -2.5000   -999.2500   1170.0000      0.6025     81.5125
    -2.2500   -999.2500   1170.0000      0.5815     79.3455
    -2.0000   -999.2500   1170.0000      0.5638     76.8714
    -1.7500   -999.2500   1170.0000      0.5576     73.2629
    -1.5000   -999.2500   1170.0000      0.5682     68.7095
    -1.2500   -999.2500   1170.0000      0.5944     64.2376
    -1.0000   -999.2500   1170.0000      0.6266     60.6014
    -0.7500   -999.2500   1170.0000      0.6514     57.6652
    -0.5000   -999.2500   1170.0000      0.6614     55.0533
    -0.2500   -999.2500   1170.0000      0.6609     52.9370
     0.0000   -999.2500   1170.0000      0.6583     51.6420
     0.2500   -999.2500   1170.0000      0.6524     48.8941
     0.5000   -999.2500   1170.0000      0.6483     45.5812
     0.7500   -999.2500   1170.0000      0.6499     41.6230
     1.0000   -999.2500   1170.0000      0.6608     38.9475
     1.2500   -999.2500   1170.0000      0.6781     39.1349
     1.5000   -999.2500   1170.0000      0.6949     42.4099
     1.7500      0.0000   1170.0000      0.7046     47.6238
     2.0000      0.0000   1170.0000      0.7034     52.8170
     2.2500      0.0000   1170.0000      0.6909     56.1303
     2.5000      0.0000   1170.0000      0.6709     56.9438
     2.7500      0.0000   1170.0000      0.6491     56.2260
     3.0000      0.0000   1170.0000      0.6294     55.4143
     3.2500      0.0000   1170.0000      0.6122     55.0428
     3.5000      0.0000   1170.0000      0.5976     54.6330
     3.7500      0.0000   1170.0000      0.5883     53.6996
     4.0000      0.0000   1170.0000      0.5893     52.5279
     4.2500      0.0000   1170.0000      0.6043     51.8804
     4.5000      0.0000   1170.0000      0.6327     52.1937
     4.7500     -1.6656   1169.9861      0.6683     53.3474
     5.0000      0.0000   1169.9045      0.7027     55.0786
     5.2500      0.0000   1169.4476      0.7330     57.2353
     5.5000      0.0000   1167.5640      0.7727     59.5435
     5.7500      0.0000   1161.2977      0.8879     61.4058
     6.0000      0.0000   1144.1942      1.2930     62.0649
     6.2500      0.0000   1105.2948      2.5073     61.0697
     6.5000      0.0000   1030.9784      5.3984     58.7628
     6.7500      0.0000    912.1287     10.7866     56.2400
     7.0000      0.0000    755.1034     18.6224     54.5368
     7.2500      0.0000    586.5553     27.5101     53.8508
     7.5000      0.0000    441.7634     35.3778     53.7145
     7.7500      0.0000    343.3030     40.8253     53.7399
     8.0000      0.0000    290.6720     43.7900     53.8447
     8.2500      0.0000    268.6448     45.0702     53.9543
     8.5000      0.0000    261.4504     45.5122     54.1338
     8.7500      0.0000    259.6406     45.6276     54.9704
     9.0000      0.0000    259.3192     45.6424     57.0780
     9.2500      0.0000    259.2929     45.6515     60.1204
     9.5000      0.0000    259.2954     45.6965     62.9973
     9.7500      0.0000    259.2918     45.7769     65.1613
    10.0000      0.0000    259.3737     45.8465     67.2833
    10.2500      0.0000    259.7671     45.8171     70.3377
    10.5000      0.0000    260.9785     45.5248     74.1630
    10.7500      0.0000    263.8865     44.6828     77.1467
    11.0000      0.0000    269.4168     42.9591     77.3495
    11.2500      0.0000    277.6950     40.2548     73.9216
    11.5000      0.0000    287.4095     36.9418     67.6985
    11.7500      0.0000    296.3415     33.7221     60.7528
    12.0000      0.0000    302.7871     31.1921     55.0808
    12.2500      0.0000    306.4522     29.5543     51.1894
    12.5000      0.0000    308.1027     28.6773     47.9137
    12.7500      0.0000    308.6882     28.3040     43.9030
    13.0000      2.0000    308.8339     28.1981     39.3231
    13.2500      0.0000    308.8120     28.2022     35.8075
    13.5000     -1.5106    308.6687     28.2355     34.6898
    13.7500      0.0000    308.2763     28.2665     35.7722
    14.0000      0.0000    307.2900     28.3434     38.0164
    14.2500      0.0000    305.0879     28.7118     40.8003
    14.5000      0.0000    300.8870     29.8375     43.9250
    14.7500      0.0000    294.1976     32.1153     46.6784
    15.0000      0.0000    285.4575     35.4221     47.5454
    15.2500      0.0000    276.2202     39.0227     45.2885
    15.5000      0.0000    268.4147     42.0311     40.4277
    15.7500      0.0000    263.1872     43.9726     35.3567
    16.0000      0.0000    260.4258     44.9225     32.5992
    16.2500      0.0000    259.2703     45.2363     32.9331
    16.5000      0.0000    258.8728     45.2486     35.1213
    16.7500      0.0000    258.7413     45.1585     37.1063
    17.0000      0.0000    258.6793     45.0528     37.5038
    17.2500      0.0000    258.6302     44.9587     36.5314
    17.5000      0.0000    258.5890     44.8807     35.8012
    17.7500      0.0000    258.5661     44.8217     36.9329
    18.0000      0.0000    258.5696     44.7872     40.0810
    18.2500      0.0000    258.5952     44.7777     43.8416
    18.5000      0.0000    258.6313     44.7815     46.6167
    18.7500      0.0000    258.6672     44.7842     47.9092
    19.0000      0.0000    258.6947     44.7864     48.1645
    19.2500      0.0000    258.7107     44.8071     47.6540
    19.5000      0.0000    258.7170     44.8665     46.1015
    19.7500      0.0000    258.7176     44.9679     43.4867
    20.0000      0.0000    258.7141     45.0952     40.6641
    20.2500      0.0000    258.7062     45.2244     38.8523
    20.5000      0.0000    258.6933     45.3337     38.7463
    20.7500      0.0000    258.6712     45.4087     40.3138
    21.0000      0.0000    258.6350     45.4418     43.1727
    21.2500      0.0000    258.5905     45.4345     46.8644
    21.5000      0.0000    258.5601     45.4027     50.8672
    21.7500      0.0000    258.5691     45.3753     54.6561
    22.0000      0.0000    258.6232     45.3753     57.8398
    22.2500      0.0000    258.7044     45.4036     60.1201
    22.5000      0.0000    258.7890     45.4454     61.2115
    22.7500      0.0000    258.8606     45.4897     61.0255
    23.0000      0.0000    258.9108     45.5345     59.8483
    23.2500      0.0000    258.9370     45.5775     58.2084
    23.5000      0.0000    258.9449     45.6092     56.8259
    23.7500      0.0000    258.9466     45.6165     56.7126
    24.0000      0.0000    258.9536     45.5894     58.7431
    24.2500      0.0000    258.9687     45.5275     62.7690
    24.5000      0.0000    258.9864     45.4437     67.4170
    24.7500      0.0000    258.9966     45.3636     71.0132
