~Version Information
VERS.                      2.0: CWLS Log ASCII Standard - VERSION 2.0
WRAP.                       NO: One line per depth step
~Well Information Block
STRT.FT               387.1000: 
STOP.FT              1748.0000: 
STEP.FT                 0.1000: 
NULL.                -999.2500: 
COMP.          Evergreen Operating Corp.: COMPANY
WELL.          Pachorek 13-31 Tr: WELL
FLD.           Cottontail Pass: FIELD
LOC.           1575' FSL & 900' FWL--API# 05-071-07019-00: LOCATION
PROV.                 Colorado: PROVINCE
CNTY.               Las Animas: COUNTRY
SRVC.          Scientific Data Systems, Inc.: SERVICE COMPANY
DATE.          Tue Aug 08 15:02:37 2000: LOG DATE
UWI.                      05071070190000:UNIQUE WELL IDENTIFICATION
~Curve Information Block
DEPT.FT            0 000 00 00: Depth
DCAL.in                       : CDL Caliper
RHOB.g/cc                     : CDL Bulk Density
RHOC.g/cc                     : CDL Density Correction
DPOR.pu                       : CDL Density Porosity
GR.GAPI                       : Gamma Ray
NPOR.pu                       : Neutron Porosity
~Parameter Information Block
~A  Depth       DCAL        RHOB        RHOC        DPOR         GR         NPOR    
# ...
  1375.9000      7.9399      2.4673      0.0480     11.0719    110.1989     13.2374
  1376.0000      7.9415      2.4675      0.0454     11.0597    109.5340     13.2573
  1376.1000      7.9415      2.4675      0.0427     11.0620    108.7972     13.2701
  1376.2000      7.9415      2.4672      0.0400     11.0805    108.0119     13.2806
  1376.3000      7.9505      2.4666      0.0372     11.1166    107.2102     13.2925
  1376.4000      7.9505      2.4657      0.0342     11.1715    106.4276     13.3078
  1376.5000      7.9670      2.4644      0.0311     11.2463    105.7025     13.3262
  1376.6000      7.9670      2.4629      0.0276     11.3415    105.0696     13.3451
  1376.7000      7.9670      2.4610      0.0239     11.4570    104.5611     13.3601
  1376.8000      7.9811      2.4587      0.0198     11.5919    104.2061     13.3658
  1376.9000      7.9811      2.4562      0.0156     11.7443    104.0263     13.3566
  1377.0000      7.9903      2.4535      0.0113     11.9118    104.0361     13.3278
  1377.1000      7.9903      2.4505      0.0072     12.0909    104.2370     13.2766
  1377.2000      7.9903      2.4474      0.0035     12.2780    104.6187     13.2022
  1377.3000      7.9935      2.4443      0.0003     12.4686    105.1602     13.1070
  1377.4000      7.9935      2.4411     -0.0023     12.6585    105.8273     12.9948
  1377.5000      7.9872      2.4381     -0.0042     12.8434    106.5785     12.8718
  1377.6000      7.9872      2.4352     -0.0055     13.0195    107.3683     12.7451
  1377.7000      7.9872      2.4325     -0.0064     13.1829    108.1463     12.6221
  1377.8000      7.9706      2.4300     -0.0069     13.3307    108.8621     12.5099
  1377.9000      7.9706      2.4279     -0.0074     13.4599    109.4655     12.4149
  1378.0000      7.9549      2.4261     -0.0078     13.5681    109.9143     12.3421
  1378.1000      7.9549      2.4247     -0.0083     13.6532    110.1713     12.2953
  1378.2000      7.9549      2.4237     -0.0088     13.7136    110.2187     12.2761
  1378.3000      7.9566      2.4232     -0.0092     13.7476    110.0609     12.2840
  1378.4000      7.9566      2.4231     -0.0094     13.7545    109.7278     12.3159
  1378.5000      7.9721      2.4234     -0.0092     13.7338    109.2810     12.3657
  1378.6000      7.9721      2.4242     -0.0084     13.6860    108.8010     12.4248
  1378.7000      7.9721      2.4254     -0.0068     13.6128    108.3830     12.4827
  1378.8000      7.9824      2.4270     -0.0044     13.5168    108.1176     12.5281
  1378.9000      7.9824      2.4289     -0.0011     13.4019    108.0770     12.5505
  1379.0000      7.9787      2.4310      0.0030     13.2733    108.2967     12.5413
  1379.1000      7.9787      2.4332      0.0078     13.1372    108.7715     12.4949
  1379.2000      7.9787      2.4355      0.0132     13.0009    109.4544     12.4100
  1379.3000      7.9694      2.4376      0.0190     12.8716    110.2631     12.2887
  1379.4000      7.9694      2.4395      0.0247     12.7568    111.0969     12.1360
  1379.5000      7.9597      2.4411      0.0302     12.6629    111.8594     11.9589
  1379.6000      7.9597      2.4422      0.0351     12.5955    112.4687     11.7648
  1379.7000      7.9597      2.4428      0.0393     12.5581    112.8771     11.5608
  1379.8000      7.9498      2.4429      0.0423     12.5524    113.0704     11.3522
  1379.9000      7.9498      2.4425      0.0443     12.5776    113.0656     11.1432
  1380.0000      7.9443      2.4416      0.0451     12.6308    112.8988     10.9370
  1380.1000      7.9443      2.4403      0.0448     12.7068    112.6086     10.7358
  1380.2000      7.9443      2.4388      0.0436     12.7989    112.2261     10.5417
  1380.3000      7.9484      2.4372      0.0419     12.8992    111.7670     10.3572
  1380.4000      7.9484      2.4355      0.0401     12.9991    111.2316     10.1856
  1380.5000      7.9568      2.4340      0.0386     13.0905    110.6128     10.0303
  1380.6000      7.9568      2.4328      0.0377     13.1658    109.9082      9.8950
  1380.7000      7.9568      2.4319      0.0378     13.2189    109.1312      9.7828
  1380.8000      7.9599      2.4315      0.0390     13.2455    108.3181      9.6960
  1380.9000      7.9599      2.4315      0.0413     13.2431    107.5255      9.6355
  1381.0000      7.9584      2.4320      0.0445     13.2117    106.8255      9.6009
  1381.1000      7.9584      2.4330      0.0486     13.1532    106.2858      9.5904
  1381.2000      7.9584      2.4343      0.0530     13.0713    105.9579      9.6008
  1381.3000      7.9533      2.4360      0.0575     12.9711    105.8656      9.6284
  1381.4000      7.9533      2.4378      0.0617     12.8588    105.9955      9.6686
  1381.5000      7.9451      2.4398      0.0654     12.7413    106.3047      9.7172
  1381.6000      7.9451      2.4417      0.0683     12.6256    106.7266      9.7700
  1381.7000      7.9451      2.4435      0.0703     12.5181    107.1830      9.8235
  1381.8000      7.9384      2.4450      0.0713     12.4246    107.6029      9.8750
  1381.9000      7.9384      2.4462      0.0714     12.3499    107.9295      9.9225
  1382.0000      7.9357      2.4471      0.0708     12.2973    108.1239      9.9650
  1382.1000      7.9357      2.4476      0.0695     12.2687    108.1656     10.0017
  1382.2000      7.9357      2.4476      0.0677     12.2649    108.0476     10.0320
  1382.3000      7.9348      2.4473      0.0657     12.2848    107.7714     10.0554
  1382.4000      7.9348      2.4466      0.0635     12.3266    107.3421     10.0707
  1382.5000      7.9344      2.4456      0.0613     12.3875    106.7718     10.0766
  1382.6000      7.9344      2.4443      0.0592     12.4641    106.0801     10.0721
  1382.7000      7.9344      2.4429      0.0571     12.5525    105.2966     10.0569
  1382.8000      7.9358      2.4413      0.0549     12.6490    104.4609     10.0323
  1382.9000      7.9358      2.4396      0.0528     12.7501    103.6242     10.0017
  1383.0000      7.9388      2.4379      0.0505     12.8526    102.8414      9.9702
  1383.1000      7.9388      2.4363      0.0480     12.9539    102.1674      9.9450
  1383.2000      7.9388      2.4346      0.0453     13.0519    101.6462      9.9341
  1383.3000      7.9404      2.4331      0.0424     13.1449    101.3084      9.9443
  1383.4000      7.9404      2.4317      0.0393     13.2316    101.1698      9.9811
  1383.5000      7.9415      2.4304      0.0361     13.3108    101.2248     10.0473
  1383.6000      7.9415      2.4292      0.0327     13.3811    101.4518     10.1420
  1383.7000      7.9415      2.4282      0.0294     13.4409    101.8157     10.2616
  1383.8000      7.9474      2.4275      0.0261     13.4878    102.2659     10.4003
  1383.9000      7.9474      2.4269      0.0230     13.5190    102.7449     10.5514
  1384.0000      7.9576      2.4267      0.0202     13.5310    103.1899     10.7092
  1384.1000      7.9576      2.4269      0.0181     13.5197    103.5411     10.8695
  1384.2000      7.9576      2.4276      0.0166     13.4807    103.7532     11.0312
  1384.3000      7.9645      2.4287      0.0159     13.4098    103.8040     11.1952
  1384.4000      7.9645      2.4305      0.0162     13.3028    103.7054     11.3648
  1384.5000      7.9643      2.4329      0.0175     13.1568    103.5092     11.5435
  1384.6000      7.9643      2.4360      0.0198     12.9701    103.3051     11.7342
  1384.7000      7.9643      2.4397      0.0231     12.7428    103.2121     11.9381
  1384.8000      7.9573      2.4441      0.0271     12.4768    103.3626     12.1539
  1384.9000      7.9573      2.4491      0.0318     12.1761    103.8839     12.3784
  1385.0000      7.9476      2.4545      0.0368     11.8470    104.8763     12.6065
  1385.1000      7.9476      2.4603      0.0421     11.4971    106.3941     12.8326
  1385.2000      7.9476      2.4663      0.0474     11.1358    108.4350     13.0510
  1385.3000      7.9411      2.4722      0.0524     10.7730    110.9354     13.2571
  1385.4000      7.9411      2.4781      0.0570     10.4191    113.7737     13.4475
