~Version Information
VERS.                      2.0: CWLS Log ASCII Standard - VERSION 2.0
WRAP.                       NO: One line per depth step
~Well Information Block
STRT.FT               360.0000: 
STOP.FT              2515.2000: 
STEP.FT                 0.1000: 
NULL.                -999.2500: 
COMP.          Pioneer Natural Resources: COMPANY
WELL.            Rancher 12-35: WELL
FLD.           Purgatoire River: FIELD
LOC.           2131' FNL & 297' FWL: LOCATION
PROV.                 Colorado: PROVINCE
CNTY.               Las Animas: COUNTRY
SRVC.                Patterson: SERVICE COMPANY
DATE.          Tue Oct 12 09:11:02 2004: LOG DATE
UWI.           05 071 08179 00: UNIQUE WELL ID
~Curve Information Block
DEPT.FT            0 000 00 00: Depth
DCAL.in                       : CDL Caliper
RHOB.g/cc                     : CDL Bulk Density
RHOC.g/cc                     : CDL Density Correction
DPOR.pu                       : CDL Density Porosity
NPOR.pu                       : Neutron Porosity
GR.GAPI                       : Gamma Ray
~Parameter Information Block
~A  Depth       DCAL        RHOB        RHOC        DPOR        NPOR         GR     
# ...
  2203.2000      7.9860      2.5601      0.0197      5.4509     19.1086     74.6036
  2203.3000      7.9891      2.5532      0.0704      5.8666     19.0991     80.9070
  2203.4000      7.9891      2.5265     -0.0160      7.4853     19.2451     83.1707
  2203.5000      7.9838      2.5163     -0.0041      8.1045     19.3377     78.8483
  2203.6000      7.9838      2.5430      0.0603      6.4878     19.3379     72.6968
  2203.7000      7.9838      2.5832      0.0752      4.0475     19.1398     70.9732
  2203.8000      7.9753      2.6109      0.0882      2.3714     19.0825     74.8469
  2203.9000      7.9753      2.6216      0.0758      1.7217     19.4678     79.9304
  2204.0000      7.9763      2.6239      0.0874      1.5789     19.9610     80.1850
  2204.1000      7.9763      2.6180      0.0975      1.9389     19.8679     75.3744
  2204.2000      7.9763      2.6024      0.0542      2.8868     18.9853     70.7255
  2204.3000      7.9829      2.5869      0.0679      3.8248     18.1036     69.9322
  2204.4000      7.9829      2.5731      0.0440      4.6589     17.9618     70.7743
  2204.5000      7.9869      2.5582     -0.0121      5.5639     18.4055     67.9620
  2204.6000      7.9869      2.5492     -0.0041      6.1067     18.8800     63.4958
  2204.7000      7.9869      2.5508     -0.0101      6.0105     19.0638     63.1256
  2204.8000      7.9859      2.5583      0.0243      5.5559     18.9076     66.6556
  2204.9000      7.9859      2.5625      0.0580      5.3052     18.5887     72.2812
  2205.0000      7.9835      2.5578      0.0391      5.5853     18.4447     78.0641
  2205.1000      7.9835      2.5539      0.0287      5.8272     18.5572     78.0007
  2205.2000      7.9835      2.5633     -0.0005      5.2519     18.7244     70.8499
  2205.3000      7.9832      2.5838      0.0355      4.0094     18.3572     66.2454
  2205.4000      7.9832      2.5998      0.0765      3.0419     17.1977     70.9270
  2205.5000      7.9845      2.6017      0.0207      2.9287     16.1252     76.7606
  2205.6000      7.9845      2.5952      0.0639      3.3194     15.9690     75.4614
  2205.7000      7.9845      2.5833      0.0543      4.0425     16.2410     71.0385
  2205.8000      7.9836      2.5672     -0.0059      5.0194     16.2297     69.9970
  2205.9000      7.9836      2.5562      0.0267      5.6860     16.3654     72.1394
  2206.0000      7.9772      2.5559      0.0030      5.7003     17.0515     74.6811
  2206.1000      7.9772      2.5647      0.0383      5.1695     17.6955     75.9632
  2206.2000      7.9772      2.5769      0.0497      4.4295     17.9979     72.2262
  2206.3000      7.9649      2.5899      0.0347      3.6406     18.4532     63.7922
  2206.4000      7.9649      2.5987      0.0403      3.1091     19.3937     60.9644
  2206.5000      7.9570      2.5930      0.0790      3.4569     20.5599     69.4589
  2206.6000      7.9570      2.5795      0.0106      4.2706     21.2346     80.5387
  2206.7000      7.9570      2.5785      0.0283      4.3323     20.9847     87.5761
  2206.8000      7.9567      2.5913      0.0589      3.5590     20.3366     94.7092
  2206.9000      7.9567      2.6057      0.0771      2.6855     20.0324    101.2691
  2207.0000      7.9565      2.6130      0.0844      2.2441     20.1925     99.8372
  2207.1000      7.9565      2.6101      0.0771      2.4184     20.5175     92.6828
  2207.2000      7.9565      2.6006      0.0878      2.9923     20.4260     88.8945
  2207.3000      7.9566      2.5929      0.0112      3.4586     19.7054     89.0499
  2207.4000      7.9566      2.5913      0.0601      3.5550     18.7705     88.3582
  2207.5000      7.9598      2.5896      0.0542      3.6636     18.0846     84.9999
  2207.6000      7.9598      2.5855      0.0683      3.9099     17.8400     81.7182
  2207.7000      7.9598      2.5789      0.0765      4.3119     17.9434     81.5344
  2207.8000      7.9645      2.5706      0.0094      4.8121     18.0789     84.1097
  2207.9000      7.9645      2.5679      0.0402      4.9750     18.1060     86.0438
  2208.0000      7.9662      2.5680      0.0560      4.9677     18.3713     85.2552
  2208.1000      7.9662      2.5637      0.0320      5.2289     19.0996     85.0019
  2208.2000      7.9662      2.5557      0.0378      5.7147     19.9019     87.5376
  2208.3000      7.9623      2.5491      0.0172      6.1138     20.1886     87.8503
  2208.4000      7.9623      2.5541      0.0051      5.8142     19.9416     80.6546
  2208.5000      7.9591      2.5692      0.0303      4.8984     20.0559     69.3886
  2208.6000      7.9591      2.5744      0.0247      4.5836     21.0124     63.8852
  2208.7000      7.9591      2.5544      0.0518      5.7927     21.8591     66.8065
  2208.8000      7.9579      2.5120      0.0136      8.3658     21.8515     72.7951
  2208.9000      7.9579      2.4705     -0.0076     10.8798     21.3788     80.1044
  2209.0000      7.9570      2.4550     -0.0047     11.8180     20.9640     90.6873
  2209.1000      7.9570      2.4649      0.0076     11.2185     20.6978    100.9305
  2209.2000      7.9570      2.4830      0.0267     10.1198     20.5758    104.6171
  2209.3000      7.9555      2.4948      0.0422      9.4034     20.6518    106.9231
  2209.4000      7.9555      2.4995     -0.0217      9.1233     21.0922    115.2255
  2209.5000      7.9539      2.5078      0.0344      8.6167     21.7594    122.2859
  2209.6000      7.9539      2.5245      0.0406      7.6053     22.3734    116.1831
  2209.7000      7.9539      2.5431      0.0894      6.4793     22.9033    100.2362
  2209.8000      7.9532      2.5515      0.0923      5.9696     23.0664     88.6429
  2209.9000      7.9532      2.5495      0.0510      6.0881     22.7265     89.8091
  2210.0000      7.9552      2.5497      0.0521      6.0758     22.1463     98.0541
  2210.1000      7.9552      2.5531      0.0805      5.8734     21.6720    101.8011
  2210.2000      7.9552      2.5538      0.0308      5.8289     21.4249     98.4770
  2210.3000      7.9559      2.5595      0.0416      5.4858     21.2832     93.0183
  2210.4000      7.9559      2.5638      0.1063      5.2236     21.1957     89.6447
  2210.5000      7.9540      2.5480      0.0503      6.1811     21.1434     88.6042
  2210.6000      7.9540      2.5282     -0.0037      7.3817     21.3623     90.1718
  2210.7000      7.9540      2.5341      0.0280      7.0232     22.0128     95.6753
  2210.8000      7.9545      2.5592      0.0609      5.5053     22.6160    103.6308
  2210.9000      7.9545      2.5744      0.0615      4.5801     22.6267    107.6150
  2211.0000      7.9559      2.5740      0.0348      4.6073     22.3218    104.7854
  2211.1000      7.9559      2.5723      0.0448      4.7062     22.3249    100.9207
  2211.2000      7.9559      2.5685      0.0611      4.9380     22.8713     98.6751
  2211.3000      7.9565      2.5517      0.0384      5.9576     23.6995     94.4465
  2211.4000      7.9565      2.5196      0.0421      7.9012     24.3480     90.9953
  2211.5000      7.9569      2.4843     -0.0317     10.0394     24.6940     98.0614
  2211.6000      7.9569      2.4674     -0.0168     11.0685     24.7497    113.3006
  2211.7000      7.9569      2.4637      0.0496     11.2890     24.3693    123.6634
  2211.8000      7.9574      2.4572     -0.0231     11.6829     23.8119    123.0550
  2211.9000      7.9574      2.4563      0.0427     11.7377     23.6994    113.6337
  2212.0000      7.9588      2.4671      0.0442     11.0834     23.9679    107.1933
  2212.1000      7.9588      2.4795      0.0780     10.3317     24.1352    111.8458
  2212.2000      7.9588      2.4869      0.0400      9.8878     24.1659    119.5379
  2212.3000      7.9590      2.4994      0.0663      9.1247     24.0257    120.0484
  2212.4000      7.9590      2.5318      0.0412      7.1619     23.6620    114.6758
  2212.5000      7.9570      2.5751      0.1266      4.5408     23.3984    110.7671
  2212.6000      7.9570      2.5960      0.1314      3.2752     23.3964    110.3841
  2212.7000      7.9570      2.5762      0.1530      4.4756     23.1901    113.1880
