~Version Information
 VERS.                                  2.0 : CWLS LAS VERSION
 WRAP.                                   NO : WRAPING MODE
 SWARE .                 MController 2.5.0J : SOFTWARE VERSION
~Well Information
 WELL.                  Great Plains 22-21R : WELL
 COMP.                Petrogulf Corporation : COMPANY
 FLD.                      Purgatoire River : FIELD
 LOC.                NE/NW Sec 22 T33S R67W : LOCATION
 DATE.                               9/7/05 : DATE(S) LOGGED
 SRVC.       BLANCO Geological Services LLC : SERVICE COMPANY
 STAT.                                   CO : STATE
 CNTY.                           Las Animas : COUNTY
 CTRY.                                  USA : COUNTRY
 API.                       05-071-08343-00 : API NUMBER
 STRT.FT                             554.00 : START DEPTH
 STOP.FT                            1620.00 : STOP DEPTH
 STEP.FT                               1.00 : DEPTH INCREMENT
 NULL.                                -9999 : NULL VALUE
~Curve information
 DEPTH.FT                                   :
 ROP.MIN/FT                                 :
 GAS.UNITS                                  :
~ASCII Log data
# ...
      1354.0         0.22        807.6 
      1355.0         0.23        739.0 
      1356.0         0.23        694.6 
      1357.0         0.40        660.9 
      1358.0         0.30        609.8 
      1359.0         0.27        577.5 
      1360.0         0.20        562.9 
      1361.0         0.30        554.6 
      1362.0         0.30        538.1 
      1363.0         0.33        528.6 
      1364.0         0.37        517.5 
      1365.0         0.38        508.3 
      1366.0         0.30        492.7 
      1367.0         0.23        487.3 
      1368.0         0.30        482.9 
      1369.0         0.23        475.6 
      1370.0         0.27        479.7 
      1371.0         0.23        499.7 
      1372.0         0.20        517.5 
      1373.0         0.23        528.0 
      1374.0         0.23        550.2 
      1375.0         0.20        584.5 
      1376.0         0.23        611.4 
      1377.0         0.20        616.2 
      1378.0         0.20        606.4 
      1379.0         0.17        578.4 
      1380.0         2.95       1151.0 
      1381.0         0.33        889.5 
      1382.0         0.28        874.5 
      1383.0         0.40        811.7 
      1384.0         0.43        728.5 
      1385.0         0.43        655.5 
      1386.0         0.30        591.8 
      1387.0         0.23        561.0 
      1388.0         0.27        547.6 
      1389.0         0.30        540.3 
      1390.0         0.40        533.7 
      1391.0         0.45        525.7 
      1392.0         0.43        514.3 
      1393.0         0.50        505.7 
      1394.0         0.47        493.7 
      1395.0         0.43        486.4 
      1396.0         0.50        487.3 
      1397.0         0.50        486.7 
      1398.0         0.48        476.9 
      1399.0         0.57        468.3 
      1400.0         0.57        466.4 
      1401.0         0.40        457.5 
      1402.0         0.40        450.2 
      1403.0         0.40        448.9 
      1404.0         0.37        447.7 
      1405.0         0.40        449.6 
      1406.0         0.35        453.4 
      1407.0         0.43        464.8 
      1408.0         0.33        462.9 
      1409.0         0.33        445.4 
      1410.0         3.22       1273.2 
      1411.0         0.27        898.7 
      1412.0         0.20        900.2 
      1413.0         0.27        898.3 
      1414.0         0.30        889.8 
      1415.0         0.50        851.7 
      1416.0         0.30        729.8 
      1417.0         0.30        671.4 
      1418.0         0.38        629.5 
      1419.0         0.30        588.9 
      1420.0         0.33        568.3 
      1421.0         0.33        548.0 
      1422.0         0.33        533.4 
      1423.0         0.37        521.3 
      1424.0         0.30        508.6 
      1425.0         0.27        501.6 
      1426.0         0.30        502.6 
      1427.0         0.30        508.3 
      1428.0         0.32        507.0 
      1429.0         0.30        510.5 
      1430.0         0.30        511.5 
      1431.0         0.30        507.0 
      1432.0         0.30        509.6 
      1433.0         0.37        512.4 
      1434.0         0.37        510.8 
      1435.0         0.33        508.0 
      1436.0         0.30        502.6 
      1437.0         0.20        492.7 
      1438.0         0.20        483.2 
      1439.0         0.23        469.6 
      1440.0         3.25       1252.2 
      1441.0         0.35        877.1 
      1442.0         0.30        803.1 
      1443.0         0.23        823.4 
      1444.0         0.27        822.8 
      1445.0         0.30        795.2 
      1446.0         0.27        734.9 
      1447.0         0.30        689.2 
      1448.0         0.23        649.2 
      1449.0         0.27        627.0 
      1450.0         0.33        607.0 
      1451.0         0.33        587.9 
      1452.0         0.27        569.9 
      1453.0         0.32        555.6 
      1454.0         0.37        549.2 
      1455.0         0.30        541.6 
      1456.0         0.33        538.1 
      1457.0         0.30        536.2 
      1458.0         0.33        542.9 
      1459.0         0.40        546.4 
      1460.0         0.33        545.1 
      1461.0         0.30        554.9 
      1462.0         0.45        565.7 
      1463.0         0.33        560.0 
      1464.0         0.33        550.8 
      1465.0         0.37        546.4 
      1466.0         0.47        562.6 
      1467.0         0.37        586.7 
      1468.0         0.33        585.4 
      1469.0         0.43        560.7 
      1470.0         2.98       1196.4 
      1471.0         0.20        954.8 
      1472.0         0.17        952.9 
      1473.0         0.20        934.5 
      1474.0         0.20        888.8 
      1475.0         0.18        851.7 
      1476.0         0.23        867.9 
      1477.0         0.47        866.6 
      1478.0         0.30        823.8 
      1479.0         0.27        773.0 
      1480.0         0.33        737.1 
      1481.0         0.30        703.5 
      1482.0         0.30        674.9 
      1483.0         0.27        648.6 
      1484.0         0.33        632.7 
      1485.0         0.30        617.8 
      1486.0         0.32        608.3 
      1487.0         0.30        599.1 
      1488.0         0.30        595.6 
      1489.0         0.30        589.2 
      1490.0         0.27        583.2 
      1491.0         0.30        579.4 
      1492.0         0.33        578.7 
      1493.0         0.27        578.7 
      1494.0         0.30        574.6 
      1495.0         0.27        567.6 
      1496.0         0.30        566.7 
      1497.0         0.32        561.0 
      1498.0         0.30        549.5 
      1499.0         0.27        519.7 
      1500.0         3.82       1381.4 
      1501.0         0.43        965.9 
      1502.0         0.43        950.1 
      1503.0         0.30        833.6 
      1504.0         0.30        755.5 
      1505.0         0.27        704.1 
      1506.0         0.28        687.6 
      1507.0         0.30        681.9 
      1508.0         0.30        680.6 
      1509.0         0.33        682.2 
      1510.0         0.33        680.0 
      1511.0         0.37        669.8 
      1512.0         0.40        655.5 
      1513.0         0.37        640.3 
      1514.0         0.37        627.9 
      1515.0         0.37        613.0 
      1516.0         0.45        599.7 
      1517.0         0.43        588.3 
      1518.0         0.37        579.1 
      1519.0         0.37        571.8 
      1520.0         0.37        570.5 
      1521.0         0.40        567.0 
      1522.0         0.37        565.7 
      1523.0         0.40        561.9 
      1524.0         0.55        568.6 
      1525.0         0.30        571.1 
      1526.0         0.30        570.5 
      1527.0         0.27        567.0 
      1528.0         0.30        564.5 
      1529.0         0.30        541.9 
      1530.0         3.25        992.0 
      1531.0         0.27        977.1 
      1532.0         0.30        993.2 
      1533.0         0.37        993.6 
      1534.0         0.30        978.3 
      1535.0         0.33        941.5 
      1536.0         0.45        899.9 
      1537.0         0.43        821.5 
      1538.0         0.47        758.4 
      1539.0         0.47        704.1 
      1540.0         0.47        672.4 
      1541.0         0.47        644.1 
      1542.0         0.30        622.2 
      1543.0         0.23        609.2 
      1544.0         0.20        606.7 
      1545.0         0.22        597.5 
      1546.0         1.10        620.0 
      1547.0         0.23        658.1 
      1548.0         0.27        700.9 
      1549.0         0.23        719.0 
      1550.0         0.27        722.8 
      1551.0         0.27        723.2 
      1552.0         0.23        719.7 
      1553.0         0.23        712.4 
