~Version Information
VERS.                      2.0: CWLS Log ASCII Standard - VERSION 2.0
WRAP.                       NO: One line per depth step
~Well Information Block
STRT.FT                -7.2500: 
STOP.FT               862.2500: 
STEP.FT                 0.2500: 
NULL.                -999.2500: 
COMP.          Pioneer Natural Resources: COMPANY
WELL.          Santisteven 13-22: WELL
FLD.           Purgatorie River: FIELD
LOC.           1861' FSL & 992' FWL--: LOCATION
PROV.                       CO: PROVINCE
CNTY.               Las Animas: COUNTRY
SRVC.          Patterson Wireline: SERVICE COMPANY
DATE.          Thu Apr 07 09:08:11 2005: LOG DATE
UWI.           05 071 08337 00: UNIQUE WELL ID
~Curve Information Block
DEPT.FT            0 000 00 00: Depth
CCL.                          : Casing Collar Locator
TT3.usec                      : CBL 3' Travel Time
AMP3.mV                       : CBL 3' Amplitude
GR.GAPI                       : Gamma Ray
~Parameter Information Block
~A  Depth       CCL         TT3         AMP3         GR     
# ...
   394.7500      0.0000    830.7948      7.0123    130.4275
   395.0000      0.0000    830.7059      7.0269    125.2660
   395.2500      0.0000    830.6182      6.9831    120.5883
   395.5000      0.0000    830.5085      6.8905    117.1936
   395.7500      0.0000    830.3567      6.7487    115.9185
   396.0000      0.0000    830.1699      6.5580    117.0038
   396.2500      0.0000    829.9798      6.3351    119.8342
   396.5000      0.0000    829.8243      6.1213    123.6159
   396.7500      0.0000    829.7065      5.9673    128.2525
   397.0000      0.0000    829.5234      5.8965    133.8758
   397.2500      0.0000    828.9910      5.8817    139.5010
   397.5000      0.0000    827.7393      5.8702    143.0418
   397.7500      0.0000    825.7288      5.8375    143.0900
   398.0000      0.0000    823.6823      5.8059    140.4035
   398.2500      0.0000    822.8054      5.8070    137.4000
   398.5000      0.0000    823.7369      5.8415    135.9277
   398.7500      0.0000    825.8950      5.8866    135.4071
   399.0000      0.0000    828.0633      5.9265    133.6069
   399.2500      0.0000    829.4380      5.9661    129.3834
   399.5000      0.0000    829.9682      6.0185    124.1583
   399.7500      0.0000    829.9857      6.0833    120.6212
   400.0000      0.0000    829.7947      6.1395    120.3950
   400.2500      0.0000    829.5322      6.1648    122.9137
   400.5000      0.0000    829.2145      6.1556    126.2090
   400.7500      0.0000    828.8347      6.1268    128.5347
   401.0000      0.0000    828.3993      6.0980    129.2006
   401.2500      0.0000    827.7791      6.0809    128.3049
   401.5000      0.0000    826.4081      6.0726    126.3149
   401.7500      0.0000    823.0795      6.0613    123.8160
   402.0000      0.0000    816.2784      6.0313    121.0506
   402.2500      0.0000    805.3300      5.9646    117.6237
   402.5000      0.0000    791.7346      5.8538    113.0023
   402.7500      0.0000    779.3348      5.7165    107.3903
   403.0000      0.0000    772.6553      5.5770    101.9198
   403.2500      0.0000    774.3929      5.4362     97.7444
   403.5000      0.0000    783.6990      5.2881     94.9530
   403.7500      0.0000    796.5156      5.1584     92.6286
   404.0000      0.0000    808.1992      5.0858     90.1341
   404.2500      0.0000    816.4421      5.0688     88.0530
   404.5000      0.0000    821.4844      5.0678     87.5264
   404.7500      2.0000    823.6989      5.0595     88.8276
   405.0000      0.0000    822.4539      5.0702     91.0408
   405.2500      0.0000    818.1808      5.1497     93.0465
   405.5000      0.0000    814.0631      5.3165     94.3504
   405.7500      0.0000    813.7153      5.5208     94.9907
   406.0000      0.0000    817.4514      5.6641     95.1482
   406.2500      0.0000    822.2961      5.6782     94.9626
   406.5000      0.0000    825.4192      5.5872     94.3880
   406.7500      0.0000    826.2435      5.4753     93.1804
   407.0000      0.0000    825.3004      5.4025     91.1549
   407.2500      0.0000    822.3706      5.3726     88.3302
   407.5000      0.0000    816.5402      5.3675     84.7211
   407.7500      0.0000    808.1304      5.3844     80.2407
   408.0000      0.0000    799.8814      5.4373     75.1225
   408.2500      0.0000    795.1080      5.5322     70.2360
   408.5000      0.0000    794.7300      5.6472     66.5208
   408.7500      0.0000    797.1850      5.7387     64.1380
   409.0000      0.0000    800.8356      5.7721     62.5759
   409.2500      0.0000    804.8063      5.7473     61.6036
   409.5000      0.0000    807.8184      5.6974     61.6969
   409.7500      0.0000    808.1552      5.6650     63.3046
   410.0000      0.0000    805.3584      5.6772     65.9623
   410.2500      0.0000    801.0317      5.7329     68.4977
   410.5000      0.0000    797.3109      5.8064     70.1844
   410.7500      0.0000    794.6222      5.8647     71.4732
   411.0000      0.0000    791.2653      5.8832     73.4081
   411.2500      0.0000    785.4116      5.8509     76.4743
   411.5000      0.0000    777.4987      5.7757     80.2178
   411.7500      0.0000    770.6264      5.6911     83.8737
   412.0000      0.0000    768.4644      5.6456     86.9971
   412.2500      0.0000    772.3644      5.6682     89.3922
   412.5000      0.0000    780.1522      5.7444     90.7596
   412.7500      0.0000    787.8905      5.8332     90.7909
   413.0000      0.0000    793.1315      5.9018     89.6451
   413.2500      0.0000    796.5025      5.9398     88.1481
   413.5000      0.0000    800.3099      5.9505     87.4113
   413.7500      0.0000    806.0004      5.9428     88.2390
   414.0000      0.0000    812.9980      5.9309     90.7732
   414.2500      0.0000    819.5214      5.9325     94.4175
   414.5000      0.0000    824.1489      5.9608     97.9877
   414.7500      0.0000    826.6353      6.0158    100.1844
   415.0000      0.0000    827.6136      6.0793    100.2833
   415.2500      0.0000    827.9214      6.1225     98.5340
   415.5000      0.0000    828.2421      6.1283     95.8189
   415.7500      0.0000    829.0866      6.1100     92.8590
   416.0000      0.0000    830.7476      6.1000     89.7867
   416.2500      0.0000    833.0378      6.1159     86.4119
   416.5000      0.0000    835.0943      6.1460     82.7137
   416.7500      0.0000    835.7949      6.1674     79.0608
   417.0000      0.0000    834.7100      6.1691     76.0703
   417.2500      0.0000    832.5386      6.1543     74.3116
   417.5000      0.0000    830.4269      6.1298     74.1006
   417.7500      0.0000    829.0267      6.1006     75.3932
   418.0000      0.0000    828.3160      6.0721     77.8049
   418.2500      0.0000    828.0198      6.0526     80.8740
   418.5000      0.0000    827.9341      6.0486     84.4408
   418.7500      0.0000    827.9486      6.0565     88.7070
   419.0000      0.0000    827.9794      6.0628     93.7561
   419.2500      0.0000    827.9703      6.0561     99.0171
   419.5000      0.0000    827.9303      6.0397    103.5764
   419.7500      0.0000    827.9240      6.0320    107.3728
   420.0000      0.0000    827.9767      6.0511    111.5549
   420.2500      0.0000    827.9954      6.0949    116.9593
   420.5000      0.0000    827.7440      6.1354    122.6048
   420.7500      0.0000    826.8275      6.1405    126.3936
   421.0000      0.0000    824.6093      6.1038    126.9946
   421.2500      0.0000    820.3126      6.0511    124.5209
   421.5000      0.0000    813.6297      6.0151    119.9389
   421.7500      0.0000    805.4455      6.0093    114.6656
   422.0000      0.0000    797.5486      6.0222    110.4556
   422.2500      0.0000    791.2822      6.0281    108.5941
   422.5000      0.0000    786.8126      6.0074    108.8253
   422.7500      0.0000    783.8926      5.9640    109.5715
   423.0000      0.0000    782.6719      5.9234    109.3630
   423.2500      0.0000    783.2907      5.9124    107.5891
   423.5000      0.0000    785.1326      5.9426    104.0612
   423.7500      0.0000    787.0632      6.0145     98.9697
   424.0000      0.0000    788.1761      6.1288     93.5876
   424.2500      0.0000    787.6352      6.2847     90.0823
   424.5000      0.0000    784.0798      6.4678     90.0476
   424.7500      0.0000    776.5519      6.6455     93.5086
   425.0000      0.0000    766.4633      6.7846     99.3150
   425.2500      0.0000    757.6051      6.8766    105.9752
   425.5000      0.0000    753.4332      6.9438    112.1002
   425.7500      0.0000    754.4653      7.0161    116.6034
   426.0000      0.0000    758.2503      7.1015    118.9161
   426.2500      0.0000    761.4830      7.1816    119.0701
   426.5000      0.0000    762.1899      7.2289    117.5264
   426.7500      0.0000    760.4042      7.2249    114.9712
   427.0000      0.0000    757.3448      7.1649    112.2038
   427.2500      0.0000    754.2311      7.0548    110.0846
   427.5000      0.0000    751.5292      6.9089    109.5717
   427.7500      0.0000    748.9130      6.7474    111.5162
   428.0000      0.0000    745.9764      6.5887    115.8103
