~Version Information
VERS.                      2.0: CWLS Log ASCII Standard - VERSION 2.0
WRAP.                       NO: One line per depth step
~Well Information Block
STRT.FT               350.0000: 
STOP.FT              2531.5000: 
STEP.FT                 0.1000: 
NULL.                -999.2500: 
COMP.          Pioneer Natural Resources: COMPANY
WELL.          Cock-a-doodle-doo: WELL
FLD.           Purgatoire River: FIELD
LOC.           163' FSL & 54' FEL: LOCATION
PROV.                 Colorado: PROVINCE
CNTY.               Las Animas: COUNTRY
SRVC.                Patterson: SERVICE COMPANY
DATE.          Fri Jul 01 09:34:59 2005: LOG DATE
UWI.           05 071 08429 00: UNIQUE WELL ID
~Curve Information Block
DEPT.FT            0 000 00 00: Depth
DCAL.in                       : CDL Caliper
RHOB.g/cc                     : CDL Bulk Density
RHOC.g/cc                     : CDL Density Correction
DPOR.pu                       : CDL Density Porosity
GR.GAPI                       : Gamma Ray
NPOR.pu                       : Neutron Porosity
~Parameter Information Block
~A  Depth       DCAL        RHOB        RHOC        DPOR         GR         NPOR    
# ...
  1655.6000      8.0383      2.5587      0.0456      5.5333     69.9780     18.0374
  1655.7000      8.0383      2.5259      0.0519      7.5228     67.4609     17.9530
  1655.8000      8.0539      2.5001     -0.0261      9.0875     62.4301     17.9696
  1655.9000      8.0539      2.4805      0.0412     10.2755     59.0039     18.3451
  1656.0000      8.0410      2.4560      0.0433     11.7580     59.1640     18.6930
  1656.1000      8.0410      2.4463     -0.0380     12.3470     61.0017     18.5948
  1656.2000      8.0410      2.4737      0.0710     10.6832     63.5615     18.1294
  1656.3000      8.0334      2.5094      0.0873      8.5232     65.9954     17.5232
  1656.4000      8.0334      2.5199      0.0876      7.8851     66.5250     16.9906
  1656.5000      8.0323      2.5078      0.0866      8.6204     64.6097     16.6662
  1656.6000      8.0323      2.4907      0.0626      9.6563     61.9582     16.5312
  1656.7000      8.0323      2.4769      0.0452     10.4882     62.1595     16.3792
  1656.8000      8.0528      2.4599      0.0870     11.5206     66.1628     16.1769
  1656.9000      8.0528      2.4362      0.0428     12.9591     71.5704     16.4014
  1657.0000      8.0556      2.4174      0.0200     14.0942     75.3857     17.1230
  1657.1000      8.0556      2.4188     -0.0186     14.0144     76.1731     17.4915
  1657.2000      8.0556      2.4402      0.0192     12.7182     77.5327     17.0174
  1657.3000      8.0585      2.4650      0.0576     11.2133     82.0858     16.2414
  1657.4000      8.0585      2.4772      0.1146     10.4703     87.6140     15.9776
  1657.5000      8.0365      2.4724      0.0722     10.7650     91.4341     16.3210
  1657.6000      8.0365      2.4598      0.0462     11.5300     92.3385     16.6356
  1657.7000      8.0365      2.4495      0.0305     12.1538     92.2902     16.6165
  1657.8000      8.0602      2.4357      0.0701     12.9900     92.9978     16.4566
  1657.9000      8.0602      2.4118      0.0057     14.4342     91.8024     16.3593
  1658.0000      8.0813      2.3957     -0.0521     15.4121     89.2884     16.4323
  1658.1000      8.0813      2.4004      0.0536     15.1244     88.4699     16.7206
  1658.2000      8.0813      2.4111      0.0230     14.4793     88.3398     17.2079
  1658.3000      8.0858      2.4171      0.0468     14.1128     87.4189     17.6433
  1658.4000      8.0858      2.4251      0.0057     13.6299     86.1208     18.0351
  1658.5000      8.0760      2.4429      0.0457     12.5532     83.1777     18.7096
  1658.6000      8.0760      2.4652      0.0976     11.1981     79.3548     19.4008
  1658.7000      8.0760      2.4785      0.1172     10.3960     78.8400     19.5217
  1658.8000      8.0637      2.4855      0.0626      9.9667     80.4992     19.3011
  1658.9000      8.0637      2.5011      0.1093      9.0219     80.0253     19.2050
  1659.0000      8.0458      2.5264      0.1160      7.4899     78.5492     19.2482
  1659.1000      8.0458      2.5614      0.1303      5.3709     77.7538     19.2759
  1659.2000      8.0458      2.6046      0.1723      2.7522     76.3402     19.0961
  1659.3000      8.0155      2.6306      0.2040      1.1739     73.9444     18.6292
  1659.4000      8.0155      2.6255      0.1534      1.4862     71.4553     18.3721
  1659.5000      7.9914      2.6161      0.1241      2.0531     70.8162     18.7847
  1659.6000      7.9914      2.6157      0.1449      2.0784     74.1901     19.3485
  1659.7000      7.9914      2.6052      0.1213      2.7139     79.4636     19.4545
  1659.8000      8.0155      2.5792      0.0793      4.2916     80.5845     19.2542
  1659.9000      8.0155      2.5542      0.0393      5.8067     77.7775     18.8561
  1660.0000      8.0399      2.5474      0.0244      6.2155     77.0251     18.3526
  1660.1000      8.0399      2.5562      0.0784      5.6841     77.9879     18.0884
  1660.2000      8.0399      2.5586      0.0246      5.5366     79.1056     18.1360
  1660.3000      8.0426      2.5411      0.0595      6.6015     82.7403     18.2405
  1660.4000      8.0426      2.5142     -0.0200      8.2309     86.5864     18.1526
  1660.5000      8.0960      2.4975      0.0067      9.2397     87.9300     17.8896
  1660.6000      8.0960      2.4916      0.0007      9.6021     90.1101     17.6948
  1660.7000      8.0960      2.4861      0.0522      9.9364     93.7693     17.7228
  1660.8000      8.1108      2.4741      0.0196     10.6588     94.3456     17.8279
  1660.9000      8.1108      2.4563     -0.0179     11.7371     93.6867     17.9358
  1661.0000      8.1151      2.4379      0.0255     12.8531     97.6344     18.1415
  1661.1000      8.1151      2.4235     -0.0406     13.7288    102.9189     18.3454
  1661.2000      8.1151      2.4210     -0.0194     13.8781    105.3160     18.6012
  1661.3000      8.1102      2.4298      0.0199     13.3445    107.9354     19.1810
  1661.4000      8.1102      2.4431     -0.0039     12.5405    112.8878     20.1028
  1661.5000      8.0703      2.4630      0.0315     11.3356    119.8281     21.0554
  1661.6000      8.0703      2.4849      0.0566     10.0056    128.5463     21.7413
  1661.7000      8.0703      2.4950      0.0453      9.3949    136.9119     22.4621
  1661.8000      8.0855      2.4980      0.0425      9.2121    143.2276     23.4297
  1661.9000      8.0855      2.5190      0.0465      7.9397    146.7995     24.0819
  1662.0000      8.0618      2.5616      0.1081      5.3578    148.3615     24.0646
  1662.1000      8.0618      2.5978      0.0865      3.1642    151.5539     23.8273
  1662.2000      8.0618      2.6092      0.0791      2.4746    155.2630     23.9259
  1662.3000      8.0448      2.6020      0.0975      2.9103    155.9381     24.6064
  1662.4000      8.0448      2.5969      0.0516      3.2203    158.9999     25.5611
  1662.5000      8.0246      2.6089      0.0907      2.4897    169.0808     26.1589
  1662.6000      8.0246      2.6315      0.1037      1.1186    178.5381     26.2429
  1662.7000      8.0246      2.6509      0.1230     -0.0525    180.3628     26.2242
  1662.8000      7.9791      2.6573      0.1397     -0.4413    174.4796     26.3994
  1662.9000      7.9791      2.6412      0.1387      0.5340    160.8183     26.6953
  1663.0000      7.9300      2.6116      0.0554      2.3298    145.5417     26.9357
  1663.1000      7.9300      2.5955      0.0810      3.3044    136.6728     26.7920
  1663.2000      7.9300      2.5852      0.1618      3.9291    133.4769     26.0168
  1663.3000      7.9873      2.5512      0.1083      5.9899    135.3976     24.9354
  1663.4000      7.9873      2.4940      0.0866      9.4521    143.2211     24.0096
  1663.5000      7.9823      2.4365      0.0151     12.9398    152.2198     23.2944
  1663.6000      7.9823      2.4021     -0.0245     15.0261    156.8490     22.6579
  1663.7000      7.9823      2.3898      0.0149     15.7686    156.5939     21.9146
  1663.8000      7.9826      2.3683      0.0325     17.0709    155.4430     21.0250
  1663.9000      7.9826      2.3180      0.0317     20.1240    155.5167     20.0083
  1664.0000      8.0652      2.2615     -0.0325     23.5461    153.1154     18.7957
  1664.1000      8.0652      2.2235      0.0697     25.8512    145.2177     17.5890
  1664.2000      8.0652      2.1782      0.1180     28.5921    136.8868     16.7454
  1664.3000      8.0823      2.0951      0.1063     33.6313    134.2771     16.3003
  1664.4000      8.0823      2.0015      0.0444     39.3007    134.9927     16.2093
  1664.5000      8.1411      1.9500      0.1264     42.4247    132.1223     16.4956
  1664.6000      8.1411      1.9446      0.2304     42.7503    124.0381     17.0409
  1664.7000      8.1411      1.9581      0.1885     41.9354    116.1241     17.8731
  1664.8000      8.2349      1.9849      0.1876     40.3091    112.8535     19.1327
  1664.9000      8.2349      2.0254      0.2371     37.8550    112.8925     20.6754
  1665.0000      8.3633      2.0753      0.2288     34.8326    112.5703     22.1020
  1665.1000      8.3633      2.1443      0.2953     30.6495    112.0640     23.2778
