~Version Information
VERS.                      2.0: CWLS Log ASCII Standard - VERSION 2.0
WRAP.                       NO: One line per depth step
~Well Information Block
STRT.FT               -14.0000: 
STOP.FT              2565.5000: 
STEP.FT                 0.5000: 
NULL.                -999.2500: 
COMP.          Pioneer Natural Resources: COMPANY
WELL.             Carbon 34-21: WELL
FLD.           Purgatorie River: FIELD
LOC.           56' FSL & 2304' FEL: LOCATION
PROV.                 Colorado: PROVINCE
CNTY.               Las Animas: COUNTRY
SRVC.          Patterson Wireline: SERVICE COMPANY
DATE.          Mon Nov 08 08:55:10 2004: LOG DATE
UWI.           05-071-08117-00: UNIQUE WELL ID
~Curve Information Block
DEPT.FT            0 000 00 00: Depth
TT3.usec                      : CBL 3' Travel Time
AMP3.mV                       : CBL 3' Amplitude
GR.GAPI                       : Gamma Ray
CCL.                          : Casing Collar Locator
~Parameter Information Block
~A  Depth       TT3         AMP3         GR         CCL     
# ...
  1527.0000    282.6778     61.1707    112.7906      0.0000
  1527.5000    282.6607     61.6932    119.4851      0.0000
  1528.0000    282.6086     62.1455    117.6326      0.0000
  1528.5000    282.6457     61.3690    112.0654      0.0000
  1529.0000    282.7551     59.9052    106.3921      0.0000
  1529.5000    282.8004     59.5164    103.6842      0.0000
  1530.0000    282.7818     59.9283    102.5009      0.0000
  1530.5000    282.7522     60.4778     95.3740      0.0000
  1531.0000    282.7801     60.6130     85.2784      0.0000
  1531.5000    282.8438     60.6284     75.9578      0.0000
  1532.0000    282.8122     61.7849     74.0482      0.0000
  1532.5000    282.7409     63.1583     81.6239      0.0000
  1533.0000    282.7883     63.0065     94.2875      0.0000
  1533.5000    282.9104     61.8557    102.0141      0.0000
  1534.0000    282.9675     61.2501    102.3573      0.0000
  1534.5000    282.9155     62.3612    104.4536      0.0000
  1535.0000    282.8009     64.4752    110.9692      0.0000
  1535.5000    282.7911     65.2180    122.0120      0.0000
  1536.0000    282.8887     64.4995    137.7785      0.0000
  1536.5000    282.9214     63.6769    151.5955      0.0000
  1537.0000    282.8246     64.0341    159.1052      0.0000
  1537.5000    282.7419     65.7299    163.0810      0.0000
  1538.0000    282.7273     67.2270    161.8787      0.0000
  1538.5000    282.7399     67.6976    157.6467      0.0000
  1539.0000    282.7741     67.6217    154.1566      0.0000
  1539.5000    282.7994     67.0842    152.0682      0.0000
  1540.0000    282.7730     66.5979    154.4019      0.0000
  1540.5000    282.7173     66.8531    155.4857      0.0000
  1541.0000    282.6837     67.2721    149.8913      0.0000
  1541.5000    282.6685     67.3259    142.2509      0.0000
  1542.0000    282.6789     67.3517    133.6332      0.0000
  1542.5000    282.7193     67.3312    126.2650      0.0000
  1543.0000    282.7227     67.1227    126.6080      0.0000
  1543.5000    282.6896     66.9932    129.4758      0.0000
  1544.0000    282.6818     67.0794    127.1979      0.0000
  1544.5000    282.6816     67.2470    126.9836      0.0000
  1545.0000    282.6700     67.4047    131.4464      0.0000
  1545.5000    282.6581     67.4276    139.9536      0.0000
  1546.0000    282.6615     67.3311    151.4668      0.0000
  1546.5000    282.6788     67.3727    157.0063      0.0000
  1547.0000    282.7057     67.5114    156.6593      0.0000
  1547.5000    282.7370     67.6118    152.7008      0.0000
  1548.0000    282.7906     67.4839    147.5502      0.0000
  1548.5000    282.8995     66.9565    143.0838      0.0000
  1549.0000    283.2348     65.5704    137.8543      0.0000
  1549.5000    284.7158     61.8065    131.5069      0.0000
  1550.0000    288.1360     55.5935    124.8765      0.0000
  1550.5000    291.4301     49.0386    119.4068      0.0000
  1551.0000    292.5222     45.0347    114.6465      0.0000
  1551.5000    293.0127     43.6186    111.7919     -3.4918
  1552.0000    295.7446     42.9004    114.4430      0.0000
  1552.5000    300.2780     44.4273    117.2207      0.0000
  1553.0000    297.3678     51.0142    119.5851      0.0000
  1553.5000    288.4107     60.1381    125.5851      0.0000
  1554.0000    283.9550     66.1403    138.1148      0.0000
  1554.5000    283.3829     66.7181    149.9634      0.0000
  1555.0000    283.5782     65.9265    151.0754      0.0000
  1555.5000    283.6505     66.5675    147.1835      0.0000
  1556.0000    283.5605     67.8599    146.6913      0.0000
  1556.5000    283.4182     69.4742    147.6974      0.0000
  1557.0000    283.4771     70.0319    149.5810      0.0000
  1557.5000    283.7592     69.4373    157.6006      0.0000
  1558.0000    283.8979     69.4474    166.3778      0.0000
  1558.5000    283.7548     69.8568    170.5857      0.0000
  1559.0000    283.5174     69.4117    170.2224      0.0000
  1559.5000    283.4777     67.4674    170.4685      0.0000
  1560.0000    283.7080     64.7813    173.2216      0.0000
  1560.5000    283.8312     63.8634    168.7400      0.0000
  1561.0000    283.6101     65.2585    156.7905      0.0000
  1561.5000    283.2396     67.0358    151.5229      0.0000
  1562.0000    282.8833     69.0310    162.3365      0.0000
  1562.5000    282.7421     70.3808    170.9363      0.0000
  1563.0000    282.8037     70.2684    171.9587      0.0000
  1563.5000    282.7978     69.8612    173.4686      0.0000
  1564.0000    282.7063     69.9696    171.6472      0.0000
  1564.5000    282.6494     70.0860    168.7258      0.0000
  1565.0000    282.5969     70.1172    172.1715      0.0000
  1565.5000    282.5256     70.5347    175.6991      0.0000
  1566.0000    282.5011     71.2418    171.7997      0.0000
  1566.5000    282.5408     71.5167    164.3788      0.0000
  1567.0000    282.6021     71.4539    155.7031      0.0000
  1567.5000    282.6492     71.3937    148.9938      0.0000
  1568.0000    282.6507     71.4689    143.7121      0.0000
  1568.5000    282.6290     71.7475    137.2113      0.0000
  1569.0000    282.6171     72.0354    138.0393      0.0000
  1569.5000    282.6339     72.1288    150.6327      0.0000
  1570.0000    282.6705     72.1610    160.7904      0.0000
  1570.5000    282.6968     72.3736    168.8230      0.0000
  1571.0000    282.7350     72.5319    178.2544      0.0000
  1571.5000    282.8282     72.3476    181.4265      0.0000
  1572.0000    282.9475     72.1498    177.6093      0.0000
  1572.5000    282.9469     72.6282    167.6918      0.0000
  1573.0000    282.7729     73.9260    162.7919      0.0000
  1573.5000    282.6563     74.9463    170.1023      0.0000
  1574.0000    282.7688     74.9086    177.3282      0.0000
  1574.5000    283.0792     74.0559    165.6406      0.0000
  1575.0000    283.4228     72.8796    136.2475      0.0000
  1575.5000    283.4124     72.7702    120.0594      0.0000
  1576.0000    283.0016     74.2421    128.6347      0.0000
  1576.5000    282.7346     75.2336    147.3448      0.0000
  1577.0000    282.8596     74.3665    159.2095      0.0000
  1577.5000    283.2212     72.1799    149.3436      0.0000
  1578.0000    283.5145     69.8608    118.2830      0.0000
  1578.5000    283.4202     68.7184     88.5189      0.0000
  1579.0000    283.0717     69.0061     80.0924      0.0000
  1579.5000    282.9195     68.9864     84.4767      0.0000
  1580.0000    283.1800     66.8439     81.7324      0.0000
  1580.5000    283.6692     62.9182     70.2560      0.0000
  1581.0000    283.9180     60.0348     64.4968      0.0000
  1581.5000    283.7207     59.5850     70.7981      0.0000
  1582.0000    283.4633     59.1020     82.2983      0.0000
  1582.5000    283.6436     56.5250     99.9586      0.0000
  1583.0000    284.3372     52.3329    127.7865      0.0000
  1583.5000    285.2151     47.8527    155.1928      0.0000
  1584.0000    285.6214     45.3742    163.0701      0.0000
  1584.5000    285.2451     46.2293    150.7373      0.0000
  1585.0000    284.4383     49.9795    138.0783      0.0000
  1585.5000    283.6506     55.7142    133.3717      0.0000
  1586.0000    283.1553     61.1163    132.0369      0.0000
  1586.5000    282.9728     63.7641    134.6003      0.0000
  1587.0000    282.9107     64.1270    137.0539      0.0000
  1587.5000    282.8512     64.0268    138.4711      0.0000
  1588.0000    282.8228     63.8782    134.6471      0.0000
  1588.5000    282.8146     63.7918    126.9285      0.0000
  1589.0000    282.7858     63.9788    126.2395      0.0000
  1589.5000    282.7505     64.1359    129.5825      0.0000
  1590.0000    282.7250     64.1892    130.3591      0.0000
  1590.5000    282.7132     64.3863    133.7155      0.0000
  1591.0000    282.7169     64.7126    134.4455      0.0000
  1591.5000    282.7251     65.0379    128.8288      0.0000
  1592.0000    282.7910     64.9610    128.2054      0.0000
  1592.5000    283.4240     63.0337    129.8925      0.0000
  1593.0000    286.4240     57.1919    130.8375      0.0000
  1593.5000    293.5612     50.2185    130.9274      0.0000
