~Version Information
VERS.                      2.0: CWLS Log ASCII Standard - VERSION 2.0
WRAP.                       NO: One line per depth step
~Well Information Block
STRT.FT              1727.9000: 
STOP.FT              1961.0000: 
STEP.FT                 0.1000: 
NULL.                -999.2500: 
COMP.          Petrogulf Corporation: COMPANY
WELL.              Royal 8-33R: WELL
FLD.           Purgatorie River: FIELD
LOC.           2401' FSL & 2270' FEL: LOCATION
CNTY.               Las Animas: COUNTY
SRVC.                         : SERVICE COMPANY
DATE.          Mon Apr 26 06:57:24 2004: LOG DATE
UWI.           05 071 08041 00: UNIQUE WELL ID
STAT.                 Colorado: STATE
~Curve Information Block
DEPT.FT            0 000 00 00: Depth
DCAL.in                       : CDL Caliper
RHOB.g/cc                     : CDL Bulk Density
RHOC.g/cc                     : CDL Density Correction
DPOR.pu                       : CDL Density Porosity
GR.GAPI                       : Gamma Ray
~Parameter Information Block
~A  Depth       DCAL        RHOB        RHOC        DPOR         GR     
# ...
  1806.3000      8.0636      2.5089      0.1578      8.5511    172.8356
  1806.4000      8.0636      2.5575      0.1642      5.6048    157.5278
  1806.5000      8.0918      2.5776      0.2856      4.3889    140.0558
  1806.6000      8.0918      2.5451      0.2707      6.3604    136.7389
  1806.7000      8.0918      2.4800      0.1596     10.3044    144.5108
  1806.8000      8.0804      2.4288      0.0950     13.4047    139.5417
  1806.9000      8.0804      2.4105      0.1280     14.5126    119.9903
  1807.0000      8.0434      2.4133      0.1048     14.3455    112.3869
  1807.1000      8.0434      2.4321      0.0016     13.2080    123.4444
  1807.2000      8.0434      2.4677      0.1123     11.0457    134.6073
  1807.3000      8.0954      2.5015      0.0787      8.9976    139.4820
  1807.4000      8.0954      2.5152      0.1240      8.1669    139.8550
  1807.5000      8.1221      2.5121      0.1300      8.3580    141.6298
  1807.6000      8.1221      2.5017      0.1533      8.9866    156.5949
  1807.7000      8.1221      2.4914      0.1166      9.6096    171.9568
  1807.8000      8.0584      2.5060      0.0828      8.7276    166.8587
  1807.9000      8.0584      2.5486      0.1573      6.1469    151.4158
  1808.0000      7.9467      2.5705      0.0753      4.8178    147.3602
  1808.1000      7.9467      2.5557     -0.0042      5.7134    154.5813
  1808.2000      7.9467      2.5419      0.0884      6.5495    156.1715
  1808.3000      7.9258      2.5471      0.0736      6.2366    149.5681
  1808.4000      7.9258      2.5536      0.0630      5.8441    144.5249
  1808.5000      7.9249      2.5427      0.0035      6.5043    149.5666
  1808.6000      7.9249      2.5230      0.0102      7.6990    164.2542
  1808.7000      7.9249      2.5114      0.0625      8.4000    178.4854
  1808.8000      7.9254      2.5071      0.0179      8.6617    182.3744
  1808.9000      7.9254      2.5054      0.0648      8.7660    174.1304
  1809.0000      7.9213      2.5098      0.0601      8.4990    165.2772
  1809.1000      7.9213      2.5121      0.1588      8.3593    162.7557
  1809.2000      7.9213      2.4933      0.0690      9.4960    162.4067
  1809.3000      7.9216      2.4554      0.0752     11.7962    153.6668
  1809.4000      7.9216      2.3994      0.0382     15.1901    132.4758
  1809.5000      7.9438      2.3041      0.0639     20.9633    117.7323
  1809.6000      7.9438      2.1587      0.0985     29.7755    121.2137
  1809.7000      7.9438      2.0019      0.0154     39.2770    126.5180
  1809.8000      7.9603      1.8898      0.0716     46.0732    123.9527
  1809.9000      7.9603      1.8297     -0.0097     49.7132    121.8210
  1810.0000      7.9923      1.7830      0.0471     52.5443    119.3640
  1810.1000      7.9923      1.7127     -0.0052     56.8045    113.3740
  1810.2000      7.9923      1.6254      0.0441     62.0992    104.6160
  1810.3000      8.1736      1.5501      0.1491     66.6614     92.8523
  1810.4000      8.1736      1.5088      0.1276     69.1648     82.1543
  1810.5000      8.1972      1.5221      0.0476     68.3548     74.3951
  1810.6000      8.1972      1.5944      0.1404     63.9745     71.0536
  1810.7000      8.1972      1.6925      0.1753     58.0331     74.9259
  1810.8000      8.1513      1.7820      0.1765     52.6035     82.0110
  1810.9000      8.1513      1.8730      0.1899     47.0913     84.8986
  1811.0000      8.2731      2.0015      0.2076     39.3009     85.2789
  1811.1000      8.2731      2.1765      0.2513     28.6944     86.7297
  1811.2000      8.2731      2.3563      0.2245     17.8021     87.9855
  1811.3000      8.2908      2.4792      0.2215     10.3503     92.7074
  1811.4000      8.2908      2.5224      0.1642      7.7332    102.7728
  1811.5000      8.0517      2.5226      0.0561      7.7210    112.9491
  1811.6000      8.0517      2.5229      0.1175      7.7002    121.7248
  1811.7000      8.0517      2.5277      0.1024      7.4111    134.3530
  1811.8000      7.9058      2.5317      0.0667      7.1670    146.0371
  1811.9000      7.9058      2.5293      0.1280      7.3161    150.7839
  1812.0000      7.8923      2.5180      0.0327      7.9998    158.9254
  1812.1000      7.8923      2.5238      0.0323      7.6494    172.5398
  1812.2000      7.8923      2.5447      0.2118      6.3848    177.9739
  1812.3000      7.8871      2.5476      0.1133      6.2068    174.6429
  1812.4000      7.8871      2.5456      0.0742      6.3297    173.1972
  1812.5000      7.8881      2.5618      0.0369      5.3471    174.1196
  1812.6000      7.8881      2.5788      0.1140      4.3180    171.2351
  1812.7000      7.8881      2.5722      0.0928      4.7140    164.3289
  1812.8000      7.8789      2.5517      0.0706      5.9571    160.3805
  1812.9000      7.8789      2.5384      0.0770      6.7632    165.6611
  1813.0000      7.8728      2.5337      0.0837      7.0469    176.7990
  1813.1000      7.8728      2.5453      0.0621      6.3482    180.7106
  1813.2000      7.8728      2.5826      0.1228      4.0851    173.4234
  1813.3000      7.8732      2.6094      0.1745      2.4631    170.9745
  1813.4000      7.8732      2.5871      0.1023      3.8102    182.5479
  1813.5000      7.8800      2.5434      0.0073      6.4603    192.7223
  1813.6000      7.8800      2.5272      0.0754      7.4439    192.4881
  1813.7000      7.8800      2.5522      0.0909      5.9247    183.8294
  1813.8000      7.8744      2.5947      0.0814      3.3541    168.3766
  1813.9000      7.8744      2.6168      0.1247      2.0103    158.2903
  1814.0000      7.8824      2.6065      0.0651      2.6346    161.6254
  1814.1000      7.8824      2.5811      0.1168      4.1739    170.4204
  1814.2000      7.8824      2.5606      0.0364      5.4187    173.5314
  1814.3000      7.8833      2.5602      0.0522      5.4430    174.6945
  1814.4000      7.8833      2.5733      0.1396      4.6483    183.1044
  1814.5000      7.8754      2.5775      0.0865      4.3919    195.2451
  1814.6000      7.8754      2.5777      0.0101      4.3847    197.4708
  1814.7000      7.8754      2.5841      0.1063      3.9964    185.5051
  1814.8000      7.8812      2.5814      0.0890      4.1577    172.4257
  1814.9000      7.8812      2.5619      0.1246      5.3366    161.2619
  1815.0000      7.8887      2.5436     -0.1015      6.4472    146.8629
  1815.1000      7.8887      2.5330      0.0357      7.0915    136.8713
  1815.2000      7.8887      2.5121      0.0465      8.3574    135.4459
  1815.3000      7.8826      2.4877     -0.0434      9.8393    129.4957
  1815.4000      7.8826      2.4850      0.0680      9.9994    114.6682
  1815.5000      7.8938      2.5008      0.0734      9.0409    104.2042
  1815.6000      7.8938      2.5230      0.0531      7.6987    106.8062
  1815.7000      7.8938      2.5462      0.1236      6.2890    116.9024
  1815.8000      7.8934      2.5522      0.1285      5.9249    125.3062
  1815.9000      7.8934      2.5424     -0.0559      6.5223    139.1376
  1816.0000      7.8979      2.5474      0.0482      6.2195    165.1514
  1816.1000      7.8979      2.5690      0.0927      4.9062    184.4986
  1816.2000      7.8979      2.5883      0.1202      3.7400    179.3418
  1816.3000      7.8912      2.6005      0.0782      3.0007    158.9757
  1816.4000      7.8912      2.5992      0.1495      3.0807    144.4818
  1816.5000      7.8917      2.5777      0.0131      4.3836    144.2523
  1816.6000      7.8917      2.5474      0.0388      6.2172    145.2759
  1816.7000      7.8917      2.5268     -0.0215      7.4680    129.4749
  1816.8000      7.8814      2.5268      0.0127      7.4690    106.5922
  1816.9000      7.8814      2.5400      0.0477      6.6694    104.3313
  1817.0000      7.8721      2.5648      0.0197      5.1645    118.5165
  1817.1000      7.8721      2.6127      0.1127      2.2636    122.9381
  1817.2000      7.8721      2.6657      0.2068     -0.9537    120.8579
  1817.3000      7.8556      2.6911      0.1784     -2.4939    130.6510
  1817.4000      7.8556      2.6953      0.0873     -2.7427    149.9844
