~Version Information
VERS.                      2.0: CWLS Log ASCII Standard - VERSION 2.0
WRAP.                       NO: One line per depth step
~Well Information Block
STRT.FT               430.0000: 
STOP.FT              2417.0000: 
STEP.FT                 0.1000: 
NULL.                -999.2500: 
COMP.          Evergreen Operating Corporation: COMPANY
WELL.          McCullough 34-32: WELL
FLD.           Purgatorie River: FIELD
LOC.           261' FSL & 2098' FEL: LOCATION
PROV.                 Colorado: PROVINCE
CNTY.               Las Animas: COUNTRY
SRVC.                Patterson: SERVICE COMPANY
DATE.          Mon May 17 11:25:23 2004: LOG DATE
UWI.           05 071 07953 00: UNIQUE WELL ID
~Curve Information Block
DEPT.FT            0 000 00 00: Depth
DCAL.in                       : CDL Caliper
RHOB.g/cc                     : CDL Bulk Density
RHOC.g/cc                     : CDL Density Correction
DPOR.pu                       : CDL Density Porosity
NPOR.pu                       : Neutron Porosity
GR.GAPI                       : Gamma Ray
~Parameter Information Block
~A  Depth       DCAL        RHOB        RHOC        DPOR        NPOR         GR     
# ...
  1217.2000      8.2710      2.5557      0.1562      5.7140     16.9883     58.1886
  1217.3000      8.2535      2.5622      0.1272      5.3199     17.6291     60.6373
  1217.4000      8.2535      2.5649      0.0948      5.1603     18.5138     61.6841
  1217.5000      8.2573      2.5795      0.1023      4.2713     18.7574     62.8784
  1217.6000      8.2573      2.5905      0.1741      3.6053     18.4587     64.5203
  1217.7000      8.2573      2.5828      0.0771      4.0730     18.4303     67.0502
  1217.8000      8.2594      2.5710      0.0619      4.7882     18.7385     70.5314
  1217.9000      8.2594      2.5609      0.0666      5.3994     18.9224     75.4107
  1218.0000      8.2564      2.5464      0.0290      6.2770     19.1085     81.0603
  1218.1000      8.2564      2.5358      0.0261      6.9220     19.9566     86.7864
  1218.2000      8.2564      2.5342      0.0401      7.0198     21.4485     92.0347
  1218.3000      8.2573      2.5391      0.0228      6.7240     22.8184     97.3040
  1218.4000      8.2573      2.5520      0.0207      5.9384     23.5813    104.8518
  1218.5000      8.2563      2.5703      0.0528      4.8306     24.1059    113.6477
  1218.6000      8.2563      2.5859      0.0690      3.8847     24.4923    121.1796
  1218.7000      8.2563      2.5961      0.0406      3.2644     24.2207    126.1710
  1218.8000      8.2666      2.6000      0.0683      3.0307     23.9382    129.4933
  1218.9000      8.2666      2.5998      0.0457      3.0452     24.5501    132.2424
  1219.0000      8.2775      2.6072      0.0618      2.5920     25.2434    131.8028
  1219.1000      8.2775      2.6244      0.0936      1.5517     25.1472    126.5256
  1219.2000      8.2775      2.6373      0.0821      0.7677     24.6575    119.2069
  1219.3000      8.2832      2.6364      0.0825      0.8233     24.3008    115.7415
  1219.4000      8.2832      2.6241      0.0499      1.5682     24.3553    117.5309
  1219.5000      8.3035      2.6050      0.0807      2.7254     24.4523    119.4916
  1219.6000      8.3035      2.5784      0.0578      4.3384     24.1404    119.1484
  1219.7000      8.3035      2.5522      0.0092      5.9284     23.8970    118.4817
  1219.8000      8.3096      2.5390      0.0279      6.7264     23.9732    119.6421
  1219.9000      8.3096      2.5430      0.0339      6.4841     24.2196    119.8829
  1220.0000      8.3163      2.5615      0.0617      5.3657     24.6780    116.3000
  1220.1000      8.3163      2.5811      0.0710      4.1773     25.2306    115.1634
  1220.2000      8.3163      2.5881      0.0795      3.7518     25.4820    119.8187
  1220.3000      8.3174      2.5933      0.0248      3.4357     25.3959    123.3876
  1220.4000      8.3174      2.6180      0.0759      1.9381     25.5326    122.2398
  1220.5000      8.3453      2.6540      0.1218     -0.2439     25.9997    116.7636
  1220.6000      8.3453      2.6789      0.0964     -1.7507     26.2404    108.1691
  1220.7000      8.3453      2.6880      0.0858     -2.3028     26.1450    101.8444
  1220.8000      8.3130      2.6801      0.1553     -1.8258     26.3624    101.6615
  1220.9000      8.3130      2.6560      0.0816     -0.3643     27.1081    104.2293
  1221.0000      8.3088      2.6353      0.0736      0.8892     27.5182    107.0316
  1221.1000      8.3088      2.6365      0.0658      0.8207     27.0920    110.2233
  1221.2000      8.3088      2.6511      0.0896     -0.0672     26.4570    110.8184
  1221.3000      8.3142      2.6579      0.0953     -0.4795     26.2264    108.2129
  1221.4000      8.3142      2.6540      0.0622     -0.2445     26.5547    108.3891
  1221.5000      8.3113      2.6495      0.0427      0.0316     26.9572    118.8854
  1221.6000      8.3113      2.6506      0.0373     -0.0350     26.8537    136.9796
  1221.7000      8.3113      2.6630      0.0113     -0.7859     26.3638    148.2107
  1221.8000      8.3157      2.6811      0.0912     -1.8863     25.6171    146.7561
  1221.9000      8.3157      2.6915      0.0441     -2.5147     24.8353    138.5708
  1222.0000      8.3198      2.6968      0.0950     -2.8360     24.5294    128.3970
  1222.1000      8.3198      2.7009      0.0914     -3.0825     24.5450    117.4200
  1222.2000      8.3198      2.6968      0.0699     -2.8373     24.5557    110.2644
  1222.3000      8.3119      2.6863      0.0819     -2.1976     24.6374    111.1460
  1222.4000      8.3119      2.6764      0.1134     -1.6028     24.9330    116.6875
  1222.5000      8.3336      2.6720      0.0245     -1.3322     25.3451    119.4757
  1222.6000      8.3336      2.6767      0.0775     -1.6201     25.5601    118.7874
  1222.7000      8.3336      2.6868      0.0605     -2.2330     25.5839    119.6733
  1222.8000      8.3260      2.6906      0.1559     -2.4604     25.9227    122.5297
  1222.9000      8.3260      2.6765      0.1046     -1.6044     26.5378    124.7668
  1223.0000      8.3251      2.6557      0.0426     -0.3437     26.7217    126.1498
  1223.1000      8.3251      2.6509      0.0592     -0.0543     26.5563    127.5046
  1223.2000      8.3251      2.6624      0.0914     -0.7509     26.6390    129.3500
  1223.3000      8.3180      2.6723      0.1232     -1.3531     26.8585    132.0867
  1223.4000      8.3180      2.6668      0.0991     -1.0188     26.9190    136.8918
  1223.5000      8.3271      2.6465      0.1277      0.2117     27.0079    143.7107
  1223.6000      8.3271      2.6197      0.0872      1.8358     27.1579    148.3475
  1223.7000      8.3271      2.5974      0.0594      3.1876     27.1567    145.0630
  1223.8000      8.3337      2.5857      0.0369      3.8977     27.1685    137.3572
  1223.9000      8.3337      2.5790      0.0470      4.3032     27.2768    136.6391
  1224.0000      8.3322      2.5747      0.0491      4.5625     27.1485    147.3984
  1224.1000      8.3322      2.5793      0.0112      4.2853     26.8327    160.6568
  1224.2000      8.3322      2.5867      0.0886      3.8340     26.7535    163.7168
  1224.3000      8.3524      2.5840      0.0908      3.9972     26.8398    156.7166
  1224.4000      8.3524      2.5791      0.0543      4.2987     26.6342    149.0715
  1224.5000      8.3578      2.5811      0.0303      4.1771     26.3846    144.3858
  1224.6000      8.3578      2.5743      0.0997      4.5883     26.8264    140.3792
  1224.7000      8.3578      2.5438      0.0740      6.4387     28.0201    135.0066
  1224.8000      8.3615      2.5022      0.0417      8.9594     29.1429    129.6946
  1224.9000      8.3615      2.4638      0.0453     11.2849     29.3827    128.2718
  1225.0000      8.3775      2.4249      0.0436     13.6410     29.1211    133.1941
  1225.1000      8.3775      2.3834      0.0309     16.1593     29.1827    142.5419
  1225.2000      8.3775      2.3527     -0.0148     18.0154     29.5158    149.1659
  1225.3000      8.3696      2.3465      0.0201     18.3927     29.7788    149.2761
  1225.4000      8.3696      2.3578      0.0656     17.7077     29.9022    147.2213
  1225.5000      8.4051      2.3707      0.0625     16.9262     29.8551    145.7469
  1225.6000      8.4051      2.3765      0.1018     16.5754     29.5606    143.3123
  1225.7000      8.4051      2.3763      0.1400     16.5851     29.0478    142.1147
  1225.8000      8.4075      2.3801      0.1566     16.3568     28.6939    143.9621
  1225.9000      8.4075      2.3956      0.1893     15.4174     28.8010    144.2548
  1226.0000      8.3956      2.4226      0.1646     13.7799     29.0253    144.0475
  1226.1000      8.3956      2.4517      0.1863     12.0210     28.9015    145.8125
  1226.2000      8.3956      2.4757      0.0924     10.5606     28.3437    145.1379
  1226.3000      8.4098      2.5039      0.0927      8.8523     27.6228    140.7723
  1226.4000      8.4098      2.5343      0.0873      7.0115     27.3447    135.6571
  1226.5000      8.4321      2.5484      0.0748      6.1590     27.5959    131.5500
  1226.6000      8.4321      2.5419      0.0864      6.5542     28.1288    130.6856
  1226.7000      8.4321      2.5294      0.0953      7.3079     28.8917    134.8475
