~Version Information
 VERS.                                  2.0 : CWLS LAS VERSION
 WRAP.                                   NO : WRAPING MODE
 SWARE .                 MController 2.5.0I : SOFTWARE VERSION
~Well Information
 WELL.                           J&P 12-33v : WELL
 COMP.             Petrogulf Operating Corp : COMPANY
 FLD.                      Purgatorie River : FIELD
 LOC.                NW/SE Sec 12 T33S R68W : LOCATION
 DATE.                              8/27/04 : DATE(S) LOGGED
 SRVC.       Blanco Geological services LLC : SERVICE COMPANY
 STAT.                                   CO : STATE
 CNTY.                           Las Animas : COUNTY
 CTRY.                                  USA : COUNTRY
 API.                       05-071-08091-00 : API NUMBER
 STRT.FT                             770.00 : START DEPTH
 STOP.FT                            2580.00 : STOP DEPTH
 STEP.FT                               1.00 : DEPTH INCREMENT
 NULL.                                -9999 : NULL VALUE
~Curve information
 DEPTH.FT                                   :
 ROP.MIN/FT                                 :
 GAS.UNITS                                  :
~ASCII Log data
# ...
      2370.0          0.3          7.6 
      2371.0          0.3          7.4 
      2372.0          0.3          7.4 
      2373.0          0.3          8.6 
      2374.0          0.3         11.6 
      2375.0          0.4         11.4 
      2376.0          0.4          9.7 
      2377.0          0.4          8.8 
      2378.0          6.1         51.2 
      2379.0          0.5         17.2 
      2380.0          0.5         13.2 
      2381.0          0.4         15.8 
      2382.0          0.5         18.9 
      2383.0          0.4         20.1 
      2384.0          0.4         19.5 
      2385.0          0.4         17.9 
      2386.0          0.3         16.8 
      2387.0          0.4         14.6 
      2388.0          0.3         13.1 
      2389.0          0.7         11.3 
      2390.0          1.0          9.0 
      2391.0          0.9          7.8 
      2392.0          0.4          7.2 
      2393.0          0.4          7.2 
      2394.0          0.3          7.3 
      2395.0          0.2          7.9 
      2396.0          0.2          8.0 
      2397.0          0.3          8.1 
      2398.0          0.3          8.2 
      2399.0          0.3          8.4 
      2400.0          0.2          8.6 
      2401.0          0.3          8.7 
      2402.0          0.4          8.3 
      2403.0          0.4         10.3 
      2404.0          0.4         12.7 
      2405.0          0.4         12.6 
      2406.0          0.4         10.1 
      2407.0          0.2          9.7 
      2408.0          0.3          9.4 
      2409.0          5.1         51.3 
      2410.0          0.8         34.3 
      2411.0          0.6         12.2 
      2412.0          0.4         13.6 
      2413.0          0.4         15.4 
      2414.0          0.4         15.6 
      2415.0          0.2         15.9 
      2416.0          0.3         16.1 
      2417.0          0.2         16.3 
      2418.0          0.3         16.3 
      2419.0          0.4         16.2 
      2420.0          0.4         14.8 
      2421.0          0.5         13.4 
      2422.0          0.5         11.8 
      2423.0          0.4         11.0 
      2424.0          0.4         10.3 
      2425.0          0.5          8.3 
      2426.0          0.5          6.3 
      2427.0          0.4          5.6 
      2428.0          0.5          6.4 
      2429.0          0.4          7.4 
      2430.0          0.4          8.0 
      2431.0          0.4          8.2 
      2432.0          0.4          8.1 
      2433.0          0.4          8.0 
      2434.0          0.4          8.1 
      2435.0          0.5          8.0 
      2436.0          0.5          8.1 
      2437.0          0.4          8.1 
      2438.0          0.3          8.0 
      2439.0          6.0         47.6 
      2440.0          0.3         33.9 
      2441.0          0.5         22.9 
      2442.0          0.6         12.8 
      2443.0          0.6         11.5 
      2444.0          0.6         13.1 
      2445.0          0.6         14.7 
      2446.0          0.6         15.3 
      2447.0          0.7         14.3 
      2448.0          0.7         12.0 
      2449.0          0.6          9.6 
      2450.0          0.6          8.3 
      2451.0          0.6          7.3 
      2452.0          0.8          7.4 
      2453.0          0.6          6.9 
      2454.0          0.6          6.8 
      2455.0          0.7          7.1 
      2456.0          0.6          7.4 
      2457.0          0.5          7.3 
      2458.0          0.3          7.0 
      2459.0          0.3          6.9 
      2460.0          0.4          6.7 
      2461.0          0.4          6.9 
      2462.0          0.5          6.7 
      2463.0          0.5          6.6 
      2464.0          0.5          6.4 
      2465.0          0.5          7.3 
      2466.0          0.5          8.3 
      2467.0          0.5          8.3 
      2468.0          0.5          7.7 
      2469.0          9.3         50.8 
      2470.0          1.1         37.9 
      2471.0          0.8         15.6 
      2472.0          0.7         17.5 
      2473.0          0.6         17.8 
      2474.0          0.5         18.5 
      2475.0          0.6         17.4 
      2476.0          0.5         16.4 
      2477.0          0.5         14.4 
      2478.0          0.5         12.1 
      2479.0          0.5         10.3 
      2480.0          0.5          9.6 
      2481.0          0.5          8.6 
      2482.0          0.5          8.6 
      2483.0          0.5          8.6 
      2484.0          0.5          9.1 
      2485.0          0.5          8.6 
      2486.0          0.5          8.3 
      2487.0          0.5          8.5 
      2488.0          0.5          8.3 
      2489.0          0.5          8.2 
      2490.0          0.5          8.5 
      2491.0          0.5          7.9 
      2492.0          0.5          7.4 
      2493.0          0.5          7.4 
      2494.0          0.6          7.7 
      2495.0          0.7          7.6 
      2496.0          0.6          6.8 
      2497.0          0.5          6.9 
      2498.0          0.5          6.6 
      2499.0          5.6         33.7 
      2500.0          0.7         25.1 
      2501.0          0.5         17.0 
      2502.0          0.5         18.9 
      2503.0          0.5         19.6 
      2504.0          0.5         19.3 
      2505.0          0.6         19.8 
      2506.0          0.4         18.8 
      2507.0          0.4         18.4 
      2508.0          0.3         18.7 
      2509.0          0.4         18.2 
      2510.0          0.4         17.1 
      2511.0          0.4         14.8 
      2512.0          0.4         13.1 
      2513.0          0.4         11.9 
      2514.0          0.4         10.7 
      2515.0          0.4         10.7 
      2516.0          0.4         10.2 
      2517.0          0.4          9.8 
      2518.0          0.4          9.6 
      2519.0          0.4          9.6 
      2520.0          0.4         10.0 
      2521.0          0.4          9.5 
      2522.0          0.4          9.2 
      2523.0          0.4          9.0 
      2524.0          0.4          9.3 
      2525.0          0.4          9.5 
      2526.0          0.4          9.8 
      2527.0          0.4          9.2 
      2528.0          0.4          9.4 
      2529.0          9.6         67.6 
      2530.0          0.5         23.5 
      2531.0          0.5         19.8 
      2532.0          0.4         16.2 
      2533.0          0.5         13.7 
      2534.0          0.4         12.0 
      2535.0          0.4         11.0 
      2536.0          0.6         10.6 
      2537.0          0.6          9.4 
      2538.0          0.5          9.1 
      2539.0          0.3          9.1 
      2540.0          0.5          9.2 
      2541.0          0.6          9.4 
      2542.0          0.5          9.4 
      2543.0          0.4          9.3 
      2544.0          0.5          9.1 
      2545.0          0.6          9.2 
      2546.0          0.5          8.9 
      2547.0          0.5          8.9 
      2548.0          0.4          8.8 
      2549.0          0.4          8.6 
      2550.0          0.4          8.7 
      2551.0          0.6          8.8 
      2552.0          0.4          8.7 
      2553.0          0.4          8.1 
      2554.0          0.4          8.2 
      2555.0          0.3          8.5 
      2556.0          0.4          8.5 
      2557.0          0.3          8.2 
      2558.0          0.4          8.1 
      2559.0          4.8         34.3 
      2560.0          0.4         26.5 
      2561.0          0.4         18.2 
      2562.0          0.5         15.0 
      2563.0          0.6         16.1 
      2564.0          0.3         16.9 
      2565.0          0.4         17.9 
      2566.0          0.4         18.3 
      2567.0          0.5         18.2 
      2568.0          0.7         16.7 
      2569.0          0.7         16.0 
