~Version Information
VERS.                      2.0: CWLS Log ASCII Standard - VERSION 2.0
WRAP.                       NO: One line per depth step
~Well Information Block
STRT.FT               -11.5000: 
STOP.FT              2395.2500: 
STEP.FT                 0.2500: 
NULL.                -999.2500: 
COMP.          Petrogulf Corporation: COMPANY
WELL.            Montoya 7-21V: WELL
FLD.           Purgatorie River: FIELD
LOC.           738' FSL & 2070' FWL--: LOCATION
CNTY.               Las Animas: COUNTY
SRVC.                         : SERVICE COMPANY
DATE.          Mon Aug 30 15:10:00 2004: LOG DATE
UWI.                          : UNIQUE WELL ID
STAT.                       CO: STATE
~Curve Information Block
DEPT.FT            0 000 00 00: Depth
CCL.                          : Casing Collar Locator
TT3.usec                      : CBL 3' Travel Time
AMP3.mV                       : CBL 3' Amplitude
GR.GAPI                       : Gamma Ray
~Parameter Information Block
~A  Depth       CCL         TT3         AMP3         GR     
# ...
   457.5000      0.0000    298.4238     24.8043    128.2130
   457.7500      0.0000    291.7722     25.4249    128.1659
   458.0000      0.0000    284.1686     26.0305    126.3872
   458.2500      0.0000    277.3488     26.6026    124.2400
   458.5000      0.0000    272.5330     27.0938    123.0578
   458.7500      0.0000    269.8419     27.4651    123.0383
   459.0000      0.0000    268.6422     27.7259    123.2120
   459.2500      0.0000    268.2014     27.9322    122.5295
   459.5000      0.0000    268.0414     28.1420    121.0802
   459.7500      0.0000    267.9538     28.3681    120.0454
   460.0000      0.0000    267.8916     28.5679    120.4397
   460.2500      0.0000    267.8724     28.6814    122.0756
   460.5000      0.0000    267.9076     28.6930    123.6146
   460.7500      0.0000    267.9698     28.6571    123.4815
   461.0000      0.0000    268.0129     28.6491    121.2506
   461.2500      0.0000    268.0169     28.6922    118.6157
   461.5000      0.0000    267.9986     28.7515    118.5557
   461.7500      0.0000    267.9767     28.7952    122.8184
   462.0000      0.0000    267.9478     28.8360    129.9132
   462.2500      0.0000    267.9050     28.9014    135.6177
   462.5000      0.0000    267.8642     28.9846    135.9293
   462.7500      0.0000    267.8646     29.0289    130.0834
   463.0000      0.0000    267.9429     28.9576    120.7562
   463.2500      0.0000    268.1008     28.7404    111.4143
   463.5000      0.0000    268.2992     28.4364    103.9721
   463.7500      0.0000    268.5167     28.1526     98.8747
   464.0000      0.0000    268.8514     27.9566     96.2767
   464.2500      0.0000    269.5888     27.8361     96.1548
   464.5000      0.0000    271.1144     27.7280     97.5415
   464.7500      0.0000    273.5762     27.5669     98.6214
   465.0000      0.0000    276.5761     27.3217     97.9794
   465.2500      0.0000    279.4252     27.0124     95.3647
   465.5000      0.0000    281.8921     26.6800     91.2639
   465.7500      0.0000    284.4964     26.3285     86.5043
   466.0000      0.0000    287.9166     25.9227     82.5610
   466.2500      0.0000    292.2522     25.4643     81.3781
   466.5000      0.0000    296.8139     25.0537     83.9181
   466.7500      0.0000    300.3793     24.8414     88.8830
   467.0000      0.0000    301.7564     24.9037     93.5042
   467.2500      0.0000    300.4502     25.1730     95.9362
   467.5000      0.0000    297.0087     25.4871     96.7232
   467.7500      0.0000    292.8195     25.6927     97.9177
   468.0000      0.0000    289.5787     25.7064    100.9423
   468.2500      0.0000    288.7427     25.5153    105.3002
   468.5000      0.0000    290.9204     25.1653    109.0763
   468.7500      0.0000    295.3659     24.7562    110.4456
   469.0000      0.0000    300.3136     24.4081    109.0091
   469.2500      0.0000    304.1795     24.2030    106.0378
   469.5000      0.0000    306.4529     24.1510    103.2864
   469.7500      0.0000    307.5079     24.1953    101.4673
   470.0000      0.0000    307.9164     24.2462    100.0186
   470.2500      0.0000    308.0478     24.2397     98.2012
   470.5000      0.0000    308.0611     24.1778     96.0283
   470.7500      0.0000    308.0109     24.1088     94.0912
   471.0000      0.0000    307.9230     24.0796     92.8203
   471.2500      0.0000    307.8192     24.1127     92.1810
   471.5000      0.0000    307.7140     24.2087     92.1566
   471.7500      0.0000    307.6133     24.3377     93.2656
   472.0000      0.0000    307.5164     24.4383     96.0514
   472.2500      0.0000    307.4219     24.4481     99.9197
   472.5000      0.0000    307.2986     24.3580    103.0289
   472.7500      0.0000    307.0130     24.2496    103.7018
   473.0000      0.0000    306.2317     24.2673    101.7889
   473.2500      0.0000    304.4438     24.5234     98.5817
   473.5000      0.0000    301.2635     25.0071     95.6340
   473.7500      0.0000    296.8788     25.5786     93.7205
   474.0000      0.0000    292.2309     26.0483     92.6035
   474.2500      0.0000    288.7368     26.2667     91.6136
   474.5000      0.0000    287.7386     26.1639     90.5250
   474.7500      0.0000    289.7979     25.7604     89.7730
   475.0000      0.0000    294.1440     25.1675     89.6383
   475.2500      0.0000    299.0094     24.5506     89.5469
   475.5000      0.0000    302.8335     24.0510     88.6852
   475.7500      0.0000    305.1303     23.7246     87.1364
   476.0000      0.0000    306.2849     23.5303     85.9253
   476.2500      0.0000    306.8617     23.3478     85.8330
   476.5000      0.0000    307.2067     23.0259     86.3693
   476.7500      0.0000    307.4541     22.4633     86.0386
   477.0000      0.0000    307.6502     21.6690     83.7535
   477.2500      0.0000    307.8270     20.7485     80.0659
   477.5000      0.0000    308.0088     19.8354     76.7443
   477.7500      0.0000    308.1967     19.0315     75.0628
   478.0000      0.0000    308.3692     18.3861     74.8413
   478.2500      0.0000    308.4984     17.9002     75.2086
   478.5000      0.0000    308.5714     17.5480     75.6640
   478.7500      0.0000    308.5984     17.3004     75.9858
   479.0000      0.0000    308.6053     17.1296     75.6676
   479.2500      0.0000    308.6231     16.9935     74.2222
   479.5000      0.0000    308.6791     16.8318     72.1758
   479.7500      0.0000    308.7821     16.6017     71.3910
   480.0000      0.0000    308.9068     16.3274     73.9316
   480.2500      0.0000    309.0062     16.0971     80.3287
   480.5000      0.0000    309.0419     15.9952     89.0731
   480.7500      0.0000    309.0029     16.0387     97.8586
   481.0000      0.0000    308.9017     16.1804    104.9486
   481.2500      0.0000    308.7635     16.3558    109.4824
   481.5000      0.0000    308.6147     16.5112    111.3827
   481.7500      0.0000    308.4764     16.6046    111.3512
   482.0000      0.0000    308.3678     16.6142    110.2531
   482.2500      0.0000    308.3087     16.5677    108.1855
   482.5000      0.0000    308.3128     16.5463    104.5633
   482.7500      0.0000    308.3760     16.6389     99.0715
   483.0000      0.0000    308.4748     16.8883     92.0062
   483.2500      0.0000    308.5763     17.2795     83.6877
   483.5000      0.0000    308.6537     17.7680     74.2129
   483.7500      0.0000    308.7191     18.3079     64.1181
   484.0000      0.0000    308.8613     18.8484     54.9669
   484.2500      0.0000    309.5055     19.2990     48.9135
   484.5000      0.0000    311.9401     19.5077     47.5414
   484.7500      0.0000    318.8232     19.2998     50.8349
   485.0000      0.0000    333.2130     18.5862     56.9315
   485.2500      0.0000    354.8710     17.4736     63.1164
   485.5000      0.0000    376.5774     16.2784     67.4193
   485.7500      0.0000    386.8954     15.3795     69.3448
   486.0000      0.0000    379.7807     14.9889     69.3224
   486.2500      0.0000    360.4799     15.0401     68.0611
   486.5000      0.0000    340.1158     15.2953     66.4458
   486.7500      0.0000    326.1632     15.5387     65.4260
   487.0000      2.0000    319.5435     15.6738     65.6621
   487.2500      2.0000    318.2590     15.7141     67.3100
   487.5000      0.0000    321.1571     15.7567     70.1103
   487.7500      0.0000    328.2373     15.9881     73.6782
   488.0000      0.0000    338.1026     16.6553     77.8810
   488.2500      0.0000    345.7295     17.9348     82.7482
   488.5000      0.0000    344.4251     19.7829     87.7247
   488.7500      0.0000    331.5926     21.9380     91.4377
   489.0000      0.0000    311.6682     24.0817     92.9464
   489.2500      0.0000    292.3090     25.9723     93.0164
   489.5000      0.0000    278.5222     27.4783     93.2762
   489.7500      0.0000    270.8207     28.6145     94.1353
   490.0000      0.0000    267.2517     29.5588     94.3623
   490.2500      0.0000    265.7562     30.5297     92.7953
   490.5000      0.0000    265.0963     31.6002     89.6700
   490.7500      0.0000    264.7410     32.6440     86.0869
