~Version Information
VERS.                      2.0: CWLS Log ASCII Standard - VERSION 2.0
WRAP.                       NO: One line per depth step
~Well Information Block
STRT.FT               260.0000: 
STOP.FT              2272.0000: 
STEP.FT                 0.2500: 
NULL.                -999.2500: 
COMP.          Pioneer Natural Resources: COMPANY
WELL.            Moo Moo 31-36: WELL
FLD.           Purgatoire River: FIELD
LOC.           612' FNL & 2326' FEL: LOCATION
PROV.                 Colorado: PROVINCE
CNTY.               Las Animas: COUNTRY
SRVC.                Patterson: SERVICE COMPANY
DATE.          Fri Jun 17 07:45:39 2005: LOG DATE
UWI.           05 071 08395 00: UNIQUE WELL ID
~Curve Information Block
DEPT.FT            0 000 00 00: Depth
DIR.Ohm-m                     : IEL Induction Resistivity
SN.Ohm-m                      : IEL Short Normal
SP.mV                         : IEL Spontaneous Potential
GR.GAPI                       : Gamma Ray
~Parameter Information Block
~A  Depth       DIR          SN          SP          GR     
# ...
   930.0000     23.9890   2000.0000   2000.0000    152.8822
   930.2500     23.4258   2000.0000   2000.0000    155.6330
   930.5000     23.1356   2000.0000   2000.0000    158.9572
   930.7500     23.1178   2000.0000   2000.0000    160.0279
   931.0000     23.3445   2000.0000   2000.0000    159.9615
   931.2500     23.7631   2000.0000   2000.0000    159.2832
   931.5000     24.2998   2000.0000   2000.0000    157.2938
   931.7500     24.8740   2000.0000   2000.0000    154.2574
   932.0000     25.4228   2000.0000   2000.0000    144.6544
   932.2500     25.9292   2000.0000   2000.0000    134.3432
   932.5000     26.4405   2000.0000   2000.0000    114.6991
   932.7500     27.0661   2000.0000   2000.0000    100.6633
   933.0000     27.9510   2000.0000   2000.0000     80.9351
   933.2500     29.2335   2000.0000   2000.0000     69.5676
   933.5000     31.0070   2000.0000   2000.0000     55.7688
   933.7500     33.2956   2000.0000   2000.0000     48.7171
   934.0000     36.0479   2000.0000   2000.0000     40.9708
   934.2500     39.1420   2000.0000   2000.0000     37.4119
   934.5000     42.3858   2000.0000   2000.0000     34.1141
   934.7500     45.5132   2000.0000   2000.0000     36.2594
   935.0000     48.2057   2000.0000   2000.0000     36.1377
   935.2500     50.1679   2000.0000   2000.0000     36.7516
   935.5000     51.2374   2000.0000   2000.0000     38.1210
   935.7500     51.4568   2000.0000   2000.0000     42.4370
   936.0000     51.0338   2000.0000   2000.0000     43.6955
   936.2500     50.1998   2000.0000   2000.0000     44.4333
   936.5000     49.0556   2000.0000   2000.0000     45.6231
   936.7500     47.5294   2000.0000   2000.0000     46.5236
   937.0000     45.4877   2000.0000   2000.0000     48.1150
   937.2500     42.9278   2000.0000   2000.0000     49.6330
   937.5000     40.0756   2000.0000   2000.0000     53.7540
   937.7500     37.2880   2000.0000   2000.0000     58.6332
   938.0000     34.8641   2000.0000   2000.0000     70.3930
   938.2500     32.9317   2000.0000   2000.0000     81.2685
   938.5000     31.4507   2000.0000   2000.0000    100.6557
   938.7500     30.2784   2000.0000   2000.0000    114.0201
   939.0000     29.2453   2000.0000   2000.0000    131.7089
   939.2500     28.2109   2000.0000   2000.0000    140.6027
   939.5000     27.0935   2000.0000   2000.0000    148.7743
   939.7500     25.8725   2000.0000   2000.0000    151.1790
   940.0000     24.5794   2000.0000   2000.0000    151.8173
   940.2500     23.2867   2000.0000   2000.0000    151.2748
   940.5000     22.0901   2000.0000   2000.0000    150.2976
   940.7500     21.0813   2000.0000   2000.0000    149.9414
   941.0000     20.3186   2000.0000   2000.0000    150.1702
   941.2500     19.8137   2000.0000   2000.0000    150.9743
   941.5000     19.5408   2000.0000   2000.0000    153.2642
   941.7500     19.4550   2000.0000   2000.0000    155.3039
   942.0000     19.5066   2000.0000   2000.0000    158.2862
   942.2500     19.6442   2000.0000   2000.0000    159.6861
   942.5000     19.8158   2000.0000   2000.0000    160.4173
   942.7500     19.9795   2000.0000   2000.0000    160.1523
   943.0000     20.1201   2000.0000   2000.0000    159.7005
   943.2500     20.2535   2000.0000   2000.0000    160.1731
   943.5000     20.4154   2000.0000   2000.0000    162.8467
   943.7500     20.6443   2000.0000   2000.0000    165.7473
   944.0000     20.9695   2000.0000   2000.0000    170.3498
   944.2500     21.4059   2000.0000   2000.0000    172.3970
   944.5000     21.9512   2000.0000   2000.0000    172.2246
   944.7500     22.5862   2000.0000   2000.0000    169.6388
   945.0000     23.2782   2000.0000   2000.0000    162.8189
   945.2500     23.9903   2000.0000   2000.0000    157.0985
   945.5000     24.6922   2000.0000   2000.0000    147.9269
   945.7500     25.3689   2000.0000   2000.0000    141.9241
   946.0000     26.0175   2000.0000   2000.0000    133.8188
   946.2500     26.6300   2000.0000   2000.0000    129.2897
   946.5000     27.1717   2000.0000   2000.0000    123.6017
   946.7500     27.5774   2000.0000   2000.0000    120.0634
   947.0000     27.7752   2000.0000   2000.0000    114.4797
   947.2500     27.7206   2000.0000   2000.0000    110.6740
   947.5000     27.4126   2000.0000   2000.0000    105.7555
   947.7500     26.8786   2000.0000   2000.0000    103.6529
   948.0000     26.1521   2000.0000   2000.0000    102.9648
   948.2500     25.2676   2000.0000   2000.0000    104.1656
   948.5000     24.2696   2000.0000   2000.0000    108.0971
   948.7500     23.2179   2000.0000   2000.0000    111.9231
   949.0000     22.1762   2000.0000   2000.0000    118.9282
   949.2500     21.1935   2000.0000   2000.0000    123.8395
   949.5000     20.2946   2000.0000   2000.0000    130.5012
   949.7500     19.4873   2000.0000   2000.0000    134.2851
   950.0000     18.7789   2000.0000   2000.0000    139.5271
   950.2500     18.1893   2000.0000   2000.0000    143.2218
   950.5000     17.7506   2000.0000   2000.0000    149.3777
   950.7500     17.4931   2000.0000   2000.0000    153.4304
   951.0000     17.4279   2000.0000   2000.0000    157.5430
   951.2500     17.5356   2000.0000   2000.0000    157.7494
   951.5000     17.7693   2000.0000   2000.0000    153.2229
   951.7500     18.0741   2000.0000   2000.0000    147.2666
   952.0000     18.4114   2000.0000   2000.0000    135.3708
   952.2500     18.7741   2000.0000   2000.0000    126.4314
   952.5000     19.1771   2000.0000   2000.0000    113.2421
   952.7500     19.6331   2000.0000   2000.0000    105.8596
   953.0000     20.1339   2000.0000   2000.0000     99.3708
   953.2500     20.6517   2000.0000   2000.0000     99.1226
   953.5000     21.1649   2000.0000   2000.0000    104.6447
   953.7500     21.6883   2000.0000   2000.0000    110.8970
   954.0000     22.2733   2000.0000   2000.0000    121.0667
   954.2500     22.9690   2000.0000   2000.0000    127.1210
   954.5000     23.7648   2000.0000   2000.0000    134.5757
   954.7500     24.5637   2000.0000   2000.0000    138.7524
   955.0000     25.2172   2000.0000   2000.0000    144.4894
   955.2500     25.6157   2000.0000   2000.0000    148.1664
   955.5000     25.7630   2000.0000   2000.0000    153.0967
   955.7500     25.7665   2000.0000   2000.0000    155.2235
   956.0000     25.7625   2000.0000   2000.0000    155.0009
   956.2500     25.8499   2000.0000   2000.0000    152.1444
   956.5000     26.0763   2000.0000   2000.0000    144.8839
   956.7500     26.4600   2000.0000   2000.0000    139.4642
   957.0000     27.0143   2000.0000   2000.0000    132.5968
   957.2500     27.7514   2000.0000   2000.0000    129.2127
   957.5000     28.6651   2000.0000   2000.0000    125.0180
   957.7500     29.7111   2000.0000   2000.0000    122.0545
   958.0000     30.8070   2000.0000   2000.0000    116.8378
   958.2500     31.8558   2000.0000   2000.0000    113.0880
   958.5000     32.7782   2000.0000   2000.0000    107.9157
   958.7500     33.5309   2000.0000   2000.0000    105.2865
   959.0000     34.1026   2000.0000   2000.0000    103.1864
   959.2500     34.5012   2000.0000   2000.0000    103.0742
   959.5000     34.7501   2000.0000   2000.0000    104.4729
   959.7500     34.8943   2000.0000   2000.0000    106.2143
   960.0000     35.0031   2000.0000   2000.0000    109.7998
   960.2500     35.1527   2000.0000   2000.0000    112.6375
   960.5000     35.3905   2000.0000   2000.0000    116.9632
   960.7500     35.7097   2000.0000   2000.0000    119.5524
   961.0000     36.0536   2000.0000   2000.0000    122.5336
   961.2500     36.3456   2000.0000   2000.0000    123.4849
   961.5000     36.5144   2000.0000   2000.0000    121.9932
   961.7500     36.4986   2000.0000   2000.0000    118.2766
   962.0000     36.2533   2000.0000   2000.0000    108.8164
   962.2500     35.7696   2000.0000   2000.0000    101.2704
   962.5000     35.0819   2000.0000   2000.0000     91.2339
   962.7500     34.2465   2000.0000   2000.0000     86.6427
   963.0000     33.3173   2000.0000   2000.0000     83.4328
   963.2500     32.3434   2000.0000   2000.0000     83.6063
