~Version Information
VERS.                      2.0: CWLS Log ASCII Standard - VERSION 2.0
WRAP.                       NO: One line per depth step
~Well Information Block
STRT.FT               294.0000: 
STOP.FT              1961.5000: 
STEP.FT                 0.2500: 
NULL.                -999.2500: 
COMP.          Pioneer Natural Resources: COMPANY
WELL.          Commander 43-26 Tr: WELL
FLD.           Purgatoire River: FIELD
LOC.           2439' FSL & 446' FEL: LOCATION
PROV.                 Colorado: PROVINCE
CNTY.               Las Animas: COUNTRY
SRVC.                Patterson: SERVICE COMPANY
DATE.          Thu Apr 14 18:26:07 2005: LOG DATE
UWI.           05 071 08341 00: UNIQUE WELL ID
~Curve Information Block
DEPT.FT            0 000 00 00: Depth
SN.Ohm-m                      : IEL Short Normal
SP.mV                         : IEL Spontaneous Potential
DIR.Ohm-m                     : IEL Induction Resistivity
GR.GAPI                       : Gamma Ray
~Parameter Information Block
~A  Depth        SN          SP         DIR          GR     
# ...
  1600.5000     11.6340     -0.8614      9.3460    159.0100
  1600.7500     11.6281     -0.6376      9.5603    155.0859
  1601.0000     11.6746     -0.4337      9.8392    148.0641
  1601.2500     11.8678     -0.2850     10.1710    142.3193
  1601.5000     12.1809     -0.2059     10.5427    131.8203
  1601.7500     12.5757     -0.1846     10.9410    123.8056
  1602.0000     13.2234     -0.1886     11.3573    111.4537
  1602.2500     14.4021     -0.1832     11.7898    104.0650
  1602.5000     16.1796     -0.1490     12.2400     96.0723
  1602.7500     18.3176     -0.0840     12.7043     93.2460
  1603.0000     20.3876      0.0067     13.1691     91.7401
  1603.2500     21.9546      0.1172     13.6161     91.3128
  1603.5000     22.7823      0.2396     14.0296     90.0215
  1603.7500     22.8930      0.3599     14.3943     88.8048
  1604.0000     22.4066      0.4569     14.6826     87.7993
  1604.2500     21.4767      0.5067     14.8496     88.6068
  1604.5000     20.3829      0.4914     14.8501     93.5161
  1604.7500     19.3755      0.4102     14.6697    100.0539
  1605.0000     18.4429      0.2837     14.3403    115.1380
  1605.2500     17.4558      0.1469     13.9242    127.5235
  1605.5000     16.3602      0.0354     13.4832    145.2182
  1605.7500     15.1939     -0.0266     13.0567    153.8914
  1606.0000     14.1625     -0.0351     12.6573    160.5703
  1606.2500     13.5249     -0.0061     12.2815    161.5285
  1606.5000     13.2623      0.0331     11.9237    160.0032
  1606.7500     13.1044      0.0574     11.5860    158.0216
  1607.0000     12.9056      0.0547     11.2797    154.3334
  1607.2500     12.7793      0.0305     11.0187    151.5291
  1607.5000     12.8491      0.0049     10.8124    147.3200
  1607.7500     13.0356      0.0043     10.6629    145.1609
  1608.0000     13.1479      0.0511     10.5669    143.9555
  1608.2500     13.0935      0.1563     10.5182    144.4980
  1608.5000     12.9194      0.3169     10.5094    145.9646
  1608.7500     12.6843      0.5144     10.5314    146.4200
  1609.0000     12.3872      0.7178     10.5728    145.8117
  1609.2500     12.0377      0.8941     10.6219    144.9440
  1609.5000     11.7529      1.0239     10.6687    143.5438
  1609.7500     11.7030      1.1074     10.7072    142.3911
  1610.0000     11.9359      1.1570     10.7365    139.9637
  1610.2500     12.3532      1.1877     10.7606    138.1908
  1610.5000     12.8328      1.2113     10.7879    136.4913
  1610.7500     13.2725      1.2311     10.8286    136.4451
  1611.0000     13.6033      1.2400     10.8924    137.8943
  1611.2500     13.8629      1.2249     10.9858    139.5270
  1611.5000     14.1426      1.1779     11.1108    142.1977
  1611.7500     14.4116      1.1006     11.2661    143.5444
  1612.0000     14.5486      0.9992     11.4486    143.9778
  1612.2500     14.5274      0.8722     11.6549    143.0407
  1612.5000     14.4553      0.7069     11.8814    140.4019
  1612.7500     14.4888      0.4958     12.1260    138.3950
  1613.0000     14.6909      0.2622     12.3913    135.5419
  1613.2500     14.9799      0.0630     12.6877    133.6435
  1613.5000     15.2845     -0.0465     13.0324    130.4317
  1613.7500     15.6261     -0.0484     13.4418    128.0833
  1614.0000     16.0136      0.0361     13.9229    124.9264
  1614.2500     16.3989      0.1680     14.4700    123.5508
  1614.5000     16.7539      0.3044     15.0695    122.6664
  1614.7500     17.1232      0.4090     15.7052    122.1991
  1615.0000     17.6254      0.4669     16.3600    119.9602
  1615.2500     18.4185      0.4952     17.0131    116.9185
  1615.5000     19.5547      0.5359     17.6423    110.9458
  1615.7500     20.8588      0.6350     18.2332    107.2762
  1616.0000     22.0620      0.8174     18.7843    103.8390
  1616.2500     23.0464      1.0723     19.3015    102.8571
  1616.5000     23.9399      1.3572     19.7872    101.9384
  1616.7500     24.9569      1.6163     20.2378    100.9395
  1617.0000     26.1130      1.7992     20.6586     98.6509
  1617.2500     27.2006      1.8748     21.0818     96.9075
  1617.5000     28.0474      1.8404     21.5687     94.4006
  1617.7500     28.6720      1.7245     22.1825     92.8794
  1618.0000     29.1854      1.5732     22.9434     90.9586
  1618.2500     29.6794      1.4277     23.7963     90.0491
  1618.5000     30.2597      1.3090     24.6199     89.2492
  1618.7500     31.0227      1.2244     25.2859     88.8381
  1619.0000     31.9275      1.1802     25.7303     87.7151
  1619.2500     32.7887      1.1771     25.9769     86.4251
  1619.5000     33.4223      1.1989     26.0987     84.2142
  1619.7500     33.7494      1.2151     26.1579     83.3091
  1620.0000     33.7847      1.1980     26.1718     83.9559
  1620.2500     33.5614      1.1379     26.1190     85.7664
  1620.5000     33.0293      1.0464     25.9723     89.4051
  1620.7500     32.0973      0.9446     25.7300     91.6451
  1621.0000     30.8275      0.8452     25.4241     94.4123
  1621.2500     29.4663      0.7449     25.1024     96.3351
  1621.5000     28.2842      0.6363     24.8014    100.0212
  1621.7500     27.4323      0.5218     24.5316    102.7187
  1622.0000     26.8751      0.4120     24.2788    105.6949
  1622.2500     26.4329      0.3112     24.0170    106.3309
  1622.5000     25.9177      0.2103     23.7264    105.4237
  1622.7500     25.2649      0.0916     23.4054    104.1617
  1623.0000     24.5669     -0.0580     23.0701    102.1219
  1623.2500     23.9702     -0.2321     22.7422    100.8446
  1623.5000     23.5676     -0.4007     22.4346     99.1522
  1623.7500     23.3683     -0.5201     22.1450     98.3022
  1624.0000     23.3100     -0.5525     21.8571     97.7074
  1624.2500     23.3011     -0.4812     21.5481     97.7462
  1624.5000     23.2677     -0.3158     21.1981     97.9816
  1624.7500     23.1968     -0.0864     20.7996     97.8781
  1625.0000     23.1404      0.1649     20.3600     96.9419
  1625.2500     23.1324      0.3936     19.8982     95.8833
  1625.5000     23.0925      0.5658     19.4387     94.5029
  1625.7500     22.8444      0.6758     19.0091     94.5536
  1626.0000     22.2478      0.7500     18.6377     97.1592
  1626.2500     21.3531      0.8254     18.3466    100.3456
  1626.5000     20.4595      0.9220     18.1418    105.1816
  1626.7500     19.9008      1.0322     18.0064    106.9413
  1627.0000     19.7190      1.1289     17.9061    106.3063
  1627.2500     19.7130      1.1824     17.8042    104.3714
  1627.5000     19.7409      1.1732     17.6751    101.3050
  1627.7500     19.8246      1.1021     17.5076     99.7890
  1628.0000     20.0676      0.9874     17.2990     97.7227
  1628.2500     20.5121      0.8527     17.0480     95.8947
  1628.5000     21.0770      0.7124     16.7489     92.5621
  1628.7500     21.6316      0.5651     16.3919     90.5947
  1629.0000     22.0498      0.4001     15.9709     88.9327
  1629.2500     22.2412      0.2181     15.4953     88.7304
  1629.5000     22.1894      0.0523     14.9909     89.5920
  1629.7500     21.9136     -0.0386     14.4840     91.0574
  1630.0000     21.3469     -0.0154     13.9835     95.0802
  1630.2500     20.3641      0.1022     13.4793     99.1585
  1630.5000     19.0263      0.2451     12.9604    107.3189
  1630.7500     17.6156      0.3433     12.4293    113.8519
  1631.0000     16.3371      0.3699     11.9010    124.3229
  1631.2500     15.2090      0.3515     11.3899    131.0874
  1631.5000     14.2623      0.3458     10.9022    140.2799
  1631.7500     13.5807      0.4054     10.4377    145.7294
  1632.0000     13.1292      0.5509      9.9971    152.6976
  1632.2500     12.7608      0.7645      9.5854    156.1901
  1632.5000     12.4033      1.0017      9.2117    159.2451
  1632.7500     12.1103      1.2105      8.8855    160.0146
  1633.0000     11.9047      1.3512      8.6137    160.3822
  1633.2500     11.7043      1.4120      8.3997    160.8293
  1633.5000     11.4744      1.4141      8.2440    162.4100
  1633.7500     11.2899      1.4021      8.1447    163.9088
