~Version Information
VERS.                      2.0: CWLS Log ASCII Standard - VERSION 2.0
WRAP.                       NO: One line per depth step
~Well Information Block
STRT.FT               258.0000: 
STOP.FT              1001.0000: 
STEP.FT                 0.2500: 
NULL.                -999.2500: 
COMP.          Pioneer Natural Resources: COMPANY
WELL.          Piggyback 33-25: WELL
FLD.           Purgatoire River: FIELD
LOC.           1600' FSL & 1800' FEL: LOCATION
PROV.                 Colorado: PROVINCE
CNTY.               Las Animas: COUNTRY
SRVC.                Patterson: SERVICE COMPANY
DATE.          Fri Apr 29 14:22:38 2005: LOG DATE
UWI.           05 071 08233 00: UNIQUE WELL ID
~Curve Information Block
DEPT.FT            0 000 00 00: Depth
SN.Ohm-m                      : IEL Short Normal
SP.mV                         : IEL Spontaneous Potential
DIR.Ohm-m                     : IEL Induction Resistivity
GR.GAPI                       : Gamma Ray
~Parameter Information Block
~A  Depth        SN          SP         DIR          GR     
# ...
   961.5000     18.1037     47.0596     16.4880     99.5180
   961.7500     17.9293     46.8102     16.3325    100.0051
   962.0000     17.7459     46.5185     16.1063    101.1572
   962.2500     17.5415     46.1795     15.8387    102.2178
   962.5000     17.2937     45.8058     15.5640    104.0206
   962.7500     16.9927     45.4132     15.3089    105.1465
   963.0000     16.6539     45.0094     15.0874    106.5408
   963.2500     16.3131     44.5974     14.9031    107.2692
   963.5000     15.9998     44.1874     14.7531    107.9403
   963.7500     15.7157     43.7969     14.6286    108.0070
   964.0000     15.4386     43.4402     14.5144    107.6256
   964.2500     15.1810     43.1186     14.3939    107.2233
   964.5000     15.0447     42.8190     14.2570    106.5964
   964.7500     15.1203     42.5234     14.1055    106.2261
   965.0000     15.3261     42.2204     13.9493    105.9692
   965.2500     15.4672     41.9113     13.7975    106.1719
   965.5000     15.4500     41.6062     13.6512    107.1856
   965.7500     15.3482     41.3159     13.5058    108.3175
   966.0000     15.2646     41.0451     13.3584    110.4360
   966.2500     15.2230     40.7910     13.2149    111.7048
   966.5000     15.1875     40.5420     13.0881    112.3631
   966.7500     15.1195     40.2802     12.9892    111.6530
   967.0000     15.0045     39.9896     12.9191    109.5274
   967.2500     14.8227     39.6661     12.8677    108.2847
   967.5000     14.5376     39.3205     12.8190    107.8321
   967.7500     14.1896     38.9692     12.7607    108.4648
   968.0000     13.9133     38.6166     12.6893    109.8209
   968.2500     13.7745     38.2481     12.6106    110.2440
   968.5000     13.6935     37.8431     12.5346    109.2118
   968.7500     13.5664     37.3984     12.4690    107.3252
   969.0000     13.3979     36.9348     12.4159    103.6457
   969.2500     13.3101     36.4796     12.3742    101.5864
   969.5000     13.4349     36.0477     12.3449    100.2535
   969.7500     13.7949     35.6376     12.3328    100.4813
   970.0000     14.2581     35.2381     12.3431    101.5673
   970.2500     14.5944     34.8355     12.3748    102.3724
   970.5000     14.6567     34.4207     12.4168    103.8225
   970.7500     14.5210     33.9959     12.4501    105.2768
   971.0000     14.3683     33.5766     12.4557    108.2650
   971.2500     14.2804     33.1873     12.4230    110.3323
   971.5000     14.2051     32.8527     12.3540    112.3406
   971.7500     14.0411     32.5838     12.2608    112.5012
   972.0000     13.7295     32.3685     12.1594    111.2743
   972.2500     13.3382     32.1774     12.0637    110.2531
   972.5000     13.0455     31.9854     11.9832    109.9306
   972.7500     12.9616     31.7865     11.9253    110.9246
   973.0000     13.0077     31.5870     11.8955    113.7048
   973.2500     13.0341     31.3930     11.8946    115.7128
   973.5000     12.9716     31.2076     11.9158    117.8746
   973.7500     12.8459     31.0351     11.9460    118.4451
   974.0000     12.7223     30.8765     11.9720    118.0920
   974.2500     12.6534     30.7214     11.9866    117.2722
   974.5000     12.6551     30.5499     11.9918    115.2695
   974.7500     12.7151     30.3468     11.9971    113.2956
   975.0000     12.8193     30.1108     12.0163    109.5874
   975.2500     12.9634     29.8508     12.0616    107.2662
   975.5000     13.1401     29.5757     12.1388    105.4168
   975.7500     13.3202     29.2869     12.2448    105.6174
   976.0000     13.4674     28.9782     12.3716    107.4015
   976.2500     13.5714     28.6411     12.5117    108.8028
   976.5000     13.6505     28.2711     12.6602    110.1546
   976.7500     13.7324     27.8682     12.8105    110.2856
   977.0000     13.8455     27.4340     12.9471    109.3055
   977.2500     14.0112     26.9699     13.0431    107.9924
   977.5000     14.2391     26.4804     13.0681    105.4172
   977.7500     14.5214     25.9787     13.0030    103.6024
   978.0000     14.8104     25.4878     12.8502    101.3877
   978.2500     15.0160     25.0345     12.6298    100.7353
   978.5000     15.0609     24.6389     12.3654    102.0007
   978.7500     14.9406     24.3083     12.0705    104.8699
   979.0000     14.7165     24.0348     11.7469    112.4731
   979.2500     14.4412     23.7964     11.3948    119.3443
   979.5000     14.1058     23.5666     11.0222    130.9655
   979.7500     13.6624     23.3268     10.6469    138.6741
   980.0000     13.0575     23.0731     10.2876    149.0880
   980.2500     12.2932     22.8109      9.9561    155.1398
   980.5000     11.4805     22.5436      9.6561    162.8376
   980.7500     10.7663     22.2668      9.3897    166.0508
   981.0000     10.2203     21.9671      9.1651    163.1395
   981.2500      9.8164     21.6273      8.9956    152.3204
   981.5000      9.4980     21.2333      8.8938    120.2136
   981.7500      9.2515     20.7830      8.8650     91.5058
   982.0000      9.1210     20.2889      8.9058     49.3443
   982.2500      9.1628     19.7746      9.0079     28.0134
   982.5000      9.4055     19.2671      9.1657      9.3232
   982.7500      9.8515     18.7872      9.3799      3.7569
   983.0000     10.4903     18.3426      9.6567      0.7295
   983.2500     11.3135     17.9250     10.0036      0.2010
   983.5000     12.3738     17.5155     10.4252      0.0187
   983.7500     13.7722     17.0970     10.9230      0.0000
   984.0000     15.4933     16.6631     11.4971   -999.2500
   984.2500     17.3587     16.2191     12.1469   -999.2500
   984.5000     19.1626     15.7753     12.8664   -999.2500
   984.7500     20.7307     15.3388     13.6361   -999.2500
   985.0000     21.9054     14.9120     14.4173   -999.2500
   985.2500     22.5893     14.4958     15.1550   -999.2500
   985.5000     22.7949     14.0919     15.7903   -999.2500
   985.7500     22.6323     13.7018     16.2746   -999.2500
   986.0000     22.2438     13.3226     16.5777   -999.2500
   986.2500     21.7292     12.9478     16.6885   -999.2500
   986.5000     21.1256     12.5722     16.6165   -999.2500
   986.7500     20.4559     12.1957     16.3920   -999.2500
   987.0000     19.7769     11.8227     16.0619   -999.2500
   987.2500     19.1607     11.4596     15.6788   -999.2500
   987.5000     18.6403     11.1117     15.2910   -999.2500
   987.7500     18.1837     10.7823     14.9379   -999.2500
   988.0000     17.7297     10.4726     14.5999   -999.2500
   988.2500     17.2541     10.1806     14.3931   -999.2500
   988.5000     16.7837      9.8985     14.2664   -999.2500
   988.7500     16.3464      9.6139     14.1993   -999.2500
   989.0000     15.9326      9.3165     14.1550   -999.2500
   989.2500     15.5391      9.0039     14.0944   -999.2500
   989.5000     15.2120      8.6792     13.9944   -999.2500
   989.7500     15.0013      8.3439     13.8577   -999.2500
   990.0000     14.9168      7.9934     13.7106   -999.2500
   990.2500     14.9208      7.6198     13.5946   -999.2500
   990.5000     14.9216      7.2196     13.5683   -999.2500
   990.7500     14.8500      6.8012     13.7279   -999.2500
   991.0000     14.7450      6.3855     14.2378   -999.2500
   991.2500     14.6763      5.9952     15.3655   -999.2500
   991.5000     14.6376      5.6387     17.6220   -999.2500
   991.7500     14.5748      5.3004     21.5887   -999.2500
   992.0000     14.4615      4.9521     28.5695   -999.2500
   992.2500     14.3175      4.5779     40.6238   -999.2500
   992.5000     14.1702      4.1848     60.5400   -999.2500
   992.7500     14.0198      3.7848     89.8500   -999.2500
   993.0000     13.8441      3.3723    124.1954   -999.2500
   993.2500     13.6194      2.9272    153.4094   -999.2500
   993.5000     13.3287      2.4412    172.1278   -999.2500
   993.7500     12.9462      1.9448    184.1250   -999.2500
   994.0000     12.4085      1.5146    195.9606   -999.2500
   994.2500     11.6489      1.2540    213.4392   -999.2500
   994.5000     10.7042      1.2484  11232.0156   -999.2500
   994.7500      9.7411      1.5168 100000.0000   -999.2500
