~Version Information
VERS.                      2.0: CWLS Log ASCII Standard - VERSION 2.0
WRAP.                       NO: One line per depth step
~Well Information Block
STRT.FT                -8.0000: 
STOP.FT              2410.0000: 
STEP.FT                 0.2500: 
NULL.                -999.2500: 
COMP.          Petrogulf Corporation: COMPANY
WELL.            Torcom 17-33V: WELL
FLD.           Purgatorie River: FIELD
LOC.           1544' FSL & 1746' FEL--: LOCATION
PROV.                       CO: PROVINCE
CNTY.               Las Animas: COUNTRY
SRVC.          Patterson Wireline: SERVICE COMPANY
DATE.          Wed Dec 10 17:24:27 2003: LOG DATE
UWI.                          : UNIQUE WELL ID
~Curve Information Block
DEPT.FT            0 000 00 00: Depth
CCL.                          : Casing Collar Locator
TT3.usec                      : CBL 3' Travel Time
AMP3.mV                       : CBL 3' Amplitude
GR.GAPI                       : Gamma Ray
~Parameter Information Block
~A  Depth       CCL         TT3         AMP3         GR     
# ...
  2370.5000      0.0000    677.5840      1.9723     60.8614
  2370.7500      0.0000    687.8558      1.9197     60.3554
  2371.0000      0.0000    702.9513      1.8593     60.8297
  2371.2500      0.0000    718.6084      1.8088     61.4049
  2371.5000      0.0000    729.4448      1.7728     60.8999
  2371.7500      0.0000    732.1393      1.7404     59.1189
  2372.0000      0.0000    727.6847      1.7098     57.0136
  2372.2500      0.0000    720.7572      1.6999     55.6803
  2372.5000      0.0000    716.8972      1.7220     55.3912
  2372.7500      0.0000    719.5112      1.7441     55.4861
  2373.0000      0.0000    727.9513      1.7029     55.0767
  2373.2500      0.0000    737.3235      1.5566     53.9204
  2373.5000      0.0000    740.8237      1.3277     52.6285
  2373.7500      0.0000    733.9960      1.0984     51.9824
  2374.0000      0.0000    717.8327      0.9611     52.1743
  2374.2500      0.0000    697.9535      0.9595     52.7375
  2374.5000      0.0000    680.6075      1.0630     53.0917
  2374.7500      0.0000    669.1042      1.1925     53.1839
  2375.0000      0.0000    663.2056      1.2791     53.6963
  2375.2500      0.0000    660.8208      1.3089     55.4502
  2375.5000      0.0000    659.8165      1.3169     58.4179
  2375.7500      0.0000    658.7786      1.3356     61.5095
  2376.0000      0.0000    657.0356      1.3604     63.5223
  2376.2500      0.0000    654.6555      1.3728     64.0268
  2376.5000      0.0000    652.5244      1.3785     63.1248
  2376.7500      0.0000    652.0260      1.4010     60.9038
  2377.0000      0.0000    654.2637      1.4406     57.6678
  2377.2500      0.0000    659.7000      1.4587     54.3419
  2377.5000      0.0000    668.6208      1.4100     51.9605
  2377.7500      0.0000    681.2845      1.2882     50.7383
  2378.0000      0.0000    696.6585      1.1429     50.0721
  2378.2500      2.0000    710.9615      1.0503     49.5198
  2378.5000      2.0000    718.7316      1.0544     49.4002
  2378.7500      0.0000    716.9391      1.1337     50.3283
  2379.0000      0.0000    708.2103      1.2305     52.5407
  2379.2500      0.0000    698.9226      1.2998     55.8848
  2379.5000      0.0000    693.7912      1.3219     60.1450
  2379.7500      0.0000    692.8326      1.2916     64.9582
  2380.0000      0.0000    693.2416      1.2217     69.5361
  2380.2500      0.0000    692.9107      1.1487     72.9391
  2380.5000      0.0000    691.7199      1.1149     74.7302
  2380.7500      0.0000    690.3834      1.1357     75.1833
  2381.0000      0.0000    689.2586      1.1861     74.8715
  2381.2500      0.0000    688.7106      1.2233     74.1962
  2381.5000      0.0000    689.9512      1.2220     73.3028
  2381.7500      0.0000    694.5672      1.1878     72.3242
  2382.0000      0.0000    702.8895      1.1438     71.4295
  2382.2500      0.0000    712.7972      1.1183     70.5150
  2382.5000      0.0000    720.0656      1.1359     69.1312
  2382.7500      0.0000    720.5676      1.1935     67.0154
  2383.0000      0.0000    713.3864      1.2453     64.4852
  2383.2500      0.0000    702.3234      1.2413     62.0787
  2383.5000      0.0000    693.8474      1.1845     60.0660
  2383.7500      0.0000    692.9232      1.1310     58.4909
  2384.0000      0.0000    700.1595      1.1260     57.3583
  2384.2500      0.0000    711.9554      1.1609     56.5972
  2384.5000      0.0000    722.7252      1.1987     56.0232
  2384.7500      0.0000    727.4756      1.2234     55.4253
  2385.0000      0.0000    723.7794      1.2497     54.6750
  2385.2500      0.0000    712.8203      1.2917     53.8944
  2385.5000      0.0000    698.7859      1.3338     53.5348
  2385.7500      0.0000    686.3469      1.3377     54.0730
  2386.0000      0.0000    677.9990      1.2781     55.4849
  2386.2500      0.0000    673.5302      1.1687     57.1362
  2386.5000      0.0000    671.5198      1.0539     58.3136
  2386.7500      0.0000    670.9606      0.9788     58.8449
  2387.0000      0.0000    671.8578      0.9641     59.1384
  2387.2500      0.0000    674.9933      1.0030     59.6311
  2387.5000      0.0000    681.1776      1.0748     60.2304
  2387.7500      0.0000    690.2127      1.1578     60.3932
  2388.0000      0.0000    700.2615      1.2326     59.7970
  2388.2500      0.0000    708.5835      1.2818     58.8403
  2388.5000      0.0000    713.2404      1.2999     58.3007
  2388.7500      0.0000    713.9074      1.3011     58.5217
  2389.0000      0.0000    710.9721      1.3026     59.1700
  2389.2500      0.0000    704.7058      1.2991     59.9169
  2389.5000      0.0000    696.2020      1.2693     61.0090
  2389.7500      0.0000    688.5818      1.2120     62.7877
  2390.0000      0.0000    686.1356      1.1568     64.7748
  2390.2500      0.0000    691.7845      1.1294     65.7897
  2390.5000      0.0000    704.8473      1.1259     65.3423
  2390.7500      0.0000    720.6508      1.1295     64.5963
  2391.0000      0.0000    732.9532      1.1381     65.2924
  2391.2500      0.0000    737.9146      1.1635     67.7066
  2391.5000      0.0000    735.7103      1.2117     70.2895
  2391.7500      0.0000    728.3847      1.2682     71.4323
  2392.0000      0.0000    717.4513      1.3055     71.0843
  2392.2500      0.0000    704.0055      1.3054     70.4323
  2392.5000      0.0000    689.7500      1.2766     70.3725
  2392.7500      0.0000    676.9361      1.2475     70.7722
  2393.0000      0.0000    667.6536      1.2451     71.1692
  2393.2500      0.0000    663.4266      1.2763     71.7136
  2393.5000      0.0000    665.1618      1.3197     73.0582
  2393.7500      0.0000    673.1612      1.3380     75.3763
  2394.0000      0.0000    686.6584      1.3152     77.6573
  2394.2500      0.0000    702.5189      1.2789     77.9969
  2394.5000      0.0000    714.9208      1.2689     74.5061
  2394.7500      0.0000    718.4874      1.2942     66.1907
  2395.0000      0.0000    713.0258      1.3291     53.5267
  2395.2500      0.0000    704.2790      1.3424     38.5438
  2395.5000      0.0000    699.1808      1.3180     24.1613
  2395.7500      0.0000    700.6191      1.2627     12.8937
  2396.0000      0.0000    706.3050      1.2038      5.7383
  2396.2500      0.0000    711.1368      1.1707      2.0928
  2396.5000      0.0000    710.6874      1.1722      0.6164
  2396.7500      0.0000    704.4343      1.1900      0.1449
  2397.0000      0.0000    696.4828      1.1934      0.0264
  2397.2500      0.0000    692.1390      1.1625      0.0036
  2397.5000      0.0000    693.2227      1.1074      0.0000
  2397.7500      0.0000    696.8347      1.0629   -999.2500
  2398.0000      0.0000    698.3871      1.0611   -999.2500
  2398.2500      0.0000    695.6153      1.1024   -999.2500
  2398.5000      0.0000    690.0922      1.1553   -999.2500
  2398.7500      0.0000    685.5031      1.1852   -999.2500
  2399.0000      0.0000    684.5734      1.1846   -999.2500
  2399.2500      0.0000    687.2656      1.1770   -999.2500
  2399.5000      0.0000    691.1927      1.1916   -999.2500
  2399.7500      0.0000    692.4812      1.2316   -999.2500
  2400.0000      0.0000    683.7440      1.2682   -999.2500
  2400.2500      0.0000    650.5266      1.2623   -999.2500
  2400.5000      0.0000    575.4211      1.1896   -999.2500
  2400.7500      0.0000    454.1194      1.0575   -999.2500
  2401.0000      0.0000    308.1160      0.9037   -999.2500
  2401.2500      2.0000    174.6669      0.7729   -999.2500
  2401.5000      2.0000     81.0637      0.6888   -999.2500
  2401.7500      0.0000     30.3686      0.6473   -999.2500
  2402.0000      0.0000      9.0920      0.6314   -999.2500
  2402.2500      0.0000      2.1583      0.6267   -999.2500
  2402.5000      0.0000      0.4004      0.6256   -999.2500
  2402.7500      0.0000      0.0532      0.6254   -999.2500
  2403.0000      0.0000   -999.2500   -999.2500   -999.2500
  2403.2500      0.0000   -999.2500   -999.2500   -999.2500
  2403.5000      0.0000   -999.2500   -999.2500   -999.2500
  2403.7500      0.0000   -999.2500   -999.2500   -999.2500
