~Version Information
VERS.                      2.0: CWLS Log ASCII Standard - VERSION 2.0
WRAP.                       NO: One line per depth step
~Well Information Block
STRT.FT               258.0000: 
STOP.FT               998.2000: 
STEP.FT                 0.1000: 
NULL.                -999.2500: 
COMP.          Pioneer Natural Resources: COMPANY
WELL.          Piggyback 33-25: WELL
FLD.           Purgatoire River: FIELD
LOC.           1600' FSL & 1800' FEL: LOCATION
PROV.                 Colorado: PROVINCE
CNTY.               Las Animas: COUNTRY
SRVC.                Patterson: SERVICE COMPANY
DATE.          Fri Apr 29 16:11:48 2005: LOG DATE
UWI.           05 071 08233 00: UNIQUE WELL ID
~Curve Information Block
DEPT.FT            0 000 00 00: Depth
DCAL.in                       : CDL Caliper
RHOB.g/cc                     : CDL Bulk Density
RHOC.g/cc                     : CDL Density Correction
DPOR.pu                       : CDL Density Porosity
GR.GAPI                       : Gamma Ray
NPOR.pu                       : Neutron Porosity
~Parameter Information Block
~A  Depth       DCAL        RHOB        RHOC        DPOR         GR         NPOR    
# ...
   450.0000      7.8271      2.5419      0.1748      6.5523     87.5025     19.9323
   450.1000      7.8271      2.5489      0.1449      6.1302     83.4170     19.8645
   450.2000      7.8271      2.5628      0.1835      5.2875     79.5143     19.9275
   450.3000      7.8191      2.5750      0.1726      4.5432     80.9505     20.5142
   450.4000      7.8191      2.5600      0.1751      5.4564     84.3368     21.4201
   450.5000      7.8053      2.5098      0.1347      8.4965     82.0678     22.0399
   450.6000      7.8053      2.4531      0.0329     11.9314     76.4524     22.2816
   450.7000      7.8053      2.4320     -0.0050     13.2106     75.0803     22.5161
   450.8000      7.8260      2.4601      0.0399     11.5071     79.8702     22.9756
   450.9000      7.8260      2.5089      0.1068      8.5498     86.7073     23.4456
   451.0000      7.8362      2.5428      0.1140      6.4983     90.0474     23.7891
   451.1000      7.8362      2.5531      0.1178      5.8709     88.6862     24.0280
   451.2000      7.8362      2.5492      0.0899      6.1094     86.8079     24.0264
   451.3000      7.8663      2.5472      0.1051      6.2311     85.8916     23.6210
   451.4000      7.8663      2.5650      0.1362      5.1516     83.3662     22.7463
   451.5000      7.8965      2.6097      0.1407      2.4442     81.0467     21.6878
   451.6000      7.8965      2.6641      0.2615     -0.8519     80.9756     21.0934
   451.7000      7.8965      2.6895      0.2624     -2.3937     79.4538     21.0766
   451.8000      7.8388      2.6676      0.2227     -1.0662     75.4493     21.2006
   451.9000      7.8388      2.6193      0.1695      1.8590     71.7344     21.2164
   452.0000      7.7975      2.5732      0.1672      4.6563     71.7073     21.0971
   452.1000      7.7975      2.5413      0.1520      6.5871     76.4953     20.7566
   452.2000      7.7975      2.5304      0.0906      7.2456     82.5509     20.3129
   452.3000      7.7796      2.5439      0.1113      6.4309     86.0490     20.0562
   452.4000      7.7796      2.5767      0.1072      4.4419     85.9003     19.9322
   452.5000      7.8104      2.6230      0.1693      1.6366     83.0294     19.8075
   452.6000      7.8104      2.6673      0.2424     -1.0496     79.4216     19.5885
   452.7000      7.8104      2.6885      0.2456     -2.3349     77.2239     19.2880
   452.8000      7.8061      2.6801      0.2439     -1.8260     77.0919     19.1844
   452.9000      7.8061      2.6466      0.2438      0.2036     79.3154     19.2975
   453.0000      7.7860      2.6034      0.1161      2.8220     83.3492     19.4436
   453.1000      7.7860      2.5694      0.1283      4.8823     87.1956     19.6050
   453.2000      7.7860      2.5414      0.1245      6.5839     89.0647     19.6454
   453.3000      7.7301      2.5144      0.0100      8.2192     88.5035     19.7315
   453.4000      7.7301      2.4978      0.0410      9.2217     87.4484     20.2469
   453.5000      7.8028      2.4899      0.0346      9.7017     87.6845     21.0211
   453.6000      7.8028      2.4846      0.0030     10.0214     90.6596     21.3923
   453.7000      7.8028      2.4788      0.0951     10.3764     95.3102     21.2116
   453.8000      7.8577      2.4685      0.0400     10.9977     96.7493     21.0745
   453.9000      7.8577      2.4624      0.0196     11.3704     93.3277     21.1426
   454.0000      7.8736      2.4707      0.0107     10.8660     89.6822     21.1169
   454.1000      7.8736      2.4921      0.0507      9.5726     90.9382     21.0877
   454.2000      7.8736      2.5144      0.1095      8.2190     95.6141     21.2874
   454.3000      7.8867      2.5291      0.1085      7.3282     96.9510     21.6425
   454.4000      7.8867      2.5371      0.0972      6.8408     93.2529     22.1051
   454.5000      7.8695      2.5442      0.0423      6.4150     90.5387     22.6958
   454.6000      7.8695      2.5559      0.1188      5.7051     92.4433     23.0247
   454.7000      7.8695      2.5756      0.1092      4.5119     96.1522     22.8347
   454.8000      7.8642      2.6002      0.1365      3.0178     95.9892     22.4506
   454.9000      7.8642      2.6069      0.1654      2.6120     89.0447     22.2057
   455.0000      7.8603      2.5825      0.1185      4.0880     81.1603     22.2675
   455.1000      7.8603      2.5538      0.0711      5.8300     80.1967     22.6610
   455.2000      7.8603      2.5481      0.0695      6.1751     85.9397     23.1052
   455.3000      7.8590      2.5622      0.0925      5.3223     92.8358     23.2999
   455.4000      7.8590      2.5826      0.0488      4.0823     99.7119     23.3809
   455.5000      7.8700      2.6047      0.0446      2.7462    106.2361     23.6833
   455.6000      7.8700      2.6237      0.1068      1.5967    108.3078     24.1444
   455.7000      7.8700      2.6323      0.1002      1.0755    106.1309     24.4178
   455.8000      7.8679      2.6327      0.1394      1.0483    104.8243     24.3724
   455.9000      7.8679      2.6289      0.1367      1.2777    106.9887     24.0795
   456.0000      7.8360      2.6125      0.1544      2.2755    111.0427     23.6454
   456.1000      7.8360      2.5718      0.1404      4.7398    113.6968     23.2910
   456.2000      7.8360      2.5112      0.0927      8.4092    112.3010     23.1568
   456.3000      7.8248      2.4514      0.0303     12.0339    110.2411     23.0381
   456.4000      7.8248      2.4084      0.0135     14.6445    113.1003     22.7560
   456.5000      7.8513      2.3878     -0.0140     15.8903    119.1322     22.2878
   456.6000      7.8513      2.3901     -0.0026     15.7527    122.6624     21.8495
   456.7000      7.8513      2.4009      0.0313     15.0985    123.0810     21.7986
   456.8000      7.8617      2.3990      0.0549     15.2147    125.9674     22.1987
   456.9000      7.8617      2.3810      0.1238     16.3014    132.9291     22.6407
   457.0000      7.8620      2.3722      0.1296     16.8347    137.8239     22.6977
   457.1000      7.8620      2.3937      0.2725     15.5346    137.5851     22.4480
   457.2000      7.8620      2.4233      0.3421     13.7367    136.0331     22.3131
   457.3000      7.8256      2.4352      0.2790     13.0200    137.8147     22.5812
   457.4000      7.8256      2.4511      0.2333     12.0555    142.0000     23.1502
   457.5000      7.8083      2.5047      0.2623      8.8036    144.5743     23.5648
   457.6000      7.8083      2.5862      0.4037      3.8690    146.8390     23.6420
   457.7000      7.8083      2.6584      0.4159     -0.5068    151.6376     23.6895
   457.8000      7.8424      2.6970      0.4274     -2.8506    156.5005     23.8498
   457.9000      7.8424      2.6936      0.3714     -2.6400    157.9053     24.1853
   458.0000      7.8868      2.6496      0.3284      0.0214    154.0408     24.7625
   458.1000      7.8868      2.5896      0.1898      3.6594    145.3043     25.2833
   458.2000      7.8868      2.5475      0.1857      6.2106    135.3659     25.5370
   458.3000      7.9195      2.5215      0.1497      7.7868    129.7931     25.5402
   458.4000      7.9195      2.5012      0.0452      9.0204    130.7378     25.3260
   458.5000      7.9335      2.5019      0.0812      8.9784    135.3487     25.2866
   458.6000      7.9335      2.5243      0.1028      7.6163    139.9661     25.7264
   458.7000      7.9335      2.5535      0.0936      5.8507    141.6406     26.1238
   458.8000      7.9332      2.5851      0.1417      3.9307    139.3699     26.0231
   458.9000      7.9332      2.6104      0.1718      2.4023    137.3626     25.9034
   459.0000      7.9405      2.6123      0.1168      2.2834    139.8382     26.1797
   459.1000      7.9405      2.5837      0.1239      4.0190    142.9717     26.3235
   459.2000      7.9405      2.5381      0.0710      6.7788    143.8252     25.8491
   459.3000      7.9386      2.5077      0.0453      8.6216    146.9758     25.1308
   459.4000      7.9386      2.5056      0.0992      8.7540    153.3203     24.6082
   459.5000      7.9339      2.5057      0.0840      8.7431    156.7736     24.2250
