~Version Information
VERS.                      2.0: CWLS Log ASCII Standard - VERSION 2.0
WRAP.                       NO: One line per depth step
~Well Information Block
STRT.FT                 0.0000: 
STOP.FT              1916.0000: 
STEP.FT                 0.1000: 
NULL.                -999.2500: 
COMP.          Pioneer Natural Resources: COMPANY
WELL.          Blackjack 32-11 Tr: WELL
FLD.           Purgatorie River: FIELD
LOC.           2066' FNL & 1453' FEL: LOCATION
PROV.                 Colorado: PROVINCE
CNTY.               Las Animas: COUNTRY
SRVC.                Patterson: SERVICE COMPANY
DATE.          Tue Aug 16 12:08:23 2005: LOG DATE
UWI.                          : UNIQUE WELL ID
~Curve Information Block
DEPT.FT            0 000 00 00: Depth
DCAL.in                       : CDL Caliper
RHOB.g/cc                     : CDL Bulk Density
RHOC.g/cc                     : CDL Density Correction
DPOR.pu                       : CDL Density Porosity
GR.GAPI                       : Gamma Ray
NPOR.pu                       : Neutron Porosity
~Parameter Information Block
~A  Depth       DCAL        RHOB        RHOC        DPOR         GR         NPOR    
# ...
   374.4000     16.4187      0.6100      1.6104     -0.0408    171.7177     27.8314
   374.5000     16.4163      0.6236      1.5942     -0.0405    172.9848     27.0948
   374.6000     16.4163      0.6799      1.8345     -0.0394    173.3375     26.4633
   374.7000     16.4163      0.7397      1.7668     -0.0382    175.2781     26.5204
   374.8000     16.4163      0.8144      1.6443     -0.0367    180.6278     27.1585
   374.9000     16.4163      0.8295      1.7762     -0.0364    185.3737     27.4163
   375.0000     16.4196      0.7065      1.7458     -0.0389    184.5090     26.7472
   375.1000     16.4196      0.5636      1.6261     -0.0418    181.3032     25.7571
   375.2000     16.4196      0.6007      1.4951     -0.0410    181.1797     25.1411
   375.3000     16.4241      0.8631      1.8192     -0.0358    183.2820     25.2449
   375.4000     16.4241      1.1572      2.3900     -0.0299    182.9675     25.8465
   375.5000     16.4175      1.3079      1.7475     -0.0269    178.6709     26.2133
   375.6000     16.4175      1.3460      1.9091     -0.0261    176.1206     26.3036
   375.7000     16.4175      1.3336      1.7312     -0.0263    178.7281     26.5375
   375.8000     16.4204      1.3104      1.8996     -0.0268    181.8774     26.7562
   375.9000     16.4204      1.2612      2.2183     -0.0278    181.5900     26.8358
   376.0000     16.4198      1.1870      2.0567     -0.0293    179.4692     27.1239
   376.1000     16.4198      1.1532      2.2439     -0.0300    175.5241     27.4493
   376.2000     16.4198      1.1583      2.1633     -0.0299    166.4236     27.4099
   376.3000     16.4123      1.1503      2.1891     -0.0300    158.6421     27.3106
   376.4000     16.4123      1.1433      1.9562     -0.0301    160.0942     27.4369
   376.5000     16.4139      1.2166      1.7587     -0.0287    167.3097     27.4929
   376.6000     16.4139      1.3657      1.8799     -0.0257    171.9388     27.2881
   376.7000     16.4139      1.4417      2.2388     -0.0242    170.9072     27.0100
   376.8000     16.4150      1.4154      1.8287     -0.0247    167.8502     27.0275
   376.9000     16.4150      1.5072      1.6999     -0.0229    165.5572     27.3757
   377.0000     16.4204      1.8274      2.0257     -0.0165    165.1096     27.7935
   377.1000     16.4204      2.0604      2.6290     -0.0118    167.9829     27.9393
   377.2000     16.4204      1.8779      2.3481     -0.0154    170.7328     27.6775
   377.3000     16.4233      1.5222      1.9214     -0.0226    168.9258     27.3717
   377.4000     16.4233      1.4321      2.0420     -0.0244    167.3488     27.2074
   377.5000     16.4284      1.6176      2.0835     -0.0207    170.2607     27.1236
   377.6000     16.4284      1.7192      2.6942     -0.0186    174.4027     27.2915
   377.7000     16.4284      1.5155      2.1815     -0.0227    178.3630     27.4492
   377.8000     16.4184      1.2307      1.7859     -0.0284    181.5009     27.0496
   377.9000     16.4184      1.2140      1.7393     -0.0287    181.6828     26.4003
   378.0000     16.4234      1.5695      2.0029     -0.0216    179.9274     26.2816
   378.1000     16.4234      2.0294      2.7313     -0.0124    180.1305     26.8686
   378.2000     16.4234      2.2152      2.2761     -0.0087    181.1605     27.6651
   378.3000     16.4241      2.0523      2.2847     -0.0120    178.7031     28.5883
   378.4000     16.4241      1.6959      1.9635     -0.0191    176.1384     30.0934
   378.5000     16.4229      1.3360      2.0405     -0.0263    177.9931     32.0726
   378.6000     16.4229      1.1128      2.2116     -0.0308    181.7200     33.5843
   378.7000     16.4229      1.0175      2.1933     -0.0327    182.4225     34.0856
   378.8000     16.4250      0.9516      2.2067     -0.0340    179.6595     34.0418
   378.9000     16.4250      0.8208      2.2800     -0.0366    176.8125     33.9011
   379.0000     16.4310      0.6127      1.7133     -0.0408    175.5083     33.6439
   379.1000     16.4310      0.4219      1.4966     -0.0446    174.3202     33.1114
   379.2000     16.4310      0.3132      1.5304     -0.0468    171.1495     32.0201
   379.3000     16.4259      0.2688      1.4371     -0.0476    169.2378     30.1988
   379.4000     16.4259      0.2759      1.4617     -0.0475    172.3368     28.3428
   379.5000     16.4205      0.3648      1.4941     -0.0457    175.6178     27.3076
   379.6000     16.4205      0.5750      1.5259     -0.0415    175.4764     26.8793
   379.7000     16.4205      0.8520      1.6878     -0.0360    174.9305     26.4234
   379.8000     16.4237      1.0335      1.7695     -0.0323    176.4461     25.8674
   379.9000     16.4237      1.0604      1.6629     -0.0318    178.8447     25.4301
   380.0000     16.4251      1.0647      1.6472     -0.0317    182.1984     25.0030
   380.1000     16.4251      1.1614      1.7570     -0.0298    187.9426     24.4763
   380.2000     16.4251      1.3308      2.0436     -0.0264    191.7555     23.9290
   380.3000     16.4308      1.5143      2.0471     -0.0227    192.0820     23.4043
   380.4000     16.4308      1.6363      2.1976     -0.0203    194.5824     23.2289
   380.5000     16.4251      1.6189      2.2322     -0.0206    197.6167     23.6301
   380.6000     16.4251      1.5027      1.8212     -0.0230    195.6592     24.3450
   380.7000     16.4251      1.4319      1.8417     -0.0244    191.0782     24.9453
   380.8000     16.4243      1.4617      2.0343     -0.0238    184.9247     25.2496
   380.9000     16.4243      1.4940      2.1542     -0.0231    176.8790     25.5993
   381.0000     16.4246      1.4632      1.9805     -0.0237    172.0652     26.1644
   381.1000     16.4246      1.4201      2.0165     -0.0246    172.2808     26.1952
   381.2000     16.4246      1.3807      1.9226     -0.0254    173.5543     25.4347
   381.3000     16.4269      1.3100      1.8677     -0.0268    174.8898     24.8542
   381.4000     16.4269      1.2554      1.9671     -0.0279    178.1699     24.8619
   381.5000     16.4257      1.3339      1.6958     -0.0263    181.8436     24.7303
   381.6000     16.4257      1.5281      2.0798     -0.0224    182.5186     24.2840
   381.7000     16.4257      1.6410      2.3406     -0.0202    182.1917     24.1607
   381.8000     16.4335      1.5933      2.1828     -0.0211    183.5047     24.4741
   381.9000     16.4335      1.5239      1.9143     -0.0225    183.5027     24.8327
   382.0000     16.4356      1.5472      2.0042     -0.0221    180.4481     24.8303
   382.1000     16.4356      1.6212      2.3781     -0.0206    177.3926     24.7206
   382.2000     16.4356      1.6934      1.8928     -0.0191    175.1723     24.8497
   382.3000     16.4240      1.8077      1.8253     -0.0169    174.0824     24.9699
   382.4000     16.4240      1.9161      2.2390     -0.0147    176.8488     25.2244
   382.5000     16.4227      1.8894      1.9019     -0.0152    181.8266     25.5662
   382.6000     16.4227      1.7611      2.1597     -0.0178    182.0009     25.4718
   382.7000     16.4227      1.6835      2.0771     -0.0193    177.7800     25.2813
   382.8000     16.4338      1.7197      2.0339     -0.0186    177.6944     25.4205
   382.9000     16.4338      1.7708      2.3079     -0.0176    182.5269     25.4546
   383.0000     16.4302      1.7706      2.2905     -0.0176    185.9171     25.1839
   383.1000     16.4302      1.7635      2.2391     -0.0177    186.1675     24.9169
   383.2000     16.4302      1.7465      2.2153     -0.0181    184.7646     24.9726
   383.3000     16.4210      1.7142      2.1898     -0.0187    182.9753     25.4836
   383.4000     16.4210      1.7307      2.3088     -0.0184    183.0371     26.0227
   383.5000     16.4239      1.8127      1.9382     -0.0168    185.2405     26.2070
   383.6000     16.4239      1.8615      2.2098     -0.0158    186.3456     26.3020
   383.7000     16.4239      1.7778      2.3224     -0.0175    185.7073     26.2819
   383.8000     16.4268      1.6447      2.0325     -0.0201    186.1789     25.9031
   383.9000     16.4268      1.6349      1.8443     -0.0203    187.6936     25.3364
