~Version Information
 VERS.                                  2.0 : CWLS LAS VERSION
 WRAP.                                   NO : WRAPING MODE
 SWARE .                 MController 2.5.0N : SOFTWARE VERSION
~Well Information
 WELL.                          Bobsy 34-11 : WELL
 COMP.    Pioneer Natural Resources USA Inc : COMPANY
 FLD.                      Purgatoire River : FIELD
 LOC.                SW/SE Sec 11 T32S R66W : LOCATION
 DATE.                               4/7/05 : DATE(S) LOGGED
 SRVC.       Blanco Geological Services LLC : SERVICE COMPANY
 STAT.                                   CO : STATE
 CNTY.                           Las Animas : COUNTY
 CTRY.                                  USA : COUNTRY
 API.                       05-071-08330-00 : API NUMBER
 STRT.FT                             842.00 : START DEPTH
 STOP.FT                            2345.00 : STOP DEPTH
 STEP.FT                               1.00 : DEPTH INCREMENT
 NULL.                                -9999 : NULL VALUE
~Curve information
 DEPTH.FT                                   :
 ROP.MIN/FT                                 :
 GAS.UNITS                                  :
~ASCII Log data
# ...
      2242.0         0.30        700.9 
      2243.0         0.33        696.7 
      2244.0         0.33        669.2 
      2245.0         0.52        650.9 
      2246.0         3.58       1567.9 
      2247.0         0.50       1577.7 
      2248.0         0.50       1413.1 
      2249.0         0.63       1135.4 
      2250.0         0.57        890.3 
      2251.0         0.53        765.0 
      2252.0         0.55        746.1 
      2253.0         0.47        742.8 
      2254.0         0.50        726.1 
      2255.0         0.50        707.5 
      2256.0         0.47        690.8 
      2257.0         0.43        678.7 
      2258.0         0.47        675.7 
      2259.0         0.48        672.8 
      2260.0         0.43        666.9 
      2261.0         0.43        656.4 
      2262.0         0.40        650.2 
      2263.0         0.43        642.3 
      2264.0         0.43        633.8 
      2265.0         0.43        626.0 
      2266.0         0.30        619.8 
      2267.0         0.30        613.6 
      2268.0         0.32        635.2 
      2269.0         0.23        656.7 
      2270.0         0.27        713.7 
      2271.0         0.27        747.0 
      2272.0         0.27        754.2 
      2273.0         0.23        753.6 
      2274.0         0.33        747.4 
      2275.0         0.20        723.2 
      2276.0         4.63       1618.9 
      2277.0         0.37       1155.0 
      2278.0         0.43        953.8 
      2279.0         0.37        770.9 
      2280.0         0.33        732.3 
      2281.0         0.37        757.5 
      2282.0         0.40        791.9 
      2283.0         0.47        828.2 
      2284.0         0.37        834.4 
      2285.0         0.28        830.1 
      2286.0         0.30        815.7 
      2287.0         0.23        783.7 
      2288.0         0.27        761.1 
      2289.0         0.27        738.2 
      2290.0         0.23        723.5 
      2291.0         0.23        710.4 
      2292.0         0.23        700.9 
      2293.0         0.27        697.0 
      2294.0         0.23        690.4 
      2295.0         0.27        671.1 
      2296.0         0.30        661.7 
      2297.0         0.35        655.8 
      2298.0         0.30        643.7 
      2299.0         0.33        647.9 
      2300.0         0.30        643.7 
      2301.0         0.27        624.4 
      2302.0         0.30        642.0 
      2303.0         0.50        643.7 
      2304.0         0.37        627.0 
      2305.0         0.27        555.7 
      2306.0         3.95       1491.3 
      2307.0         0.52       1476.6 
      2308.0         0.37       1220.4 
      2309.0         0.47       1030.7 
      2310.0         0.43        898.2 
      2311.0         0.40        834.1 
      2312.0         0.30        783.7 
      2313.0         0.30        750.6 
      2314.0         0.27        732.6 
      2315.0         0.30        727.1 
      2316.0         0.28        719.9 
      2317.0         0.30        714.3 
      2318.0         0.30        698.9 
      2319.0         0.30        687.2 
      2320.0         0.30        678.0 
      2321.0         0.27        667.9 
      2322.0         0.30        667.9 
      2323.0         0.37        666.2 
      2324.0         0.33        655.4 
      2325.0         0.27        641.7 
      2326.0         0.30        639.7 
      2327.0         0.32        640.4 
      2328.0         0.33        643.0 
      2329.0         0.30        665.9 
      2330.0         0.30        680.0 
      2331.0         0.23        680.6 
      2332.0         0.27        674.4 
      2333.0         0.27        667.2 
      2334.0         0.27        651.2 
      2335.0         0.27        628.0 
      2336.0         4.30       2247.3 
      2337.0         0.37       2267.3 
      2338.0         0.37       2217.2 
      2339.0         0.30       1908.7 
      2340.0         0.50       1614.0 
      2341.0         0.43       1305.5 
      2342.0         0.40       1219.8 
      2343.0         0.40       1171.3 
      2344.0         0.37       1078.1 
      2345.0         0.35        983.2 
