~Version Information
VERS.                      2.0: CWLS Log ASCII Standard - VERSION 2.0
WRAP.                       NO: One line per depth step
~Well Information Block
STRT.FT               752.0000: 
STOP.FT              2474.2000: 
STEP.FT                 0.1000: 
NULL.                -999.2500: 
COMP.          Petrogulf Corporation: COMPANY
WELL.            Montoya 7-14V: WELL
FLD.           Purgatorie River: FIELD
LOC.           535' FSL & 491' FWL: LOCATION
CNTY.               Las Animas: COUNTY
SRVC.                         : SERVICE COMPANY
DATE.          Mon Aug 23 10:41:01 2004: LOG DATE
UWI.           05 071 08019 00: UNIQUE WELL ID
STAT.                 Colorado: STATE
~Curve Information Block
DEPT.FT            0 000 00 00: Depth
DCAL.in                       : CDL Caliper
RHOB.g/cc                     : CDL Bulk Density
RHOC.g/cc                     : CDL Density Correction
DPOR.pu                       : CDL Density Porosity
GR.GAPI                       : Gamma Ray
NPOR.pu                       : Neutron Porosity
~Parameter Information Block
~A  Depth       DCAL        RHOB        RHOC        DPOR         GR         NPOR    
# ...
  1894.4000      7.6106      2.5385      0.0588      6.7561     58.9168     12.7374
  1894.5000      7.6081      2.5459      0.0708      6.3087     59.7343     13.5383
  1894.6000      7.6081      2.5355      0.0798      6.9373     57.3555     14.3083
  1894.7000      7.6081      2.5164      0.0369      8.0962     54.8130     15.3448
  1894.8000      7.6086      2.5021      0.0505      8.9651     57.0768     16.4532
  1894.9000      7.6086      2.4930      0.0346      9.5132     62.9029     17.6880
  1895.0000      7.6095      2.4855      0.0080      9.9675     71.1977     19.1850
  1895.1000      7.6095      2.4792      0.0147     10.3495     82.6482     20.3782
  1895.2000      7.6095      2.4769     -0.0106     10.4932     92.9447     20.9329
  1895.3000      7.6103      2.4844      0.0335     10.0371     99.1205     21.6738
  1895.4000      7.6103      2.5027      0.0800      8.9252    104.5704     23.0681
  1895.5000      7.6227      2.5254      0.1218      7.5489    110.3702     24.2706
  1895.6000      7.6227      2.5440      0.1567      6.4219    114.3549     24.7346
  1895.7000      7.6227      2.5543      0.1523      5.7980    115.7609     24.6163
  1895.8000      7.7188      2.5623      0.1638      5.3121    115.9239     24.1080
  1895.9000      7.7188      2.5709      0.1903      4.7923    116.4855     23.9363
  1896.0000      7.7335      2.5697      0.2058      4.8656    117.5725     24.2520
  1896.1000      7.7335      2.5521      0.1286      5.9310    119.1310     24.3231
  1896.2000      7.7335      2.5308      0.1141      7.2271    122.5704     24.1364
  1896.3000      7.7582      2.5208      0.1043      7.8330    128.9048     24.0863
  1896.4000      7.7582      2.5253      0.0830      7.5580    135.4494     23.9530
  1896.5000      7.7851      2.5397      0.1001      6.6849    137.0260     23.2466
  1896.6000      7.7851      2.5547      0.1235      5.7781    132.1604     22.4186
  1896.7000      7.7851      2.5623      0.0967      5.3136    127.1030     22.5643
  1896.8000      7.8472      2.5657      0.1032      5.1066    125.4340     23.3723
  1896.9000      7.8472      2.5721      0.1186      4.7186    122.1002     23.3676
  1897.0000      7.6597      2.5793      0.1471      4.2877    115.1777     22.1154
  1897.1000      7.6597      2.5810      0.1468      4.1835    108.8279     20.7048
  1897.2000      7.6597      2.5772      0.1284      4.4136    106.4680     20.3322
  1897.3000      7.5534      2.5694      0.1088      4.8845    110.0441     20.8483
  1897.4000      7.5534      2.5583      0.1062      5.5555    118.0909     21.3432
  1897.5000      7.5045      2.5458      0.0708      6.3154    125.8065     21.4110
  1897.6000      7.5045      2.5393      0.0359      6.7086    127.9249     21.0701
  1897.7000      7.5045      2.5482      0.0898      6.1682    120.3020     20.6978
  1897.8000      7.5582      2.5655      0.0946      5.1205    106.7298     20.4662
  1897.9000      7.5582      2.5771      0.1195      4.4208     98.4301     20.3029
  1898.0000      7.5801      2.5850      0.0947      3.9396     99.1008     20.0282
  1898.1000      7.5801      2.5953      0.1080      3.3176    104.0471     19.7794
  1898.2000      7.5801      2.6020      0.1144      2.9107    106.3101     19.9638
  1898.3000      7.5791      2.6044      0.0953      2.7632    102.3777     20.2479
  1898.4000      7.5791      2.6069      0.0843      2.6096     96.8723     20.1231
  1898.5000      7.5980      2.5984      0.1309      3.1248     93.4451     19.7398
  1898.6000      7.5980      2.5761      0.0727      4.4789     89.9734     19.3128
  1898.7000      7.5980      2.5604      0.0325      5.4333     86.1361     18.6898
  1898.8000      7.6492      2.5574      0.0521      5.6111     85.1108     17.9232
  1898.9000      7.6492      2.5479      0.0657      6.1885     87.7484     17.3340
  1899.0000      7.6650      2.5222      0.0353      7.7461     91.5100     16.8530
  1899.1000      7.6650      2.4948     -0.0166      9.4037     93.7551     16.0775
  1899.2000      7.6650      2.4813     -0.0528     10.2264     93.2959     15.2886
  1899.3000      7.6957      2.4801     -0.0286     10.2975     89.6745     15.2882
  1899.4000      7.6957      2.4788      0.0164     10.3770     82.9465     16.0656
  1899.5000      7.6981      2.4725      0.0040     10.7559     76.9241     16.9553
  1899.6000      7.6981      2.4705     -0.0304     10.8783     75.0867     17.7337
  1899.7000      7.6981      2.4733      0.0216     10.7078     75.1103     18.3743
  1899.8000      7.7016      2.4680      0.0201     11.0315     74.6400     18.6302
  1899.9000      7.7016      2.4587     -0.0213     11.5969     73.6957     18.2261
  1900.0000      7.7029      2.4573      0.0314     11.6800     72.5723     17.2492
  1900.1000      7.7029      2.4542      0.0114     11.8670     71.2940     16.3843
  1900.2000      7.7029      2.4369      0.0458     12.9171     69.9317     16.2370
  1900.3000      7.7036      2.4151     -0.0307     14.2391     70.1309     16.5272
  1900.4000      7.7036      2.4064      0.0147     14.7620     72.9723     16.7835
  1900.5000      7.7023      2.4093      0.0131     14.5856     77.1590     16.9186
  1900.6000      7.7023      2.4152      0.0474     14.2290     78.1879     16.8306
  1900.7000      7.7023      2.4224      0.0371     13.7922     73.3119     16.7146
  1900.8000      7.7028      2.4276      0.0575     13.4772     67.2415     16.6084
  1900.9000      7.7028      2.4220      0.0622     13.8165     64.3494     16.3802
  1901.0000      7.7031      2.4062      0.0129     14.7786     62.6925     16.5286
  1901.1000      7.7031      2.3941      0.0231     15.5102     61.6999     17.1077
  1901.2000      7.7031      2.3980      0.0394     15.2707     63.2120     17.2072
  1901.3000      7.7040      2.4201      0.0633     13.9363     65.4915     16.5816
  1901.4000      7.7040      2.4495      0.0855     12.1502     66.7525     16.1391
  1901.5000      7.7032      2.4694      0.0930     10.9470     65.7964     16.3598
  1901.6000      7.7032      2.4708      0.1090     10.8633     62.4848     16.6564
  1901.7000      7.7032      2.4585      0.1033     11.6050     61.0581     16.7113
  1901.8000      7.7041      2.4458      0.0942     12.3729     63.7026     16.7933
  1901.9000      7.7041      2.4423      0.0682     12.5857     65.8546     16.6603
  1902.0000      7.7033      2.4445      0.0716     12.4568     63.9137     16.2608
  1902.1000      7.7033      2.4473      0.0457     12.2830     61.6808     15.8612
  1902.2000      7.7033      2.4484      0.0813     12.2202     62.8461     15.5211
  1902.3000      7.7024      2.4395      0.0820     12.7546     66.5021     15.4126
  1902.4000      7.7024      2.4203      0.0637     13.9228     68.8954     15.6577
  1902.5000      7.7067      2.4024      0.0799     15.0032     67.1999     16.1321
  1902.6000      7.7067      2.3974      0.0447     15.3108     65.3470     16.2837
  1902.7000      7.7067      2.4010      0.0750     15.0913     65.5817     15.7326
  1902.8000      7.7049      2.3942      0.0815     15.5057     64.5219     15.0398
  1902.9000      7.7049      2.3771      0.0280     16.5398     62.3515     14.7284
  1903.0000      7.7033      2.3753      0.0380     16.6487     61.2443     14.5331
  1903.1000      7.7033      2.3954      0.0534     15.4319     60.6626     14.0482
  1903.2000      7.7033      2.4149      0.0889     14.2512     61.0236     13.4019
  1903.3000      7.7020      2.4164      0.0561     14.1576     62.9581     12.7593
  1903.4000      7.7020      2.4038      0.0734     14.9209     62.9094     12.1970
  1903.5000      7.7032      2.3890      0.0165     15.8165     58.6361     11.8234
  1903.6000      7.7032      2.3828      0.0674     16.1929     52.8724     11.5983
  1903.7000      7.7032      2.3897      0.0420     15.7780     49.5303     11.3863
  1903.8000      7.7008      2.4133      0.0516     14.3429     49.7736     11.0666
  1903.9000      7.7008      2.4392      0.1315     12.7744     50.5307     10.7621
