~Version Information
VERS.                      2.0: CWLS Log ASCII Standard - VERSION 2.0
WRAP.                       NO: One line per depth step
~Well Information Block
STRT.FT               260.0000: 
STOP.FT              2272.0000: 
STEP.FT                 0.2500: 
NULL.                -999.2500: 
COMP.          Pioneer Natural Resources: COMPANY
WELL.            Moo Moo 31-36: WELL
FLD.           Purgatoire River: FIELD
LOC.           612' FNL & 2326' FEL: LOCATION
PROV.                 Colorado: PROVINCE
CNTY.               Las Animas: COUNTRY
SRVC.                Patterson: SERVICE COMPANY
DATE.          Fri Jun 17 07:45:39 2005: LOG DATE
UWI.           05 071 08395 00: UNIQUE WELL ID
~Curve Information Block
DEPT.FT            0 000 00 00: Depth
DIR.Ohm-m                     : IEL Induction Resistivity
SN.Ohm-m                      : IEL Short Normal
SP.mV                         : IEL Spontaneous Potential
GR.GAPI                       : Gamma Ray
~Parameter Information Block
~A  Depth       DIR          SN          SP          GR     
# ...
  1566.5000     15.4504     20.5256    194.9119    105.3867
  1566.7500     15.4986     21.1407    195.1548    106.9104
  1567.0000     15.5203     21.0632    195.2521    111.1134
  1567.2500     15.4761     20.3878    195.1632    115.1478
  1567.5000     15.3279     19.3655    194.8977    123.6033
  1567.7500     15.0532     18.2107    194.5236    131.0393
  1568.0000     14.6512     17.1027    194.1453    143.7606
  1568.2500     14.1394     16.1586    193.8650    151.6913
  1568.5000     13.5452     15.3709    193.7452    159.8083
  1568.7500     12.9002     14.7148    193.7895    161.8240
  1569.0000     12.2374     14.2294    193.9455    160.5224
  1569.2500     11.5899     13.8661    194.1227    158.2330
  1569.5000     10.9871     13.4427    194.2207    155.4828
  1569.7500     10.4521     12.9060    194.1705    155.2531
  1570.0000     10.0002     12.4034    193.9752    157.8962
  1570.2500      9.6387     11.9923    193.7253    161.1944
  1570.5000      9.3653     11.5863    193.5849    166.8444
  1570.7500      9.1662     11.1963    193.7528    170.2416
  1571.0000      9.0164     10.9429    194.3947    174.3240
  1571.2500      8.8861     10.8661    195.5489    176.5158
  1571.5000      8.7520     10.8681    197.0578    179.0662
  1571.7500      8.6050     10.8212    198.6021    180.0083
  1572.0000      8.4504     10.6868    199.8456    179.8177
  1572.2500      8.3022     10.5249    200.5925    178.6866
  1572.5000      8.1755     10.4642    200.8504    176.2168
  1572.7500      8.0833     10.6049    200.7842    174.5632
  1573.0000      8.0349     10.8380    200.6241    172.6465
  1573.2500      8.0366     10.9380    200.5809    171.8719
  1573.5000      8.0922     10.8681    200.7751    171.5409
  1573.7500      8.2049     10.7880    201.1821    171.9160
  1574.0000      8.3781     10.8183    201.6319    173.4040
  1574.2500      8.6150     10.9194    201.8946    174.7693
  1574.5000      8.9172     10.9827    201.8120    175.9115
  1574.7500      9.2828     11.0146    201.3763    174.7035
  1575.0000      9.7076     11.1631    200.7107    168.1222
  1575.2500     10.1867     11.5882    199.9929    160.5680
  1575.5000     10.7178     12.3564    199.3783    146.2159
  1575.7500     11.3056     13.4329    198.9488    135.9160
  1576.0000     11.9673     14.7746    198.6969    121.1520
  1576.2500     12.7357     16.4404    198.5457    112.5998
  1576.5000     13.6553     18.5637    198.4013    102.9655
  1576.7500     14.7659     21.1883    198.2124     99.1483
  1577.0000     16.0749     24.1693    198.0010     97.2610
  1577.2500     17.5255     27.2159    197.8447     97.9876
  1577.5000     18.9817     29.9558    197.8290    100.4977
  1577.7500     20.2557     32.0029    198.0056    102.0856
  1578.0000     21.1764     33.0992    198.3720    102.8208
  1578.2500     21.6498     33.2053    198.8725    101.9612
  1578.5000     21.6691     32.4138    199.4178    100.0986
  1578.7500     21.2894     30.8436    199.9204    100.1689
  1579.0000     20.6061     28.6968    200.3261    104.7075
  1579.2500     19.7367     26.3203    200.6256    110.9514
  1579.5000     18.7978     24.0549    200.8398    123.6128
  1579.7500     17.8825     22.0801    200.9859    132.9415
  1580.0000     17.0505     20.4212    201.0446    146.3630
  1580.2500     16.3275     18.9824    200.9693    154.0379
  1580.5000     15.7068     17.6638    200.7471    162.2155
  1580.7500     15.1564     16.5387    200.4662    164.6662
  1581.0000     14.6356     15.7900    200.3148    162.7623
  1581.2500     14.1224     15.4495    200.4844    157.5652
  1581.5000     13.6306     15.3311    201.0314    145.1657
  1581.7500     13.2044     15.2299    201.8064    135.7671
  1582.0000     12.8948     15.0669    202.5279    124.2714
  1582.2500     12.7366     14.8527    202.9477    120.3380
  1582.5000     12.7397     14.6401    202.9740    120.9515
  1582.7500     12.8935     14.5497    202.6664    124.5769
  1583.0000     13.1762     14.7270    202.1446    131.2452
  1583.2500     13.5658     15.2204    201.5101    134.5764
  1583.5000     14.0460     15.9299    200.8277    136.1866
  1583.7500     14.6051     16.6828    200.1446    134.7963
  1584.0000     15.2290     17.3718    199.4995    129.2218
  1584.2500     15.8949     18.0228    198.9105    123.5748
  1584.5000     16.5755     18.7655    198.3670    113.6937
  1584.7500     17.2515     19.7147    197.8531    107.3282
  1585.0000     17.9226     20.8822    197.3823     99.6214
  1585.2500     18.6043     22.2647    196.9997     95.9510
  1585.5000     19.3108     23.9271    196.7528     92.1973
  1585.7500     20.0393     25.9145    196.6623     90.4781
  1586.0000     20.7682     28.0998    196.7144     88.5923
  1586.2500     21.4697     30.2129    196.8644     87.5846
  1586.5000     22.1211     32.0573    197.0424     86.1372
  1586.7500     22.7023     33.4954    197.1697     85.2471
  1587.0000     23.1835     34.2334    197.1994     84.7478
  1587.2500     23.5142     33.9483    197.1610     85.5488
  1587.5000     23.6187     32.6757    197.1606     88.7039
  1587.7500     23.4059     30.8549    197.3099     91.5333
  1588.0000     22.8038     28.9250    197.6353     95.4215
  1588.2500     21.8101     27.0179    198.0633     97.4475
  1588.5000     20.5167     25.0854    198.5057    100.5121
  1588.7500     19.0750     23.1434    198.9494    103.4318
  1589.0000     17.6304     21.2909    199.4492    109.8956
  1589.2500     16.2802     19.5978    200.0404    115.3890
  1589.5000     15.0713     18.0851    200.6729    124.5160
  1589.7500     14.0175     16.7792    201.2251    130.8202
  1590.0000     13.1145     15.6434    201.5696    140.5689
  1590.2500     12.3473     14.5337    201.6313    147.3999
  1590.5000     11.6948     13.4384    201.4147    158.0561
  1590.7500     11.1345     12.5882    200.9993    164.9847
  1591.0000     10.6480     12.1171    200.5079    173.8122
  1591.2500     10.2238     11.8631    200.0614    177.9607
  1591.5000      9.8563     11.6337    199.7467    181.2597
  1591.7500      9.5423     11.3801    199.6058    181.9921
  1592.0000      9.2788     11.0785    199.6340    182.4829
  1592.2500      9.0616     10.7306    199.7818    183.2133
  1592.5000      8.8862     10.4216    199.9693    185.0133
  1592.7500      8.7478     10.2177    200.1152    186.0459
  1593.0000      8.6419     10.1196    200.1660    186.3989
  1593.2500      8.5638     10.1298    200.1121    185.7201
  1593.5000      8.5083     10.2346    199.9891    182.9212
  1593.7500      8.4706     10.3541    199.8649    179.2114
  1594.0000      8.4465     10.4067    199.8085    170.5704
  1594.2500      8.4330     10.3818    199.8480    163.9792
  1594.5000      8.4280     10.3003    199.9446    156.4711
  1594.7500      8.4290     10.1806    200.0120    154.5746
  1595.0000      8.4331     10.0921    199.9734    156.4717
  1595.2500      8.4369     10.1132    199.8046    159.9389
  1595.5000      8.4385     10.1891    199.5290    166.4972
  1595.7500      8.4377     10.1844    199.1788    170.6997
  1596.0000      8.4356     10.0674    198.7663    175.2041
  1596.2500      8.4328      9.9299    198.2846    176.7083
  1596.5000      8.4299      9.8703    197.7183    177.7330
  1596.7500      8.4282      9.8942    197.0519    178.5984
  1597.0000      8.4310      9.9044    196.2808    180.8689
  1597.2500      8.4436      9.8237    195.4238    182.4297
  1597.5000      8.4713      9.6996    194.5250    183.1189
  1597.7500      8.5167      9.6129    193.6360    182.0232
  1598.0000      8.5784      9.5582    192.7914    178.7886
  1598.2500      8.6526      9.5296    191.9945    176.3337
  1598.5000      8.7361      9.6047    191.2278    172.7158
  1598.7500      8.8286      9.7968    190.4848    169.9934
  1599.0000      8.9321      9.9828    189.7900    164.5678
  1599.2500      9.0488     10.0930    189.1877    159.9423
  1599.5000      9.1791     10.2157    188.7134    152.1412
  1599.7500      9.3198     10.4512    188.3685    146.9230
