~Version Information
VERS.                      2.0: CWLS Log ASCII Standard - VERSION 2.0
WRAP.                       NO: One line per depth step
~Well Information Block
STRT.FT               964.2000: 
STOP.FT              2596.7000: 
STEP.FT                 0.1000: 
NULL.                -999.2500: 
COMP.          Petrogulf Corporation: COMPANY
WELL.             Valejo 8-12V: WELL
FLD.           Purgatorie River: FIELD
LOC.           1510' FNL & 1460' FWL: LOCATION
CNTY.               Las Animas: COUNTY
SRVC.                         : SERVICE COMPANY
DATE.          Sat Nov 15 12:30:37 2003: LOG DATE
UWI.                          : UNIQUE WELL ID
STAT.                 Colorado: STATE
~Curve Information Block
DEPT.FT            0 000 00 00: Depth
DCAL.in                       : CDL Caliper
RHOB.g/cc                     : CDL Bulk Density
RHOC.g/cc                     : CDL Density Correction
DPOR.pu                       : CDL Density Porosity
GR.GAPI                       : Gamma Ray
NPOR.pu                       : Neutron Porosity
~Parameter Information Block
~A  Depth       DCAL        RHOB        RHOC        DPOR         GR         NPOR    
# ...
  2049.0000      7.9072      2.4158      0.0416     14.1929     61.2449     14.3825
  2049.1000      7.9072      2.3939      0.0347     15.5216     60.2382     15.2986
  2049.2000      7.9072      2.3751      0.0016     16.6617     54.4398     15.3538
  2049.3000      7.9077      2.3655      0.0215     17.2446     48.7044     14.4754
  2049.4000      7.9077      2.3642      0.0096     17.3194     46.4595     13.4531
  2049.5000      7.9080      2.3690      0.0188     17.0288     44.3561     12.6405
  2049.6000      7.9080      2.3766      0.0236     16.5680     42.6588     11.4947
  2049.7000      7.9080      2.3831      0.0080     16.1731     43.2606     10.5975
  2049.8000      7.9081      2.3905      0.0120     15.7283     43.8846     11.0412
  2049.9000      7.9081      2.4030      0.0221     14.9724     41.8503     12.3279
  2050.0000      7.9080      2.4138      0.0673     14.3177     39.1021     13.3161
  2050.1000      7.9080      2.4110      0.0190     14.4868     39.1708     13.5541
  2050.2000      7.9080      2.4030      0.0313     14.9719     39.3659     12.9612
  2050.3000      7.9078      2.4035      0.0476     14.9369     37.4374     11.6894
  2050.4000      7.9078      2.4065      0.0543     14.7554     37.4710     10.3958
  2050.5000      7.9073      2.3997      0.0417     15.1708     40.2856      9.6005
  2050.6000      7.9073      2.3871      0.0110     15.9352     40.3879      9.3524
  2050.7000      7.9073      2.3831     -0.0100     16.1763     36.1424      9.5527
  2050.8000      7.9061      2.3913      0.0079     15.6817     31.8444      9.5826
  2050.9000      7.9061      2.4006      0.0494     15.1129     29.7599      9.0886
  2051.0000      7.9042      2.4021      0.0428     15.0230     28.4252      8.5600
  2051.1000      7.9042      2.3961      0.0466     15.3902     26.6944      8.5484
  2051.2000      7.9042      2.3858      0.0396     16.0149     25.7597      9.1365
  2051.3000      7.9023      2.3797      0.0359     16.3838     28.1956      9.7130
  2051.4000      7.9023      2.3839      0.0635     16.1301     32.8121      9.6710
  2051.5000      7.9013      2.3926      0.0370     15.5976     35.1233      9.1248
  2051.6000      7.9013      2.4013      0.0641     15.0709     35.1124      8.6466
  2051.7000      7.9013      2.4056      0.0631     14.8092     35.9431      8.5776
  2051.8000      7.9012      2.4019      0.0574     15.0351     37.8656      8.7172
  2051.9000      7.9012      2.3990      0.0393     15.2110     37.5631      8.7033
  2052.0000      7.9016      2.3999      0.0852     15.1556     33.3945      8.7162
  2052.1000      7.9016      2.3910      0.0581     15.6967     29.5906      8.8538
  2052.2000      7.9016      2.3741      0.0079     16.7205     28.5332      8.4999
  2052.3000      7.9015      2.3667      0.0228     17.1675     28.0648      7.6863
  2052.4000      7.9015      2.3721      0.0323     16.8408     27.9627      7.1141
  2052.5000      7.9007      2.3812      0.0479     16.2936     28.2122      7.1020
  2052.6000      7.9007      2.3924      0.0333     15.6148     27.3805      7.6313
  2052.7000      7.9007      2.4129      0.0388     14.3699     25.8878      8.2946
  2052.8000      7.8997      2.4308      0.0923     13.2875     25.0856      8.5565
  2052.9000      7.8997      2.4205      0.0642     13.9116     26.1940      8.7130
  2053.0000      7.8994      2.3905      0.0257     15.7279     28.6855      9.3907
  2053.1000      7.8994      2.3722      0.0220     16.8338     31.2245     10.1822
  2053.2000      7.8994      2.3729     -0.0018     16.7948     34.4335     10.1982
  2053.3000      7.9000      2.3746      0.0752     16.6881     38.4119      9.9607
  2053.4000      7.9000      2.3694      0.0153     17.0045     43.2147     10.4548
  2053.5000      7.9008      2.3731      0.0102     16.7823     50.0353     11.3753
  2053.6000      7.9008      2.3880      0.0463     15.8786     56.0722     11.8356
  2053.7000      7.9008      2.3961      0.0431     15.3900     58.0524     11.8119
  2053.8000      7.9016      2.3959      0.0332     15.3997     59.0468     11.6883
  2053.9000      7.9016      2.3980      0.0513     15.2714     61.5978     11.6423
  2054.0000      7.9020      2.4066      0.0402     14.7522     63.6163     11.8062
  2054.1000      7.9020      2.4277      0.0534     13.4716     63.4721     12.1460
  2054.2000      7.9020      2.4629      0.0759     11.3406     64.5813     12.3265
  2054.3000      7.9023      2.4998      0.0893      9.1027     71.2434     12.3564
  2054.4000      7.9023      2.5209      0.0931      7.8253     80.7197     12.5054
  2054.5000      7.9023      2.5187      0.0827      7.9569     85.6080     12.6148
  2054.6000      7.9023      2.5048      0.0423      8.8008     82.1787     12.4200
  2054.7000      7.9023      2.4916      0.0703      9.5997     76.1459     12.0946
  2054.8000      7.9019      2.4796      0.0443     10.3292     75.9498     12.0820
  2054.9000      7.9019      2.4686      0.0415     10.9920     79.5289     12.3137
  2055.0000      7.9014      2.4605      0.0297     11.4857     83.5031     12.7224
  2055.1000      7.9014      2.4495      0.0649     12.1507     88.4277     13.4199
  2055.2000      7.9014      2.4291      0.0347     13.3884     90.0274     14.0377
  2055.3000      7.9017      2.4100     -0.0007     14.5425     84.1646     14.3361
  2055.4000      7.9017      2.4043      0.0240     14.8925     74.2028     14.3813
  2055.5000      7.9036      2.4042      0.0359     14.8942     68.5266     14.5901
  2055.6000      7.9036      2.3990      0.0228     15.2139     71.2318     15.3225
  2055.7000      7.9036      2.3857      0.0383     16.0175     78.9903     16.1217
  2055.8000      7.9081      2.3705      0.0388     16.9406     91.8213     16.8174
  2055.9000      7.9081      2.3651      0.0286     17.2673    111.3395     18.2225
  2056.0000      7.9160      2.3733      0.0370     16.7686    130.9083     20.3171
  2056.1000      7.9160      2.3999      0.0114     15.1585    142.7019     22.0041
  2056.2000      7.9160      2.4534      0.0710     11.9172    148.7307     23.1658
  2056.3000      7.9282      2.5165      0.1520      8.0898    150.3883     24.3937
  2056.4000      7.9282      2.5585      0.1501      5.5477    146.7211     24.9372
  2056.5000      7.9458      2.5736      0.1374      4.6316    142.2870     24.1183
  2056.6000      7.9458      2.5754      0.1657      4.5201    143.9038     23.0487
  2056.7000      7.9458      2.5707      0.1733      4.8072    150.5221     22.4041
  2056.8000      7.9696      2.5610      0.1317      5.3918    150.7935     21.6061
  2056.9000      7.9696      2.5509      0.1022      6.0044    144.0911     20.5048
  2057.0000      8.0000      2.5387      0.1106      6.7454    140.5888     19.5741
  2057.1000      8.0000      2.5212      0.0741      7.8037    136.5034     19.2502
  2057.2000      8.0000      2.5043      0.0340      8.8290    122.7561     18.9763
  2057.3000      8.0351      2.4887      0.0708      9.7742    107.1069     17.8401
  2057.4000      8.0351      2.4707      0.0473     10.8645    102.1665     16.5212
  2057.5000      8.0706      2.4629     -0.0114     11.3388    110.2990     16.2008
  2057.6000      8.0706      2.4739      0.0533     10.6728    121.3528     16.5079
  2057.7000      8.0706      2.4853      0.0641      9.9817    120.5355     16.1385
  2057.8000      8.1003      2.4849      0.0423     10.0076    104.8762     15.2676
  2057.9000      8.1003      2.4834      0.0151     10.0948     85.5738     15.0144
  2058.0000      8.1198      2.4863      0.0671      9.9194     71.6886     15.2483
  2058.1000      8.1198      2.4854      0.0683      9.9775     64.0927     15.2466
  2058.2000      8.1198      2.4766      0.0517     10.5119     59.0411     15.2738
  2058.3000      8.1289      2.4602      0.0559     11.5032     56.5556     15.6531
  2058.4000      8.1289      2.4360      0.0510     12.9685     55.5896     15.6486
  2058.5000      8.1307      2.4104      0.0296     14.5192     51.2039     14.8527
