~Version Information
VERS.                      2.0: CWLS Log ASCII Standard - VERSION 2.0
WRAP.                       NO: One line per depth step
~Well Information Block
STRT.FT               430.0000: 
STOP.FT              1910.2500: 
STEP.FT                 0.2500: 
NULL.                -999.2500: 
COMP.          Pioneer Natural Resources: COMPANY
WELL.          Formula 23-11 Tr: WELL
FLD.           Purgatoire River: FIELD
LOC.           1976' FSL & 1935' FWL--: LOCATION
PROV.                 Colorado: PROVINCE
CNTY.               Las Animas: COUNTRY
SRVC.                Patterson: SERVICE COMPANY
DATE.          Fri Jun 10 22:41:39 2005: LOG DATE
UWI.           05 071 08399 00: UNIQUE WELL ID
~Curve Information Block
DEPT.FT            0 000 00 00: Depth
SN.Ohm-m                      : IEL Short Normal
SP.mV                         : IEL Spontaneous Potential
DIR.Ohm-m                     : IEL Induction Resistivity
GR.GAPI                       : Gamma Ray
~Parameter Information Block
~A  Depth        SN          SP         DIR          GR     
# ...
  1301.0000     30.6593   -157.6702     27.2576     89.7719
  1301.2500     28.8212   -157.3307     25.4985     98.1460
  1301.5000     27.0730   -156.9872     23.8976    110.8794
  1301.7500     25.4420   -156.6268     22.4776    117.6825
  1302.0000     23.9786   -156.2340     21.2394    123.9615
  1302.2500     22.7282   -155.8006     20.1764    126.0287
  1302.5000     21.7130   -155.3341     19.2839    127.5052
  1302.7500     20.9378   -154.8611     18.5636    127.8187
  1303.0000     20.4030   -154.4239     18.0226    127.3111
  1303.2500     20.1087   -154.0715     17.6692    126.5201
  1303.5000     20.0538   -153.8472     17.5083    125.3604
  1303.7500     20.2340   -153.7789     17.5394    124.7697
  1304.0000     20.6419   -153.8739     17.7543    123.6443
  1304.2500     21.2624   -154.1193     18.1348    122.2570
  1304.5000     22.0677   -154.4879     18.6518    118.8723
  1304.7500     23.0204   -154.9444     19.2678    115.9811
  1305.0000     24.0837   -155.4529     19.9413    111.3703
  1305.2500     25.2281   -155.9813     20.6310    108.2686
  1305.5000     26.4329   -156.5040     21.2944    103.2657
  1305.7500     27.6883   -157.0027     21.8787     99.4445
  1306.0000     28.9936   -157.4670     22.3053     92.8358
  1306.2500     30.3485   -157.8933     22.4553     87.9511
  1306.5000     31.7452   -158.2843     22.1797     80.3876
  1306.7500     33.1712   -158.6470     21.3617     75.6429
  1307.0000     34.6093   -158.9901     20.0155     69.7530
  1307.2500     36.0327   -159.3220     18.3343     66.7665
  1307.5000     37.4051   -159.6477     16.6207     63.1297
  1307.7500     38.6913   -159.9686     15.1639     60.8689
  1308.0000     39.8694   -160.2823     14.1882     57.7250
  1308.2500     40.9346   -160.5841     13.9261     56.0756
  1308.5000     41.8918   -160.8694     14.8559     54.4341
  1308.7500     42.7435   -161.1365     18.5699     53.7065
  1309.0000     43.4857   -161.3880     35.0205     52.8288
  1309.2500     44.1146   -161.6324 100000.0000     52.3323
  1309.5000     44.6344   -161.8843 100000.0000     51.8045
  1309.7500     45.0566   -162.1633 100000.0000     51.7136
  1310.0000     45.3923   -162.4928 100000.0000     52.2520
  1310.2500     45.6437   -162.8981 100000.0000     53.2116
  1310.5000     45.7998   -163.4035 100000.0000     55.6399
  1310.7500     45.8383   -164.0307 100000.0000     57.7877
  1311.0000     45.7346   -164.7965 100000.0000     61.2235
  1311.2500     45.4749   -165.7131 100000.0000     63.2625
  1311.5000     45.0630   -166.7887 100000.0000     65.6572
  1311.7500     44.5167   -168.0323 100000.0000     66.9751
  1312.0000     43.8561   -169.4581 100000.0000     69.0949
  1312.2500     43.0908   -171.0911 100000.0000     70.9253
  1312.5000     42.2175   -172.9716 100000.0000     74.7142
  1312.7500     41.2269   -175.1557 100000.0000     77.9733
  1313.0000     40.1174   -177.7112 100000.0000     83.2202
  1313.2500     38.8970   -180.7107     52.3806     85.9986
  1313.5000     37.5666   -184.2217     11.8229     87.3508
  1313.7500     36.0873   -188.3008      8.5275     85.9909
  1314.0000     34.3520   -192.9928      9.0459     81.5565
  1314.2500     32.1892   -198.3394     12.8954     78.2375
  1314.5000     29.4220   -204.3951     20.8294     74.7075
  1314.7500     25.9789   -211.2416     15.8084     73.8433
  1315.0000     21.9990   -218.9985      5.3783     74.5226
  1315.2500     17.8381   -227.8116      1.8889     75.9362
  1315.5000     13.9285   -237.8226      0.7646     79.1347
  1315.7500     10.5797   -249.1177      0.3216     81.6778
  1316.0000      7.8764   -261.6671      0.1210     84.9256
  1316.2500      5.7401   -275.2701      0.0417     85.9488
  1316.5000      4.0633   -289.5322      0.0159     85.4462
  1316.7500      2.7870   -303.8796      0.0075     84.3097
  1317.0000      1.8835   -317.6194      0.0045     83.0195
  1317.2500      1.3102   -330.0323      0.0033     83.3239
  1317.5000      0.9958   -340.4759      0.0028     86.2678
  1317.7500      0.8606   -348.4747      0.0026     89.5187
  1318.0000      0.8423   -353.7761      0.0026     94.1646
  1318.2500      0.9078   -356.3614      0.0028     95.4448
  1318.5000      1.0535   -356.4149      0.0031     92.7831
  1318.7500      1.3073   -354.2617      0.0037     88.1575
  1319.0000      1.7382   -350.2919      0.0050     79.2935
  1319.2500      2.4558   -344.8842      0.0075     73.7655
  1319.5000      3.5594   -338.3433      0.0132     67.8214
  1319.7500      5.0316   -330.8601      0.0268     65.7222
  1320.0000      6.6534   -322.5025      0.0610     65.6241
  1320.2500      8.0510   -313.2376      0.1445     68.0263
  1320.5000      8.8804   -302.9809      0.3230     76.0406
  1320.7500      9.0214   -291.6615      0.6775     83.9687
  1321.0000      8.6373   -279.2856      1.4543     97.1940
  1321.2500      8.0759   -265.9823      3.3634    104.8728
  1321.5000      7.7079   -252.0208      7.5790    112.1990
  1321.7500      7.8014   -237.7920     11.2789    114.0583
  1322.0000      8.4589   -223.7643      9.8885    113.7680
  1322.2500      9.6124   -210.4202      8.1160    112.7574
  1322.5000     11.0779   -198.1944      8.1380    111.4096
  1322.7500     12.6432   -187.4211     11.5503    110.7163
  1323.0000     14.1316   -178.3023     47.4861    109.5321
  1323.2500     15.4116   -170.8932 100000.0000    108.6253
  1323.5000     16.3858   -165.1109 100000.0000    107.9347
  1323.7500     16.9934   -160.7561 100000.0000    108.5597
  1324.0000     17.2224   -157.5481 100000.0000    111.3030
  1324.2500     17.1123   -155.1704 100000.0000    113.7614
  1324.5000     16.7439   -153.3208 100000.0000    117.3051
  1324.7500     16.2201   -151.7545 100000.0000    119.4476
  1325.0000     15.6412   -150.3165 100000.0000    122.7459
  1325.2500     15.0871   -148.9487 100000.0000    125.0790
  1325.5000     14.6155   -147.6739 100000.0000    128.1725
  1325.7500     14.2732   -146.5598 100000.0000    129.3416
  1326.0000     14.0982   -145.6768 100000.0000    128.9879
  1326.2500     14.1048   -145.0650 100000.0000    127.4474
  1326.5000     14.2639   -144.7200 100000.0000    124.1716
  1326.7500     14.5043   -144.5981 100000.0000    121.8456
  1327.0000     14.7387   -144.6348     28.5362    118.1998
  1327.2500     14.8980   -144.7650     14.6287    115.5516
  1327.5000     14.9503   -144.9389     10.8898    111.7836
  1327.7500     14.8979   -145.1255      9.5156    110.1518
  1328.0000     14.7632   -145.3108      9.1233    110.0343
  1328.2500     14.5747   -145.4875      9.2745    111.4156
  1328.5000     14.3572   -145.6472      9.7702    114.3945
  1328.7500     14.1267   -145.7766     10.4701    116.1832
  1329.0000     13.8912   -145.8581     11.2336    118.2653
  1329.2500     13.6510   -145.8758     11.9178    119.7351
  1329.5000     13.4007   -145.8240     12.4139    122.8258
  1329.7500     13.1320   -145.7122     12.6842    125.2841
  1330.0000     12.8408   -145.5696     12.7617    128.4216
  1330.2500     12.5379   -145.4392     12.7176    129.6707
  1330.5000     12.2520   -145.3695     12.6233    130.3676
  1330.7500     12.0196   -145.4013     12.5300    130.3913
  1331.0000     11.8655   -145.5569     12.4639    130.3727
  1331.2500     11.7885   -145.8353     12.4315    130.6386
  1331.5000     11.7616   -146.2130     12.4273    131.7690
  1331.7500     11.7476   -146.6506     12.4394    132.8209
  1332.0000     11.7178   -147.1027     12.4541    133.7595
  1332.2500     11.6625   -147.5261     12.4579    133.2255
  1332.5000     11.5864   -147.8870     12.4391    130.3172
  1332.7500     11.5007   -148.1643     12.3904    127.6105
  1333.0000     11.4169   -148.3496     12.3108    124.4366
  1333.2500     11.3374   -148.4458     12.2057    123.8984
  1333.5000     11.2442   -148.4633     12.0837    125.6309
  1333.7500     11.1030   -148.4149     11.9532    127.7163
  1334.0000     10.8870   -148.3119     11.8193    130.5601
  1334.2500     10.5960   -148.1604     11.6840    131.6531
