~Version Information
VERS.                      2.0: CWLS Log ASCII Standard - VERSION 2.0
WRAP.                       NO: One line per depth step
~Well Information Block
STRT.FT               340.0000: 
STOP.FT              1731.0000: 
STEP.FT                 0.1000: 
NULL.                -999.2500: 
COMP.          Pioneer Natural Resources: COMPANY
WELL.          Rancher 12-35 Tr: WELL
FLD.           Purgatoire River: FIELD
LOC.           2242' FNL & 308' FWL SWNW 35 32S 67W: LOCATION
PROV.                 Colorado: PROVINCE
CNTY.               Las Animas: COUNTRY
SRVC.                Patterson: SERVICE COMPANY
DATE.          Tue Jul 05 07:18:22 2005: LOG DATE
UWI.              05 071 08430 00: UNIQUE WELL ID
~Curve Information Block
DEPT.FT            0 000 00 00: Depth
DCAL.in                       : CDL Caliper
RHOB.g/cc                     : CDL Bulk Density
RHOC.g/cc                     : CDL Density Correction
DPOR.pu                       : CDL Density Porosity
GR.GAPI                       : Gamma Ray
NPOR.pu                       : Neutron Porosity
~Parameter Information Block
~A  Depth       DCAL        RHOB        RHOC        DPOR         GR         NPOR    
   340.0000      5.1007      2.3071     -0.4373     20.7825    117.7311     20.2041
   340.1000      5.1007      2.3392     -0.3209     18.8359    123.6639     20.9710
   340.2000      5.1007      2.3331     -0.4103     19.2056    125.7516     21.2173
   340.3000      5.0926      2.3222     -0.4500     19.8689    123.5543     21.1666
   340.4000      5.0926      2.3291     -0.3960     19.4474    122.3449     21.5994
   340.5000      5.0951      2.3145     -0.3109     20.3304    127.9280     21.9524
   340.6000      5.0951      2.2584     -0.4483     23.7307    138.0195     21.6268
   340.7000      5.0951      2.2110     -0.4846     26.6078    139.8750     21.5482
   340.8000      5.1004      2.2091     -0.5017     26.7196    130.0652     22.1938
   340.9000      5.1004      2.2258     -0.4581     25.7099    122.9395     22.6932
   341.0000      5.0983      2.2145     -0.3615     26.3938    127.0496     22.6411
   341.1000      5.0983      2.1757     -0.5510     28.7467    133.1140     22.2539
   341.2000      5.0983      2.1600     -0.5748     29.6982    131.1809     21.8074
   341.3000      5.0949      2.1848     -0.4559     28.1951    123.7051     21.5157
   341.4000      5.0949      2.2236     -0.5394     25.8438    121.2069     21.2632
   341.5000      5.1169      2.2497     -0.3645     24.2623    128.9284     21.1552
   341.6000      5.1169      2.2401     -0.3543     24.8443    139.3994     21.3707
   341.7000      5.1169      2.2141     -0.4479     26.4174    143.1958     21.7802
   341.8000      5.1019      2.2060     -0.4602     26.9092    138.8319     22.3155
   341.9000      5.1019      2.1987     -0.3929     27.3501    132.2061     22.7065
   342.0000      5.0986      2.1706     -0.4458     29.0561    129.3833     22.6386
   342.1000      5.0986      2.1460     -0.5563     30.5442    128.3397     22.1797
   342.2000      5.0986      2.1512     -0.4541     30.2289    124.7984     21.5957
   342.3000      5.0998      2.1757     -0.4586     28.7449    119.9279     21.1554
   342.4000      5.0998      2.1969     -0.4219     27.4619    118.0925     20.8687
   342.5000      5.1694      2.2011     -0.3875     27.2079    120.9185     20.4724
   342.6000      5.1694      2.1910     -0.4324     27.8162    124.6558     19.8851
   342.7000      5.1694      2.1792     -0.4477     28.5358    127.6062     19.4093
   342.8000      7.6441      2.1685     -0.4279     29.1817    130.8655     19.4766
   342.9000      7.6441      2.1586     -0.4492     29.7837    130.9769     20.1144
   343.0000     22.5807      2.1526     -0.4586     30.1478    127.1526     20.8291
   343.1000     22.5807      2.1458     -0.4309     30.5572    124.6349     21.1699
   343.2000     22.5807      2.1403     -0.4643     30.8908    127.6924     21.2276
   343.3000     24.6245      2.1487     -0.4372     30.3808    133.7066     21.4664
   343.4000     24.6245      2.1668     -0.4444     29.2826    136.8418     21.7972
   343.5000     22.8782      2.1843     -0.4423     28.2229    136.9093     21.7210
   343.6000     22.8782      2.2025     -0.4445     27.1196    138.3706     21.9455
   343.7000     22.8782      2.2217     -0.4223     25.9553    141.4671     23.1481
   343.8000      9.9021      2.2287     -0.3398     25.5311    142.5331     24.2188
   343.9000      9.9021      2.2086     -0.3952     26.7514    140.1181     24.2202
   344.0000      8.1458      2.1674     -0.4248     29.2480    136.0900     23.6780
   344.1000      8.1458      2.1279     -0.4920     31.6414    135.2059     23.6403
   344.2000      8.1458      2.1060     -0.5591     32.9705    139.6259     24.3364
   344.3000      8.1432      2.0992     -0.4723     33.3802    146.5349     24.8223
   344.4000      8.1432      2.0974     -0.5364     33.4912    152.0970     24.6358
   344.5000      8.1434      2.0983     -0.4558     33.4370    154.4874     24.2727
   344.6000      8.1434      2.1101     -0.5505     32.7201    152.8680     24.3416
   344.7000      8.1434      2.1369     -0.4673     31.0945    148.4131     25.1063
   344.8000      8.1428      2.1614     -0.4322     29.6136    146.2252     26.0476
   344.9000      8.1428      2.1685     -0.4408     29.1811    146.3691     26.0209
   345.0000      8.1418      2.1629     -0.4183     29.5210    145.4439     24.8917
   345.1000      8.1418      2.1568     -0.4457     29.8896    145.6274     24.0315
   345.2000      8.1418      2.1675     -0.4285     29.2420    147.9818     23.9718
   345.3000      8.1447      2.2007     -0.4076     27.2303    150.1772     24.0924
   345.4000      8.1447      2.2348     -0.3440     25.1606    152.7640     24.0366
   345.5000      8.1438      2.2429     -0.3503     24.6708    156.9917     24.0254
   345.6000      8.1438      2.2265     -0.4182     25.6647    158.6706     24.6361
   345.7000      8.1438      2.2063     -0.4018     26.8891    154.5688     26.1643
   345.8000      8.1437      2.2058     -0.4779     26.9213    148.8309     27.5451
   345.9000      8.1437      2.2537     -0.4574     24.0159    145.5775     27.9507
   346.0000      8.1411      2.3472     -0.3365     18.3517    142.9115     28.4273
   346.1000      8.1411      2.4428     -0.3334     12.5547    137.8463     30.1230
   346.2000      8.1411      2.5174     -0.3157      8.0336    131.2484     32.7510
   346.3000      8.1390      2.5727     -0.2723      4.6849    125.7639     35.0633
   346.4000      8.1390      2.6054     -0.3705      2.7007    125.9359     36.3900
   346.5000      8.1153      2.6109     -0.2913      2.3669    133.5121     36.8759
   346.6000      8.1153      2.5800     -0.3741      4.2410    139.9434     36.5070
   346.7000      8.1153      2.5060     -0.5466      8.7295    134.8302     35.0537
   346.8000      8.1328      2.3945     -0.6963     15.4873    120.5020     32.8802
   346.9000      8.1328      2.2499     -0.8014     24.2492    107.2053     31.2819
   347.0000      8.1400      2.0869     -0.8563     34.1293    100.5555     30.7726
   347.1000      8.1400      1.9600     -1.2191     41.8182     95.4645     30.5230
   347.2000      8.1400      1.9287     -1.3162     43.7174     87.4313     29.7201
   347.3000      8.1470      1.9705     -1.2061     41.1788     83.7620     27.8357
   347.4000      8.1470      2.0045     -1.0950     39.1199     89.7572     25.5084
   347.5000      8.1381      2.0163     -1.2665     38.4079    100.2254     24.1260
   347.6000      8.1381      2.0564     -0.9916     35.9785    107.4645     23.7308
   347.7000      8.1381      2.1359     -0.8799     31.1576    109.1213     23.3372
   347.8000      8.1353      2.2112     -0.4994     26.5941    106.0242     22.8837
   347.9000      8.1353      2.2315     -0.5175     25.3618     99.2943     22.5174
   348.0000      8.1332      2.2127     -0.6077     26.5010     95.6286     21.6164
   348.1000      8.1332      2.2060     -0.5627     26.9119    102.1752     20.3093
   348.2000      8.1332      2.2185     -0.5633     26.1490    114.3316     19.6231
   348.3000      8.1500      2.2326     -0.4768     25.2975    121.7962     20.0744
   348.4000      8.1500      2.2369     -0.4867     25.0386    120.8572     21.0184
   348.5000      8.1597      2.2334     -0.4340     25.2495    117.6729     21.9781
   348.6000      8.1597      2.2302     -0.4636     25.4439    117.0117     23.2444
   348.7000      8.1597      2.2217     -0.3933     25.9554    115.9631     23.9083
   348.8000      8.1608      2.1891     -0.4207     27.9330    115.8104     22.9644
   348.9000      8.1608      2.1367     -0.5064     31.1074    121.5014     21.5188
   349.0000      8.1642      2.0979     -0.5515     33.4582    129.4250     20.7185
   349.1000      8.1642      2.0886     -0.4677     34.0264    135.2817     20.5833
   349.2000      8.1642      2.1021     -0.5110     33.2052    138.5760     21.0677
   349.3000      8.1625      2.1313     -0.4630     31.4373    137.8556     22.1163
   349.4000      8.1625      2.1603     -0.4397     29.6805    136.9879     23.7331
   349.5000      8.1638      2.1748     -0.4555     28.8020    140.6129     25.5473
