~Version Information
VERS.                      2.0: CWLS Log ASCII Standard - VERSION 2.0
WRAP.                       NO: One line per depth step
~Well Information Block
STRT.FT               866.0000: 
STOP.FT              2027.5000: 
STEP.FT                 0.1000: 
NULL.                -999.2500: 
COMP.          Petrogulf Corporation: COMPANY
WELL.             State 16-21R: WELL
FLD.           Purgatorie River: FIELD
LOC.           203' FNL & 1560' FWL: LOCATION
PROV.                 Colorado: PROVINCE
CNTY.               Las Animas: COUNTRY
SRVC.                Patterson: SERVICE COMPANY
DATE.          Tue Aug 16 13:32:09 2005: LOG DATE
UWI.                071 08313 : UNIQUE WELL ID
~Curve Information Block
DEPT.FT            0 000 00 00: Depth
DCAL.in                       : CDL Caliper
RHOB.g/cc                     : CDL Bulk Density
RHOC.g/cc                     : CDL Density Correction
DPOR.pu                       : CDL Density Porosity
GR.GAPI                       : Gamma Ray
NPOR.pu                       : Neutron Porosity
~Parameter Information Block
~A  Depth       DCAL        RHOB        RHOC        DPOR         GR         NPOR    
# ...
  2008.4000      7.9560      2.5363      0.0656      6.8923    235.5462     25.0820
  2008.5000      7.9472      2.5587      0.0506      5.5305    232.4890     25.7457
  2008.6000      7.9472      2.5858      0.1179      3.8898    226.7487     26.7578
  2008.7000      7.9472      2.6065      0.1203      2.6356    217.7707     29.2197
  2008.8000      7.9778      2.6135      0.1341      2.2141    206.3427     34.5014
  2008.9000      7.9778      2.6098      0.1314      2.4387    192.7437     41.2458
  2009.0000      7.9560      2.6059      0.1436      2.6733    176.8457     45.7912
  2009.1000      7.9560      2.6083      0.1424      2.5243    161.2107     47.4296
  2009.2000      7.9560      2.6070      0.1285      2.6055    149.1470     47.7520
  2009.3000      7.9086      2.5935      0.1150      3.4215    141.6909     47.7861
  2009.4000      7.9086      2.5849      0.0614      3.9455    138.8253     47.7880
  2009.5000      7.9504      2.5977      0.0848      3.1708    138.2927   -999.2500
  2009.6000      7.9504      2.6163      0.1416      2.0451    135.6217   -999.2500
  2009.7000      7.9504      2.6213      0.0911      1.7378    130.3199   -999.2500
  2009.8000      7.9697      2.6181      0.1061      1.9305    125.4088   -999.2500
  2009.9000      7.9697      2.6147      0.0844      2.1367    123.1227   -999.2500
  2010.0000      7.9756      2.6108      0.0880      2.3744    123.7094   -999.2500
  2010.1000      7.9756      2.6003      0.1102      3.0128    124.9659   -999.2500
  2010.2000      7.9756      2.5820      0.0634      4.1185    125.8752   -999.2500
  2010.3000      7.9501      2.5660      0.0741      5.0909    126.1963   -999.2500
  2010.4000      7.9501      2.5499      0.1033      6.0672    125.4478   -999.2500
  2010.5000      7.9457      2.5298      0.0349      7.2826    123.0290   -999.2500
  2010.6000      7.9457      2.5270     -0.0184      7.4525    117.9428   -999.2500
  2010.7000      7.9457      2.5512      0.0722      5.9895    113.1481   -999.2500
  2010.8000      7.9631      2.5763      0.0730      4.4691    111.6872   -999.2500
  2010.9000      7.9631      2.5816      0.0824      4.1452    112.7225   -999.2500
  2011.0000      7.9972      2.5723      0.0507      4.7120    114.4218   -999.2500
  2011.1000      7.9972      2.5612      0.0565      5.3793    114.7254   -999.2500
  2011.2000      7.9972      2.5565      0.0501      5.6656    113.4854   -999.2500
  2011.3000      7.9828      2.5588      0.0568      5.5298    112.8110   -999.2500
  2011.4000      7.9828      2.5628      0.0745      5.2829    115.5043   -999.2500
  2011.5000      7.9399      2.5674      0.0597      5.0063    122.0545   -999.2500
  2011.6000      7.9399      2.5723      0.0912      4.7117    126.0309   -999.2500
  2011.7000      7.9399      2.5717      0.1017      4.7467    123.1043   -999.2500
  2011.8000      7.9450      2.5628      0.1103      5.2859    118.0079   -999.2500
  2011.9000      7.9450      2.5539      0.0454      5.8223    116.8048   -999.2500
  2012.0000      7.9147      2.5503      0.1035      6.0436    118.1480   -999.2500
  2012.1000      7.9147      2.5396      0.1093      6.6903    116.9812   -999.2500
  2012.2000      7.9147      2.5166      0.0880      8.0838    113.5976   -999.2500
  2012.3000      7.9324      2.4968      0.0358      9.2825    112.3914   -999.2500
  2012.4000      7.9324      2.4960      0.0687      9.3324    114.4951   -999.2500
  2012.5000      7.9332      2.5166      0.0679      8.0871    116.6581   -999.2500
  2012.6000      7.9332      2.5541      0.0990      5.8145    116.5632   -999.2500
  2012.7000      7.9332      2.5920      0.1419      3.5153    114.2039   -999.2500
  2012.8000      7.9171      2.6051      0.1966      2.7220    111.5956   -999.2500
  2012.9000      7.9171      2.5910      0.1396      3.5773    111.8144   -999.2500
  2013.0000      7.9779      2.5717      0.1155      4.7440    113.5835   -999.2500
  2013.1000      7.9779      2.5574      0.1056      5.6145    114.7393   -999.2500
  2013.2000      7.9779      2.5419      0.0861      6.5508    116.3520   -999.2500
  2013.3000      7.9279      2.5259      0.0662      7.5236    118.6313   -999.2500
  2013.4000      7.9279      2.5150      0.0799      8.1821    119.8557   -999.2500
  2013.5000      7.9710      2.5140      0.0230      8.2446    119.1394   -999.2500
  2013.6000      7.9710      2.5243      0.0596      7.6162    115.9568   -999.2500
  2013.7000      7.9710      2.5416      0.0368      6.5667    111.6381   -999.2500
  2013.8000      7.9824      2.5598      0.0982      5.4688    108.7380   -999.2500
  2013.9000      7.9824      2.5718      0.0816      4.7392    107.2480   -999.2500
  2014.0000      7.9558      2.5770      0.1197      4.4249    105.7385   -999.2500
  2014.1000      7.9558      2.5799      0.1107      4.2481    103.9690   -999.2500
  2014.2000      7.9558      2.5856      0.1111      3.9033    101.3248   -999.2500
  2014.3000      7.9282      2.5973      0.0978      3.1911     95.5592   -999.2500
  2014.4000      7.9282      2.6164      0.1120      2.0344     83.1232   -999.2500
  2014.5000      7.9032      2.6397      0.1418      0.6268     59.7700   -999.2500
  2014.6000      7.9032      2.6554      0.1446     -0.3254     30.4699   -999.2500
  2014.7000      7.9032      2.6560      0.1133     -0.3665      9.6862   -999.2500
  2014.8000      7.9137      2.6489      0.1049      0.0652      1.7743   -999.2500
  2014.9000      7.9137      2.6428      0.0706      0.4353      0.1793   -999.2500
  2015.0000      7.9369      2.6398      0.0859      0.6180      0.0095   -999.2500
  2015.1000      7.9369      2.6356      0.1002      0.8699      0.0000   -999.2500
  2015.2000      7.9369      2.6275      0.0665      1.3657   -999.2500   -999.2500
  2015.3000      7.9256      2.6162      0.0780      2.0481   -999.2500   -999.2500
  2015.4000      7.9256      2.5990      0.0598      3.0908   -999.2500   -999.2500
  2015.5000      7.9121      2.5770      0.0490      4.4242   -999.2500   -999.2500
  2015.6000      7.9121      2.5626      0.0473      5.2987   -999.2500   -999.2500
  2015.7000      7.9121      2.5673      0.0251      5.0111   -999.2500   -999.2500
  2015.8000      7.9073      2.5848      0.0848      3.9538   -999.2500   -999.2500
  2015.9000      7.9073      2.5934      0.0860      3.4286   -999.2500   -999.2500
  2016.0000      7.9495      2.5851      0.0495      3.9310   -999.2500   -999.2500
  2016.1000      7.9495      2.5714      0.0526      4.7664   -999.2500   -999.2500
  2016.2000      7.9495      2.5689      0.0084      4.9153   -999.2500   -999.2500
  2016.3000      7.9517      2.5865      0.0524      3.8514   -999.2500   -999.2500
  2016.4000      7.9517      2.6116      0.1117      2.3275   -999.2500   -999.2500
  2016.5000      7.9124      2.6231      0.1153      1.6304   -999.2500   -999.2500
  2016.6000      7.9124      2.6141      0.1051      2.1748   -999.2500   -999.2500
  2016.7000      7.9124      2.5956      0.1056      3.2942   -999.2500   -999.2500
  2016.8000      7.8871      2.5842      0.0728      3.9899   -999.2500   -999.2500
  2016.9000      7.8871      2.5847      0.1026      3.9558   -999.2500   -999.2500
  2017.0000      7.8956      2.5834      0.0987      4.0359   -999.2500   -999.2500
  2017.1000      7.8956      2.5624      0.0986      5.3119   -999.2500   -999.2500
  2017.2000      7.8956      2.5110      0.0588      8.4226   -999.2500   -999.2500
  2017.3000      7.9419      2.4276      0.0504     13.4761   -999.2500   -999.2500
  2017.4000      7.9419      2.3125      0.0567     20.4531   -999.2500   -999.2500
  2017.5000      7.9580      2.1714     -0.0445     29.0083   -999.2500   -999.2500
  2017.6000      7.9580      2.0255     -0.0895     37.8512   -999.2500   -999.2500
  2017.7000      7.9580      1.8934     -0.1254     45.8535   -999.2500   -999.2500
  2017.8000      7.9741      1.7741     -0.1148     53.0820   -999.2500   -999.2500
  2017.9000      7.9741      1.6627     -0.1128     59.8336   -999.2500   -999.2500
