~Version Information
VERS.                      2.0: CWLS Log ASCII Standard - VERSION 2.0
WRAP.                       NO: One line per depth step
~Well Information Block
STRT.FT               902.0000: 
STOP.FT              2428.2000: 
STEP.FT                 0.1000: 
NULL.                -999.2500: 
COMP.          Pioneer Natural Resources: COMPANY
WELL.            Victory 12-14: WELL
FLD.           Purgatoire River: FIELD
LOC.           2434' FNL & 188' FWL: LOCATION
PROV.                 Colorado: PROVINCE
CNTY.               Las Animas: COUNTRY
SRVC.                Patterson: SERVICE COMPANY
DATE.          Mon Apr 18 07:24:17 2005: LOG DATE
UWI.           05 071 08332 00: UNIQUE WELL ID
~Curve Information Block
DEPT.FT            0 000 00 00: Depth
DCAL.in                       : CDL Caliper
RHOB.g/cc                     : CDL Bulk Density
RHOC.g/cc                     : CDL Density Correction
DPOR.pu                       : CDL Density Porosity
GR.GAPI                       : Gamma Ray
NPOR.pu                       : Neutron Porosity
~Parameter Information Block
~A  Depth       DCAL        RHOB        RHOC        DPOR         GR         NPOR    
# ...
  1910.0000      7.8156      2.6487      0.1330      0.0776     92.2336     21.3389
  1910.1000      7.8156      2.7171      0.2155     -4.0652     95.4382     20.5930
  1910.2000      7.8156      2.7498      0.2843     -6.0473    101.1511     19.4832
  1910.3000      7.8405      2.7190      0.2185     -4.1831    107.1377     18.3974
  1910.4000      7.8405      2.6400      0.2195      0.6062    110.8544     17.9957
  1910.5000      7.8621      2.5442      0.1162      6.4099    111.3633     18.0965
  1910.6000      7.8621      2.4618      0.0510     11.4064    111.1268     18.1585
  1910.7000      7.8621      2.4082      0.0042     14.6559    111.8458     18.1473
  1910.8000      7.9008      2.3758      0.0214     16.6196    113.4207     18.3132
  1910.9000      7.9008      2.3534      0.0328     17.9787    117.4174     18.6628
  1911.0000      7.9419      2.3486      0.0636     18.2687    122.2220     18.9179
  1911.1000      7.9419      2.3747      0.1169     16.6848    120.5530     18.9916
  1911.2000      7.9419      2.4219      0.2018     13.8261    112.4110     19.0641
  1911.3000      8.0208      2.4663      0.2177     11.1349    109.2034     19.2226
  1911.4000      8.0208      2.4905      0.2865      9.6690    114.9361     19.4730
  1911.5000      8.1425      2.4951      0.2387      9.3870    119.9344     19.6536
  1911.6000      8.1425      2.4994      0.2744      9.1278    119.5454     19.5980
  1911.7000      8.1425      2.5072      0.2632      8.6523    118.2170     19.3950
  1911.8000      8.1438      2.5066      0.1949      8.6923    117.4091     19.2033
  1911.9000      8.1438      2.4997      0.2245      9.1062    115.5538     19.0558
  1912.0000      8.0287      2.4936      0.1772      9.4788    111.4494     18.6658
  1912.1000      8.0287      2.4821      0.2240     10.1763    106.3278     17.8793
  1912.2000      8.0287      2.4521      0.1496     11.9955    103.6110     17.0002
  1912.3000      7.9913      2.3942      0.1194     15.5053    101.7506     16.2121
  1912.4000      7.9913      2.3000      0.0789     21.2129     97.8095     15.5605
  1912.5000      8.0442      2.1741      0.0945     28.8395     94.1289     15.2287
  1912.6000      8.0442      2.0527      0.0286     36.1983     94.6333     15.3212
  1912.7000      8.0442      1.9700      0.0661     41.2130    102.2278     15.7177
  1912.8000      8.0509      1.9233      0.0575     44.0440    115.8963     16.3701
  1912.9000      8.0509      1.9071      0.0167     45.0268    128.2619     17.3412
  1913.0000      8.0625      1.9305      0.0870     43.6040    135.0037     18.5536
  1913.1000      8.0625      1.9935      0.1746     39.7869    138.2627     19.8088
  1913.2000      8.0625      2.0784      0.2450     34.6404    138.7919     20.9759
  1913.3000      8.0696      2.1532      0.3132     30.1081    137.9473     22.0013
  1913.4000      8.0696      2.2037      0.2542     27.0507    138.7983     22.9740
  1913.5000      8.0155      2.2495      0.2768     24.2713    140.9110     23.9664
  1913.6000      8.0155      2.3048      0.2065     20.9191    143.7451     25.0095
  1913.7000      8.0155      2.3684      0.0189     17.0679    147.6341     25.9740
  1913.8000      8.1017      2.4241      0.0527     13.6893    150.4267     26.5777
  1913.9000      8.1017      2.4437      0.0382     12.5002    152.3173     26.6753
  1914.0000      8.1447      2.4293     -0.0392     13.3759    157.8814     26.6571
  1914.1000      8.1447      2.4025      0.0131     14.9998    164.3269     26.9058
  1914.2000      8.1447      2.3685     -0.0316     17.0583    167.0532     27.1058
  1914.3000      8.1552      2.3345     -0.0342     19.1196    169.9411     26.7104
  1914.4000      8.1552      2.3107     -0.0397     20.5608    173.3030     25.6135
  1914.5000      8.1428      2.2937     -0.0292     21.5950    172.0588     24.2704
  1914.6000      8.1428      2.2715     -0.0593     22.9393    166.5088     23.3241
  1914.7000      8.1428      2.2345     -0.0491     25.1790    161.4882     22.6552
  1914.8000      8.0974      2.1919     -0.0716     27.7644    159.6500     21.4833
  1914.9000      8.0974      2.1768      0.0214     28.6782    161.1478     19.9066
  1915.0000      8.0875      2.2061      0.0658     26.9058    165.1295     18.7438
  1915.1000      8.0875      2.2661      0.1551     23.2675    168.7478     18.1444
  1915.2000      8.0875      2.3489      0.1717     18.2492    168.1853     17.9417
  1915.3000      8.1014      2.4550      0.2831     11.8199    162.9224     18.0173
  1915.4000      8.1014      2.5576      0.4154      5.6020    158.0198     18.1938
  1915.5000      8.1168      2.6246      0.4355      1.5405    154.5096     18.6231
  1915.6000      8.1168      2.6661      0.3991     -0.9783    149.0184     19.3550
  1915.7000      8.1168      2.6975      0.4453     -2.8803    141.5539     20.1426
  1915.8000      8.1033      2.6966      0.3931     -2.8225    133.9451     21.1060
  1915.9000      8.1033      2.6533      0.2215     -0.1994    127.5368     22.2730
  1916.0000      8.2311      2.6036      0.1388      2.8094    124.4737     23.1904
  1916.1000      8.2311      2.5816      0.1491      4.1434    126.5904     23.8668
  1916.2000      8.2311      2.5789      0.1435      4.3074    134.3130     24.5873
  1916.3000      8.2380      2.5767      0.1259      4.4423    144.0536     25.2501
  1916.4000      8.2380      2.5737      0.0669      4.6221    148.0461     25.6398
  1916.5000      8.0895      2.5596      0.0950      5.4762    144.0320     25.7378
  1916.6000      8.0895      2.5181      0.0444      7.9958    140.4156     26.0220
  1916.7000      8.0895      2.4702     -0.0173     10.8956    142.9399     26.6104
  1916.8000      7.9922      2.4496      0.0348     12.1442    146.6571     26.7150
  1916.9000      7.9922      2.4551      0.0117     11.8096    147.6599     26.0606
  1917.0000      7.9893      2.4656      0.0255     11.1750    149.1132     25.3913
  1917.1000      7.9893      2.4604      0.0503     11.4887    154.0006     25.1582
  1917.2000      7.9893      2.4434      0.0393     12.5223    160.1226     25.0931
  1917.3000      8.0103      2.4495      0.0303     12.1541    163.3073     25.0791
  1917.4000      8.0103      2.4920      0.1748      9.5782    163.1235     25.2904
  1917.5000      8.0092      2.5431      0.2362      6.4796    161.2602     25.4353
  1917.6000      8.0092      2.5789      0.2462      4.3096    160.1468     24.9268
  1917.7000      8.0092      2.5942      0.2283      3.3794    159.8996     24.0563
  1917.8000      7.9724      2.5916      0.2151      3.5416    157.2209     23.5790
  1917.9000      7.9724      2.5804      0.1722      4.2174    152.3090     23.3292
  1918.0000      7.9879      2.5732      0.1610      4.6565    149.4346     22.8894
  1918.1000      7.9879      2.5781      0.1280      4.3595    150.4191     22.5050
  1918.2000      7.9879      2.5818      0.2175      4.1305    152.0500     22.4302
  1918.3000      8.0463      2.5567      0.1314      5.6531    152.8780     22.5351
  1918.4000      8.0463      2.5115      0.0973      8.3965    154.8316     22.7145
  1918.5000      8.0964      2.4864      0.0548      9.9158    155.6026     22.9997
  1918.6000      8.0964      2.4960      0.0878      9.3305    153.9960     23.3343
  1918.7000      8.0964      2.5139      0.0578      8.2464    154.6611     23.4953
  1918.8000      8.0544      2.5183      0.0743      7.9834    155.3487     23.5193
  1918.9000      8.0544      2.5100      0.1326      8.4850    148.5077     23.7686
  1919.0000      8.0356      2.5027      0.0891      8.9272    138.4502     24.3055
  1919.1000      8.0356      2.5175      0.0890      8.0333    133.5857     24.8405
  1919.2000      8.0356      2.5561      0.1635      5.6881    131.1835     25.2374
  1919.3000      8.0446      2.5955      0.2053      3.3046    127.8324     25.3448
  1919.4000      8.0446      2.6198      0.1639      1.8300    125.0102     25.0734
  1919.5000      8.0576      2.6293      0.1782      1.2556    121.8846     24.8982
