~Version Information
VERS.                      2.0: CWLS Log ASCII Standard - VERSION 2.0
WRAP.                       NO: One line per depth step
~Well Information Block
STRT.FT               492.8000: 
STOP.FT              1992.0000: 
STEP.FT                 0.1000: 
NULL.                -999.2500: 
COMP.          Petrogulf Corporation: COMPANY
WELL.               Furu 6-23R: WELL
FLD.           Purgatoire River: FIELD
LOC.           2211' FSL & 1780' FWL--: LOCATION
CNTY.               Las Animas: COUNTY
SRVC.                Patterson: SERVICE COMPANY
DATE.          Thu Jun 22 14:21:35 2006: LOG DATE
UWI.           05 071 08266 00: UNIQUE WELL ID
STAT.                 Colorado: STATE
~Curve Information Block
DEPT.FT            0 000 00 00: Depth
DCAL.in                       : CDL Caliper
RHOB.g/cc                     : CDL Bulk Density
RHOC.g/cc                     : CDL Density Correction
DPOR.pu                       : CDL Density Porosity
NPOR.pu                       : Neutron Porosity
GR.GAPI                       : Gamma Ray
~Parameter Information Block
~A  Depth       DCAL        RHOB        RHOC        DPOR        NPOR         GR     
# ...
  1664.0000      8.2891      2.5244      0.0673      7.6114     26.0772    132.5154
  1664.1000      8.2891      2.4896      0.0096      9.7232     26.5969    133.0852
  1664.2000      8.2891      2.4625     -0.0076     11.3630     26.7093    128.3906
  1664.3000      8.2708      2.4584     -0.0291     11.6132     26.6571    125.6609
  1664.4000      8.2708      2.4694      0.0577     10.9425     26.5513    132.5029
  1664.5000      8.2530      2.4828     -0.0237     10.1332     26.2677    142.1542
  1664.6000      8.2530      2.5017      0.0424      8.9903     26.2943    145.5220
  1664.7000      8.2530      2.5344      0.0105      7.0073     26.8574    142.0677
  1664.8000      8.2444      2.5732      0.0883      4.6567     27.0647    136.0077
  1664.9000      8.2444      2.5903      0.0845      3.6196     26.6357    130.3065
  1665.0000      8.2437      2.5753      0.0713      4.5252     26.5423    125.8500
  1665.1000      8.2437      2.5436      0.0547      6.4489     27.2578    127.5376
  1665.2000      8.2437      2.5097      0.0401      8.5052     28.0746    137.6760
  1665.3000      8.2442      2.4817      0.0287     10.1976     28.1942    147.7338
  1665.4000      8.2442      2.4675      0.0016     11.0622     27.7566    149.2512
  1665.5000      8.2429      2.4713      0.0126     10.8289     27.6438    143.3381
  1665.6000      8.2429      2.4861      0.0309      9.9307     28.0679    136.6905
  1665.7000      8.2429      2.4981      0.0782      9.2044     28.5142    134.7222
  1665.8000      8.2428      2.5028      0.0647      8.9186     28.8169    139.5592
  1665.9000      8.2428      2.5090      0.0917      8.5482     29.1246    146.6772
  1666.0000      8.2428      2.5212      0.1244      7.8081     29.7326    147.9277
  1666.1000      8.2428      2.5309      0.1216      7.2166     30.8235    140.8129
  1666.2000      8.2428      2.5297      0.1266      7.2911     31.9555    133.2416
  1666.3000      8.2423      2.5191      0.1398      7.9341     32.1869    135.3314
  1666.4000      8.2423      2.5065      0.1480      8.6991     31.2833    146.1946
  1666.5000      8.2420      2.4997      0.0830      9.1092     29.9831    156.6248
  1666.6000      8.2420      2.5043      0.0650      8.8277     29.1510    161.7061
  1666.7000      8.2420      2.5240      0.0675      7.6379     28.9511    159.6244
  1666.8000      8.2420      2.5593      0.0936      5.4945     28.7866    152.7309
  1666.9000      8.2420      2.6031      0.0878      2.8438     28.4593    145.9371
  1667.0000      8.2437      2.6368      0.1181      0.7981     28.3148    137.8003
  1667.1000      8.2437      2.6397      0.1270      0.6246     28.4617    128.2014
  1667.2000      8.2437      2.6151      0.0905      2.1163     28.6339    124.3957
  1667.3000      8.2451      2.5948      0.0292      3.3470     28.5931    126.8027
  1667.4000      8.2451      2.6007      0.0435      2.9882     28.5648    129.6143
  1667.5000      8.2450      2.6211      0.0390      1.7486     28.5399    133.1325
  1667.6000      8.2450      2.6321      0.0442      1.0855     28.1263    135.8338
  1667.7000      8.2450      2.6286      0.0229      1.2978     27.4240    132.2982
  1667.8000      8.2438      2.6182      0.0114      1.9279     26.7072    123.7025
  1667.9000      8.2438      2.6012      0.0288      2.9551     26.1791    116.4610
  1668.0000      8.2425      2.5823      0.0411      4.1003     25.7829    114.7545
  1668.1000      8.2425      2.5711      0.0557      4.7789     25.1403    118.0388
  1668.2000      8.2425      2.5645      0.0631      5.1790     24.4917    120.8132
  1668.3000      8.2411      2.5636      0.0267      5.2374     23.9074    117.4853
  1668.4000      8.2411      2.5802      0.0432      4.2290     23.0207    108.0271
  1668.5000      8.2413      2.5992      0.0931      3.0758     22.4501     98.3308
  1668.6000      8.2413      2.5915      0.0692      3.5482     22.8281     94.3180
  1668.7000      8.2413      2.5640      0.0110      5.2117     23.5956     95.9056
  1668.8000      8.2421      2.5465      0.0434      6.2751     23.8538     99.2685
  1668.9000      8.2421      2.5503      0.0236      6.0427     23.7099    102.8462
  1669.0000      8.2428      2.5664      0.0642      5.0671     23.9826    107.8388
  1669.1000      8.2428      2.5799      0.0735      4.2500     24.7902    114.2011
  1669.2000      8.2428      2.5842      0.0546      3.9905     25.3269    117.4745
  1669.3000      8.2424      2.5759      0.0870      4.4879     24.8231    116.1982
  1669.4000      8.2424      2.5555      0.0724      5.7288     23.6408    116.1139
  1669.5000      8.2411      2.5410      0.0452      6.6072     22.7354    116.7067
  1669.6000      8.2411      2.5512      0.0392      5.9895     22.5060    111.4706
  1669.7000      8.2411      2.5819      0.0574      4.1278     23.0329    102.6007
  1669.8000      8.2399      2.6101      0.1019      2.4206     23.9754     98.5358
  1669.9000      8.2399      2.6156      0.0811      2.0865     24.6193    100.1288
  1670.0000      8.2392      2.5957      0.0848      3.2932     24.7690    104.9862
  1670.1000      8.2392      2.5603      0.0663      5.4347     25.0291    112.2234
  1670.2000      8.2392      2.5289      0.0114      7.3399     25.9037    117.8027
  1670.3000      8.2382      2.5204      0.0185      7.8568     27.0983    118.4425
  1670.4000      8.2382      2.5301      0.0361      7.2641     28.2184    115.2104
  1670.5000      8.2371      2.5288      0.0634      7.3454     29.0592    113.3017
  1670.6000      8.2371      2.4956      0.0787      9.3558     29.7000    116.7302
  1670.7000      8.2371      2.4503      0.0056     12.1058     30.3812    124.1274
  1670.8000      8.2362      2.4259      0.0306     13.5841     31.0817    132.5213
  1670.9000      8.2362      2.4207      0.0631     13.8945     31.6734    137.8757
  1671.0000      8.2373      2.4200      0.0558     13.9413     32.3167    136.2202
  1671.1000      8.2373      2.4360      0.0408     12.9715     33.1481    132.3347
  1671.2000      8.2373      2.4758      0.1626     10.5598     33.6662    132.7743
  1671.3000      8.2407      2.5088      0.2269      8.5598     33.2960    133.6473
  1671.4000      8.2407      2.5174      0.1871      8.0371     32.2929    132.2024
  1671.5000      8.2433      2.5209      0.2077      7.8224     31.5738    129.8584
  1671.6000      8.2433      2.5232      0.2568      7.6822     31.3757    127.2720
  1671.7000      8.2433      2.5105      0.2020      8.4519     31.3727    129.9743
  1671.8000      8.2436      2.4906      0.0885      9.6588     31.5660    137.6176
  1671.9000      8.2436      2.4765      0.0898     10.5161     31.7780    142.4856
  1672.0000      8.2425      2.4675      0.0710     11.0633     31.8542    142.3229
  1672.1000      8.2425      2.4642      0.0668     11.2625     31.9139    139.0933
  1672.2000      8.2425      2.4678      0.0574     11.0411     31.8130    134.7820
  1672.3000      8.2406      2.4746      0.0567     10.6322     31.3622    130.6060
  1672.4000      8.2406      2.4838      0.0749     10.0698     30.8877    131.7880
  1672.5000      8.2394      2.4973      0.0924      9.2545     30.8080    139.3254
  1672.6000      8.2394      2.5048      0.0907      8.8007     31.1674    144.4744
  1672.7000      8.2394      2.4949      0.0940      9.3992     31.5752    146.1580
  1672.8000      8.2385      2.4739      0.0454     10.6715     31.4943    148.3947
  1672.9000      8.2385      2.4588      0.0434     11.5905     30.8625    149.1001
  1673.0000      8.2370      2.4605      0.0662     11.4866     30.2755    147.1483
  1673.1000      8.2370      2.4745      0.0356     10.6352     29.9984    145.4966
  1673.2000      8.2370      2.4836      0.0732     10.0865     29.6219    144.6227
  1673.3000      8.2380      2.4739      0.0759     10.6722     29.2125    145.0141
  1673.4000      8.2380      2.4530      0.0349     11.9397     29.0904    145.9560
  1673.5000      8.2416      2.4387      0.0588     12.8088     28.9851    143.5130
