~Version Information
VERS.                      2.0: CWLS Log ASCII Standard - VERSION 2.0
WRAP.                       NO: One line per depth step
~Well Information Block
STRT.FT               400.0000: 
STOP.FT              2201.0000: 
STEP.FT                 0.1000: 
NULL.                -999.2500: 
COMP.          Evergreen Operating Corporation: COMPANY
WELL.            Triumph 13-10: WELL
FLD.           Purgatorie River: FIELD
LOC.           1551' FSL & 522' FWL: LOCATION
PROV.                 Colorado: PROVINCE
CNTY.               Las Animas: COUNTRY
SRVC.                Patterson: SERVICE COMPANY
DATE.          Mon Jul 26 07:55:18 2004: LOG DATE
UWI.           05 071 08108 00: UNIQUE WELL ID
~Curve Information Block
DEPT.FT            0 000 00 00: Depth
DCAL.in                       : CDL Caliper
RHOB.g/cc                     : CDL Bulk Density
RHOC.g/cc                     : CDL Density Correction
DPOR.pu                       : CDL Density Porosity
NPOR.pu                       : Neutron Porosity
GR.GAPI                       : Gamma Ray
~Parameter Information Block
~A  Depth       DCAL        RHOB        RHOC        DPOR        NPOR         GR     
# ...
   515.2000      8.2470      2.5585     -0.0194      5.5473     27.4245    117.9989
   515.3000      8.2397      2.5584     -0.0071      5.5533     27.0065    114.6735
   515.4000      8.2397      2.5681      0.0145      4.9632     26.6429    111.6302
   515.5000      8.2348      2.5741     -0.0020      4.5976     26.3853    112.4502
   515.6000      8.2348      2.5695      0.0232      4.8793     26.2056    116.8319
   515.7000      8.2348      2.5499      0.0318      6.0687     26.1785    120.5959
   515.8000      8.2333      2.5293     -0.0660      7.3149     26.5025    121.9414
   515.9000      8.2333      2.5283     -0.0286      7.3748     27.0957    121.5823
   516.0000      8.1956      2.5368      0.0548      6.8600     27.5089    121.9444
   516.1000      8.1956      2.5366     -0.0219      6.8751     27.6819    123.0132
   516.2000      8.1956      2.5349      0.0176      6.9778     27.8465    120.6479
   516.3000      8.2583      2.5491     -0.0162      6.1165     27.9425    114.7505
   516.4000      8.2583      2.5818      0.0386      4.1329     27.9674    110.9445
   516.5000      8.2396      2.6012      0.0687      2.9600     28.0421    110.2712
   516.6000      8.2396      2.5753      0.0229      4.5274     28.0653    110.9102
   516.7000      8.2396      2.5264     -0.0130      7.4916     28.0905    112.8834
   516.8000      8.2288      2.5005     -0.0395      9.0587     28.3344    114.0964
   516.9000      8.2288      2.5073     -0.0036      8.6467     28.4358    114.7370
   517.0000      8.2372      2.5186      0.0425      7.9609     28.1246    117.7751
   517.1000      8.2372      2.5173      0.0051      8.0397     27.6393    121.3808
   517.2000      8.2372      2.5222     -0.0038      7.7435     27.1620    121.8599
   517.3000      8.2331      2.5448      0.0122      6.3728     26.6870    121.2813
   517.4000      8.2331      2.5593      0.0654      5.4957     26.3097    122.6538
   517.5000      8.2329      2.5466      0.0269      6.2645     25.9782    124.6811
   517.6000      8.2329      2.5295     -0.0067      7.3021     25.4967    124.6594
   517.7000      8.2329      2.5264      0.0206      7.4917     25.0079    123.3841
   517.8000      8.2316      2.5225      0.0639      7.7295     24.6126    122.2055
   517.9000      8.2316      2.5076      0.0157      8.6310     24.1530    120.8875
   518.0000      8.2411      2.4962      0.0235      9.3220     23.6961    116.9830
   518.1000      8.2411      2.5025      0.0018      8.9381     23.5099    110.7308
   518.2000      8.2411      2.5231      0.0859      7.6889     23.4861    106.8998
   518.3000      8.2385      2.5483      0.0625      6.1651     23.3658    106.0257
   518.4000      8.2385      2.5776      0.1034      4.3904     23.3388    105.6599
   518.5000      8.2359      2.5993      0.1350      3.0711     23.4849    107.3456
   518.6000      8.2359      2.5938      0.1024      3.4041     23.7258    111.6697
   518.7000      8.2359      2.5668      0.0822      5.0424     24.1158    115.1204
   518.8000      8.2349      2.5434      0.0745      6.4629     24.5347    113.2667
   518.9000      8.2349      2.5370      0.0539      6.8466     24.8346    106.0051
   519.0000      8.2359      2.5457      0.0604      6.3221     24.9550     99.0630
   519.1000      8.2359      2.5613      0.0589      5.3744     24.8569     95.4001
   519.2000      8.2359      2.5702      0.0766      4.8381     24.5746     92.4895
   519.3000      8.2380      2.5645      0.0498      5.1821     24.0222     90.2577
   519.4000      8.2380      2.5530      0.0819      5.8808     23.4160     89.3848
   519.5000      8.2377      2.5448      0.1017      6.3733     23.2955     85.4353
   519.6000      8.2377      2.5444      0.0655      6.4027     23.7036     78.8615
   519.7000      8.2377      2.5516      0.0794      5.9662     24.3652     76.2542
   519.8000      8.2342      2.5588      0.0342      5.5281     25.1619     78.4377
   519.9000      8.2342      2.5578      0.0783      5.5868     25.7502     82.1772
   520.0000      8.2389      2.5477      0.0541      6.2019     25.9626     86.4951
   520.1000      8.2389      2.5368      0.0071      6.8599     26.2548     89.8045
   520.2000      8.2389      2.5368     -0.0459      6.8623     26.8613     92.8367
   520.3000      8.2635      2.5484      0.0008      6.1583     27.5135     98.9592
   520.4000      8.2635      2.5637      0.0248      5.2275     28.1476    106.6854
   520.5000      8.2650      2.5835      0.0011      4.0332     28.7191    113.6221
   520.6000      8.2650      2.6057      0.0461      2.6858     28.8879    119.7319
   520.7000      8.2650      2.6153      0.0637      2.1042     28.5647    122.7221
   520.8000      8.2642      2.6067      0.0365      2.6239     28.1202    121.3575
   520.9000      8.2642      2.5903      0.0574      3.6166     27.6608    119.6536
   521.0000      8.2611      2.5760      0.0198      4.4872     27.0624    120.6943
   521.1000      8.2611      2.5618      0.0018      5.3478     26.5622    125.0976
   521.2000      8.2611      2.5468      0.0228      6.2569     26.3718    131.6580
   521.3000      8.2619      2.5456      0.0012      6.3270     26.3025    135.4314
   521.4000      8.2619      2.5614      0.0597      5.3718     26.2223    133.8523
   521.5000      8.2385      2.5750      0.0385      4.5438     26.1368    130.1994
   521.6000      8.2385      2.5800      0.0419      4.2429     26.0518    128.6328
   521.7000      8.2385      2.5809      0.0627      4.1892     25.8780    130.1925
   521.8000      8.2387      2.5756      0.0636      4.5108     25.6311    134.8577
   521.9000      8.2387      2.5640      0.0408      5.2107     25.5225    139.8251
   522.0000      8.2373      2.5517      0.0251      5.9593     25.4740    137.9066
   522.1000      8.2373      2.5424      0.0349      6.5190     25.2663    128.8781
   522.2000      8.2373      2.5390      0.0356      6.7254     25.0926    124.2896
   522.3000      8.2336      2.5415      0.0472      6.5755     25.0557    128.7400
   522.4000      8.2336      2.5441      0.0379      6.4171     24.9598    132.6124
   522.5000      8.2116      2.5459      0.0311      6.3110     24.8256    129.1153
   522.6000      8.2116      2.5529      0.0241      5.8858     24.7124    124.4904
   522.7000      8.2116      2.5646      0.0751      5.1781     24.5148    122.9471
   522.8000      8.2345      2.5749      0.0524      4.5499     24.4525    118.2515
   522.9000      8.2345      2.5799      0.0518      4.2487     24.9982    109.0797
   523.0000      8.2369      2.5785      0.0490      4.3344     26.1412    100.8595
   523.1000      8.2369      2.5820      0.0334      4.1232     27.3146     97.1000
   523.2000      8.2369      2.5949      0.0668      3.3368     27.8898     99.6211
   523.3000      8.2350      2.6086      0.0413      2.5115     27.8832    106.7173
   523.4000      8.2350      2.6242      0.0668      1.5614     27.7684    113.7780
   523.5000      8.2331      2.6385      0.1186      0.6968     27.7454    119.0386
   523.6000      8.2331      2.6334      0.0960      1.0055     27.8456    122.3604
   523.7000      8.2331      2.6018      0.0902      2.9199     28.0822    122.1950
   523.8000      8.2166      2.5537      0.0385      5.8384     28.2638    116.4497
   523.9000      8.2166      2.5039      0.0270      8.8559     28.3219    110.3925
   524.0000      8.2315      2.4696     -0.0144     10.9339     28.4587    109.3677
   524.1000      8.2315      2.4683      0.0143     11.0128     28.6097    107.1854
   524.2000      8.2315      2.5029      0.0317      8.9156     28.4803    100.1114
   524.3000      8.2364      2.5536      0.1124      5.8422     28.0738     95.1940
   524.4000      8.2364      2.5960      0.1170      3.2713     27.5090     95.8001
   524.5000      8.2350      2.6236      0.1470      1.6018     26.9076     97.0780
   524.6000      8.2350      2.6411      0.1249      0.5413     26.4975     95.6798
   524.7000      8.2350      2.6488      0.1588      0.0755     26.4984     96.2039
