~Version Information
VERS.                      2.0: CWLS Log ASCII Standard - VERSION 2.0
WRAP.                       NO: One line per depth step
~Well Information Block
STRT.FT               -19.2500: 
STOP.FT              2421.5000: 
STEP.FT                 0.2500: 
NULL.                -999.2500: 
COMP.          Petrogulf Corporation: COMPANY
WELL.           Montoya 13-41V: WELL
FLD.           Purgatorie River: FIELD
LOC.           449' FNL & 891' FEL: LOCATION
CNTY.               Las Animas: COUNTY
SRVC.                         : SERVICE COMPANY
DATE.          Mon Sep 13 13:48:36 2004: LOG DATE
UWI.                       N/A: UNIQUE WELL ID
STAT.                 Colorado: STATE
~Curve Information Block
DEPT.FT            0 000 00 00: Depth
TT3.usec                      : CBL 3' Travel Time
AMP3.mV                       : CBL 3' Amplitude
GR.GAPI                       : Gamma Ray
CCL.                          : Casing Collar Locator
~Parameter Information Block
~A  Depth       TT3         AMP3         GR         CCL     
# ...
  2225.2500    310.9565     41.3786     91.0794      0.0000
  2225.5000    311.1771     40.5964     88.2774      0.0000
  2225.7500    311.3033     39.8479     86.7364      0.0000
  2226.0000    311.3770     38.3001     86.2323      0.0000
  2226.2500    311.5395     35.5235     86.6755      0.0000
  2226.5000    311.9211     32.0155     87.8504      0.0000
  2226.7500    312.5724     28.6520     89.1696      0.0000
  2227.0000    313.4699     25.9260     89.7267      0.0000
  2227.2500    314.4353     23.8370     88.8625      0.0000
  2227.5000    315.1809     22.2818     86.9129      0.0000
  2227.7500    315.6154     21.2756     85.0827      0.0000
  2228.0000    316.1250     20.7784     84.2532      0.0000
  2228.2500    317.7303     20.5563     84.1045      0.0000
  2228.5000    321.9501     20.3361     83.6503      0.0000
  2228.7500    328.9700     20.0097     82.3411      0.0000
  2229.0000    334.8974     19.7344     80.3509      0.0000
  2229.2500    334.2582     19.9130     78.1220      0.0000
  2229.5000    327.1030     20.9165     76.0438      0.0000
  2229.7500    319.0691     22.6953     74.4147      0.0000
  2230.0000    314.1555     24.7443     73.2431      0.0000
  2230.2500    312.0402     26.5684     71.9600      0.0000
  2230.5000    311.1015     28.0774     69.6574      0.0000
  2230.7500    310.5435     29.3688     65.9548      0.0000
  2231.0000    310.2471     30.3025     61.6603      0.0000
  2231.2500    310.2307     30.5251     58.4892      0.0000
  2231.5000    310.5274     29.8425     58.0908      0.0000
  2231.7500    311.3727     28.3697     61.0179      0.0000
  2232.0000    313.6405     26.3626     66.0733      0.0000
  2232.2500    319.0081     24.0947     70.6463      0.0000
  2232.5000    328.4180     21.8798     72.3570      0.0000
  2232.7500    339.6635     20.0428     70.6914      0.0000
  2233.0000    348.5639     18.7557     66.9066      0.0000
  2233.2500    353.2454     17.8828     62.6162      0.0000
  2233.5000    355.0249     17.0559     58.8353      0.0000
  2233.7500    355.7367     15.9909     55.9697      0.0000
  2234.0000    356.2246     14.7523     53.9741      0.0000
  2234.2500    356.6678     13.6636     52.3874      0.0000
  2234.5000    357.0919     12.9554     50.5479      0.0000
  2234.7500    357.4894     12.6045     48.0443      0.0000
  2235.0000    357.7326     12.5177     45.1037      0.0000
  2235.2500    357.6469     12.6996     42.4868      0.0000
  2235.5000    357.0870     13.2013     40.8608      0.0000
  2235.7500    355.4006     14.0575     40.3357      0.0000
  2236.0000    350.8469     15.3068     40.7125      0.0000
  2236.2500    341.9892     17.0092     41.9796      0.0000
  2236.5000    330.5298     19.2328     44.2676      0.0000
  2236.7500    320.6951     21.9464     47.3195      0.0000
  2237.0000    314.9225     24.8859     50.2930      0.0000
  2237.2500    312.3714     27.7773     52.2819      0.0000
  2237.5000    311.2345     30.8147     53.0136      0.0000
  2237.7500    310.4825     34.5838     52.9322      0.0000
  2238.0000    309.8994     39.3026     52.5633      0.0000
  2238.2500    309.5747     44.1980     51.8824      0.0000
  2238.5000    309.5107     47.8828     50.4760      0.0000
  2238.7500    309.5985     49.5442     48.3613      0.0000
  2239.0000    309.7523     49.3850     46.3911      0.0000
  2239.2500    309.9204     47.8828     45.5629      0.0000
  2239.5000    310.0909     45.3123     46.0380      0.0000
  2239.7500    310.3096     41.9858     47.1514      0.0000
  2240.0000    310.6844     38.2978     48.4255      0.0000
  2240.2500    311.6122     34.4402     50.3509      0.0000
  2240.5000    314.4931     30.4016     53.9664      0.0000
  2240.7500    323.5527     26.2240     59.6812      0.0000
  2241.0000    348.9542     22.0727     66.7113      0.0000
  2241.2500    406.8558     18.1500     73.7881      0.0000
  2241.5000    504.8121     14.7222     80.2713      0.0000
  2241.7500    619.9304     12.0781     86.3631      0.0000
  2242.0000    712.6935     10.2872     92.2715      0.0000
  2242.2500    769.0844      9.1085     97.4398      0.0000
  2242.5000    804.7437      8.2071    100.9534      0.0000
  2242.7500    836.3047      7.3965    102.6539      0.0000
  2243.0000    861.8475      6.6881    103.3958      0.0000
  2243.2500    862.6962      6.1611    104.1730      0.0000
  2243.5000    833.6512      5.8034    105.4710      0.0000
  2243.7500    798.2367      5.5241    107.3380      0.0000
  2244.0000    777.8475      5.2801    109.3944      0.0000
  2244.2500    771.2785      5.1288    110.8373      0.0000
  2244.5000    769.4431      5.1872    111.1964      0.0000
  2244.7500    768.3380      5.5411    111.1508      0.0000
  2245.0000    764.9786      6.1559    111.9155      0.0000
  2245.2500    749.6999      6.9061    113.6499      0.0000
  2245.5000    716.8199      7.6909    115.0346      0.0000
  2245.7500    681.0999      8.5065    114.6278      0.0000
  2246.0000    648.3296      9.4293    112.2349      0.0000
  2246.2500    590.8868     10.4935    108.8428      0.0000
  2246.5000    501.9132     11.6158    105.6441      0.0000
  2246.7500    420.6518     12.7229    103.3919      0.0000
  2247.0000    376.1625     13.8226    102.4532      0.0000
  2247.2500    360.9219     14.8415    102.8809      0.0000
  2247.5000    357.6933     15.5426    104.1433      0.0000
  2247.7500    357.6961     15.6748    105.0800      0.0000
  2248.0000    358.4900     15.1713    104.5626      0.0000
  2248.2500    359.4729     14.2125    102.3924      0.0000
  2248.5000    360.4742     13.1063     99.5986      0.0000
  2248.7500    361.7116     12.1073     97.7129      0.0000
  2249.0000    365.1929     11.3544     97.5193      0.0000
  2249.2500    379.0331     10.8819     98.5171      0.0000
  2249.5000    420.3031     10.5962     99.6343      0.0000
  2249.7500    501.5604     10.3080    100.2248      0.0000
  2250.0000    605.9781      9.8444    100.2719      0.0000
  2250.2500    693.3027      9.1510    100.0051      0.0000
  2250.5000    738.5594      8.3352     99.6435      0.0000
  2250.7500    748.7272      7.5792     99.4394      0.0000
  2251.0000    744.8566      6.9802     99.7869      0.0000
  2251.2500    741.2875      6.5293    100.9711      0.0000
  2251.5000    741.4083      6.2225    102.6101      0.0000
  2251.7500    744.6792      6.0979    103.6924      0.0000
  2252.0000    750.6526      6.1537    103.5130      0.0000
  2252.2500    757.4777      6.2913    102.2713      0.0000
  2252.5000    761.7569      6.3790    100.5156      0.0000
  2252.7500    761.6023      6.3432     98.3967      0.0000
  2253.0000    759.5484      6.1873     95.8357      0.0000
  2253.2500    762.2330      5.9744     93.1456      0.0000
  2253.5000    773.9096      5.8101     90.9959      0.0000
  2253.7500    790.1470      5.8075     89.8097      0.0000
  2254.0000    800.4431      6.0580     89.5202      0.0000
  2254.2500    789.7489      6.6399     89.8697      0.0000
  2254.5000    737.1062      7.6078     90.6550      0.0000
  2254.7500    634.8164      8.9151     91.5904      0.0000
  2255.0000    513.7728     10.3685     92.1118      0.0000
  2255.2500    421.9113     11.6829     91.5862      0.0000
  2255.5000    377.0905     12.6100     89.8362      0.0000
  2255.7500    365.4989     13.0672     87.3310      0.0000
  2256.0000    375.4882     13.1336     84.7902      0.0000
  2256.2500    411.8905     12.8885     82.7748      0.0000
  2256.5000    474.4548     12.2881     81.7314      0.0000
  2256.7500    533.6436     11.3291     82.0009      0.0000
  2257.0000    557.9203     10.4150     83.3138      0.0000
  2257.2500    553.9164     10.1651     84.5795      0.0000
  2257.5000    540.3524     10.5895     84.7635      0.0000
  2257.7500    516.5189     11.0765     83.8944      0.0000
  2258.0000    478.9384     11.3044     82.8242      0.0000
  2258.2500    434.5205     11.4994     82.0651      0.0000
  2258.5000    397.0032     11.9515     81.1095      0.0000
