~Version Information
VERS.                      2.0: CWLS Log ASCII Standard - VERSION 2.0
WRAP.                       NO: One line per depth step
~Well Information Block
STRT.FT               483.5000: 
STOP.FT              2348.7500: 
STEP.FT                 0.2500: 
NULL.                -999.2500: 
COMP.          Pioneer Natural Resources: COMPANY
WELL.          Hill Climb 22-2: WELL
FLD.           Purgatoire River: FIELD
LOC.           1820' FNL & 2193' FWL: LOCATION
PROV.                 Colorado: PROVINCE
CNTY.               Las Animas: COUNTRY
SRVC.                Patterson: SERVICE COMPANY
DATE.          Wed Oct 20 08:57:51 2004: LOG DATE
UWI.           05 071 08175 00: UNIQUE WELL ID
~Curve Information Block
DEPT.FT            0 000 00 00: Depth
DIR.Ohm-m                     : IEL Induction Resistivity
SN.Ohm-m                      : IEL Short Normal
SP.mV                         : IEL Spontaneous Potential
GR.GAPI                       : Gamma Ray
~Parameter Information Block
~A  Depth       DIR          SN          SP          GR     
# ...
   617.5000     55.7269     63.9963    156.9536     91.8958
   617.7500     53.9744     65.8121    156.8434     92.7495
   618.0000     51.6144     67.2076    156.6959     94.1949
   618.2500     48.9832     67.6100    156.4980     95.1890
   618.5000     46.5650     66.9598    156.2412     96.8638
   618.7500     44.7707     65.6454    155.9206     98.2161
   619.0000     43.8061     64.2309    155.5342    100.2102
   619.2500     43.6709     63.1284    155.0832    100.8807
   619.5000     44.2267     62.4195    154.5724     99.9400
   619.7500     45.2788     61.9502    154.0113     98.1988
   620.0000     46.6392     61.5830    153.4145     95.6059
   620.2500     48.1559     61.3578    152.8004     94.7780
   620.5000     49.7082     61.4555    152.1884     94.6605
   620.7500     51.2000     62.0678    151.5945     94.3422
   621.0000     52.5756     63.3257    151.0276     91.8774
   621.2500     53.8460     65.2849    150.4883     88.5174
   621.5000     55.0918     67.8474    149.9714     81.3548
   621.7500     56.4151     70.6605    149.4711     75.9948
   622.0000     57.8718     73.2351    148.9854     68.7726
   622.2500     59.4164     75.2851    148.5183     65.0702
   622.5000     60.9033     76.9165    148.0777     61.1725
   622.7500     62.1441     78.4501    147.6697     59.4474
   623.0000     63.0050     80.1058    147.2941     57.7290
   623.2500     63.4721     81.8488    146.9423     56.7335
   623.5000     63.6483     83.4294    146.6010     54.5975
   623.7500     63.6993     84.5654    146.2578     52.6391
   624.0000     63.8169     85.2334    145.9085     49.9534
   624.2500     64.2179     85.8658    145.5612     49.3490
   624.5000     65.1488     87.1924    145.2363     51.2966
   624.7500     66.8490     89.7662    144.9626     54.2195
   625.0000     69.4656     93.5081    144.7704     59.3018
   625.2500     72.9537     97.5600    144.6830     62.0489
   625.5000     76.9905    100.5597    144.7107     64.1484
   625.7500     80.9509    101.2798    144.8486     64.1572
   626.0000     84.0166     99.3021    145.0799     62.5816
   626.2500     85.4788     95.2597    145.3806     60.8930
   626.5000     85.1314     90.4994    145.7251     58.3138
   626.7500     83.4440     86.4890    146.0890     57.1338
   627.0000     81.3104     84.3470    146.4488     56.6281
   627.2500     79.5838     84.6206    146.7825     56.9161
   627.5000     78.7600     87.2257    147.0707     57.7271
   627.7500     78.9145     91.4496    147.2983     58.5089
   628.0000     79.8027     96.0667    147.4581     60.2684
   628.2500     81.0119     99.7050    147.5513     61.5556
   628.5000     82.1107    101.4026    147.5870     62.4193
   628.7500     82.7534    100.9948    147.5786     61.8060
   629.0000     82.7587     99.0323    147.5387     59.7936
   629.2500     82.1758     96.3794    147.4741     58.6905
   629.5000     81.2655     93.8789    147.3831     58.3094
   629.7500     80.3404     92.2116    147.2557     58.6079
   630.0000     79.5595     91.7869    147.0767     58.9248
   630.2500     78.8374     92.5901    146.8288     58.8601
   630.5000     77.9383     94.1617    146.4967     58.5749
   630.7500     76.6813     95.8268    146.0697     58.2892
   631.0000     75.0872     97.0252    145.5449     57.4442
   631.2500     73.3504     97.5153    144.9279     56.4409
   631.5000     71.6736     97.3903    144.2327     54.2769
   631.7500     70.1117     96.9298    143.4778     52.6938
   632.0000     68.5524     96.3261    142.6820     51.3858
   632.2500     66.8583     95.4700    141.8611     52.1686
   632.5000     65.0558     94.0369    141.0278     56.2087
   632.7500     63.3460     91.8068    140.1949     59.6120
   633.0000     61.9114     88.9005    139.3786     62.2774
   633.2500     60.7016     85.7801    138.5984     61.1265
   633.5000     59.4251     83.0845    137.8740     55.8713
   633.7500     57.7836     81.3555    137.2198     51.7210
   634.0000     55.7685     80.7515    136.6399     47.1549
   634.2500     53.7307     80.9712    136.1285     45.9294
   634.5000     52.1642     81.4616    135.6736     46.8491
   634.7500     51.4345     81.7150    135.2631     48.9073
   635.0000     51.6299     81.4648    134.8898     52.9281
   635.2500     52.5411     80.7379    134.5519     55.3294
   635.5000     53.7435     79.7750    134.2513     57.3301
   635.7500     54.7821     78.8452    133.9890     57.3430
   636.0000     55.3819     78.0760    133.7618     55.4533
   636.2500     55.5131     77.4419    133.5629     53.2238
   636.5000     55.2776     76.8852    133.3831     49.7655
   636.7500     54.7778     76.4037    133.2138     48.4434
   637.0000     54.1003     76.0262    133.0458     48.8154
   637.2500     53.3643     75.7397    132.8666     50.1927
   637.5000     52.7180     75.4572    132.6564     52.4488
   637.7500     52.2746     75.0688    132.3888     53.5459
   638.0000     52.0755     74.5661    132.0359     54.5913
   638.2500     52.1052     74.1299    131.5774     55.0794
   638.5000     52.3246     74.0373    131.0075     55.6320
   638.7500     52.6703     74.4410    130.3373     55.8977
   639.0000     53.0497     75.2524    129.5912     56.2725
   639.2500     53.3797     76.2400    128.8000     56.6467
   639.5000     53.6606     77.2062    127.9942     57.8512
   639.7500     53.9914     78.0665    127.1978     59.4578
   640.0000     54.4967     78.8054    126.4257     63.2677
   640.2500     55.2486     79.4204    125.6826     66.2146
   640.5000     56.2573     79.9502    124.9643     69.5944
   640.7500     57.4928     80.5382    124.2611     70.4573
   641.0000     58.8515     81.3991    123.5651     69.7793
   641.2500     60.0753     82.6771    122.8809     68.6082
   641.5000     60.7710     84.3151    122.2367     66.7683
   641.7500     60.6267     86.0417    121.6907     65.9063
   642.0000     59.6581     87.4781    121.3292     65.8195
   642.2500     58.1861     88.3075    121.2538     66.6736
   642.5000     56.5746     88.4053    121.5608     68.2631
   642.7500     55.0259     87.8221    122.3214     68.5262
   643.0000     53.5786     86.6140    123.5671     67.2167
   643.2500     52.2093     84.6699    125.2854     65.9684
   643.5000     50.8973     81.7368    127.4239     65.0918
   643.7500     49.5975     77.6800    129.8971     65.3320
   644.0000     48.1765     72.7153    132.5952     66.1157
   644.2500     46.3997     67.2960    135.3922     66.5585
   644.5000     44.0200     61.7514    138.1561     67.4690
   644.7500     40.9293     56.1304    140.7621     68.7438
   645.0000     37.2679     50.4225    143.1069     71.9620
   645.2500     33.3873     44.8155    145.1216     74.6559
   645.5000     29.6838     39.6544    146.7771     78.9715
   645.7500     26.4374     35.2071    148.0797     82.2796
   646.0000     23.7581     31.5543    149.0604     89.1669
   646.2500     21.6258     28.6710    149.7591     95.5364
   646.5000     19.9560     26.5129    150.2128    106.7225
   646.7500     18.6465     25.0114    150.4513    113.5113
   647.0000     17.6002     24.0324    150.4991    119.2282
   647.2500     16.7377     23.3597    150.3822    118.9835
   647.5000     16.0076     22.7359    150.1325    113.6817
   647.7500     15.3910     21.9648    149.7890    108.9810
   648.0000     14.8953     21.0062    149.3936    103.8713
   648.2500     14.5384     19.9781    148.9853    102.5866
   648.5000     14.3354     19.0729    148.5949    102.6794
   648.7500     14.2905     18.4532    148.2417    103.0966
   649.0000     14.3965     18.1719    147.9344    104.1309
   649.2500     14.6352     18.1438    147.6752    105.7415
   649.5000     14.9783     18.1838    147.4658    109.8454
   649.7500     15.3912     18.0921    147.3114    112.8713
   650.0000     15.8450     17.7557    147.2214    115.6712
   650.2500     16.3349     17.2353    147.2058    115.5385
   650.5000     16.8883     16.7703    147.2705    112.3109
   650.7500     17.5501     16.6548    147.4123    108.6771
