~Version Information
VERS.                      2.0: CWLS Log ASCII Standard - VERSION 2.0
WRAP.                       NO: One line per depth step
~Well Information Block
STRT.FT               546.2500: 
STOP.FT              2488.5000: 
STEP.FT                 0.2500: 
NULL.                -999.2500: 
COMP.          Petrogulf Corporation: COMPANY
WELL.               Egan 9-11V: WELL
FLD.           Purgatorie River: FIELD
LOC.           724' FNL & 1379' FWL: LOCATION
PROV.                 Colorado: PROVINCE
CNTY.               Las Animas: COUNTRY
SRVC.          Patterson Wireline: SERVICE COMPANY
DATE.          Fri Jul 11 23:16:48 2003: LOG DATE
UWI.           05 071 07875 00: UNIQUE WELL ID
~Curve Information Block
DEPT.FT            0 000 00 00: Depth
DCAL.in                       : CDL Caliper
RHOB.g/cc                     : CDL Bulk Density
RHOC.g/cc                     : CDL Density Correction
DPOR.pu                       : CDL Density Porosity
GR.GAPI                       : Gamma Ray
NPOR.pu                       : Neutron Porosity
~Parameter Information Block
~A  Depth       DCAL        RHOB        RHOC        DPOR         GR         NPOR    
# ...
  2346.2500      8.1471      1.5243      0.0360     68.2251     54.4279     34.8434
  2346.5000      8.2460      1.5038      0.0464     69.4644     46.0489     35.3613
  2346.7500      8.3017      1.5120      0.0542     68.9702     43.0261     35.4607
  2347.0000      8.3752      1.5585      0.0692     66.1501     42.9417     35.1967
  2347.2500      8.5341      1.6127      0.0815     62.8651     46.2674     34.7957
  2347.5000      8.7037      1.7268      0.1021     55.9503     56.4196     34.0177
  2347.7500      8.7132      1.8211      0.1167     50.2381     65.8034     33.4831
  2348.0000      8.5274      1.9781      0.1395     40.7238     81.0050     32.7694
  2348.2500      8.2860      2.0837      0.1542     34.3192     90.1505     32.3498
  2348.5000      8.0163      2.2268      0.1705     25.6490    100.6151     31.7089
  2348.7500      7.8371      2.3041      0.1735     20.9634    105.3641     31.2303
  2349.0000      7.8061      2.3872      0.1647     15.9265    110.1363     30.4924
  2349.2500      7.8665      2.4221      0.1538     13.8108    112.3476     30.0920
  2349.5000      7.9614      2.4517      0.1394     12.0176    114.4976     29.7851
  2349.7500      8.0475      2.4619      0.1342     11.4002    114.9941     29.7765
  2350.0000      8.1112      2.4708      0.1310     10.8581    114.3781     29.9024
  2350.2500      8.1576      2.4753      0.1291     10.5850    113.5718     29.9680
  2350.5000      8.1916      2.4812      0.1235     10.2294    112.9220     29.9395
  2350.7500      8.2164      2.4835      0.1172     10.0881    113.1572     29.8556
  2351.0000      8.2038      2.4809      0.1029     10.2500    114.2072     29.7717
  2351.2500      8.1413      2.4721      0.0904     10.7820    115.1517     29.8350
  2351.5000      8.0843      2.4436      0.0699     12.5108    116.8992     30.1585
  2351.7500      8.0512      2.4123      0.0569     14.4056    118.1447     30.4696
  2352.0000      8.0439      2.3470      0.0392     18.3649    118.8839     30.9255
  2352.2500      8.0566      2.2942      0.0289     21.5623    117.4568     31.1626
  2352.5000      8.0496      2.2129      0.0215     26.4932    111.2434     31.3841
  2352.7500      7.9828      2.1666      0.0280     29.2966    104.9208     31.4375
  2353.0000      7.8402      2.1255      0.0603     31.7900     94.9056     31.3723
  2353.2500      7.6125      2.1234      0.0929     31.9159     89.5595     31.2208
  2353.5000      7.4007      2.1607      0.1438     29.6557     84.6743     30.7467
  2353.7500      7.3071      2.2085      0.1715     26.7589     82.7929     30.1803
  2354.0000      7.3403      2.3009      0.1966     21.1566     79.4677     28.8767
  2354.2500      7.4464      2.3667      0.2012     17.1716     75.7527     27.7721
  2354.5000      7.5704      2.4563      0.1892     11.7390     68.0175     26.0148
  2354.7500      7.7116      2.5040      0.1694      8.8498     62.5342     24.8930
  2355.0000      7.8469      2.5533      0.1286      5.8580     55.8063     23.3402
  2355.2500      7.9253      2.5725      0.1010      4.6947     52.7239     22.4090
  2355.5000      7.9487      2.5859      0.0704      3.8839     49.7437     21.2883
  2355.7500      7.9522      2.5880      0.0598      3.7605     48.5455     20.8138
  2356.0000      7.9536      2.5852      0.0549      3.9258     48.1143     20.5838
  2356.2500      7.9530      2.5812      0.0552      4.1688     49.1922     20.7438
  2356.5000      7.9511      2.5736      0.0568      4.6295     53.6384     21.3745
  2356.7500      7.9501      2.5681      0.0591      4.9610     58.6025     21.9533
  2357.0000      7.9564      2.5601      0.0665      5.4486     68.2996     22.8090
  2357.2500      7.9709      2.5550      0.0739      5.7555     75.3540     23.2655
  2357.5000      7.9824      2.5478      0.0838      6.1914     85.0691     23.7951
  2357.7500      7.9898      2.5432      0.0867      6.4702     90.1877     24.1277
  2358.0000      7.9969      2.5367      0.0848      6.8678     95.1214     24.6759
  2358.2500      8.0058      2.5326      0.0814      7.1129     96.4983     25.0427
  2358.5000      8.0167      2.5271      0.0781      7.4505     96.2052     25.4938
  2358.7500      8.0238      2.5235      0.0781      7.6681     95.1952     25.7077
  2359.0000      8.0271      2.5178      0.0803      8.0149     94.1936     25.9577
  2359.2500      8.0292      2.5136      0.0817      8.2688     94.6876     26.1369
  2359.5000      8.0301      2.5071      0.0809      8.6619     97.7318     26.4910
  2359.7500      8.0300      2.5032      0.0781      8.8982    101.1417     26.7774
  2360.0000      8.0296      2.4992      0.0713      9.1417    107.3562     27.2196
  2360.2500      8.0301      2.4982      0.0665      9.1979    111.3549     27.4930
  2360.5000      8.0339      2.4997      0.0609      9.1071    115.7979     27.8600
  2360.7500      8.0396      2.5024      0.0586      8.9464    117.4559     28.0699
  2361.0000      8.0395      2.5079      0.0569      8.6140    118.3254     28.2540
  2361.2500      8.0343      2.5118      0.0562      8.3737    118.0585     28.2014
  2361.5000      8.0314      2.5170      0.0556      8.0622    116.3608     27.7658
  2361.7500      8.0318      2.5190      0.0555      7.9374    114.3073     27.3026
  2362.0000      8.0313      2.5184      0.0550      7.9747    110.4373     26.6412
  2362.2500      8.0312      2.5146      0.0531      8.2071    108.1588     26.3847
  2362.5000      8.0312      2.5027      0.0469      8.9296    106.6339     26.3612
  2362.7500      8.0302      2.4906      0.0415      9.6587    107.2277     26.5224
  2363.0000      8.0320      2.4673      0.0356     11.0733    110.2142     26.8581
  2363.2500      8.0354      2.4484      0.0353     12.2199    113.1508     27.0901
  2363.5000      8.0351      2.4128      0.0393     14.3767    117.8505     27.4706
  2363.7500      8.0349      2.3810      0.0417     16.3045    120.2301     27.7726
  2364.0000      8.0469      2.3135      0.0371     20.3955    120.9708     28.2855
  2364.2500      8.0620      2.2519      0.0253     24.1279    118.9663     28.6451
  2364.5000      8.0598      2.1359     -0.0037     31.1548    111.9408     29.2246
  2364.7500      8.0518      2.0496     -0.0229     36.3881    104.7389     29.6686
  2365.0000      8.0559      1.9264     -0.0319     43.8517     91.3668     30.4448
  2365.2500      8.0775      1.8620     -0.0188     47.7591     82.2395     31.0173
  2365.5000      8.1175      1.8103      0.0226     50.8894     71.5688     31.8509
  2365.7500      8.2136      1.8115      0.0540     50.8180     68.1179     32.2648
  2366.0000      8.3567      1.8657      0.0900     47.5331     69.4421     32.4095
  2366.2500      8.4096      1.9308      0.1009     43.5882     73.8551     32.1106
  2366.5000      8.3339      2.0551      0.0980     36.0565     82.7491     31.2096
  2366.7500      8.2097      2.1440      0.0878     30.6651     88.5319     30.5111
  2367.0000      8.0798      2.2679      0.0700     23.1595     95.9064     29.6639
  2367.2500      8.0018      2.3361      0.0606     19.0229    100.3050     29.3403
  2367.5000      7.9783      2.4113      0.0548     14.4684    106.9974     29.2201
  2367.7500      7.9713      2.4442      0.0571     12.4739    111.4295     29.3366
  2368.0000      7.9613      2.4739      0.0676     10.6734    116.7143     29.7225
  2368.2500      7.9499      2.4849      0.0767     10.0087    118.5337     30.0499
  2368.5000      7.9433      2.4941      0.0894      9.4474    118.3827     30.4367
  2368.7500      7.9422      2.4979      0.0965      9.2178    116.6563     30.4929
  2369.0000      7.9469      2.5024      0.1047      8.9426    112.2635     30.1950
  2369.2500      7.9644      2.5054      0.1081      8.7635    108.6582     29.8192
  2369.5000      7.9924      2.5099      0.1091      8.4881    103.9081     29.2344
  2369.7500      8.0030      2.5127      0.1065      8.3230    102.3176     28.9412
  2370.0000      7.9906      2.5150      0.0977      8.1836    103.0585     28.6596
