~Version Information
VERS.                      2.0: CWLS Log ASCII Standard - VERSION 2.0
WRAP.                       NO: One line per depth step
~Well Information Block
STRT.FT               423.0000: 
STOP.FT              2308.2500: 
STEP.FT                 0.2500: 
NULL.                -999.2500: 
COMP.          Pioneer Natural Resources: COMPANY
WELL.             Culver 14-12: WELL
FLD.           Purgatoire River: FIELD
LOC.           913' FSL & 1140' FWL: LOCATION
PROV.                 Colorado: PROVINCE
CNTY.               Las Animas: COUNTRY
SRVC.                Patterson: SERVICE COMPANY
DATE.          Tue Jun 07 00:21:41 2005: LOG DATE
UWI.           05 071 08386 00: UNIQUE WELL ID
~Curve Information Block
DEPT.FT            0 000 00 00: Depth
SN.Ohm-m                      : IEL Short Normal
SP.mV                         : IEL Spontaneous Potential
DIR.Ohm-m                     : IEL Induction Resistivity
GR.GAPI                       : Gamma Ray
~Parameter Information Block
~A  Depth        SN          SP         DIR          GR     
# ...
  1160.0000     53.3627   -109.5928     39.5587     74.7813
  1160.2500     52.4701   -109.6365     37.8751     76.8581
  1160.5000     50.4393   -109.7759     36.0936     82.0510
  1160.7500     47.7375   -110.0046     34.4022     87.2609
  1161.0000     44.9077   -110.3177     32.9742     98.2628
  1161.2500     42.3617   -110.7059     31.9147    107.5274
  1161.5000     40.3458   -111.1554     31.2258    122.4721
  1161.7500     38.8413   -111.6505     30.8149    131.2411
  1162.0000     37.6866   -112.1760     30.5448    138.9759
  1162.2500     36.8176   -112.7192     30.3002    139.1643
  1162.5000     36.2586   -113.2688     30.0273    132.6355
  1162.7500     36.0298   -113.8126     29.7216    125.8192
  1163.0000     36.1186   -114.3337     29.3867    116.2827
  1163.2500     36.4866   -114.8102     29.0071    112.0591
  1163.5000     37.1100   -115.2197     28.5508    109.3309
  1163.7500     37.9076   -115.5442     27.9893    109.1503
  1164.0000     38.6390   -115.7772     27.3120    109.5908
  1164.2500     39.0266   -115.9275     26.5237    109.5459
  1164.5000     38.9744   -116.0137     25.6330    108.5024
  1164.7500     38.5981   -116.0503     24.6443    107.6592
  1165.0000     37.9803   -116.0363     23.5638    107.9159
  1165.2500     36.9421   -115.9578     22.4103    109.8634
  1165.5000     35.2774   -115.8010     21.2212    115.2306
  1165.7500     33.0945   -115.5638     20.0464    119.6424
  1166.0000     30.6645   -115.2586     18.9335    126.2778
  1166.2500     28.1883   -114.9090     17.9161    130.3621
  1166.5000     25.8328   -114.5429     17.0096    135.3602
  1166.7500     23.7566   -114.1805     16.2146    137.2630
  1167.0000     22.0894   -113.8215     15.5233    136.9356
  1167.2500     20.8862   -113.4475     14.9254    134.7044
  1167.5000     20.1202   -113.0451     14.4119    129.8978
  1167.7500     19.7429   -112.6233     13.9759    126.8730
  1168.0000     19.7493   -112.2103     13.6131    123.9362
  1168.2500     20.1264   -111.8390     13.3215    123.2477
  1168.5000     20.6480   -111.5332     13.1011    123.7090
  1168.7500     21.0156   -111.2970     12.9520    124.5305
  1169.0000     21.1626   -111.1115     12.8707    125.5109
  1169.2500     21.1959   -110.9492     12.8476    125.4251
  1169.5000     21.3002   -110.7922     12.8695    123.8539
  1169.7500     21.6514   -110.6366     12.9251    122.2405
  1170.0000     22.1928   -110.4847     13.0103    120.0208
  1170.2500     22.7141   -110.3367     13.1279    118.9055
  1170.5000     23.0885   -110.1885     13.2855    117.6136
  1170.7500     23.2371   -110.0347     13.4914    117.2768
  1171.0000     23.1413   -109.8726     13.7509    118.9657
  1171.2500     22.9048   -109.7069     14.0606    122.0777
  1171.5000     22.6550   -109.5504     14.4052    128.7449
  1171.7500     22.5090   -109.4179     14.7559    133.2566
  1172.0000     22.5061   -109.3159     15.0765    138.5327
  1172.2500     22.5034   -109.2369     15.3349    140.8152
  1172.5000     22.3776   -109.1622     15.5127    142.5615
  1172.7500     22.2712   -109.0697     15.6068    142.7965
  1173.0000     22.4599   -108.9412     15.6223    142.2458
  1173.2500     23.0305   -108.7696     15.5701    141.5998
  1173.5000     23.8001   -108.5689     15.4715    140.6157
  1173.7500     24.4519   -108.3727     15.3620    140.1129
  1174.0000     24.6959   -108.2173     15.2831    139.6481
  1174.2500     24.5163   -108.1213     15.2645    139.2664
  1174.5000     24.1570   -108.0822     15.3088    137.8394
  1174.7500     23.8040   -108.0865     15.3867    136.1285
  1175.0000     23.5535   -108.1222     15.4468    132.8594
  1175.2500     23.4591   -108.1831     15.4357    130.7116
  1175.5000     23.4380   -108.2659     15.3199    128.3573
  1175.7500     23.3380   -108.3659     15.0985    127.7460
  1176.0000     23.0867   -108.4749     14.8002    128.6398
  1176.2500     22.7765   -108.5839     14.4668    130.3716
  1176.5000     22.5459   -108.6887     14.1360    134.0009
  1176.7500     22.3244   -108.7921     13.8319    136.6713
  1177.0000     21.9439   -108.8997     13.5669    140.6758
  1177.2500     21.4909   -109.0133     13.3478    143.1385
  1177.5000     21.2012   -109.1270     13.1803    145.7767
  1177.7500     21.1407   -109.2305     13.0662    146.5212
  1178.0000     21.2795   -109.3153     13.0004    146.6565
  1178.2500     21.5557   -109.3768     12.9706    146.7346
  1178.5000     21.7154   -109.4156     12.9617    147.0885
  1178.7500     21.5046   -109.4394     12.9611    146.9773
  1179.0000     21.0487   -109.4617     12.9632    145.4450
  1179.2500     20.7198   -109.4947     12.9708    143.5879
  1179.5000     20.7351   -109.5424     12.9946    140.5620
  1179.7500     21.0288   -109.6008     13.0487    139.1229
  1180.0000     21.3581   -109.6635     13.1465    138.7645
  1180.2500     21.5889   -109.7284     13.2971    139.8100
  1180.5000     21.7730   -109.8029     13.5061    142.3281
  1180.7500     21.8952   -109.9053     13.7759    143.6057
  1181.0000     21.8914   -110.0592     14.1033    143.4945
  1181.2500     21.8720   -110.2805     14.4751    141.9813
  1181.5000     22.0141   -110.5640     14.8664    138.5944
  1181.7500     22.3449   -110.8826     15.2473    136.4395
  1182.0000     22.7848   -111.2027     15.5964    134.5435
  1182.2500     23.2103   -111.5053     15.9123    134.5486
  1182.5000     23.4623   -111.7919     16.2124    136.4858
  1182.7500     23.5127   -112.0710     16.5193    138.7405
  1183.0000     23.5473   -112.3435     16.8460    142.4581
  1183.2500     23.7515   -112.6044     17.1904    144.2993
  1183.5000     24.1232   -112.8546     17.5387    145.0859
  1183.7500     24.5449   -113.1042     17.8747    144.4622
  1184.0000     24.9374   -113.3644     18.1841    142.9892
  1184.2500     25.3055   -113.6367     18.4548    142.0246
  1184.5000     25.6755   -113.9117     18.6731    140.0004
  1184.7500     25.9882   -114.1765     18.8259    137.7947
  1185.0000     26.1287   -114.4259     18.9089    133.7434
  1185.2500     26.0906   -114.6691     18.9349    131.6603
  1185.5000     25.9809   -114.9272     18.9303    130.9240
  1185.7500     25.9137   -115.2213     18.9208    131.7761
  1186.0000     26.0010   -115.5585     18.9175    133.3105
  1186.2500     26.2453   -115.9240     18.9153    133.7546
  1186.5000     26.4009   -116.2855     18.9028    133.8110
  1186.7500     26.2348   -116.6079     18.8721    134.1959
  1187.0000     25.8482   -116.8688     18.8215    136.6395
  1187.2500     25.4897   -117.0655     18.7515    139.9798
  1187.5000     25.2991   -117.2107     18.6618    147.2106
  1187.7500     25.2934   -117.3236     18.5530    152.4236
  1188.0000     25.3533   -117.4206     18.4300    158.2419
  1188.2500     25.3447   -117.5097     18.3022    159.7745
  1188.5000     25.3320   -117.5892     18.1811    158.4993
  1188.7500     25.4346   -117.6520     18.0784    155.8845
  1189.0000     25.6035   -117.6902     18.0038    150.7456
  1189.2500     25.7203   -117.6979     17.9598    147.4038
  1189.5000     25.7021   -117.6725     17.9304    143.5709
  1189.7500     25.5170   -117.6149     17.8755    141.7272
  1190.0000     25.2692   -117.5245     17.7412    138.8312
  1190.2500     25.1427   -117.3918     17.4870    136.0137
  1190.5000     25.1136   -117.2034     17.1119    129.7506
  1190.7500     24.8653   -116.9586     16.6561    124.4811
  1191.0000     24.1151   -116.6737     16.1816    116.8076
  1191.2500     22.9560   -116.3667     15.7458    113.5356
  1191.5000     21.8379   -116.0461     15.3836    114.0033
  1191.7500     21.1833   -115.7184     15.0970    118.4369
  1192.0000     21.0851   -115.3969     14.8548    129.7352
  1192.2500     21.4121   -115.0958     14.6026    138.3216
  1192.5000     21.9892   -114.8223     14.2830    148.9879
  1192.7500     22.6619   -114.5817     13.8628    153.2711
  1193.0000     23.3165   -114.3831     13.3512    155.3446
  1193.2500     23.8903   -114.2312     12.7994    154.5846
