~Version Information
VERS.                      2.0: CWLS Log ASCII Standard - VERSION 2.0
WRAP.                       NO: One line per depth step
~Well Information Block
STRT.FT               910.3000: 
STOP.FT              1932.5000: 
STEP.FT                 0.1000: 
NULL.                -999.2500: 
COMP.          Petrogulf Corporation: COMPANY
WELL.             State 16-34R: WELL
FLD.           Purgatorie River: FIELD
LOC.           1095' FSL & 1498' FEL: LOCATION
CNTY.               Las Animas: COUNTY
SRVC.                         : SERVICE COMPANY
DATE.          Thu May 06 14:28:18 2004: LOG DATE
UWI.           05 071 08032 00: UNIQUE WELL ID
STAT.                 Colorado: STATE
~Curve Information Block
DEPT.FT            0 000 00 00: Depth
DCAL.in                       : CDL Caliper
RHOB.g/cc                     : CDL Bulk Density
RHOC.g/cc                     : CDL Density Correction
DPOR.pu                       : CDL Density Porosity
NPOR.pu                       : Neutron Porosity
GR.GAPI                       : Gamma Ray
~Parameter Information Block
~A  Depth       DCAL        RHOB        RHOC        DPOR        NPOR         GR     
# ...
   987.1000      8.2495      2.4289     -0.0165     13.4004     31.4471    126.8699
   987.2000      8.2495      2.3899      0.0203     15.7643     30.1471    125.2158
   987.3000      8.2849      2.3156     -0.0157     20.2671     28.4753    122.9931
   987.4000      8.2849      2.1951     -0.0611     27.5671     26.6053    122.7905
   987.5000      8.2986      2.0471     -0.1130     36.5402     24.4101    121.3563
   987.6000      8.2986      1.9000     -0.1319     45.4523     21.5691    113.3273
   987.7000      8.2986      1.7574     -0.1219     54.0977     18.1340    102.6766
   987.8000      8.2979      1.5931     -0.1475     64.0547     14.9550     94.6842
   987.9000      8.2979      1.4086     -0.1977     75.2392     12.5781     88.5439
   988.0000      8.3146      1.2536     -0.2167     84.6329     10.7904     81.9026
   988.1000      8.3146      1.1653     -0.1021     89.9798      9.4664     74.6843
   988.2000      8.3146      1.1425     -0.0580     91.3643      8.6572     70.9119
   988.3000      8.3223      1.1769      0.0663     89.2814      8.2806     72.4217
   988.4000      8.3223      1.2436      0.2469     85.2350      8.0455     73.5404
   988.5000      8.4259      1.2980      0.2841     81.9370      7.7993     68.9140
   988.6000      8.4259      1.3154      0.3098     80.8874      7.7647     61.0862
   988.7000      8.4259      1.3008      0.2998     81.7693      7.9549     56.5499
   988.8000      8.6039      1.2751      0.2119     83.3263      8.0627     58.0478
   988.9000      8.6039      1.2628      0.1443     84.0727      7.9735     61.2429
   989.0000      8.3325      1.2783      0.1070     83.1330      7.7959     61.1947
   989.1000      8.3325      1.3244      0.1065     80.3380      7.6403     60.6093
   989.2000      8.3325      1.4062      0.0806     75.3806      7.6622     63.5827
   989.3000      8.2941      1.5316      0.1132     67.7830      7.9505     70.5690
   989.4000      8.2941      1.6935      0.2053     57.9674      8.4873     79.7466
   989.5000      8.2995      1.8647      0.3683     47.5943      9.3570     86.8718
   989.6000      8.2995      2.0123      0.4493     38.6491     10.6703     90.1801
   989.7000      8.2995      2.1239      0.4387     31.8838     12.4733     94.0495
   989.8000      8.3064      2.2137      0.3789     26.4402     14.4719    102.2535
   989.9000      8.3064      2.2957      0.3179     21.4737     16.2918    113.1395
   990.0000      8.1276      2.3624      0.2980     17.4327     17.9760    121.7063
   990.1000      8.1276      2.4062      0.1733     14.7770     19.4496    124.8035
   990.2000      8.1276      2.4395      0.1073     12.7572     20.7881    124.3747
   990.3000      8.0303      2.4721      0.0754     10.7839     22.3448    125.0815
   990.4000      8.0303      2.4970      0.0825      9.2709     23.9196    128.1319
   990.5000      8.0097      2.5070      0.0706      8.6656     24.9204    130.7445
   990.6000      8.0097      2.5056      0.0482      8.7536     25.1382    132.3253
   990.7000      8.0097      2.5045      0.0244      8.8173     24.8315    134.5313
   990.8000      8.0091      2.5141      0.0232      8.2361     24.7472    136.7015
   990.9000      8.0091      2.5252      0.0688      7.5651     25.2369    139.3745
   991.0000      8.0127      2.5234      0.0161      7.6730     25.7952    141.0458
   991.1000      8.0127      2.5185      0.0173      7.9698     26.0511    138.3617
   991.2000      8.0127      2.5230     -0.0106      7.6975     26.1439    134.5763
   991.3000      8.0230      2.5304      0.0270      7.2472     26.1248    130.8122
   991.4000      8.0230      2.5308      0.0059      7.2216     26.1585    124.0854
   991.5000      8.0063      2.5255      0.0078      7.5439     26.4820    118.4495
   991.6000      8.0063      2.5228     -0.0219      7.7099     26.7708    118.5327
   991.7000      8.0063      2.5288      0.0190      7.3469     26.6478    120.5676
   991.8000      7.9868      2.5360      0.0462      6.9099     26.5048    119.6161
   991.9000      7.9868      2.5381     -0.0034      6.7792     26.8365    116.4681
   992.0000      7.9848      2.5379      0.0045      6.7931     27.2755    114.0239
   992.1000      7.9848      2.5339      0.0131      7.0387     27.0919    113.8534
   992.2000      7.9848      2.5247      0.0115      7.5925     26.2242    115.1553
   992.3000      7.9863      2.5125     -0.0197      8.3359     25.4575    115.6301
   992.4000      7.9863      2.5044     -0.0429      8.8260     25.4330    115.0695
   992.5000      7.9790      2.5068     -0.0287      8.6818     25.7980    113.7512
   992.6000      7.9790      2.5067      0.0510      8.6873     25.8058    110.7314
   992.7000      7.9790      2.4962      0.0046      9.3211     25.5700    108.0390
   992.8000      7.9785      2.4946      0.0078      9.4153     25.7199    106.5106
   992.9000      7.9785      2.5125     -0.0006      8.3321     26.2617    104.6094
   993.0000      7.9822      2.5374      0.0245      6.8268     26.5453    101.9777
   993.1000      7.9822      2.5491      0.0784      6.1170     26.1492     98.4451
   993.2000      7.9822      2.5403      0.0143      6.6514     25.5812     96.5067
   993.3000      7.9770      2.5290      0.0240      7.3340     25.3887     98.2718
   993.4000      7.9770      2.5280      0.0391      7.3965     25.5235    100.8777
   993.5000      7.9808      2.5267      0.0399      7.4716     25.8535    100.1612
   993.6000      7.9808      2.5201     -0.0045      7.8738     26.1907     95.4784
   993.7000      7.9808      2.5229     -0.0033      7.7034     26.2666     90.8571
   993.8000      7.9775      2.5475      0.0159      6.2128     26.0871     89.8198
   993.9000      7.9775      2.5816      0.0733      4.1451     26.1033     90.8768
   994.0000      7.9754      2.6029      0.0930      2.8553     26.5196     92.4267
   994.1000      7.9754      2.6093      0.0505      2.4643     27.0398     95.1552
   994.2000      7.9754      2.6085      0.0681      2.5126     27.5675     98.8028
   994.3000      7.9700      2.5967      0.0455      3.2308     27.9280    101.1208
   994.4000      7.9700      2.5752     -0.0076      4.5311     27.8173    101.9711
   994.5000      7.9794      2.5605     -0.0134      5.4241     27.2003    103.7689
   994.6000      7.9794      2.5582      0.0221      5.5610     26.5025    106.0927
   994.7000      7.9794      2.5558      0.0125      5.7100     26.2722    106.2913
   994.8000      7.9621      2.5499      0.0003      6.0640     26.5698    103.5436
   994.9000      7.9621      2.5435     -0.0130      6.4569     26.6650     98.8341
   995.0000      7.9599      2.5327     -0.0243      7.1103     26.1560     94.5704
   995.1000      7.9599      2.5234     -0.0404      7.6741     26.0519     92.5694
   995.2000      7.9599      2.5265      0.0111      7.4846     26.9226     91.9492
   995.3000      7.9831      2.5457     -0.0090      6.3211     27.6416     89.8188
   995.4000      7.9831      2.5809      0.0123      4.1907     27.4814     86.0546
   995.5000      7.9660      2.6106      0.0604      2.3884     27.0585     84.8088
   995.6000      7.9660      2.6065      0.0460      2.6352     26.7945     87.7573
   995.7000      7.9660      2.5814     -0.0537      4.1598     26.7276     92.1143
   995.8000      7.9585      2.5695     -0.0078      4.8806     26.9140     94.8248
   995.9000      7.9585      2.5725      0.0009      4.6957     27.1986     96.1945
   996.0000      7.9646      2.5729      0.0082      4.6749     27.4238     97.0878
   996.1000      7.9646      2.5663      0.0104      5.0726     27.6694     96.5436
   996.2000      7.9646      2.5569      0.0002      5.6430     27.8269     95.2053
   996.3000      7.9642      2.5508     -0.0111      6.0111     27.6690     95.7514
   996.4000      7.9642      2.5540      0.0273      5.8209     27.4241     97.1737
   996.5000      7.9615      2.5652     -0.0090      5.1367     27.3604     95.0466
   996.6000      7.9615      2.5736      0.0321      4.6287     27.3413     90.5162
