~Version Information
VERS.                      2.0: CWLS Log ASCII Standard - VERSION 2.0
WRAP.                       NO: One line per depth step
~Well Information Block
STRT.FT               -12.0000: 
STOP.FT              2137.5000: 
STEP.FT                 0.2500: 
NULL.                -999.2500: 
COMP.          Pioneer Natural Resources: COMPANY
WELL.           Ogallela 44-12: WELL
FLD.           Purgatorie River: FIELD
LOC.           610' FSL & 671' FEL------------: LOCATION
PROV.                       CO: PROVINCE
CNTY.               Las Animas: COUNTRY
SRVC.          Patterson Wireline: SERVICE COMPANY
DATE.          Thu Apr 07 14:25:46 2005: LOG DATE
UWI.           05 071 08283 00: UNIQUE WELL ID
~Curve Information Block
DEPT.FT            0 000 00 00: Depth
CCL.                          : Casing Collar Locator
TT3.usec                      : CBL 3' Travel Time
AMP3.mV                       : CBL 3' Amplitude
ATT3.db/ft                    : CBL 3' Attenuation
GR.GAPI                       : Gamma Ray
~Parameter Information Block
~A  Depth       CCL         TT3         AMP3        ATT3         GR     
   -12.0000   -999.2500   -999.2500   -999.2500   -999.2500   -999.2500
   -11.7500   -999.2500   -999.2500   -999.2500   -999.2500     67.1539
   -11.5000   -999.2500   -999.2500   -999.2500   -999.2500     68.6083
   -11.2500   -999.2500   -999.2500   -999.2500   -999.2500     71.2968
   -11.0000   -999.2500   -999.2500   -999.2500   -999.2500     74.3626
   -10.7500   -999.2500   -999.2500   -999.2500   -999.2500     76.6102
   -10.5000   -999.2500   -999.2500   -999.2500   -999.2500     77.5643
   -10.2500   -999.2500   -999.2500   -999.2500   -999.2500     77.7403
   -10.0000   -999.2500   -999.2500   -999.2500   -999.2500     77.5938
    -9.7500   -999.2500   -999.2500   -999.2500   -999.2500     76.6878
    -9.5000   -999.2500   -999.2500   -999.2500   -999.2500     74.4787
    -9.2500   -999.2500   -999.2500   -999.2500   -999.2500     71.5700
    -9.0000   -999.2500   -999.2500   -999.2500   -999.2500     69.4941
    -8.7500   -999.2500   -999.2500   -999.2500   -999.2500     69.2631
    -8.5000   -999.2500   -999.2500   -999.2500   -999.2500     70.5431
    -8.2500   -999.2500   -999.2500   -999.2500   -999.2500     72.1775
    -8.0000   -999.2500   -999.2500   -999.2500   -999.2500     73.0837
    -7.7500   -999.2500   -999.2500   -999.2500   -999.2500     72.6319
    -7.5000   -999.2500   -999.2500   -999.2500   -999.2500     70.7377
    -7.2500   -999.2500   -999.2500   -999.2500   -999.2500     67.9798
    -7.0000   -999.2500   -999.2500   -999.2500   -999.2500     65.3707
    -6.7500   -999.2500   1167.0000      1.8078    -11.4647     63.5528
    -6.5000   -999.2500   1167.0000      1.7881    -11.4963     62.2278
    -6.2500   -999.2500   1167.0000      1.7775    -11.5136     60.6871
    -6.0000   -999.2500   1167.0000      1.7805    -11.5088     58.8646
    -5.7500   -999.2500   1167.0000      1.7970    -11.4821     57.4504
    -5.5000   -999.2500   1167.0000      1.8192    -11.4465     56.8232
    -5.2500   -999.2500   1167.0000      1.8356    -11.4205     56.2598
    -5.0000   -999.2500   1167.0000      1.8377    -11.4172     54.5977
    -4.7500   -999.2500   1167.0000      1.8255    -11.4365     51.5916
    -4.5000   -999.2500   1167.0000      1.8082    -11.4640     48.3661
    -4.2500   -999.2500   1167.0000      1.7976    -11.4810     46.5304
    -4.0000   -999.2500   1167.0000      1.7981    -11.4802     46.9553
    -3.7500   -999.2500   1167.0000      1.8046    -11.4698     49.2915
    -3.5000   -999.2500   1167.0000      1.8101    -11.4610     52.3539
    -3.2500   -999.2500   1167.0000      1.8136    -11.4554     54.7999
    -3.0000   -999.2500   1167.0000      1.8179    -11.4486     55.6438
    -2.7500   -999.2500   1167.0000      1.8238    -11.4392     54.5980
    -2.5000   -999.2500   1167.0000      1.8299    -11.4296     52.3841
    -2.2500   -999.2500   1167.0000      1.8348    -11.4218     50.6868
    -2.0000   -999.2500   1167.0000      1.8373    -11.4179     51.1307
    -1.7500   -999.2500   1167.0000      1.8357    -11.4204     53.8100
    -1.5000   -999.2500   1167.0000      1.8307    -11.4283     57.0969
    -1.2500      0.0000   1167.0000      1.8252    -11.4369     59.1604
    -1.0000      0.0000   1167.0000      1.8208    -11.4439     59.4410
    -0.7500      0.0000   1167.0000      1.8161    -11.4514     58.5450
    -0.5000      0.0000   1167.0000      1.8110    -11.4595     57.0475
    -0.2500      0.0000   1167.0000      1.8095    -11.4620     54.7101
     0.0000      2.0000   1167.0000      1.8148    -11.4534     50.9472
     0.2500     -2.0000   1167.0000      1.8261    -11.4356     40.6142
     0.5000     -2.0000   1167.0000      1.8396    -11.4143     36.3865
     0.7500      2.0000   1167.0000      1.8515    -11.3956     33.7933
     1.0000     -2.0000   1167.0000      1.8575    -11.3862     32.7939
     1.2500      0.0000   1167.0000      1.8543    -11.3911     33.1161
     1.5000      0.0000   1167.0000      1.8461    -11.4040     34.5768
     1.7500      2.0000   1167.0000      1.8427    -11.4094     37.2067
     2.0000      2.0000   1167.0000      1.8490    -11.3994     40.9492
     2.2500      0.0000   1167.0000      1.8586    -11.3845     45.0506
     2.5000      0.0000   1167.0000      1.8610    -11.3808     48.0891
     2.7500     -2.0000   1167.0000      1.8543    -11.3912     49.0509
     3.0000      2.0000   1167.0000      1.8448    -11.4061     48.2573
     3.2500      0.0000   1167.0000      1.8368    -11.4186     46.9361
     3.5000      0.0000   1167.0000      1.8286    -11.4316     46.0671
     3.7500      0.0000   1167.0000      1.8176    -11.4491     45.9324
     4.0000      0.0000   1167.0000      1.8061    -11.4674     46.5153
     4.2500      0.0000   1167.0000      1.7995    -11.4780     47.8534
     4.5000      0.0000   1167.0000      1.8018    -11.4744     49.9375
     4.7500      0.0000   1167.0000      1.8131    -11.4563     52.4961
     5.0000      0.0000   1167.0000      1.8282    -11.4322     54.9446
     5.2500      0.0000   1167.0000      1.8380    -11.4167     56.3952
     5.5000      0.0000   1167.0000      1.8372    -11.4181     55.9338
     5.7500      0.0000   1167.0000      1.8313    -11.4274     53.4658
     6.0000      0.0000   1167.0000      1.8319    -11.4264     50.3333
     6.2500      0.0000   1167.0000      1.8436    -11.4079     48.5255
     6.5000      0.0000   1167.0000      1.8593    -11.3833     49.0832
     6.7500      0.0000   1167.0000      1.8703    -11.3663     51.4114
     7.0000      0.0000   1167.0000      1.8760    -11.3575     53.9044
     7.2500      0.0000   1167.0000      1.8809    -11.3500     54.9295
     7.5000      0.0000   1167.0000      1.8853    -11.3431     53.5931
     7.7500      0.0000   1167.0000      1.8858    -11.3424     50.3118
     8.0000      0.0000   1167.0000      1.8816    -11.3489     46.8488
     8.2500      0.0000   1167.0000      1.8756    -11.3582     45.2817
     8.5000      0.0000   1167.0000      1.8702    -11.3665     46.4623
     8.7500      0.0000   1167.0000      1.8668    -11.3717     49.4265
     9.0000      0.0000   1167.0000      1.8684    -11.3693     52.3628
     9.2500      0.0000   1167.0000      1.8761    -11.3574     53.8860
     9.5000      0.0000   1167.0000      1.8856    -11.3427     53.3820
     9.7500      0.0000   1166.9425      1.8926    -11.3320     50.8870
    10.0000      0.0000   1166.5676      1.9059    -11.3117     47.3260
    10.2500      0.0000   1164.6638      1.9749    -11.2087     44.4572
    10.5000      0.0000   1157.1354      2.2538    -10.8263     43.8419
    10.7500      0.0000   1133.9501      3.1159     -9.8885     45.7635
    11.0000      0.0000   1078.3435      5.1999     -8.4058     49.2471
    11.2500      0.0000    974.4847      9.1450     -6.7711     52.8736
    11.5000      0.0000    823.4188     14.9954     -5.3393     55.4113
    11.7500      0.0000    652.2957     21.8110     -4.2545     56.1379
    12.0000     -2.0000    501.3184     28.0883     -3.5222     55.2151
    12.2500      0.0000    397.5420     32.7182     -3.0804     53.7552
    12.5000      0.0000    341.9243     35.5295     -2.8418     53.0949
    12.7500      0.0000    318.6280     37.0245     -2.7224     53.7069
    13.0000      0.0000    310.9368     37.8183     -2.6610     54.7213
    13.2500      0.0000    308.8574     38.3309     -2.6220     54.5308
    13.5000      0.0000    308.3058     38.7646     -2.5895     52.1148
    13.7500      0.0000    308.0759     39.1771     -2.5588     47.8788
    14.0000      0.0000    307.9173     39.5616     -2.5305     43.2107
    14.2500      0.0000    307.7796     39.9092     -2.5052     39.3841
    14.5000      0.0000    307.6659     40.2226     -2.4826     36.9075
    14.7500      0.0000    307.5791     40.5022     -2.4625     35.5741
    15.0000      0.0000    307.5153     40.7535     -2.4446     34.9261
    15.2500      0.0000    307.4481     41.0061     -2.4267     34.7929
    15.5000      0.0000    307.3034     41.2946     -2.4064     35.4058
    15.7500      0.0000    306.8917     41.6141     -2.3841     36.9496
