~Version Information
VERS.                      2.0: CWLS Log ASCII Standard - VERSION 2.0
WRAP.                       NO: One line per depth step
~Well Information Block
STRT.FT               480.0000: 
STOP.FT              1994.2000: 
STEP.FT                 0.1000: 
NULL.                -999.2500: 
COMP.          Evergreen Operating Corporation: COMPANY
WELL.          McCullough 34-32 Tr: WELL
FLD.           Purgatoire River: FIELD
LOC.           394' FSL & 2077' FEL: LOCATION
PROV.                 Colorado: PROVINCE
CNTY.               Las Animas: COUNTRY
SRVC.                Patterson: SERVICE COMPANY
DATE.          Mon Sep 20 07:30:00 2004: LOG DATE
UWI.           05 071 08157 00: UNIQUE WELL ID
~Curve Information Block
DEPT.FT            0 000 00 00: Depth
DCAL.in                       : CDL Caliper
RHOB.g/cc                     : CDL Bulk Density
RHOC.g/cc                     : CDL Density Correction
DPOR.pu                       : CDL Density Porosity
NPOR.pu                       : Neutron Porosity
GR.GAPI                       : Gamma Ray
~Parameter Information Block
~A  Depth       DCAL        RHOB        RHOC        DPOR        NPOR         GR     
   480.0000      8.1747      2.5080     -0.3764      8.6074     41.8178     96.8697
   480.1000      8.1747      2.5388     -0.3352      6.7407     42.0329     97.3236
   480.2000      8.1747      2.5727     -0.2791      4.6865     42.0604     96.5456
   480.3000      8.1736      2.5777     -0.2690      4.3843     42.0202     93.6450
   480.4000      8.1736      2.5727     -0.2925      4.6862     42.1359     92.3179
   480.5000      8.1717      2.5851     -0.2188      3.9352     42.3078     93.0181
   480.6000      8.1717      2.5949     -0.2221      3.3382     42.2901     93.8231
   480.7000      8.1717      2.5712     -0.2630      4.7742     42.1927     93.2617
   480.8000      8.1690      2.5267     -0.3154      7.4714     42.2276     91.6442
   480.9000      8.1690      2.4973     -0.3542      9.2526     42.2212     92.1773
   481.0000      8.1676      2.5000     -0.2818      9.0931     42.0926     96.4894
   481.1000      8.1676      2.5227     -0.2584      7.7152     42.0941    102.5926
   481.2000      8.1676      2.5410     -0.2472      6.6061     42.2048    105.7268
   481.3000      8.1695      2.5344     -0.2659      7.0077     42.2082    104.1233
   481.4000      8.1695      2.4984     -0.2459      9.1866     42.0666    101.7024
   481.5000      8.1734      2.4479     -0.3176     12.2496     42.0212     99.5601
   481.6000      8.1734      2.4095     -0.3261     14.5736     42.2389     96.3067
   481.7000      8.1734      2.3983     -0.3198     15.2532     42.2868     92.5855
   481.8000      8.1772      2.4129     -0.3434     14.3726     41.8829     90.4970
   481.9000      8.1772      2.4475     -0.3172     12.2748     41.4261     91.1907
   482.0000      8.1790      2.4881     -0.2443      9.8137     41.3281     91.2922
   482.1000      8.1790      2.5149     -0.1740      8.1877     41.5805     88.3915
   482.2000      8.1790      2.5284     -0.2275      7.3715     41.9017     87.3422
   482.3000      8.1805      2.5437     -0.1886      6.4434     42.0527     91.3596
   482.4000      8.1805      2.5483     -0.1830      6.1666     41.9688     95.8493
   482.5000      8.1808      2.5261     -0.2432      7.5119     41.7362     97.5013
   482.6000      8.1808      2.5026     -0.3253      8.9332     41.4785     97.7523
   482.7000      8.1808      2.5061     -0.3027      8.7199     41.3300     97.4644
   482.8000      8.1794      2.5187     -0.2370      7.9584     41.3904     96.9646
   482.9000      8.1794      2.5135     -0.2804      8.2730     41.5459     96.3536
   483.0000      8.1793      2.5002     -0.3009      9.0766     41.5968     94.6093
   483.1000      8.1793      2.4991     -0.2574      9.1429     41.5530     90.9862
   483.2000      8.1793      2.5187     -0.2912      7.9552     41.7949     88.1417
   483.3000      8.1794      2.5598     -0.2661      5.4644     42.2869     90.7928
   483.4000      8.1794      2.5985     -0.2010      3.1225     42.3837     97.1873
   483.5000      8.1785      2.6038     -0.2146      2.7999     41.9801    100.1152
   483.6000      8.1785      2.5875     -0.2722      3.7887     41.5816     97.9984
   483.7000      8.1785      2.5875     -0.2559      3.7879     41.4506     95.0073
   483.8000      8.1769      2.6146     -0.2219      2.1438     41.4388     95.8665
   483.9000      8.1769      2.6432     -0.2516      0.4101     41.4670    101.2628
   484.0000      8.1769      2.6346     -0.2127      0.9304     41.5378    105.4520
   484.1000      8.1769      2.5783     -0.2971      4.3467     41.6195    102.9197
   484.2000      8.1769      2.5216     -0.3785      7.7835     41.7355     96.1222
   484.3000      8.1789      2.5103     -0.3147      8.4648     41.9389     92.4479
   484.4000      8.1789      2.5274     -0.3304      7.4282     42.3180     93.9673
   484.5000      8.1806      2.5352     -0.2741      6.9583     42.6139     96.4958
   484.6000      8.1806      2.5268     -0.3011      7.4637     42.5070     97.1290
   484.7000      8.1806      2.5166     -0.2558      8.0826     42.2372     97.4161
   484.8000      8.1793      2.5146     -0.2838      8.2067     42.0562     97.7420
   484.9000      8.1793      2.5311     -0.3212      7.2058     41.8882     95.6940
   485.0000      8.1769      2.5652     -0.2368      5.1408     41.8393     92.7663
   485.1000      8.1769      2.5843     -0.1967      3.9809     42.0032     93.8853
   485.2000      8.1769      2.5693     -0.2723      4.8885     41.9676     98.9830
   485.3000      8.1769      2.5418     -0.2717      6.5570     41.5349    102.8689
   485.4000      8.1769      2.5229     -0.3109      7.7047     41.1420    103.7155
   485.5000      8.1787      2.5226     -0.2561      7.7203     41.0947    103.9302
   485.6000      8.1787      2.5409     -0.2809      6.6123     41.3285    104.3688
   485.7000      8.1787      2.5627     -0.2381      5.2887     41.6979    102.4752
   485.8000      8.1803      2.5779     -0.2904      4.3727     41.9701     96.9131
   485.9000      8.1803      2.5865     -0.2163      3.8498     41.9799     90.2708
   486.0000      8.1799      2.5943     -0.2922      3.3757     41.8222     85.0292
   486.1000      8.1799      2.6136     -0.2470      2.2069     41.6791     81.6037
   486.2000      8.1799      2.6428     -0.2547      0.4357     41.5774     83.4186
   486.3000      8.1781      2.6590     -0.2245     -0.5439     41.3554     91.5895
   486.4000      8.1781      2.6431     -0.2426      0.4199     40.9987     98.5633
   486.5000      8.1777      2.6127     -0.3457      2.2605     40.7948     99.9106
   486.6000      8.1777      2.6025     -0.3070      2.8805     40.8791     96.8273
   486.7000      8.1777      2.6183     -0.2853      1.9213     41.0069     89.2440
   486.8000      8.1769      2.6516     -0.3227     -0.0960     40.8079     80.0592
   486.9000      8.1769      2.6808     -0.1699     -1.8667     40.3747     75.1815
   487.0000      8.1762      2.6767     -0.2735     -1.6191     40.3739     75.7394
   487.1000      8.1762      2.6490     -0.2422      0.0585     41.0263     77.9688
   487.2000      8.1762      2.6375     -0.3390      0.7568     41.6849     78.7274
   487.3000      8.1771      2.6568     -0.2540     -0.4099     41.7536     78.3522
   487.4000      8.1771      2.6728     -0.1951     -1.3834     41.4254     77.2968
   487.5000      8.1771      2.6620     -0.2755     -0.7251     41.1015     75.0803
   487.6000      8.1771      2.6399     -0.2098      0.6130     40.9084     73.3275
   487.7000      8.1771      2.6186     -0.2569      1.9056     40.8612     75.5548
   487.8000      8.1760      2.5956     -0.2267      3.2976     40.8324     81.6081
   487.9000      8.1760      2.5676     -0.3140      4.9916     40.6205     87.1557
   488.0000      8.1782      2.5412     -0.3357      6.5956     40.4760     88.7092
   488.1000      8.1782      2.5207     -0.3154      7.8367     40.7976     85.8854
   488.2000      8.1782      2.4998     -0.2933      9.1008     41.2439     80.6252
   488.3000      8.1822      2.4910     -0.3949      9.6347     41.2380     77.4558
   488.4000      8.1822      2.5143     -0.3021      8.2259     40.8943     79.6645
   488.5000      8.1840      2.5507     -0.2285      6.0177     40.6679     83.8313
   488.6000      8.1840      2.5760     -0.2858      4.4845     40.7404     84.7250
   488.7000      8.1840      2.5895     -0.2135      3.6649     41.0280     82.9578
   488.8000      8.1838      2.5892     -0.2463      3.6851     41.3740     80.7830
   488.9000      8.1838      2.5765     -0.2663      4.4542     41.7174     79.8118
   489.0000      8.1837      2.5636     -0.3085      5.2349     42.0298     83.1405
   489.1000      8.1837      2.5574     -0.2576      5.6110     42.2951     89.0138
   489.2000      8.1837      2.5562     -0.3513      5.6871     42.3214     93.4805
   489.3000      8.1852      2.5614     -0.2960      5.3709     41.9975     97.9842
   489.4000      8.1852      2.5701     -0.2897      4.8425     41.6755    101.6567
   489.5000      8.1938      2.5850     -0.2700      3.9384     41.5774    101.7115
