~Version Information
VERS.                      2.0: CWLS Log ASCII Standard - VERSION 2.0
WRAP.                       NO: One line per depth step
~Well Information Block
STRT.FT               294.0000: 
STOP.FT              1958.0000: 
STEP.FT                 0.1000: 
NULL.                -999.2500: 
COMP.          Pioneer Natural Resources: COMPANY
WELL.          Commander 43-26 Tr: WELL
FLD.           Purgatoire River: FIELD
LOC.           2439' FSL & 446' FEL: LOCATION
PROV.                 Colorado: PROVINCE
CNTY.               Las Animas: COUNTRY
SRVC.                Patterson: SERVICE COMPANY
DATE.          Fri Apr 15 07:31:08 2005: LOG DATE
UWI.           05 071 08341 00: UNIQUE WELL ID
~Curve Information Block
DEPT.FT            0 000 00 00: Depth
DCAL.in                       : CDL Caliper
RHOB.g/cc                     : CDL Bulk Density
RHOC.g/cc                     : CDL Density Correction
DPOR.pu                       : CDL Density Porosity
GR.GAPI                       : Gamma Ray
NPOR.pu                       : Neutron Porosity
~Parameter Information Block
~A  Depth       DCAL        RHOB        RHOC        DPOR         GR         NPOR    
# ...
  1503.6000      8.1171      1.6684     -0.1731     59.4894     88.4074     32.5603
  1503.7000      8.1171      1.6452     -0.0648     60.8940     87.1540     33.2551
  1503.8000      8.1368      1.6283      0.0054     61.9229     88.0584     33.9494
  1503.9000      8.1368      1.6173      0.0088     62.5893     92.3517     33.8817
  1504.0000      8.1091      1.6429      0.0183     61.0371     95.2218     33.0985
  1504.1000      8.1091      1.7047      0.1166     57.2917     93.0550     33.0732
  1504.2000      8.1091      1.7835      0.0949     52.5154     90.5071     34.2992
  1504.3000      8.2066      1.8769      0.1087     46.8573     93.5443     35.1420
  1504.4000      8.2066      1.9739      0.1032     40.9771     99.1562     34.5759
  1504.5000      8.3519      2.0560      0.0791     35.9983    100.8384     33.2310
  1504.6000      8.3519      2.1227      0.1563     31.9561     99.1898     31.8467
  1504.7000      8.3519      2.1726      0.2256     28.9330    100.0788     31.0453
  1504.8000      8.1554      2.1890      0.2110     27.9365    106.2240     31.3696
  1504.9000      8.1554      2.1673      0.0962     29.2548    113.9725     32.2874
  1505.0000      8.1317      2.1310      0.0183     31.4547    116.8669     32.7604
  1505.1000      8.1317      2.1063      0.0238     32.9532    112.3912     32.6918
  1505.2000      8.1317      2.1078     -0.0149     32.8629    105.4184     32.6948
  1505.3000      8.0610      2.1504     -0.0137     30.2784    102.9487     32.7733
  1505.4000      8.0610      2.2300      0.0992     25.4571    104.1921     32.3356
  1505.5000      8.0653      2.3145      0.1827     20.3345    104.9204     31.3463
  1505.6000      8.0653      2.3877      0.1479     15.8945    105.2361     30.4609
  1505.7000      8.0653      2.4546      0.2039     11.8441    106.7977     29.8753
  1505.8000      8.0247      2.5015      0.2324      8.9979    107.6757     29.0871
  1505.9000      8.0247      2.5135      0.0815      8.2753    106.0523     27.7774
  1506.0000      7.9975      2.5077      0.0308      8.6268    102.8290     26.2218
  1506.1000      7.9975      2.5104      0.0113      8.4586     99.4330     24.7353
  1506.2000      7.9975      2.5268      0.0460      7.4660     97.3813     23.8117
  1506.3000      7.9218      2.5403      0.0668      6.6513     95.9156     23.6529
  1506.4000      7.9218      2.5375      0.0335      6.8155     95.0060     23.4951
  1506.5000      7.9249      2.5254      0.0400      7.5486     95.6395     22.9470
  1506.6000      7.9249      2.5234     -0.0098      7.6750     96.4962     22.8375
  1506.7000      7.9249      2.5457      0.0441      6.3226     96.0854     23.7752
  1506.8000      7.9276      2.5869      0.1036      3.8240     94.3065     24.6486
  1506.9000      7.9276      2.6247      0.1238      1.5328     92.4303     23.9984
  1507.0000      7.9180      2.6308      0.1171      1.1664     91.4498     22.3717
  1507.1000      7.9180      2.6022      0.0652      2.8979     91.2752     21.4044
  1507.2000      7.9180      2.5787      0.0432      4.3183     91.8587     21.5419
  1507.3000      7.8899      2.5839      0.0563      4.0037     93.6589     22.1128
  1507.4000      7.8899      2.5949      0.0940      3.3384     96.3836     22.1339
  1507.5000      7.8705      2.5989      0.0240      3.0965     98.1265     21.4518
  1507.6000      7.8705      2.6062      0.0640      2.6570     97.8185     20.9891
  1507.7000      7.8705      2.6094      0.0637      2.4605     98.1851     20.8461
  1507.8000      7.9068      2.5994      0.0201      3.0681    101.2907     20.5955
  1507.9000      7.9068      2.5779      0.0260      4.3678    104.4141     20.5321
  1508.0000      7.9260      2.5482     -0.0533      6.1670    104.7219     20.6345
  1508.1000      7.9260      2.5291     -0.0579      7.3259    103.1505     20.5170
  1508.2000      7.9260      2.5364     -0.0162      6.8865     98.8637     20.3217
  1508.3000      7.9458      2.5585      0.0330      5.5434     91.6914     20.4248
  1508.4000      7.9458      2.5735      0.0155      4.6340     86.2468     20.6867
  1508.5000      7.9526      2.5733      0.0272      4.6473     86.2670     20.8988
  1508.6000      7.9526      2.5692     -0.0400      4.8964     92.0483     21.4274
  1508.7000      7.9526      2.5702      0.0242      4.8335    100.0056     22.3071
  1508.8000      7.9653      2.5638      0.0195      5.2229    104.6319     22.8343
  1508.9000      7.9653      2.5559     -0.0418      5.7035    105.5005     22.7350
  1509.0000      7.9696      2.5767     -0.0348      4.4453    104.9973     22.5135
  1509.1000      7.9696      2.6167      0.0409      2.0174    102.6474     22.5458
  1509.2000      7.9696      2.6320      0.0565      1.0895     99.9273     22.9863
  1509.3000      7.9586      2.6161     -0.0122      2.0534    102.0184     23.7768
  1509.4000      7.9586      2.6001      0.0155      3.0229    109.4798     24.3989
  1509.5000      7.9578      2.5998     -0.0011      3.0444    116.2381     24.3073
  1509.6000      7.9578      2.6095      0.0510      2.4560    119.5822     24.2384
  1509.7000      7.9578      2.6115      0.0551      2.3305    120.0868     25.0582
  1509.8000      7.9790      2.5926      0.0354      3.4782    117.9448     25.6868
  1509.9000      7.9790      2.5602      0.0111      5.4396    115.2204     24.9891
  1510.0000      7.9706      2.5460     -0.0232      6.3036    111.2420     23.6784
  1510.1000      7.9706      2.5734      0.0273      4.6439    104.9880     22.7217
  1510.2000      7.9706      2.6155      0.0949      2.0880     99.7683     22.7126
  1510.3000      7.9666      2.6320      0.0924      1.0901     97.3638     23.8783
  1510.4000      7.9666      2.6242      0.0290      1.5665     97.0471     25.0775
  1510.5000      7.9622      2.6121     -0.0164      2.2961     97.6001     24.8548
  1510.6000      7.9622      2.5963      0.0470      3.2516     97.2703     23.4692
  1510.7000      7.9622      2.5729      0.0172      4.6741     95.1618     21.8907
  1510.8000      7.9660      2.5560      0.0222      5.6974     91.2836     20.9615
  1510.9000      7.9660      2.5526      0.0421      5.9006     86.3459     21.0443
  1511.0000      7.9615      2.5571      0.0096      5.6293     82.9762     21.1208
  1511.1000      7.9615      2.5673      0.0548      5.0143     81.1648     20.2022
  1511.2000      7.9615      2.5692      0.0590      4.8982     79.5052     19.2014
  1511.3000      7.9409      2.5470      0.0230      6.2412     80.0500     19.0969
  1511.4000      7.9409      2.5105     -0.0356      8.4526     83.9705     19.2813
  1511.5000      7.9376      2.4834     -0.0715     10.0946     88.6976     19.4362
  1511.6000      7.9376      2.4823      0.0127     10.1645     91.7275     20.2166
  1511.7000      7.9376      2.5057      0.0180      8.7481     91.8040     21.4192
  1511.8000      7.9407      2.5310      0.0931      7.2113     89.5515     22.0355
  1511.9000      7.9407      2.5393      0.0497      6.7119     88.0990     21.9548
  1512.0000      7.9436      2.5389      0.0533      6.7339     89.4891     22.0475
  1512.1000      7.9436      2.5486      0.0356      6.1430     92.8743     22.8656
  1512.2000      7.9436      2.5734      0.0786      4.6440     96.4985     24.5031
  1512.3000      7.9386      2.5954      0.1083      3.3094     98.0434     26.3110
  1512.4000      7.9386      2.6029      0.0790      2.8548     95.7966     26.9313
  1512.5000      7.9094      2.6006      0.1354      2.9946     91.0996     26.2746
  1512.6000      7.9094      2.5918      0.1030      3.5267     87.1474     25.1869
  1512.7000      7.9094      2.5846      0.0952      3.9626     86.6930     24.3004
  1512.8000      7.8868      2.5842      0.0869      3.9856     91.6509     24.0175
  1512.9000      7.8868      2.5876      0.0601      3.7812     98.9572     24.0502
  1513.0000      7.8893      2.5950      0.0728      3.3323    100.3051     23.8805
  1513.1000      7.8893      2.6105      0.0629      2.3916     94.1899     23.5697
