~Version Information
VERS.                      2.0: CWLS Log ASCII Standard - VERSION 2.0
WRAP.                       NO: One line per depth step
~Well Information Block
STRT.FT               784.0000: 
STOP.FT              1033.0000: 
STEP.FT                 0.1000: 
NULL.                -999.2500: 
COMP.          Pioneer Natural Resources: COMPANY
WELL.          Run-Away-Train 43-26: WELL
FLD.           Purgatoire River: FIELD
LOC.           1693' FSL & 1195' FEL: LOCATION
PROV.                 Colorado: PROVINCE
CNTY.               Las Animas: COUNTRY
SRVC.                Patterson: SERVICE COMPANY
DATE.          Wed Apr 06 07:23:28 2005: LOG DATE
UWI.           05 071 08188 00: UNIQUE WELL ID
~Curve Information Block
DEPT.FT            0 000 00 00: Depth
DCAL.in                       : CDL Caliper
RHOB.g/cc                     : CDL Bulk Density
RHOC.g/cc                     : CDL Density Correction
DPOR.pu                       : CDL Density Porosity
GR.GAPI                       : Gamma Ray
NPOR.pu                       : Neutron Porosity
~Parameter Information Block
~A  Depth       DCAL        RHOB        RHOC        DPOR         GR         NPOR    
# ...
   985.6000      7.8631      2.5681      0.0405      4.9645     98.4006     23.7665
   985.7000      7.8631      2.5613      0.0349      5.3746    104.7014     24.0805
   985.8000      7.8690      2.5635      0.0607      5.2445    108.3673     24.0171
   985.9000      7.8690      2.5667      0.0412      5.0479    106.6269     23.6511
   986.0000      7.8618      2.5588      0.0305      5.5273    102.6682     23.2774
   986.1000      7.8618      2.5428      0.0275      6.4960     99.8177     22.8254
   986.2000      7.8618      2.5328     -0.0083      7.1039     98.2158     22.3613
   986.3000      7.8599      2.5378      0.0702      6.7992     99.2715     22.3022
   986.4000      7.8599      2.5466      0.0678      6.2683    104.7243     22.6384
   986.5000      7.8549      2.5453      0.0609      6.3474    111.1652     23.0974
   986.6000      7.8549      2.5453     -0.0488      6.3485    112.3053     23.6236
   986.7000      7.8549      2.5577      0.0654      5.5960    109.6445     24.1003
   986.8000      7.8630      2.5722      0.0351      4.7170    107.7641     23.9772
   986.9000      7.8630      2.5946      0.0621      3.3586    108.7464     23.1681
   987.0000      7.8675      2.6317      0.1592      1.1099    113.9962     22.7175
   987.1000      7.8675      2.6526      0.2007     -0.1595    120.0996     23.2148
   987.2000      7.8675      2.6293      0.1768      1.2544    121.9530     24.1355
   987.3000      7.8447      2.5835      0.0428      4.0287    121.8528     24.9023
   987.4000      7.8447      2.5626      0.0470      5.2958    122.9789     25.2694
   987.5000      7.8636      2.5696      0.1579      4.8724    121.6518     25.4009
   987.6000      7.8636      2.5699      0.0914      4.8524    115.1130     25.6749
   987.7000      7.8636      2.5657      0.0669      5.1117    109.9229     26.0012
   987.8000      7.8724      2.5836      0.1213      4.0226    113.2273     25.9221
   987.9000      7.8724      2.6162      0.1623      2.0473    121.9717     25.5547
   988.0000      7.8825      2.6257      0.1816      1.4747    127.4788     25.3642
   988.1000      7.8825      2.5983      0.0508      3.1348    124.9213     25.2357
   988.2000      7.8825      2.5649      0.0239      5.1584    117.6624     25.0804
   988.3000      7.8265      2.5514      0.0190      5.9784    113.5809     25.0598
   988.4000      7.8265      2.5383      0.1022      6.7684    114.5175     25.0307
   988.5000      7.8810      2.4996      0.0321      9.1122    114.8542     24.9684
   988.6000      7.8810      2.4600     -0.0390     11.5159    112.9869     24.9853
   988.7000      7.8810      2.4527     -0.0253     11.9600    112.8467     24.8789
   988.8000      7.8680      2.4635      0.0136     11.3005    117.2812     24.5351
   988.9000      7.8680      2.4718      0.0191     10.7992    123.0050     24.2224
   989.0000      7.8689      2.4845      0.0900     10.0304    122.1215     24.2725
   989.1000      7.8689      2.5129      0.0740      8.3083    112.3072     24.6127
   989.2000      7.8689      2.5442      0.1901      6.4101    102.1077     25.0628
   989.3000      7.8813      2.5540      0.1565      5.8160     98.8544     25.6615
   989.4000      7.8813      2.5465      0.1719      6.2697    101.1056     26.1264
   989.5000      7.8193      2.5433      0.1914      6.4675    104.2232     26.0704
   989.6000      7.8193      2.5552      0.1699      5.7469    105.1570     25.8436
   989.7000      7.8193      2.5844      0.1582      3.9762    105.0499     25.6306
   989.8000      7.7971      2.6183      0.1665      1.9190    105.6417     25.2430
   989.9000      7.7971      2.6350      0.1764      0.9103    105.5936     24.8729
   990.0000      7.7109      2.6275      0.1571      1.3623    104.7484     24.6840
   990.1000      7.7109      2.6053      0.1141      2.7075    105.5158     24.5101
   990.2000      7.7109      2.5821      0.1320      4.1132    105.4074     24.1662
   990.3000      7.7796      2.5719      0.0493      4.7310    100.9725     23.8171
   990.4000      7.7796      2.5819      0.0820      4.1299     97.1864     23.8363
   990.5000      7.8233      2.6048      0.0444      2.7412     98.3304     24.1381
   990.6000      7.8233      2.6199      0.1422      1.8251    101.4688     24.2867
   990.7000      7.8233      2.6146      0.0521      2.1425    104.2405     24.1999
   990.8000      7.8554      2.6130      0.0683      2.2431    107.5701     24.0092
   990.9000      7.8554      2.6208      0.1893      1.7701    111.8529     23.8125
   991.0000      7.8452      2.6117      0.0939      2.3202    113.6746     23.6754
   991.1000      7.8452      2.5792      0.1523      4.2917    110.6325     23.4450
   991.2000      7.8452      2.5303      0.0524      7.2522    105.5551     23.2038
   991.3000      7.8351      2.4783      0.0545     10.4082     99.8171     23.4125
   991.4000      7.8351      2.4477     -0.0173     12.2579     95.7933     23.8980
   991.5000      7.8123      2.4570      0.0240     11.6988     98.8428     24.1980
   991.6000      7.8123      2.4893      0.0668      9.7391    103.7610     24.3205
   991.7000      7.8123      2.5211      0.0349      7.8096    105.1927     24.1551
   991.8000      7.8472      2.5539      0.0740      5.8217    108.0430     23.2835
   991.9000      7.8472      2.5869      0.1249      3.8254    112.1446     21.7109
   992.0000      7.8552      2.6064      0.1347      2.6410    113.6691     19.9033
   992.1000      7.8552      2.6041      0.1191      2.7813    112.9184     18.3241
   992.2000      7.8552      2.5891      0.1055      3.6929    112.3049     17.1050
   992.3000      7.8184      2.5778      0.1029      4.3740    114.4117   -105.1255
   992.4000      7.8184      2.5720      0.0984      4.7247    117.3722   -107.0970
   992.5000      7.8107      2.5631      0.0645      5.2676    117.0065    -82.5305
   992.6000      7.8107      2.5510      0.0578      5.9982    115.0735    -40.5007
   992.7000      7.8107      2.5412      0.0601      6.5951    114.8310    -12.0755
   992.8000      7.8346      2.5335      0.0255      7.0631    114.2869     -1.4856
   992.9000      7.8346      2.5290      0.0144      7.3322    112.2446      2.9302
   993.0000      7.8385      2.5285      0.0148      7.3636    110.4059      6.5195
   993.1000      7.8385      2.5263      0.0392      7.4940    110.4404     10.3041
   993.2000      7.8385      2.5179      0.0041      8.0077    112.6685     13.7379
   993.3000      7.8502      2.5071     -0.0018      8.6615    114.9176     16.6899
   993.4000      7.8502      2.4949      0.0030      9.3992    115.2149     19.6482
   993.5000      7.8627      2.4759      0.0187     10.5499    115.1763     22.2860
   993.6000      7.8627      2.4616     -0.0045     11.4199    116.4947     23.6960
   993.7000      7.8627      2.4696      0.0183     10.9346    118.4330     23.6390
   993.8000      7.8876      2.4955      0.0693      9.3615    119.8776     22.9793
   993.9000      7.8876      2.5292      0.0999      7.3188    120.4448     22.9223
   994.0000      7.8946      2.5689      0.0937      4.9161    120.2923     23.5455
   994.1000      7.8946      2.6041      0.1452      2.7814    117.4537     24.0612
   994.2000      7.8946      2.6228      0.1132      1.6476    113.6135     24.0567
   994.3000      7.8579      2.6285      0.1132      1.3007    112.9354     23.8894
   994.4000      7.8579      2.6219      0.1526      1.7046    112.9477     23.7927
   994.5000      7.8645      2.6059      0.0960      2.6754    114.1188     23.9964
   994.6000      7.8645      2.6050      0.0686      2.7292    115.9451     24.6958
   994.7000      7.8645      2.6286      0.1226      1.2954    111.5970     25.2090
   994.8000      7.8507      2.6497      0.1328      0.0184    102.9543     24.9202
   994.9000      7.8507      2.6460      0.1187      0.2420     99.1279     24.1444
   995.0000      7.8474      2.6305      0.0203      1.1807    100.5521     23.5454
   995.1000      7.8474      2.6240      0.1263      1.5774    101.6084     23.3702
