~Version Information
VERS.                      2.0: CWLS Log ASCII Standard - VERSION 2.0
WRAP.                       NO: One line per depth step
~Well Information Block
STRT.FT               450.0000: 
STOP.FT              1642.0000: 
STEP.FT                 0.1000: 
NULL.                -999.2500: 
COMP.          Pioneer Natural Resources: COMPANY
WELL.           Buckhorn 12-21: WELL
FLD.           Purgatoire River: FIELD
LOC.           2450' FNL & 608' FWL: LOCATION
PROV.                 Colorado: PROVINCE
CNTY.               Las Animas: COUNTRY
SRVC.                Patterson: SERVICE COMPANY
DATE.          Wed Dec 01 15:08:21 2004: LOG DATE
UWI.           05 071 08129 00: UNIQUE WELL ID
~Curve Information Block
DEPT.FT            0 000 00 00: Depth
NPOR.pu                       : Neutron Porosity
CCL.                          : Casing Collar Locator
GR.GAPI                       : Gamma Ray
~Parameter Information Block
~A  Depth       NPOR        CCL          GR     
# ...
   767.3000     29.9541      0.0000    171.9035
   767.4000     29.9541      0.0000    171.9035
   767.5000     29.4006      0.0000    173.5775
   767.6000     29.4006      0.0000    173.5775
   767.7000     29.4006      0.0000    173.5775
   767.8000     28.8567      0.0000    174.5662
   767.9000     28.8567      0.0000    174.5662
   768.0000     28.4186      0.0000    173.9772
   768.1000     28.4186      0.0000    173.9772
   768.2000     28.4186      0.0000    173.9772
   768.3000     28.0998      0.0000    172.0478
   768.4000     28.0998      0.0000    172.0478
   768.5000     27.8963      0.0000    170.2196
   768.6000     27.8963      0.0000    170.2196
   768.7000     27.8963      0.0000    170.2196
   768.8000     27.8432      0.0000    170.1208
   768.9000     27.8432      0.0000    170.1208
   769.0000     27.9791      0.0000    172.3295
   769.1000     27.9791      0.0000    172.3295
   769.2000     27.9791      0.0000    172.3295
   769.3000     28.2688      0.0000    176.1417
   769.4000     28.2688      0.0000    176.1417
   769.5000     28.5881      0.0000    180.1867
   769.6000     28.5881      0.0000    180.1867
   769.7000     28.5881      0.0000    180.1867
   769.8000     28.7804      0.0000    183.0081
   769.9000     28.7804      0.0000    183.0081
   770.0000     28.7347      0.0000    183.3735
   770.1000     28.7347      0.0000    183.3735
   770.2000     28.7347      0.0000    183.3735
   770.3000     28.4529      0.0000    180.5787
   770.4000     28.4529      0.0000    180.5787
   770.5000     28.0663      0.0000    174.9521
   770.6000     28.0663      0.0000    174.9521
   770.7000     28.0663      0.0000    174.9521
   770.8000     27.7630      0.0000    168.2751
   770.9000     27.7630      0.0000    168.2751
   771.0000     27.6609      0.0000    163.3017
   771.1000     27.6609      0.0000    163.3017
   771.2000     27.6609      0.0000    163.3017
   771.3000     27.7316      0.0000    161.9578
   771.4000     27.7316      0.0000    161.9578
   771.5000     27.8512      0.0000    163.4592
   771.6000     27.8512      0.0000    163.4592
   771.7000     27.8512      0.0000    163.4592
   771.8000     27.9408      0.0000    164.4214
   771.9000     27.9408      0.0000    164.4214
   772.0000     28.0632      0.0000    161.4812
   772.1000     28.0632      0.0000    161.4812
   772.2000     28.0632      0.0000    161.4812
   772.3000     28.3586      0.0000    154.3284
   772.4000     28.3586      0.0000    154.3284
   772.5000     28.8654      0.0000    146.1705
   772.6000     28.8654      0.0000    146.1705
   772.7000     28.8654      0.0000    146.1705
   772.8000     29.4441      0.0000    140.9730
   772.9000     29.4441      0.0000    140.9730
   773.0000     29.9255      0.0000    140.2346
   773.1000     29.9255      0.0000    140.2346
   773.2000     29.9255      0.0000    140.2346
   773.3000     30.2870      0.0000    142.4347
   773.4000     30.2870      0.0000    142.4347
   773.5000     30.5950      0.0000    145.1005
   773.6000     30.5950      0.0000    145.1005
   773.7000     30.5950      0.0000    145.1005
   773.8000     30.8144      0.0000    146.9219
   773.9000     30.8144      0.0000    146.9219
   774.0000     30.8045      0.0000    147.9574
   774.1000     30.8045      0.0000    147.9574
   774.2000     30.8045      0.0000    147.9574
   774.3000     30.5208      0.0000    148.3735
   774.4000     30.5208      0.0000    148.3735
   774.5000     30.1262      0.0000    147.7115
   774.6000     30.1262      0.0000    147.7115
   774.7000     30.1262      0.0000    147.7115
   774.8000     29.8624      0.0000    145.6606
   774.9000     29.8624      0.0000    145.6606
   775.0000     29.8707      0.0000    143.0809
   775.1000     29.8707      0.0000    143.0809
   775.2000     29.8707      0.0000    143.0809
   775.3000     30.1556      0.0000    141.6523
   775.4000     30.1556      0.0000    141.6523
   775.5000     30.6488      0.0000    142.5876
   775.6000     30.6488      0.0000    142.5876
   775.7000     30.6488      0.0000    142.5876
   775.8000     31.2402      0.0000    145.8992
   775.9000     31.2402      0.0000    145.8992
   776.0000     31.7753      0.0000    150.5279
   776.1000     31.7753      0.0000    150.5279
   776.2000     31.7753      0.0000    150.5279
   776.3000     32.0992      0.0000    154.7704
   776.4000     32.0992      0.0000    154.7704
   776.5000     32.1478      0.0000    156.9849
   776.6000     32.1478      0.0000    156.9849
   776.7000     32.1478      0.0000    156.9849
   776.8000     31.9780      0.0000    156.5901
   776.9000     31.9780      0.0000    156.5901
   777.0000     31.6722      0.0000    154.4742
   777.1000     31.6722      0.0000    154.4742
   777.2000     31.6722      0.0000    154.4742
   777.3000     31.2278      0.0000    152.0514
   777.4000     31.2278      0.0000    152.0514
   777.5000     30.6083      0.0000    149.8288
   777.6000     30.6083      0.0000    149.8288
   777.7000     30.6083      0.0000    149.8288
   777.8000     29.9018      0.0000    147.1149
   777.9000     29.9018      0.0000    147.1149
   778.0000     29.3262      0.0000    143.0269
   778.1000     29.3262      0.0000    143.0269
   778.2000     29.3262      0.0000    143.0269
   778.3000     29.0356      0.0000    137.5833
   778.4000     29.0356      0.0000    137.5833
   778.5000     28.9867      0.0000    131.9622
   778.6000     28.9867      0.0000    131.9622
   778.7000     28.9867      0.0000    131.9622
   778.8000     29.0228      0.0000    127.8118
   778.9000     29.0228      0.0000    127.8118
   779.0000     29.0356      0.0000    126.1944
   779.1000     29.0356      0.0000    126.1944
   779.2000     29.0356      0.0000    126.1944
   779.3000     29.0213      0.0000    127.0861
   779.4000     29.0213      0.0000    127.0861
   779.5000     29.0117      0.0000    129.7639
   779.6000     29.0117      0.0000    129.7639
   779.7000     29.0117      0.0000    129.7639
   779.8000     28.9847      0.0000    133.4681
   779.9000     28.9847      0.0000    133.4681
   780.0000     28.8490      0.0000    137.7091
   780.1000     28.8490      0.0000    137.7091
   780.2000     28.8490      0.0000    137.7091
   780.3000     28.5100      0.0000    142.0850
   780.4000     28.5100      0.0000    142.0850
   780.5000     27.9497      0.0000    145.7335
   780.6000     27.9497      0.0000    145.7335
   780.7000     27.9497      0.0000    145.7335
   780.8000     27.2683      0.0000    147.0959
   780.9000     27.2683      0.0000    147.0959
   781.0000     26.6648      0.0000    144.9406
   781.1000     26.6648      0.0000    144.9406
   781.2000     26.6648      0.0000    144.9406
   781.3000     26.3437      0.0000    140.0061
   781.4000     26.3437      0.0000    140.0061
   781.5000     26.3909      0.0000    134.9127
   781.6000     26.3909      0.0000    134.9127
   781.7000     26.3909      0.0000    134.9127
   781.8000     26.7074     -2.0000    131.7980
   781.9000     26.7074      2.0000    131.7980
   782.0000     27.0559      0.0000    130.4906
   782.1000     27.0559      0.0000    130.4906
   782.2000     27.0559      0.0000    130.4906
   782.3000     27.2020      0.0000    129.2457
   782.4000     27.2020      0.0000    129.2457
   782.5000     27.0696      0.0000    126.6498
   782.6000     27.0696      0.0000    126.6498
   782.7000     27.0696      0.0000    126.6498
   782.8000     26.7828      0.0000    122.6585
   782.9000     26.7828      0.0000    122.6585
   783.0000     26.5478      0.0000    118.3655
   783.1000     26.5478      0.0000    118.3655
   783.2000     26.5478      0.0000    118.3655
   783.3000     26.4948      0.0000    115.0482
   783.4000     26.4948      0.0000    115.0482
   783.5000     26.6308      0.0000    113.3197
   783.6000     26.6308      0.0000    113.3197
   783.7000     26.6308      0.0000    113.3197
   783.8000     26.9066      0.0000    113.1578
   783.9000     26.9066      0.0000    113.1578
