~Version Information
VERS.                      2.0: CWLS Log ASCII Standard - VERSION 2.0
WRAP.                       NO: One line per depth step
~Well Information Block
STRT.FT               523.0000: 
STOP.FT              1709.0000: 
STEP.FT                 0.1000: 
NULL.                -999.2500: 
COMP.          Evergreen Operating Corporation: COMPANY
WELL.            Rimrock 14-29: WELL
FLD.           Purgatorie River: FIELD
LOC.           945' FSL & 604' FWL: LOCATION
PROV.                 Colorado: PROVINCE
CNTY.               Las Animas: COUNTRY
SRVC.                         : SERVICE COMPANY
DATE.          Tue Sep 21 04:15:40 2004: LOG DATE
UWI.           05 071 08136 00: UNIQUE WELL ID
~Curve Information Block
DEPT.FT            0 000 00 00: Depth
DCAL.in                       : CDL Caliper
RHOB.g/cc                     : CDL Bulk Density
RHOC.g/cc                     : CDL Density Correction
DPOR.pu                       : CDL Density Porosity
GR.GAPI                       : Gamma Ray
NPOR.pu                       : Neutron Porosity
~Parameter Information Block
~A  Depth       DCAL        RHOB        RHOC        DPOR         GR         NPOR    
# ...
   839.8000      7.9895      2.4106      0.0792     14.5097    144.2303     23.6081
   839.9000      7.9895      2.4134      0.0485     14.3420    141.5153     24.2081
   840.0000      7.9822      2.4244      0.0776     13.6709    139.4877     24.9298
   840.1000      7.9822      2.4375      0.1553     12.8818    138.5950     25.2723
   840.2000      7.9822      2.4366      0.1538     12.9349    136.8207     25.0144
   840.3000      7.9914      2.4224      0.1238     13.7930    132.1369     24.8888
   840.4000      7.9914      2.4141      0.1141     14.2972    125.2702     25.5035
   840.5000      7.9834      2.4279      0.1024     13.4609    120.0606     26.3531
   840.6000      7.9834      2.4639      0.1373     11.2766    120.8587     26.7264
   840.7000      7.9834      2.5028      0.1685      8.9235    128.4061     26.5461
   840.8000      7.9608      2.5231      0.1615      7.6898    136.4267     26.1641
   840.9000      7.9608      2.5269      0.1431      7.4580    138.9934     25.9685
   841.0000      7.9542      2.5256      0.1748      7.5393    135.0021     26.1520
   841.1000      7.9542      2.5195      0.1501      7.9069    125.7344     26.3783
   841.2000      7.9542      2.5109      0.1004      8.4296    117.8509     26.0944
   841.3000      7.9585      2.5048      0.1077      8.7986    121.0388     25.5225
   841.4000      7.9585      2.4961      0.1200      9.3283    132.8873     25.3428
   841.5000      7.9538      2.4830      0.0730     10.1233    140.6857     25.6135
   841.6000      7.9538      2.4758      0.0574     10.5567    140.1826     25.7263
   841.7000      7.9538      2.4788      0.0860     10.3776    136.6181     25.1197
   841.8000      7.9500      2.4817      0.0963     10.1980    135.9936     24.1305
   841.9000      7.9500      2.4723      0.0948     10.7674    140.2717     23.5921
   842.0000      7.9408      2.4535      0.0363     11.9079    145.8039     23.7360
   842.1000      7.9408      2.4380      0.0329     12.8507    150.3328     23.9264
   842.2000      7.9408      2.4315      0.0499     13.2426    153.8931     23.4971
   842.3000      7.9606      2.4314      0.0592     13.2483    155.3901     22.6590
   842.4000      7.9606      2.4230      0.1213     13.7569    152.7633     22.0759
   842.5000      7.9723      2.3930      0.0962     15.5782    148.7423     21.8614
   842.6000      7.9723      2.3490      0.0974     18.2431    146.0788     21.8713
   842.7000      7.9723      2.3005      0.0915     21.1809    141.2923     22.1975
   842.8000      7.9941      2.2463      0.0590     24.4662    137.7214     22.6350
   842.9000      7.9941      2.1913      0.0425     27.7975    139.5897     22.7152
   843.0000      8.0526      2.1478     -0.0056     30.4382    141.0242     22.4290
   843.1000      8.0526      2.1261     -0.0048     31.7501    138.2661     22.1326
   843.2000      8.0526      2.1294     -0.0066     31.5540    136.1340     22.2649
   843.3000      8.0884      2.1480      0.0376     30.4220    135.6446     22.7196
   843.4000      8.0884      2.1667      0.0436     29.2898    133.0228     22.5909
   843.5000      8.1092      2.1720      0.0953     28.9725    129.6806     21.5887
   843.6000      8.1092      2.1519      0.1109     30.1870    129.0169     20.4760
   843.7000      8.1092      2.0996      0.0885     33.3585    128.5141     19.5736
   843.8000      8.1384      2.0070      0.0432     38.9709    122.0316     18.5206
   843.9000      8.1384      1.8651     -0.0386     47.5685    111.2872     17.2090
   844.0000      8.1445      1.6909     -0.1170     58.1250    104.6276     15.7121
   844.1000      8.1445      1.5248     -0.1493     68.1910    103.7828     14.0290
   844.2000      8.1445      1.3896     -0.1834     76.3871    101.8801     12.5167
   844.3000      8.1492      1.2921     -0.1682     82.2984     95.6214     11.5586
   844.4000      8.1492      1.2577     -0.1325     84.3840     89.5612     11.1019
   844.5000      8.1404      1.3174     -0.0712     80.7630     85.6490     10.6022
   844.6000      8.1404      1.4534      0.1495     72.5222     82.4357      9.7901
   844.7000      8.1404      1.5908      0.3559     64.1942     82.4014      9.0847
   844.8000      8.2062      1.6654      0.3839     59.6713     85.9136      8.8308
   844.9000      8.2062      1.6712      0.3869     59.3184     88.6082      8.9389
   845.0000      8.2816      1.6429      0.2901     61.0357     89.6172      9.3149
   845.1000      8.2816      1.6177      0.2631     62.5624     90.2376     10.1740
   845.2000      8.2816      1.6104      0.1875     63.0045     87.4413     11.6305
   845.3000      8.1324      1.6230      0.0468     62.2441     81.8878     13.4685
   845.4000      8.1324      1.6584      0.0403     60.0976     81.0139     15.3867
   845.5000      8.0901      1.7174      0.0530     56.5183     85.0362     16.9244
   845.6000      8.0901      1.7930      0.1920     51.9416     87.7718     17.6955
   845.7000      8.0901      1.8693      0.2757     47.3169     88.0830     17.8211
   845.8000      8.0971      1.9340      0.2951     43.3963     88.8924     17.7799
   845.9000      8.0971      1.9760      0.3290     40.8481     92.8871     17.9253
   846.0000      8.0601      1.9811      0.2599     40.5424     97.5282     18.2081
   846.1000      8.0601      1.9467      0.2107     42.6241     96.7794     18.5768
   846.2000      8.0601      1.8956      0.0270     45.7224     90.9269     19.2935
   846.3000      8.0095      1.8623      0.0131     47.7418     86.3442     20.2868
   846.4000      8.0095      1.8559      0.0275     48.1276     87.4753     20.9869
   846.5000      8.0027      1.8653      0.0263     47.5604     93.7456     21.3622
   846.6000      8.0027      1.8935      0.0175     45.8461    102.9617     21.8454
   846.7000      8.0027      1.9496      0.0827     42.4483    113.6781     22.3876
   846.8000      7.9879      2.0206      0.1939     38.1482    121.9895     22.6087
   846.9000      7.9879      2.0879      0.1877     34.0656    124.6963     22.6209
   847.0000      7.9858      2.1504      0.2193     30.2805    123.6920     23.0377
   847.1000      7.9858      2.2019      0.2415     27.1553    123.0791     23.7294
   847.2000      7.9858      2.2292      0.1723     25.5010    125.7236     24.0114
   847.3000      7.9840      2.2390      0.1364     24.9121    132.5059     23.9451
   847.4000      7.9840      2.2469      0.1531     24.4332    141.9458     23.8560
   847.5000      7.9813      2.2553      0.1590     23.9217    147.9393     23.8538
   847.6000      7.9813      2.2700      0.0799     23.0312    146.5379     24.0124
   847.7000      7.9813      2.3074      0.0832     20.7642    142.2953     24.1960
   847.8000      8.0406      2.3583      0.1517     17.6812    141.3278     24.1431
   847.9000      8.0406      2.3932      0.1441     15.5618    142.7771     24.0483
   848.0000      8.0617      2.4064      0.1343     14.7658    144.7228     23.9786
   848.1000      8.0617      2.4069      0.1670     14.7356    148.0287     23.2885
   848.2000      8.0617      2.3946      0.1272     15.4809    148.8134     21.9209
   848.3000      8.0515      2.3627      0.1256     17.4133    145.4324     20.5062
   848.4000      8.0515      2.3035      0.0912     20.9972    145.6911     19.3075
   848.5000      8.0485      2.2165      0.0311     26.2729    151.9980     18.4852
   848.6000      8.0485      2.1118      0.0050     32.6204    156.9281     17.8899
   848.7000      8.0485      2.0032     -0.0215     39.1981    157.7473     17.1467
   848.8000      8.0660      1.9035     -0.0260     45.2444    158.3465     16.1882
   848.9000      8.0660      1.8244      0.0175     50.0382    159.7346     15.2362
   849.0000      8.0733      1.7738      0.0147     53.1022    158.9688     14.6880
   849.1000      8.0733      1.7473      0.0680     54.7120    155.2044     14.4612
   849.2000      8.0733      1.7252      0.1178     56.0496    155.1729     13.9312
   849.3000      8.0709      1.6929      0.1556     58.0036    163.8055     13.0562
