~Version Information
VERS.                      2.0: CWLS Log ASCII Standard - VERSION 2.0
WRAP.                       NO: One line per depth step
~Well Information Block
STRT.FT               650.0000: 
STOP.FT              2087.0000: 
STEP.FT                 0.2500: 
NULL.                -999.2500: 
COMP.          Pioneer Natural Resources: COMPANY
WELL.           Galloway 32-13: WELL
FLD.           Purgatoire River: FIELD
LOC.           1809' FNL & 2004' FEL: LOCATION
PROV.                 Colorado: PROVINCE
CNTY.               Las Animas: COUNTRY
SRVC.                Patterson: SERVICE COMPANY
DATE.          Fri Jul 08 15:50:04 2005: LOG DATE
UWI.           05 071 08423 00: UNIQUE WELL ID
~Curve Information Block
DEPT.FT            0 000 00 00: Depth
SN.Ohm-m                      : IEL Short Normal
SP.mV                         : IEL Spontaneous Potential
DIR.Ohm-m                     : IEL Induction Resistivity
GR.GAPI                       : Gamma Ray
~Parameter Information Block
~A  Depth        SN          SP         DIR          GR     
# ...
  1688.5000     14.6262    -17.4999     14.6030    146.2208
  1688.7500     14.5099    -17.4367     14.1443    146.8795
  1689.0000     14.3774    -17.3580     13.7138    145.7992
  1689.2500     14.0955    -17.2755     13.3250    144.5272
  1689.5000     13.6641    -17.2167     12.9887    143.6787
  1689.7500     13.2582    -17.2088     12.7090    144.5059
  1690.0000     13.1108    -17.2549     12.4810    147.1915
  1690.2500     13.2488    -17.3271     12.2931    148.9483
  1690.5000     13.4372    -17.3867     12.1332    150.5206
  1690.7500     13.4781    -17.4134     11.9977    150.8521
  1691.0000     13.4178    -17.4161     11.8958    150.1917
  1691.2500     13.3933    -17.4146     11.8465    148.6281
  1691.5000     13.4514    -17.4120     11.8694    144.3507
  1691.7500     13.5727    -17.3788     11.9757    140.7670
  1692.0000     13.7357    -17.2573     12.1648    136.0983
  1692.2500     13.9241    -16.9801     12.4263    134.3039
  1692.5000     14.1177    -16.4932     12.7437    133.7928
  1692.7500     14.3129    -15.7763     13.0957    134.4163
  1693.0000     14.5521    -14.8491     13.4556    135.6317
  1693.2500     14.8480    -13.7584     13.7914    135.9037
  1693.5000     15.1036    -12.5524     14.0698    134.1562
  1693.7500     15.2213    -11.2619     14.2661    130.9873
  1694.0000     15.2468     -9.9025     14.3761    123.4857
  1694.2500     15.2773     -8.4903     14.4206    117.5596
  1694.5000     15.2821     -7.0507     14.4380    109.2330
  1694.7500     15.1608     -5.6141     14.4674    104.9541
  1695.0000     14.8737     -4.2143     14.5322    101.2585
  1695.2500     14.4654     -2.8941     14.6290    100.6090
  1695.5000     14.1201     -1.6945     14.7256    101.5673
  1695.7500     14.0963     -0.6220     14.7707    102.7745
  1696.0000     14.4891      0.3632     14.7132    104.2987
  1696.2500     15.1527      1.3028     14.5249    104.6645
  1696.5000     15.8172      2.1875     14.2112    103.8564
  1696.7500     16.2285      2.9626     13.8045    102.5139
  1697.0000     16.2813      3.5825     13.3487    100.3629
  1697.2500     16.0542      4.0475     12.8853     99.8604
  1697.5000     15.6836      4.3943     12.4488    101.7999
  1697.7500     15.2525      4.6682     12.0648    104.8525
  1698.0000     14.7818      4.9069     11.7492    110.9693
  1698.2500     14.2820      5.1375     11.5056    115.2452
  1698.5000     13.8082      5.3794     11.3262    120.4334
  1698.7500     13.4387      5.6447     11.1953    122.2477
  1699.0000     13.2213      5.9367     11.0960    121.9312
  1699.2500     13.1603      6.2489     11.0171    120.1105
  1699.5000     13.2245      6.5679     10.9563    116.5712
  1699.7500     13.3488      6.8750     10.9173    114.6354
  1700.0000     13.4387      7.1484     10.9047    113.1555
  1700.2500     13.4201      7.3716     10.9194    112.9783
  1700.5000     13.2913      7.5425     10.9570    113.3644
  1700.7500     13.0650      7.6737     11.0082    113.8249
  1701.0000     12.7152      7.7798     11.0600    114.2932
  1701.2500     12.2523      7.8644     11.0997    114.0285
  1701.5000     11.8078      7.9173     11.1231    112.6308
  1701.7500     11.6107      7.9230     11.1395    111.5560
  1702.0000     11.8408      7.8737     11.1700    110.7293
  1702.2500     12.4805      7.7772     11.2375    110.7563
  1702.5000     13.3251      7.6549     11.3558    111.2383
  1702.7500     14.1431      7.5285     11.5210    111.8670
  1703.0000     14.7936      7.4109     11.7093    113.5578
  1703.2500     15.2173      7.3074     11.8836    114.8838
  1703.5000     15.4027      7.2225     12.0070    115.7687
  1703.7500     15.3647      7.1607     12.0591    115.0036
  1704.0000     15.1576      7.1211     12.0419    112.2760
  1704.2500     14.9001      7.0943     11.9742    110.3864
  1704.5000     14.7151      7.0678     11.8815    108.9527
  1704.7500     14.6355      7.0398     11.7896    109.1120
  1705.0000     14.5867      7.0275     11.7217    110.2300
  1705.2500     14.4587      7.0629     11.6938    110.9166
  1705.5000     14.2481      7.1804     11.7074    111.1733
  1705.7500     14.0858      7.4034     11.7459    110.7965
  1706.0000     14.0804      7.7365     11.7781    109.8124
  1706.2500     14.1867      8.1591     11.7720    109.1799
  1706.5000     14.2368      8.6246     11.7095    108.4167
  1706.7500     14.0551      9.0709     11.5933    107.7180
  1707.0000     13.5507      9.4456     11.4414    105.5977
  1707.2500     12.7899      9.7310     11.2759    103.5176
  1707.5000     11.9901      9.9449     11.1142    100.9555
  1707.7500     11.3998     10.1119     10.9666    100.8279
  1708.0000     11.1631     10.2285     10.8370    103.7881
  1708.2500     11.2637     10.2578     10.7232    107.1915
  1708.5000     11.5749     10.1564     10.6170    112.5194
  1708.7500     11.9312      9.9000     10.5049    115.5508
  1709.0000     12.2069      9.4839     10.3722    119.2828
  1709.2500     12.3821      8.9124     10.2095    121.2958
  1709.5000     12.4891      8.1993     10.0198    123.2566
  1709.7500     12.5369      7.3798      9.8182    123.7702
  1710.0000     12.5330      6.5162      9.6258    124.1781
  1710.2500     12.5120      5.6900      9.4597    124.9692
  1710.5000     12.4818      4.9800      9.3266    127.3853
  1710.7500     12.3881      4.4347      9.2232    129.3130
  1711.0000     12.2154      4.0571      9.1414    131.5019
  1711.2500     12.0348      3.8077      9.0737    132.3531
  1711.5000     11.8822      3.6121      9.0153    133.5918
  1711.7500     11.7243      3.3721      8.9642    134.8648
  1712.0000     11.5622      3.0053      8.9198    136.9580
  1712.2500     11.4276      2.5247      8.8834    137.5771
  1712.5000     11.2953      2.0853      8.8573    136.1320
  1712.7500     11.1141      1.9096      8.8446    133.5950
  1713.0000     10.9085      2.1233      8.8491    128.4818
  1713.2500     10.7564      2.6688      8.8729    125.0047
  1713.5000     10.6612      3.3908      8.9153    120.7432
  1713.7500     10.5342      4.1929      8.9726    118.7402
  1714.0000     10.3218      5.0989      9.0397    116.4517
  1714.2500     10.1058      6.1931      9.1132    114.7154
  1714.5000     10.0137      7.5277      9.1927    110.8715
  1714.7500     10.0476      9.0683      9.2815    107.6675
  1715.0000     10.0926     10.6910      9.3864    103.6392
  1715.2500     10.0476     12.2210      9.5165    102.6748
  1715.5000      9.9175     13.4912      9.6803    104.6701
  1715.7500      9.8567     14.3976      9.8816    107.8223
  1716.0000     10.1273     14.9280     10.1166    113.4795
  1716.2500     10.9032     15.1492     10.3728    116.7943
  1716.5000     12.0504     15.1702     10.6296    119.8796
  1716.7500     13.2051     15.1062     10.8605    120.4564
  1717.0000     14.1025     15.0561     11.0386    119.4263
  1717.2500     14.7105     15.0836     11.1457    117.9908
  1717.5000     15.0776     15.2051     11.1819    115.9793
  1717.7500     15.2097     15.3960     11.1690    115.4437
  1718.0000     15.1436     15.6134     11.1437    116.4263
  1718.2500     15.0230     15.8182     11.1440    118.1687
  1718.5000     14.9976     15.9884     11.1971    122.0003
  1718.7500     15.0704     16.1234     11.3136    125.2533
  1719.0000     15.1302     16.2402     11.4872    131.2094
  1719.2500     15.1085     16.3615     11.7006    135.8622
  1719.5000     15.0079     16.4993     11.9333    143.1817
  1719.7500     14.8414     16.6457     12.1720    147.3745
  1720.0000     14.6631     16.7778     12.4174    150.8428
  1720.2500     14.5988     16.8747     12.6834    150.7312
  1720.5000     14.7489     16.9332     12.9880    147.1462
  1720.7500     15.1165     16.9642     13.3446    142.9498
  1721.0000     15.6580     16.9735     13.7602    134.9942
  1721.2500     16.3291     16.9462     14.2387    129.2963
  1721.5000     17.0647     16.8485     14.7834    120.9542
  1721.7500     17.7953     16.6482     15.3963    115.3517
