~Version Information
 VERS.                      2.0: CWLS Log ASCII Standard - VERSION 2.0
 WRAP.                       NO: One line per depth step
 ~Well Information Block
 STRT.FT               887.5000: 
 STOP.FT              2605.5000: 
 STEP.FT                 0.2500: 
 NULL.                -999.2500: 
 COMP.          Petrogulf Corporation: COMPANY
 WELL.               YWAM 7-23V: WELL
 FLD.           Purgatorie River: FIELD
 LOC.           230' FSL & 225' FWL: LOCATION
 CNTY.               Las Animas: COUNTY
 SRVC.                         : SERVICE COMPANY
 DATE.          Sat Oct 30 08:34:45 2004: LOG DATE
 UWI.           05 071 08227 00: UNIQUE WELL ID
 STAT.                 Colorado: STATE
 PROV.                         :Province
 ~Curve Information Block
 DEPT.FT            0 000 00 00: Depth
 SP.mV                         : DIL Spontaneous Potential
 RILD.Ohm-m                    : DIL Deep Resistivity
 RILM.Ohm-m                    : DIL Medium Resistivity
 RLL3.Ohm-m                    : DIL Shallow Resistivity
 GR.GAPI                       : Gamma Ray
 ~Parameter Information Block
 ~A  Depth        SP         RILD        RILM        RLL3         GR     
# ...
  1587.5000   -149.6121      9.0052      9.2380      9.3721    154.4521
  1587.7500   -149.2841      9.0796      9.3614      9.5497    156.2239
  1588.0000   -149.0062      9.1706      9.5510     10.0855    156.4991
  1588.2500   -148.6935      9.2807      9.8098     11.0351    155.4197
  1588.5000   -148.2896      9.4135     10.1386     12.4209    151.8622
  1588.7500   -147.7847      9.5732     10.5353     14.2198    148.0147
  1589.0000   -147.2127      9.7640     10.9945     16.3505    140.3569
  1589.2500   -146.6383      9.9902     11.5065     18.6684    134.6415
  1589.5000   -146.1272     10.2557     12.0578     20.9697    126.4977
  1589.7500   -145.7268     10.5633     12.6309     23.0151    122.0226
  1590.0000   -145.4543     10.9142     13.2069     24.5679    117.4514
  1590.2500   -145.2963     11.3076     13.7680     25.4445    115.9088
  1590.5000   -145.2170     11.7401     14.3012     25.5585    115.6054
  1590.7500   -145.1784     12.2050     14.8017     24.9507    116.6535
  1591.0000   -145.1550     12.6928     15.2741     23.7959    120.3050
  1591.2500   -145.1452     13.1913     15.7324     22.3906    124.2598
  1591.5000   -145.1724     13.6864     16.1975     21.1263    132.0631
  1591.7500   -145.2727     14.1639     16.6935     20.4564    137.7227
  1592.0000   -145.4837     14.6102     17.2435     20.8570    144.8164
  1592.2500   -145.8310     15.0131     17.8656     22.7800    147.2028
  1592.5000   -146.3133     15.3620     18.5669     26.5886    145.0970
  1592.7500   -146.9068     15.6469     19.3388     32.4768    139.3364
  1593.0000   -147.5707     15.8578     20.1493     40.3814    125.3881
  1593.2500   -148.2543     15.9841     20.9372     49.9102    114.4543
  1593.5000   -148.9106     16.0151     21.6100     60.3137     99.3046
  1593.7500   -149.5066     15.9424     22.0520     70.5301     91.5042
  1594.0000   -150.0250     15.7613     22.1480     79.3144     84.0761
  1594.2500   -150.4719     15.4739     21.8201     85.4425     81.9820
  1594.5000   -150.8716     15.0901     21.0609     87.9516     83.4530
  1594.7500   -151.2564     14.6268     19.9417     86.3593     87.8525
  1595.0000   -151.6574     14.1061     18.5898     80.7952     99.2251
  1595.2500   -152.0943     13.5519     17.1468     71.9944    108.7914
  1595.5000   -152.5687     12.9871     15.7325     61.1424    123.1346
  1595.7500   -153.0671     12.4315     14.4287     49.6115    131.2311
  1596.0000   -153.5643     11.9004     13.2785     38.6686    139.9790
  1596.2500   -154.0286     11.4050     12.2959     29.2449    143.6500
  1596.5000   -154.4274     10.9526     11.4764     21.8286    147.2651
  1596.7500   -154.7188     10.5476     10.8056     16.4907    149.4989
  1597.0000   -154.8604     10.1920     10.2647     13.0016    153.7552
  1597.2500   -154.8094      9.8862      9.8346     10.9794    157.0605
  1597.5000   -154.5365      9.6295      9.4971     10.0132    161.3468
  1597.7500   -154.0445      9.4198      9.2365      9.7376    162.8292
  1598.0000   -153.3726      9.2543      9.0392      9.8604    162.2117
  1598.2500   -152.5988      9.1296      8.8946     10.1620    160.1492
  1598.5000   -151.8270      9.0414      8.7942     10.4842    155.8179
  1598.7500   -151.1663      8.9849      8.7317     10.7216    152.8951
  1599.0000   -150.7067      8.9548      8.7019     10.8166    149.4211
  1599.2500   -150.5070      8.9452      8.7008     10.7540    148.0574
  1599.5000   -150.5834      8.9502      8.7244     10.5541    147.9532
  1599.7500   -150.9021      8.9638      8.7683     10.2638    149.3235
  1600.0000   -151.3879      8.9805      8.8275      9.9440    152.8786
  1600.2500   -151.9214      8.9959      8.8967      9.6550    155.3660
  1600.5000   -152.3552      9.0068      8.9698      9.4435    158.0173
  1600.7500   -152.5370      9.0118      9.0407      9.3331    158.9965
  1601.0000   -152.3393      9.0110      9.1034      9.3211    160.1224
  1601.2500   -151.6931      9.0055      9.1528      9.3847    161.1987
  1601.5000   -150.6192      8.9971      9.1847      9.4919    163.4788
  1601.7500   -149.2308      8.9873      9.1960      9.6139    164.9027
  1602.0000   -147.7097      8.9770      9.1859      9.7321    165.4667
  1602.2500   -146.2648      8.9662      9.1550      9.8375    164.3098
  1602.5000   -145.0729      8.9542      9.1062      9.9243    160.7264
  1602.7500   -144.2355      8.9399      9.0441      9.9831    157.9802
  1603.0000   -143.7627      8.9223      8.9748      9.9993    155.0516
  1603.2500   -143.5822      8.9007      8.9046      9.9568    154.4484
  1603.5000   -143.5775      8.8748      8.8395      9.8463    154.8907
  1603.7500   -143.6295      8.8449      8.7845      9.6698    154.9997
  1604.0000   -143.6456      8.8120      8.7433      9.4419    153.6837
  1604.2500   -143.5678      8.7770      8.7180      9.1858    152.1662
  1604.5000   -143.3607      8.7419      8.7098      8.9287    150.5034
  1604.7500   -142.9975      8.7089      8.7191      8.6993    150.3483
  1605.0000   -142.4541      8.6811      8.7458      8.5275    151.1265
  1605.2500   -141.7093      8.6622      8.7902      8.4421    151.6744
  1605.5000   -140.7699      8.6565      8.8524      8.4661    151.7837
  1605.7500   -139.6795      8.6684      8.9334      8.6095    151.3143
  1606.0000   -138.5245      8.7024      9.0340      8.8623    149.9323
  1606.2500   -137.4196      8.7622      9.1554      9.1950    148.6296
  1606.5000   -136.4791      8.8512      9.2987      9.5661    146.3273
  1606.7500   -135.7903      8.9719      9.4650      9.9355    144.8064
  1607.0000   -135.3908      9.1257      9.6548     10.2779    143.0731
  1607.2500   -135.2608      9.3133      9.8683     10.5900    142.6096
  1607.5000   -135.3363      9.5343     10.1049     10.8898    143.1396
  1607.7500   -135.5320      9.7874     10.3635     11.2088    143.8859
  1608.0000   -135.7701     10.0704     10.6425     11.5797    144.2797
  1608.2500   -136.0018     10.3812     10.9405     12.0244    143.6454
  1608.5000   -136.2199     10.7179     11.2569     12.5448    141.8292
  1608.7500   -136.4565     11.0793     11.5926     13.1194    140.5204
  1609.0000   -136.7646     11.4660     11.9509     13.7080    138.6208
  1609.2500   -137.1908     11.8800     12.3386     14.2645    137.2430
  1609.5000   -137.7528     12.3245     12.7658     14.7582    134.9006
  1609.7500   -138.4198     12.8038     13.2464     15.1987    133.3053
  1610.0000   -139.1188     13.3209     13.7969     15.6574    131.2074
  1610.2500   -139.7549     13.8778     14.4355     16.2831    130.0680
  1610.5000   -140.2369     14.4729     15.1803     17.3046    128.4749
  1610.7500   -140.5061     15.1020     16.0459     19.0174    127.1460
  1611.0000   -140.5544     15.7564     17.0410     21.7453    123.9606
  1611.2500   -140.4170     16.4248     18.1637     25.7753    120.5740
  1611.5000   -140.1607     17.0923     19.3974     31.2622    113.3382
  1611.7500   -139.8646     17.7425     20.7073     38.1218    107.4740
  1612.0000   -139.6015     18.3561     22.0379     45.9502     98.3509
  1612.2500   -139.4364     18.9117     23.3144     54.0168     92.6045
  1612.5000   -139.4275     19.3857     24.4487     61.3641     84.6962
  1612.7500   -139.6267     19.7527     25.3491     67.0056     79.7561
  1613.0000   -140.0725     19.9893     25.9341     70.1631     72.7534
  1613.2500   -140.7765     20.0772     26.1476     70.4586     68.6471
  1613.5000   -141.7074     20.0083     25.9712     67.9863     64.3540
  1613.7500   -142.7798     19.7880     25.4312     63.2447     63.3534
  1614.0000   -143.8654     19.4344     24.5922     56.9705     65.4183
  1614.2500   -144.8149     18.9760     23.5453     49.9483     69.4966
  1614.5000   -145.4928     18.4454     22.3872     42.8658     79.7385
  1614.7500   -145.8050     17.8749     21.2038     36.2419     88.6174
  1615.0000   -145.7078     17.2925     20.0606     30.4176    102.3394
  1615.2500   -145.2082     16.7197     18.9992     25.5794    110.0646
