~Version Information
VERS.                      2.0: CWLS Log ASCII Standard - VERSION 2.0
WRAP.                       NO: One line per depth step
~Well Information Block
STRT.FT               745.0000: 
STOP.FT              2945.7500: 
STEP.FT                 0.2500: 
NULL.                -999.2500: 
COMP.          Pioneer Natural Resources: COMPANY
WELL.          Old Yeller 31-32: WELL
FLD.           Purgatoire River: FIELD
LOC.           1832' FEL & 793' FNL--: LOCATION
STAT.                 Colorado: State
CNTY.               Las Animas: COUNTY
CTRY. USA : Country
SECT. 32 : Section
TOWN. 32S : Township
RANG. 67W : Range
SRVC.                Patterson: SERVICE COMPANY
DATE.          Sun Aug 28 20:20:00 2005: LOG DATE
API.           05 071 08356 00: UNIQUE WELL ID
~Curve Information Block
DEPT.FT            0 000 00 00: Depth
SN.Ohm-m                      : IEL Short Normal
SP.mV                         : IEL Spontaneous Potential
DIR.Ohm-m                     : IEL Induction Resistivity
GR.GAPI                       : Gamma Ray
~Parameter Information Block
~A  Depth        SN          SP         DIR          GR     
# ...
  1180.5000     42.5129     60.9855     37.3531     88.2171
  1180.7500     42.4277     60.9438     37.3510     91.1357
  1181.0000     42.2327     60.8818     37.2444     91.9460
  1181.2500     41.9498     60.7868     37.0680     90.2130
  1181.5000     41.6338     60.6569     36.8658     85.1261
  1181.7500     41.3509     60.5016     36.6577     80.8318
  1182.0000     41.1588     60.3392     36.4317     74.7456
  1182.2500     41.0942     60.1921     36.1731     72.0019
  1182.5000     41.1668     60.0804     35.9032     70.8860
  1182.7500     41.3591     60.0152     35.6885     71.8712
  1183.0000     41.6306     59.9939     35.6042     74.4012
  1183.2500     41.9286     59.9993     35.6868     75.9120
  1183.5000     42.2099     60.0034     35.9138     77.1723
  1183.7500     42.4606     59.9739     36.2241     77.1827
  1184.0000     42.6964     59.8833     36.5587     75.6357
  1184.2500     42.9398     59.7166     36.8884     73.4325
  1184.5000     43.1986     59.4756     37.2127     68.7100
  1184.7500     43.4664     59.1796     37.5412     65.1957
  1185.0000     43.7424     58.8619     37.8787     60.7209
  1185.2500     44.0385     58.5643     38.2227     59.0335
  1185.5000     44.3637     58.3298     38.5654     59.0952
  1185.7500     44.7019     58.1955     38.8931     60.5455
  1186.0000     45.0146     58.1854     39.1851     63.3560
  1186.2500     45.2674     58.3055     39.4158     64.8629
  1186.5000     45.4546     58.5407     39.5629     66.1582
  1186.7500     45.5989     58.8554     39.6134     66.5130
  1187.0000     45.7324     59.1986     39.5688     66.4437
  1187.2500     45.8838     59.5124     39.4541     66.0066
  1187.5000     46.0799     59.7436     39.3271     65.0055
  1187.7500     46.3473     59.8539     39.2744     64.4023
  1188.0000     46.7050     59.8276     39.3854     63.9406
  1188.2500     47.1557     59.6729     39.7188     63.8612
  1188.5000     47.6802     59.4190     40.2802     63.5758
  1188.7500     48.2392     59.1086     41.0179     62.9360
  1189.0000     48.7788     58.7892     41.8373     61.0882
  1189.2500     49.2447     58.5044     42.6311     59.5067
  1189.5000     49.5991     58.2889     43.3169     57.4764
  1189.7500     49.8357     58.1647     43.8597     56.7857
  1190.0000     49.9833     58.1409     44.2599     56.9053
  1190.2500     50.0932     58.2146     44.5178     57.5845
  1190.5000     50.2161     58.3734     44.6131     59.1273
  1190.7500     50.3772     58.5984     44.5296     60.2391
  1191.0000     50.5658     58.8673     44.3002     61.3055
  1191.2500     50.7403     59.1584     44.0163     61.2469
  1191.5000     50.8466     59.4526     43.7773     60.2498
  1191.7500     50.8389     59.7360     43.6223     59.6555
  1192.0000     50.6937     60.0001     43.5092     59.8552
  1192.2500     50.4121     60.2420     43.3613     60.6538
  1192.5000     50.0187     60.4621     43.1397     61.8863
  1192.7500     49.5584     60.6632     42.8752     62.1649
  1193.0000     49.0899     60.8486     42.6355     61.2949
  1193.2500     48.6708     61.0207     42.4648     59.8890
  1193.5000     48.3463     61.1804     42.3518     57.2105
  1193.7500     48.1445     61.3270     42.2523     55.8026
  1194.0000     48.0745     61.4587     42.1378     55.6159
  1194.2500     48.1204     61.5727     42.0187     57.0570
  1194.5000     48.2385     61.6660     41.9169     60.6512
  1194.7500     48.3678     61.7360     41.8197     62.9392
  1195.0000     48.4509     61.7809     41.6686     64.6016
  1195.2500     48.4545     61.8009     41.4027     64.1584
  1195.5000     48.3768     61.7980     41.0163     61.6585
  1195.7500     48.2407     61.7764     40.5756     59.4723
  1196.0000     48.0797     61.7425     40.1832     56.6727
  1196.2500     47.9280     61.7039     39.9248     55.6177
  1196.5000     47.8141     61.6695     39.8371     55.4471
  1196.7500     47.7503     61.6479     39.9045     55.9794
  1197.0000     47.7243     61.6471     40.0760     56.7495
  1197.2500     47.7023     61.6742     40.2869     56.6724
  1197.5000     47.6468     61.7342     40.4789     55.3511
  1197.7500     47.5356     61.8309     40.6148     54.0097
  1198.0000     47.3625     61.9671     40.6845     52.3912
  1198.2500     47.1260     62.1453     40.6987     52.0528
  1198.5000     46.8157     62.3691     40.6721     52.6640
  1198.7500     46.4083     62.6439     40.6052     53.4362
  1199.0000     45.8713     62.9776     40.4719     54.4613
  1199.2500     45.1658     63.3800     40.2198     54.9579
  1199.5000     44.2514     63.8612     39.7783     55.8439
  1199.7500     43.0928     64.4305     39.0703     56.8784
  1200.0000     41.6724     65.0933     38.0351     59.3917
  1200.2500     40.0056     65.8499     36.6598     61.7104
  1200.5000     38.1524     66.6942     35.0020     66.2107
  1200.7500     36.2127     67.6132     33.1832     70.0813
  1201.0000     34.3025     68.5877     31.3500     77.7004
  1201.2500     32.5197     69.5935     29.6280     84.1884
  1201.5000     30.9174     70.6032     28.0913     95.7121
  1201.7500     29.4971     71.5889     26.7574    103.8907
  1202.0000     28.2215     72.5239     25.5986    115.1323
  1202.2500     27.0382     73.3860     24.5640    120.9610
  1202.5000     25.9028     74.1587     23.6021    126.3346
  1202.7500     24.7966     74.8329     22.6780    127.7962
  1203.0000     23.7342     75.4062     21.7802    127.8710
  1203.2500     22.7591     75.8826     20.9177    127.3307
  1203.5000     21.9254     76.2693     20.1105    126.8872
  1203.7500     21.2706     76.5749     19.3792    127.2832
  1204.0000     20.7994     76.8064     18.7395    128.9946
  1204.2500     20.4874     76.9676     18.2017    130.5655
  1204.5000     20.2984     77.0591     17.7718    132.9567
  1204.7500     20.2011     77.0795     17.4513    134.5292
  1205.0000     20.1796     77.0287     17.2364    137.1757
  1205.2500     20.2367     76.9109     17.1214    139.0612
  1205.5000     20.3850     76.7388     17.1040    141.1539
  1205.7500     20.6257     76.5352     17.1909    141.4494
  1206.0000     20.9230     76.3347     17.3955    139.7555
  1206.2500     21.1929     76.1823     17.7292    137.0547
  1206.5000     21.3229     76.1297     18.1903    129.9653
  1206.7500     21.2306     76.2306     18.7542    122.7758
  1207.0000     20.9377     76.5335     19.3705    108.8958
  1207.2500     20.6021     77.0742     19.9687     99.1623
  1207.5000     20.4620     77.8690     20.4767     87.7251
  1207.7500     20.7080     78.9090     20.8474     84.0459
  1208.0000     21.3658     80.1588     21.0752     85.2673
  1208.2500     22.2794     81.5586     21.1860     89.6135
  1208.5000     23.2123     83.0319     21.2078     98.4451
  1208.7500     23.9880     84.4953     21.1486    104.1503
  1209.0000     24.5604     85.8700     21.0005    110.5130
  1209.2500     24.9851     87.0915     20.7663    113.0195
  1209.5000     25.3446     88.1155     20.4819    115.0209
  1209.7500     25.6979     88.9191     20.2160    115.9502
  1210.0000     26.0721     89.4988     20.0488    117.3740
  1210.2500     26.4795     89.8656     20.0484    118.1103
  1210.5000     26.9343     90.0384     20.2573    118.1263
  1210.7500     27.4619     90.0398     20.6910    117.2558
  1211.0000     28.1009     89.8920     21.3421    115.1621
  1211.2500     28.8978     89.6145     22.1859    113.7272
  1211.5000     29.8902     89.2239     23.1855    111.8013
  1211.7500     31.0860     88.7337     24.2990    110.3972
  1212.0000     32.4551     88.1557     25.4866    107.5295
  1212.2500     33.9478     87.5010     26.7138    105.0648
  1212.5000     35.5307     86.7812     27.9494    100.8998
  1212.7500     37.2142     86.0077     29.1644     98.0137
  1213.0000     39.0548     85.1919     30.3420     93.6353
  1213.2500     41.1324     84.3429     31.4953     90.6765
  1213.5000     43.5108     83.4660     32.6754     86.1877
  1213.7500     46.1999     82.5616     33.9607     83.1435
