~Version Information
VERS.                      2.0: CWLS Log ASCII Standard - VERSION 2.0
WRAP.                       NO: One line per depth step
~Well Information Block
STRT.FT               390.0000: 
STOP.FT              2770.2500: 
STEP.FT                 0.2500: 
NULL.                -999.2500: 
COMP.          Pioneer Natural Resources: COMPANY
WELL.              Lynch 43-30: WELL
FLD.           Purgatoire River: FIELD
LOC.           1438' FSL & 429' FEL: LOCATION
PROV.                 Colorado: PROVINCE
CNTY.               Las Animas: COUNTRY
SRVC.                Patterson: SERVICE COMPANY
DATE.          Wed Oct 27 08:06:51 2004: LOG DATE
UWI.           05 071 08170 00: UNIQUE WELL ID
~Curve Information Block
DEPT.FT            0 000 00 00: Depth
DIR.Ohm-m                     : IEL Induction Resistivity
SN.Ohm-m                      : IEL Short Normal
SP.mV                         : IEL Spontaneous Potential
GR.GAPI                       : Gamma Ray
~Parameter Information Block
~A  Depth       DIR          SN          SP          GR     
# ...
  1026.5000     12.6969   2000.0000   2000.0000    117.4697
  1026.7500     12.8934   2000.0000   2000.0000    116.1804
  1027.0000     13.0524   2000.0000   2000.0000    113.4403
  1027.2500     13.1577   2000.0000   2000.0000    111.4690
  1027.5000     13.2046   2000.0000   2000.0000    110.1058
  1027.7500     13.1997   2000.0000   2000.0000    111.4228
  1028.0000     13.1538   2000.0000   2000.0000    117.0995
  1028.2500     13.0751   2000.0000   2000.0000    122.3013
  1028.5000     12.9673   2000.0000   2000.0000    129.4845
  1028.7500     12.8341   2000.0000   2000.0000    132.6273
  1029.0000     12.6860   2000.0000   2000.0000    134.3354
  1029.2500     12.5432   2000.0000   2000.0000    133.9695
  1029.5000     12.4310   2000.0000   2000.0000    132.3067
  1029.7500     12.3695   2000.0000   2000.0000    130.6790
  1030.0000     12.3642   2000.0000   2000.0000    127.1700
  1030.2500     12.4024   2000.0000   2000.0000    124.1628
  1030.5000     12.4592   2000.0000   2000.0000    119.6977
  1030.7500     12.5071   2000.0000   2000.0000    117.5906
  1031.0000     12.5248   2000.0000   2000.0000    116.5940
  1031.2500     12.5008   2000.0000   2000.0000    117.3873
  1031.5000     12.4301   2000.0000   2000.0000    120.3426
  1031.7500     12.3117   2000.0000   2000.0000    123.1722
  1032.0000     12.1495   2000.0000   2000.0000    127.9324
  1032.2500     11.9566   2000.0000   2000.0000    130.7907
  1032.5000     11.7551   2000.0000   2000.0000    133.4154
  1032.7500     11.5700   2000.0000   2000.0000    133.6112
  1033.0000     11.4200   2000.0000   2000.0000    131.4553
  1033.2500     11.3138   2000.0000   2000.0000    128.6814
  1033.5000     11.2543   2000.0000   2000.0000    123.5951
  1033.7500     11.2442   2000.0000   2000.0000    120.4178
  1034.0000     11.2878   2000.0000   2000.0000    117.0590
  1034.2500     11.3860   2000.0000   2000.0000    115.8620
  1034.5000     11.5308   2000.0000   2000.0000    115.0028
  1034.7500     11.7030   2000.0000   2000.0000    114.5724
  1035.0000     11.8769   2000.0000   2000.0000    113.5749
  1035.2500     12.0280   2000.0000   2000.0000    112.5633
  1035.5000     12.1394   2000.0000   2000.0000    110.7605
  1035.7500     12.2031   2000.0000   2000.0000    109.7021
  1036.0000     12.2174   2000.0000   2000.0000    108.9058
  1036.2500     12.1837   2000.0000   2000.0000    109.1188
  1036.5000     12.1087   2000.0000   2000.0000    110.7602
  1036.7500     12.0054   2000.0000   2000.0000    112.7419
  1037.0000     11.8916   2000.0000   2000.0000    116.5618
  1037.2500     11.7834   2000.0000   2000.0000    119.0470
  1037.5000     11.6910   2000.0000   2000.0000    121.5809
  1037.7500     11.6194   2000.0000   2000.0000    122.2696
  1038.0000     11.5749   2000.0000   2000.0000    122.3002
  1038.2500     11.5691   2000.0000   2000.0000    121.9763
  1038.5000     11.6175   2000.0000   2000.0000    120.8717
  1038.7500     11.7328   2000.0000   2000.0000    119.4567
  1039.0000     11.9186   2000.0000   2000.0000    116.4498
  1039.2500     12.1650   2000.0000   2000.0000    114.4222
  1039.5000     12.4511   2000.0000   2000.0000    112.3118
  1039.7500     12.7519   2000.0000   2000.0000    111.5663
  1040.0000     13.0459   2000.0000   2000.0000    110.7127
  1040.2500     13.3193   2000.0000   2000.0000    109.9048
  1040.5000     13.5634   2000.0000   2000.0000    108.2546
  1040.7500     13.7715   2000.0000   2000.0000    107.1481
  1041.0000     13.9381   2000.0000   2000.0000    106.0850
  1041.2500     14.0619   2000.0000   2000.0000    105.9845
  1041.5000     14.1457   2000.0000   2000.0000    106.7613
  1041.7500     14.1922   2000.0000   2000.0000    107.7786
  1042.0000     14.1981   2000.0000   2000.0000    109.7944
  1042.2500     14.1529   2000.0000   2000.0000    111.2906
  1042.5000     14.0410   2000.0000   2000.0000    113.3063
  1042.7500     13.8474   2000.0000   2000.0000    114.1982
  1043.0000     13.5621   2000.0000   2000.0000    114.7839
  1043.2500     13.1853   2000.0000   2000.0000    115.0140
  1043.5000     12.7319   2000.0000   2000.0000    115.8242
  1043.7500     12.2316   2000.0000   2000.0000    116.8269
  1044.0000     11.7245   2000.0000   2000.0000    119.0124
  1044.2500     11.2500   2000.0000   2000.0000    121.0670
  1044.5000     10.8384   2000.0000   2000.0000    125.4569
  1044.7500     10.5062   2000.0000   2000.0000    129.1701
  1045.0000     10.2595   2000.0000   2000.0000    134.8111
  1045.2500     10.0997   2000.0000   2000.0000    137.6169
  1045.5000     10.0288   2000.0000   2000.0000    138.6898
  1045.7500     10.0501   2000.0000   2000.0000    136.7020
  1046.0000     10.1664   2000.0000   2000.0000    130.1347
  1046.2500     10.3784   2000.0000   2000.0000    124.6436
  1046.5000     10.6838   2000.0000   2000.0000    117.3540
  1046.7500     11.0766   2000.0000   2000.0000    113.9375
  1047.0000     11.5419   2000.0000   2000.0000    110.7782
  1047.2500     12.0489   2000.0000   2000.0000    109.5059
  1047.5000     12.5482   2000.0000   2000.0000    108.3238
  1047.7500     12.9771   2000.0000   2000.0000    107.9643
  1048.0000     13.2785   2000.0000   2000.0000    108.2614
  1048.2500     13.4213   2000.0000   2000.0000    109.2100
  1048.5000     13.4115   2000.0000   2000.0000    112.0053
  1048.7500     13.2871   2000.0000   2000.0000    114.7515
  1049.0000     13.1027   2000.0000   2000.0000    119.7319
  1049.2500     12.9134   2000.0000   2000.0000    123.1910
  1049.5000     12.7637   2000.0000   2000.0000    127.8203
  1049.7500     12.6827   2000.0000   2000.0000    130.1420
  1050.0000     12.6830   2000.0000   2000.0000    131.9554
  1050.2500     12.7612   2000.0000   2000.0000    131.9039
  1050.5000     12.9001   2000.0000   2000.0000    129.9792
  1050.7500     13.0739   2000.0000   2000.0000    127.6037
  1051.0000     13.2562   2000.0000   2000.0000    122.9116
  1051.2500     13.4268   2000.0000   2000.0000    119.5435
  1051.5000     13.5745   2000.0000   2000.0000    115.1802
  1051.7500     13.6965   2000.0000   2000.0000    113.2915
  1052.0000     13.7964   2000.0000   2000.0000    112.6933
  1052.2500     13.8821   2000.0000   2000.0000    113.9104
  1052.5000     13.9604   2000.0000   2000.0000    117.6952
  1052.7500     14.0311   2000.0000   2000.0000    120.8954
  1053.0000     14.0860   2000.0000   2000.0000    125.1421
  1053.2500     14.1161   2000.0000   2000.0000    126.4930
  1053.5000     14.1233   2000.0000   2000.0000    124.7754
  1053.7500     14.1259   2000.0000   2000.0000    121.1015
  1054.0000     14.1548   2000.0000   2000.0000    113.6165
  1054.2500     14.2435   2000.0000   2000.0000    108.8141
  1054.5000     14.4191   2000.0000   2000.0000    103.3897
  1054.7500     14.6962   2000.0000   2000.0000    100.9206
  1055.0000     15.0753   2000.0000   2000.0000     98.4102
  1055.2500     15.5423   2000.0000   2000.0000     97.5413
  1055.5000     16.0691   2000.0000   2000.0000     97.7874
  1055.7500     16.6151   2000.0000   2000.0000     98.9426
  1056.0000     17.1324   2000.0000   2000.0000    101.5341
  1056.2500     17.5771   2000.0000   2000.0000    103.4448
  1056.5000     17.9241   2000.0000   2000.0000    106.2303
  1056.7500     18.1775   2000.0000   2000.0000    107.9371
  1057.0000     18.3726   2000.0000   2000.0000    110.1734
  1057.2500     18.5668   2000.0000   2000.0000    111.3797
  1057.5000     18.8252   2000.0000   2000.0000    112.2844
  1057.7500     19.2026   2000.0000   2000.0000    111.6979
  1058.0000     19.7288   2000.0000   2000.0000    108.1130
  1058.2500     20.4025   2000.0000   2000.0000    103.8960
  1058.5000     21.1969   2000.0000   2000.0000     95.7925
  1058.7500     22.0762   2000.0000   2000.0000     89.9863
  1059.0000     23.0131   2000.0000   2000.0000     81.6104
  1059.2500     23.9955   2000.0000   2000.0000     76.3891
  1059.5000     25.0191   2000.0000   2000.0000     68.9849
  1059.7500     26.0747   2000.0000   2000.0000     64.4501
