~Version Information
VERS.                      2.0: CWLS Log ASCII Standard - VERSION 2.0
WRAP.                       NO: One line per depth step
~Well Information Block
STRT.FT               -12.2500: 
STOP.FT              2595.7500: 
STEP.FT                 0.2500: 
NULL.                -999.2500: 
COMP.          Petrogulf Corporation: COMPANY
WELL.            Montoya 1-44V: WELL
FLD.           Purgatoire River: FIELD
LOC.           753' FSL & 990' FEL--: LOCATION
PROV.                       CO: PROVINCE
CNTY.               Las Aniams: COUNTRY
SRVC.          Patterson Wireline: SERVICE COMPANY
DATE.          Mon Jun 13 11:58:10 2005: LOG DATE
UWI.           05 071 08142 00: UNIQUE WELL ID
~Curve Information Block
DEPT.FT            0 000 00 00: Depth
CCL.                          : Casing Collar Locator
TT3.usec                      : CBL 3' Travel Time
AMP3.mV                       : CBL 3' Amplitude
GR.GAPI                       : Gamma Ray
~Parameter Information Block
~A  Depth       CCL         TT3         AMP3         GR     
   -12.2500   -999.2500   -999.2500   -999.2500     95.3479
   -12.0000   -999.2500   -999.2500   -999.2500     93.8286
   -11.7500   -999.2500   -999.2500   -999.2500     92.1661
   -11.5000   -999.2500   -999.2500   -999.2500     91.3327
   -11.2500   -999.2500   -999.2500   -999.2500     91.9122
   -11.0000   -999.2500   -999.2500   -999.2500     93.5788
   -10.7500   -999.2500   -999.2500   -999.2500     95.6678
   -10.5000   -999.2500   -999.2500   -999.2500     97.5895
   -10.2500   -999.2500   -999.2500   -999.2500     98.6518
   -10.0000   -999.2500   -999.2500   -999.2500     97.9124
    -9.7500   -999.2500   -999.2500   -999.2500     94.6410
    -9.5000   -999.2500   -999.2500   -999.2500     89.1585
    -9.2500   -999.2500   -999.2500   -999.2500     83.1132
    -9.0000   -999.2500   -999.2500   -999.2500     78.5998
    -8.7500   -999.2500   -999.2500   -999.2500     76.8502
    -8.5000   -999.2500   -999.2500   -999.2500     77.7596
    -8.2500   -999.2500   -999.2500   -999.2500     80.4812
    -8.0000   -999.2500   -999.2500   -999.2500     84.0241
    -7.7500   -999.2500   -999.2500   -999.2500     87.1487
    -7.5000   -999.2500   1170.0000      0.6489     88.4058
    -7.2500   -999.2500   1170.0000      0.6655     87.0590
    -7.0000   -999.2500   1170.0000      0.6706     83.8475
    -6.7500   -999.2500   1170.0000      0.6660     80.4253
    -6.5000   -999.2500   1170.0000      0.6592     78.0034
    -6.2500   -999.2500   1170.0000      0.6537     76.5277
    -6.0000   -999.2500   1170.0000      0.6448     74.9812
    -5.7500   -999.2500   1170.0000      0.6269     72.4430
    -5.5000   -999.2500   1170.0000      0.6038     68.9023
    -5.2500   -999.2500   1170.0000      0.5866     65.1015
    -5.0000   -999.2500   1170.0000      0.5809     61.8893
    -4.7500   -999.2500   1170.0000      0.5808     59.9158
    -4.5000   -999.2500   1170.0000      0.5786     59.5203
    -4.2500   -999.2500   1170.0000      0.5770     60.3838
    -4.0000   -999.2500   1170.0000      0.5880     61.3684
    -3.7500   -999.2500   1170.0000      0.6182     61.0616
    -3.5000   -999.2500   1170.0000      0.6607     58.5096
    -3.2500   -999.2500   1170.0000      0.6995     53.4801
    -3.0000   -999.2500   1170.0000      0.7206     46.4101
    -2.7500   -999.2500   1170.0000      0.7185     38.4183
    -2.5000   -999.2500   1170.0000      0.6982     31.2334
    -2.2500   -999.2500   1170.0000      0.6720     26.6851
    -2.0000      0.0000   1170.0000      0.6556     25.9053
    -1.7500      0.0000   1170.0000      0.6628     28.8324
    -1.5000      0.0000   1170.0000      0.7016     34.3108
    -1.2500      0.0000   1170.0000      0.7733     40.5917
    -1.0000      0.0000   1170.0000      0.8706     46.1358
    -0.7500      0.0000   1170.0000      0.9789     50.4312
    -0.5000      0.0000   1170.0000      1.0814     53.9748
    -0.2500      0.0000   1170.0000      1.1644     57.2390
     0.0000      0.0000   1170.0000      1.2474     62.2448
     0.2500      0.0000   1170.0000      1.2518     64.4853
     0.5000      0.0000   1170.0000      1.2441     67.6123
     0.7500      0.0000   1170.0000      1.2326     71.4493
     1.0000      0.0000   1170.0000      1.2197     74.6401
     1.2500      0.0000   1170.0000      1.2056     75.8448
     1.5000      0.0000   1170.0000      1.1929     74.9071
     1.7500      0.0000   1170.0000      1.1840     72.8939
     2.0000      0.0000   1170.0000      1.1710     71.2404
     2.2500      0.0000   1170.0000      1.1370     70.7468
     2.5000      0.0000   1170.0000      1.0796     71.0989
     2.7500      0.0000   1170.0000      1.0259     71.3426
     3.0000      0.0000   1170.0000      1.0100     70.7478
     3.2500      0.0000   1170.0000      1.0402     69.1408
     3.5000      0.0000   1170.0000      1.0994     66.9362
     3.7500      0.0000   1170.0000      1.1684     65.2209
     4.0000      0.0000   1170.0000      1.2310     65.2139
     4.2500      0.0000   1170.0000      1.2654     67.0772
     4.5000      0.0000   1170.0000      1.2531     69.5515
     4.7500      0.0000   1170.0000      1.2035     71.1239
     5.0000      0.0000   1170.0000      1.1535     71.4009
     5.2500      0.0000   1170.0000      1.1373     71.2324
     5.5000      0.0000   1170.0000      1.1608     71.7957
     5.7500      0.0000   1170.0000      1.2069     73.7526
     6.0000      0.0000   1170.0000      1.2552     76.8936
     6.2500      0.0000   1170.0000      1.2893     80.0385
     6.5000      0.0000   1170.0000      1.2985     81.4953
     6.7500      0.0000   1170.0000      1.2873     80.2564
     7.0000      0.0000   1170.0000      1.2755     76.8496
     7.2500      0.0000   1170.0000      1.2776     72.7861
     7.5000      0.0000   1170.0000      1.2848     69.2470
     7.7500      0.0000   1170.0000      1.2792     66.4338
     8.0000      0.0000   1170.0000      1.2608     63.9854
     8.2500      0.0000   1170.0000      1.2543     61.5839
     8.5000      0.0000   1170.0000      1.3042     59.0923
     8.7500      0.0000   1170.0000      1.4977     56.5137
     9.0000      0.0000   1170.0000      2.0344     54.1002
     9.2500      0.0000   1170.0000      3.2656     52.3732
     9.5000      0.0000   1170.0000      5.5477     51.8377
     9.7500      0.0000   1170.0000      8.8902     52.6106
    10.0000      0.0000   1170.0000     12.7215     54.2755
    10.2500      0.0000   1170.0000     16.1484     56.0479
    10.5000      0.0000   1169.9425     18.5511     57.2099
    10.7500      0.0000   1169.5680     19.9299     57.5616
    11.0000      0.0000   1167.7234     20.7272     57.4151
    11.2500      0.0000   1160.5751     21.4214     57.0561
    11.5000      0.0000   1139.3054     22.2690     56.2897
    11.7500      0.0000   1091.2429     23.2753     54.6507
    12.0000      0.0000   1010.5696     24.2850     52.0575
    12.2500      0.0000    915.0640     25.0964     49.1491
    12.5000      0.0000    847.7040     25.5590     46.9758
    12.7500      0.0000    847.7101     25.6390     46.3632
    13.0000      0.0000    915.0781     25.4317     47.3727
    13.2500      0.0000   1010.5840     25.0985     49.1993
    13.5000      0.0000   1091.2526     24.7862     50.6796
    13.7500      0.0000   1139.2618     24.6063     50.9879
    14.0000      0.0000   1160.2622     24.6508     49.8880
    14.2500      0.0000   1166.1268     24.9739     47.6518
    14.5000      0.0000   1163.2522     25.5479     45.0607
    14.7500      0.0000   1150.4880     26.2559     43.2213
    15.0000      0.0000   1123.2736     26.9367     42.8259
    15.2500      0.0000   1082.3790     27.4545     43.6593
    15.5000      0.0000   1040.8069     27.7606     45.2213
    15.7500      0.0000   1016.3939     27.9137     47.5755
    16.0000      0.0000   1010.1149     28.0496     51.0310
    16.2500      0.0000    994.1998     28.3158     55.1704
    16.5000      0.0000    930.8633     28.8029     58.8366
    16.7500      0.0000    806.9443     29.5136     61.1378
    17.0000      0.0000    648.7817     30.3951     62.1477
    17.2500      0.0000    502.2588     31.4039     62.7758
    17.5000      0.0000    399.5076     32.5216     64.2688
    17.7500      0.0000    343.9951     33.7065     67.4867
    18.0000      0.0000    320.6852     34.8768     72.0977
    18.2500      0.0000    312.9183     35.9745     76.5799
    18.5000      0.0000    310.4949     37.0214     79.3576
    18.7500      0.0000    308.8328     38.0860     79.8684
    19.0000      0.0000    305.9423     39.2114     78.5338
    19.2500      0.0000    300.8468     40.3782     76.2210
    19.5000      0.0000    293.5655     41.5020     73.8494
    19.7500      0.0000    285.3878     42.4642     72.0401
    20.0000      0.0000    278.1970     43.1872     71.0575
    20.2500      0.0000    273.2376     43.7034     71.2202
    20.5000      0.0000    270.5160     44.1412     72.9526
    20.7500      0.0000    269.2543     44.6338     75.9434
    21.0000      0.0000    268.6599     45.2350     78.5234
