~Version Information
VERS.                      2.0: CWLS Log ASCII Standard - VERSION 2.0
WRAP.                       NO: One line per depth step
~Well Information Block
STRT.FT               450.0000: 
STOP.FT              1739.2000: 
STEP.FT                 0.1000: 
NULL.                -999.2500: 
COMP.          Pioneer Natural Resources: COMPANY
WELL.            Harlee L 34-9: WELL
FLD.           Purgatoire River: FIELD
LOC.           600' FSL & 2125' FEL: LOCATION
PROV.                 Colorado: PROVINCE
CNTY.               Las Animas: COUNTRY
SRVC.                Patterson: SERVICE COMPANY
DATE.          Wed Jan 26 13:57:24 2005: LOG DATE
UWI.           05 071 08009 00: UNIQUE WELL ID
~Curve Information Block
DEPT.FT            0 000 00 00: Depth
DCAL.in                       : CDL Caliper
RHOB.g/cc                     : CDL Bulk Density
RHOC.g/cc                     : CDL Density Correction
DPOR.pu                       : CDL Density Porosity
NPOR.pu                       : Neutron Porosity
GR.GAPI                       : Gamma Ray
~Parameter Information Block
~A  Depth       DCAL        RHOB        RHOC        DPOR        NPOR         GR     
   450.0000      2.2317      2.1847      0.3174     28.2022     46.8174     70.3481
   450.1000      2.2317      2.1725      0.3232     28.9379     46.8421     72.0589
   450.2000      2.2317      2.1536      0.2614     30.0876     46.7551     70.6458
   450.3000      2.2327      2.1440      0.2731     30.6642     46.5881     67.2359
   450.4000      2.2327      2.1467      0.3045     30.5024     46.4904     64.9315
   450.5000      2.2326      2.1527      0.2880     30.1417     46.2878     62.7088
   450.6000      2.2326      2.1599      0.2992     29.7047     45.8034     60.8383
   450.7000      2.2326      2.1719      0.2759     28.9785     45.1590     61.3498
   450.8000      2.2350      2.1881      0.3027     27.9922     44.6787     63.4368
   450.9000      2.2350      2.2025      0.2970     27.1237     44.5859     66.4241
   451.0000      2.2380      2.2091      0.3006     26.7206     44.8892     66.7416
   451.1000      2.2380      2.2059      0.3051     26.9165     45.3673     60.8613
   451.2000      2.2380      2.1971      0.2800     27.4492     45.7398     53.2525
   451.3000      2.2393      2.1888      0.2924     27.9508     45.9003     49.2260
   451.4000      2.2393      2.1824      0.2588     28.3379     45.8390     49.0174
   451.5000      2.2416      2.1810      0.2490     28.4240     45.6620     53.6861
   451.6000      2.2416      2.1854      0.2557     28.1549     45.5550     61.7498
   451.7000      2.2416      2.1922      0.2330     27.7470     45.5786     65.5326
   451.8000      2.2438      2.1971      0.2550     27.4509     45.7338     61.1248
   451.9000      2.2438      2.1935      0.2478     27.6686     45.8785     53.7655
   452.0000      2.2454      2.1821      0.2282     28.3558     45.7537     51.5410
   452.1000      2.2454      2.1768      0.1953     28.6768     45.5210     54.7011
   452.2000      2.2454      2.1848      0.2215     28.1964     45.4500     56.6051
   452.3000      2.2470      2.1936      0.2663     27.6588     45.4926     55.5123
   452.4000      2.2470      2.1906      0.2231     27.8431     45.5706     55.7278
   452.5000      2.2493      2.1813      0.1962     28.4055     45.5485     58.3615
   452.6000      2.2493      2.1777      0.2036     28.6223     45.3447     59.4038
   452.7000      2.2493      2.1821      0.1993     28.3564     45.0792     56.7868
   452.8000      2.2517      2.1909      0.1873     27.8218     44.9100     54.9285
   452.9000      2.2517      2.1963      0.2235     27.4943     44.8690     55.7042
   453.0000      2.2562      2.1882      0.1907     27.9878     44.9019     56.6416
   453.1000      2.2562      2.1676      0.1775     29.2341     45.0339     57.1652
   453.2000      2.2562      2.1429      0.1695     30.7321     45.2025     56.7267
   453.3000      2.2653      2.1215      0.1420     32.0287     45.2932     54.2281
   453.4000      2.2653      2.1118      0.1315     32.6191     45.2977     51.6368
   453.5000      2.2711      2.1082      0.1887     32.8370     45.2852     51.7309
   453.6000      2.2711      2.0975      0.1240     33.4834     45.2582     53.8022
   453.7000      2.2711      2.0886      0.1073     34.0245     45.1597     55.0617
   453.8000      2.2660      2.0951      0.1446     33.6277     45.0561     55.3446
   453.9000      2.2660      2.1109      0.1578     32.6731     45.2306     57.4808
   454.0000      2.2616      2.1219      0.1835     32.0075     45.7785     61.0183
   454.1000      2.2616      2.1239      0.1772     31.8869     46.1506     63.3359
   454.2000      2.2616      2.1188      0.1998     32.1929     45.8487     64.5683
   454.3000      2.2613      2.1091      0.1814     32.7811     45.1789     65.4867
   454.4000      2.2613      2.1046      0.1671     33.0548     44.8350     65.9848
   454.5000      2.2587      2.1126      0.1963     32.5717     45.0132     67.4516
   454.6000      2.2587      2.1204      0.2137     32.0973     45.5146     70.6174
   454.7000      2.2587      2.1153      0.1831     32.4051     46.0141     72.6976
   454.8000      2.2654      2.1068      0.1445     32.9232     46.1421     72.3774
   454.9000      2.2654      2.1102      0.1683     32.7169     45.8673     70.9957
   455.0000      2.2718      2.1291      0.2026     31.5695     45.6307     68.8284
   455.1000      2.2718      2.1527      0.2364     30.1366     45.6153     65.9335
   455.2000      2.2718      2.1685      0.2397     29.1838     45.6458     64.2056
   455.3000      2.2580      2.1783      0.2306     28.5884     45.8796     65.9286
   455.4000      2.2580      2.1900      0.2190     27.8816     46.3157     71.1874
   455.5000      2.2485      2.1967      0.2875     27.4753     46.4729     76.9601
   455.6000      2.2485      2.1894      0.2409     27.9159     46.1097     80.4548
   455.7000      2.2485      2.1786      0.2285     28.5673     45.5774     79.9075
   455.8000      2.2498      2.1743      0.2349     28.8316     45.2053     75.6691
   455.9000      2.2498      2.1740      0.2014     28.8505     44.9383     71.7881
   456.0000      2.2516      2.1744      0.2195     28.8255     44.7108     69.3091
   456.1000      2.2516      2.1665      0.2455     29.3004     44.4160     65.6648
   456.2000      2.2516      2.1433      0.2136     30.7072     43.9865     61.7370
   456.3000      2.2530      2.1088      0.2032     32.8018     43.6232     61.5794
   456.4000      2.2530      2.0633      0.1910     35.5554     43.3095     63.1125
   456.5000      2.2555      2.0048      0.1616     39.1013     42.8639     61.7926
   456.6000      2.2555      1.9401      0.1263     43.0232     42.2414     58.6201
   456.7000      2.2555      1.8815      0.1068     46.5773     41.5941     56.4471
   456.8000      2.2576      1.8337      0.1437     49.4735     41.0811     55.5222
   456.9000      2.2576      1.7981      0.1238     51.6298     40.4772     55.2084
   457.0000      2.3972      1.7840      0.1514     52.4868     39.1450     56.1769
   457.1000      2.3972      1.7933      0.1925     51.9184     36.7461     57.7491
   457.2000      2.3972      1.8177      0.2403     50.4436     33.9779     61.2269
   457.3000      4.2100      1.8620      0.2777     47.7592     31.5072     69.4712
   457.4000      4.2100      1.9670      0.3552     41.3920     29.0507     76.8533
   457.5000     11.4239      2.1939      0.4222     27.6427     26.4227     77.8739
   457.6000     11.4239      2.5085      0.7305      8.5784     23.9824     75.3193
   457.7000     11.4239      2.7503      0.7985     -6.0815     22.0531     72.3534
   457.8000     18.8524      2.8303      0.7512    -10.9269     20.8963     70.9996
   457.9000     18.8524      2.7860      0.7417     -8.2421     20.6160     73.0426
   458.0000     15.9914      2.6726      0.5409     -1.3683     20.9167     76.3258
   458.1000     15.9914      2.5454      0.3654      6.3380     21.2276     78.4347
   458.2000     15.9914      2.4576      0.2299     11.6585     21.0752     77.7928
   458.3000     10.9188      2.4183      0.2350     14.0454     20.6164     72.5671
   458.4000     10.9188      2.3964      0.2026     15.3716     20.6378     65.4293
   458.5000      9.5199      2.3707      0.1495     16.9269     21.3530     62.3518
   458.6000      9.5199      2.3446      0.1542     18.5118     22.1228     62.8916
   458.7000      9.5199      2.3273      0.1122     19.5596     22.6823     62.5054
   458.8000      9.3564      2.3194      0.1700     20.0370     23.1056     62.0013
   458.9000      9.3564      2.3129      0.1433     20.4290     23.3412     64.4411
   459.0000      9.2585      2.3142      0.0949     20.3525     23.3985     70.0202
   459.1000      9.2585      2.3358      0.1432     19.0440     23.1638     77.2713
   459.2000      9.2585      2.3705      0.1567     16.9372     22.6018     83.2486
   459.3000      9.1421      2.3995      0.1774     15.1810     22.2371     83.9584
   459.4000      9.1421      2.4144      0.1694     14.2778     22.6078     80.7647
   459.5000      9.0518      2.4204      0.1551     13.9147     23.7161     79.7487
