~Version Information
VERS.                      2.0: CWLS Log ASCII Standard - VERSION 2.0
WRAP.                       NO: One line per depth step
~Well Information Block
STRT.FT               494.2500: 
STOP.FT              1992.0000: 
STEP.FT                 0.2500: 
NULL.                -999.2500: 
COMP.          Petrogulf Corporation: COMPANY
WELL.               Furu 6-23R: WELL
FLD.           Purgatoire River: FIELD
LOC.           2211' FSL & 1780' FWL--: LOCATION
CNTY.               Las Animas: COUNTY
SRVC.                Patterson: SERVICE COMPANY
DATE.          Wed Jun 21 14:57:59 2006: LOG DATE
UWI.           05 071 08266 00: UNIQUE WELL ID
STAT.                 Colorado: STATE
~Curve Information Block
DEPT.FT            0 000 00 00: Depth
GR.GAPI                       : Gamma Ray
RILD.Ohm-m                    : DIL Deep Resistivity
RILM.Ohm-m                    : DIL Medium Resistivity
RLL3.Ohm-m                    : DIL Shallow Resistivity
SP.mV                         : DIL Spontaneous Potential
~Parameter Information Block
~A  Depth        GR         RILD        RILM        RLL3         SP     
# ...
  1978.2500   -999.2500     43.9391     33.1816     39.6057    102.5771
  1978.5000   -999.2500     64.2067     33.5155     38.0755     75.0978
  1978.7500   -999.2500    110.6418     33.8978     37.3314     50.8598
  1979.0000   -999.2500    252.7667     34.3431     37.6994     34.2065
  1979.2500   -999.2500   1733.4912     34.8794     39.0604     25.2944
  1979.5000   -999.2500 100000.0000     35.5469     41.1886     21.5799
  1979.7500   -999.2500 100000.0000     36.3787     44.1273     20.3741
  1980.0000   -999.2500 100000.0000     37.3758     48.1259     20.0692
  1980.2500   -999.2500 100000.0000     38.5066     53.1623     20.0092
  1980.5000   -999.2500 100000.0000     39.7401     58.5983   -999.2500
  1980.7500   -999.2500 100000.0000     41.1258     63.4132   -999.2500
  1981.0000   -999.2500    642.1773     42.9176     66.8135   -999.2500
  1981.2500   -999.2500    850.9804     45.7176     68.6190   -999.2500
  1981.5000   -999.2500   1310.9380     50.6608     69.1278   -999.2500
  1981.7500   -999.2500   2609.5825     59.8197     68.6556   -999.2500
  1982.0000   -999.2500  11727.1768     77.5754     67.0769   -999.2500
  1982.2500   -999.2500 100000.0000    113.6796     63.6682   -999.2500
  1982.5000   -999.2500 100000.0000    201.3244     57.5661   -999.2500
  1982.7500   -999.2500 100000.0000    517.1765     48.7326   -999.2500
  1983.0000   -999.2500 100000.0000 100000.0000     38.5475   -999.2500
  1983.2500   -999.2500 100000.0000 100000.0000     29.2052   -999.2500
  1983.5000   -999.2500 100000.0000 100000.0000     22.3543   -999.2500
  1983.7500   -999.2500 100000.0000 100000.0000     18.2749   -999.2500
  1984.0000   -999.2500 100000.0000 100000.0000     16.1877   -999.2500
  1984.2500   -999.2500 100000.0000 100000.0000     15.1002   -999.2500
  1984.5000   -999.2500 100000.0000 100000.0000     14.3730   -999.2500
  1984.7500   -999.2500 100000.0000   1866.2969     13.7696   -999.2500
  1985.0000   -999.2500 100000.0000   1912.3877     13.2438   -999.2500
  1985.2500   -999.2500 100000.0000   1965.4800     12.7687   -999.2500
  1985.5000   -999.2500 100000.0000   2024.2299     12.3049   -999.2500
  1985.7500   -999.2500 100000.0000   2091.4521     11.8355   -999.2500
  1986.0000   -999.2500 100000.0000   2180.4436     11.3673   -999.2500
  1986.2500   -999.2500 100000.0000   2322.6140     10.8753   -999.2500
  1986.5000   -999.2500 100000.0000   2577.5989     10.2291   -999.2500
  1986.7500   -999.2500 100000.0000   3056.4290      9.1765   -999.2500
  1987.0000   -999.2500 100000.0000   3992.4988      7.4708   -999.2500
  1987.2500   -999.2500 100000.0000   5990.0229      5.1181   -999.2500
  1987.5000   -999.2500   -999.2500  11212.1279      2.5130   -999.2500
  1987.7500   -999.2500   -999.2500  36366.9492      0.2405   -999.2500
  1988.0000   -999.2500   -999.2500 100000.0000     -1.3115   -999.2500
  1988.2500   -999.2500   -999.2500 100000.0000     -2.1391   -999.2500
  1988.5000   -999.2500   -999.2500 100000.0000     -2.4833   -999.2500
  1988.7500   -999.2500   -999.2500 100000.0000     -2.5949   -999.2500
  1989.0000   -999.2500   -999.2500 100000.0000     -2.6231   -999.2500
  1989.2500   -999.2500   -999.2500 100000.0000     -2.6286   -999.2500
  1989.5000   -999.2500   -999.2500 100000.0000   -999.2500   -999.2500
  1989.7500   -999.2500   -999.2500 100000.0000   -999.2500   -999.2500
  1990.0000   -999.2500   -999.2500 100000.0000   -999.2500   -999.2500
  1990.2500   -999.2500   -999.2500 100000.0000   -999.2500   -999.2500
  1990.5000   -999.2500   -999.2500 100000.0000   -999.2500   -999.2500
  1990.7500   -999.2500   -999.2500 100000.0000   -999.2500   -999.2500
  1991.0000   -999.2500   -999.2500 100000.0000   -999.2500   -999.2500
  1991.2500   -999.2500   -999.2500 100000.0000   -999.2500   -999.2500
  1991.5000   -999.2500   -999.2500 100000.0000   -999.2500   -999.2500
  1991.7500   -999.2500   -999.2500 100000.0000   -999.2500   -999.2500
  1992.0000   -999.2500   -999.2500 100000.0000   -999.2500   -999.2500
