~Version Information
VERS.                      2.0: CWLS Log ASCII Standard - VERSION 2.0
WRAP.                       NO: One line per depth step
~Well Information Block
STRT.FT               292.0000: 
STOP.FT               801.0000: 
STEP.FT                 0.1000: 
NULL.                -999.2500: 
COMP.          Pioneer Natural Resources: COMPANY
WELL.          HG Duran 34-27 Tr: WELL
FLD.           Purgatoire River: FIELD
LOC.           1076' FSL & 1465' FEL: LOCATION
PROV.                 Colorado: PROVINCE
CNTY.               Las Animas: COUNTRY
SRVC.                Patterson: SERVICE COMPANY
DATE.          Wed Apr 13 08:36:06 2005: LOG DATE
UWI.           05 071 08218 00: UNIQUE WELL ID
~Curve Information Block
DEPT.FT            0 000 00 00: Depth
DCAL.in                       : CDL Caliper
RHOB.g/cc                     : CDL Bulk Density
RHOC.g/cc                     : CDL Density Correction
DPOR.pu                       : CDL Density Porosity
GR.GAPI                       : Gamma Ray
NPOR.pu                       : Neutron Porosity
~Parameter Information Block
~A  Depth       DCAL        RHOB        RHOC        DPOR         GR         NPOR    
# ...
   455.2000      7.9665      2.0705      0.3622     35.1235    115.0734     18.3689
   455.3000      7.9547      2.0887      0.3695     34.0185    114.8291     18.7274
   455.4000      7.9547      2.0911      0.3889     33.8724    114.1239     19.1714
   455.5000      7.9588      2.0729      0.3053     34.9752    113.1458     19.6590
   455.6000      7.9588      2.0635      0.1820     35.5467    116.4292     20.2647
   455.7000      7.9588      2.1027      0.1883     33.1695    120.4853     21.2219
   455.8000      8.0916      2.1997      0.2505     27.2899    118.5574     22.4975
   455.9000      8.0916      2.3346      0.2399     19.1126    114.7207     23.5354
   456.0000      8.1046      2.4629      0.2916     11.3410    115.2920     23.8828
   456.1000      8.1046      2.5383      0.2136      6.7726    119.3715     23.6489
   456.2000      8.1046      2.5575      0.2407      5.6050    121.7756     23.3331
   456.3000      8.2938      2.5390      0.2118      6.7272    120.3933     23.2278
   456.4000      8.2938      2.4910      0.1936      9.6367    120.7197     23.2021
   456.5000      8.1829      2.4332      0.1191     13.1383    124.9995     23.1565
   456.6000      8.1829      2.3985      0.0945     15.2415    127.7691     23.2084
   456.7000      8.1829      2.3963      0.1176     15.3739    127.7186     23.7222
   456.8000      8.0166      2.4077      0.0919     14.6828    128.1721     24.5112
   456.9000      8.0166      2.4161      0.0637     14.1751    130.0694     24.7437
   457.0000      7.9936      2.4270      0.0743     13.5131    132.4887     24.1627
   457.1000      7.9936      2.4540      0.0558     11.8765    136.6583     23.2865
   457.2000      7.9936      2.4770      0.1289     10.4819    143.6254     22.6441
   457.3000      8.0381      2.4620      0.1201     11.3937    148.8102     22.3474
   457.4000      8.0381      2.4231      0.0632     13.7488    150.8510     22.0539
   457.5000      8.0082      2.3904      0.0560     15.7310    151.9425     21.5876
   457.6000      8.0082      2.3516      0.0886     18.0829    151.5286     20.9815
   457.7000      8.0082      2.2968     -0.0040     21.4059    150.1004     20.3438
   457.8000      8.0248      2.2530      0.0061     24.0585    146.3215     19.7482
   457.9000      8.0248      2.2240      0.0684     25.8185    141.3927     19.1243
   458.0000      8.0428      2.1852      0.0503     28.1697    139.7172     18.6062
   458.1000      8.0428      2.1389      0.0248     30.9728    141.1429     18.1477
   458.2000      8.0428      2.0983      0.0687     33.4365    141.0468     17.6445
   458.3000      8.0244      2.0466      0.1501     36.5672    136.5471     17.6006
   458.4000      8.0244      1.9616      0.0692     41.7208    130.7745     18.2230
   458.5000      8.0207      1.8585     -0.0099     47.9669    126.3866     18.8673
   458.6000      8.0207      1.7842     -0.0357     52.4726    120.6049     19.0584
   458.7000      8.0207      1.7785     -0.0440     52.8153    112.6761     18.9811
   458.8000      8.0555      1.8370      0.1038     49.2751    107.6235     19.0356
   458.9000      8.0555      1.9116      0.1646     44.7518    107.6928     19.3036
   459.0000      8.0240      1.9626      0.2444     41.6579    110.5244     19.5921
   459.1000      8.0240      1.9938      0.2050     39.7676    114.6786     19.9687
   459.2000      8.0240      2.0387      0.2269     37.0487    117.1147     20.5110
   459.3000      7.9917      2.1156      0.2388     32.3866    115.2796     21.0148
   459.4000      7.9917      2.2019      0.2651     27.1565    112.8594     21.3025
   459.5000      8.0201      2.2536      0.2687     24.0259    116.0855     21.6091
   459.6000      8.0201      2.2626      0.0800     23.4790    124.7950     22.0088
   459.7000      8.0201      2.2638      0.0475     23.4046    131.1981     21.9666
   459.8000      8.1057      2.2715      0.0913     22.9369    130.6797     21.4722
   459.9000      8.1057      2.2776      0.0062     22.5721    127.2213     21.1457
   460.0000      8.0917      2.2871      0.0111     21.9945    128.0797     21.0519
   460.1000      8.0917      2.2976      0.0741     21.3582    133.5058     20.8644
   460.2000      8.0917      2.2939      0.0602     21.5842    135.5271     20.6731
   460.3000      8.0431      2.2817      0.0570     22.3193    131.7483     20.7418
   460.4000      8.0431      2.2857      0.0226     22.0760    128.0110     20.9731
   460.5000      8.0005      2.3173      0.1187     20.1617    128.8635     21.1642
   460.6000      8.0005      2.3594      0.1660     17.6104    134.6823     21.2783
   460.7000      8.0005      2.3973      0.1437     15.3151    144.1236     21.4902
   460.8000      8.0111      2.4331      0.2226     13.1428    153.6324     21.8781
   460.9000      8.0111      2.4510      0.2232     12.0597    157.3830     22.5242
   461.0000      7.9661      2.4288      0.1826     13.4034    155.8054     23.4622
   461.1000      7.9661      2.3795      0.1545     16.3950    151.6793     24.2950
   461.2000      7.9661      2.3451     -0.0095     18.4814    144.3579     24.7789
   461.3000      7.9311      2.3569      0.0804     17.7655    136.1834     24.8385
   461.4000      7.9311      2.4012      0.1292     15.0777    130.6869     24.3268
   461.5000      7.9303      2.4571      0.0878     11.6923    129.3677     23.7910
   461.6000      7.9303      2.5208      0.1387      7.8318    132.1372     24.0752
   461.7000      7.9303      2.5778      0.1390      4.3740    135.8396     24.9343
   461.8000      7.9421      2.6007      0.1616      2.9850    137.1974     25.4474
   461.9000      7.9421      2.5757      0.1264      4.5005    135.1336     25.2212
   462.0000      7.9349      2.5280      0.0645      7.3944    132.3955     24.8577
   462.1000      7.9349      2.5021      0.0350      8.9627    134.2592     25.1629
   462.2000      7.9349      2.4972      0.0658      9.2617    140.4607     26.0433
   462.3000      7.9247      2.4783      0.0294     10.4050    145.7764     26.7250
   462.4000      7.9247      2.4492      0.0003     12.1687    146.3243     26.6878
   462.5000      7.8920      2.4325     -0.0123     13.1823    143.4886     25.9443
   462.6000      7.8920      2.4297     -0.0702     13.3523    143.7605     24.9869
   462.7000      7.8920      2.4297     -0.0143     13.3486    147.4846     24.2874
   462.8000      7.9337      2.4187     -0.0262     14.0155    146.6283     23.9050
   462.9000      7.9337      2.4017     -0.0554     15.0485    138.7781     23.9231
   463.0000      7.9393      2.3888      0.0004     15.8317    129.6148     24.4752
   463.1000      7.9393      2.3820     -0.0742     16.2416    126.1969     25.2215
   463.2000      7.9393      2.3993     -0.0307     15.1936    129.0274     25.5122
   463.3000      7.9611      2.4568      0.0317     11.7114    131.3976     25.2417
   463.4000      7.9611      2.5438      0.0950      6.4336    131.1283     24.7577
   463.5000      7.9838      2.6206      0.1473      1.7821    129.5722     24.4353
   463.6000      7.9838      2.6592      0.1446     -0.5594    128.2614     24.5331
   463.7000      7.9838      2.6649      0.1874     -0.9003    130.8462     24.8447
   463.8000      7.9782      2.6389      0.2250      0.6755    134.7743     24.8869
   463.9000      7.9782      2.5841      0.1351      3.9941    133.3407     24.6953
   464.0000      7.8834      2.5243      0.1020      7.6165    129.3045     24.5610
   464.1000      7.8834      2.4891      0.0101      9.7495    129.3217     24.2749
   464.2000      7.8834      2.4841      0.0953     10.0525    133.7170     23.7160
   464.3000      7.8589      2.4861      0.0211      9.9347    140.5853     23.1342
   464.4000      7.8589      2.4795      0.0606     10.3322    147.1280     22.6677
   464.5000      7.8844      2.4740      0.0829     10.6663    148.5513     22.4203
   464.6000      7.8844      2.4915      0.1064      9.6039    147.1647     22.4598
   464.7000      7.8844      2.5310      0.1085      7.2095    148.8495     22.5676
