~Version Information
VERS.                      2.0: CWLS Log ASCII Standard - VERSION 2.0
WRAP.                       NO: One line per depth step
~Well Information Block
STRT.FT              1882.7500: 
STOP.FT              2400.5000: 
STEP.FT                 0.2500: 
NULL.                -999.2500: 
COMP.          Pioneer Natural Resources: COMPANY
WELL.          Flying Horse 12-11: WELL
FLD.           Purgatoire River: FIELD
LOC.           2,428' FNL & 308' FWL------: LOCATION
PROV.                 Colorado: PROVINCE
CNTY.               Las Animas: COUNTRY
SRVC.                         : SERVICE COMPANY
DATE.          Fri Jun 10 06:52:30 2005: LOG DATE
UWI.                          : UNIQUE WELL ID
~Curve Information Block
DEPT.FT            0 000 00 00: Depth
CCL.                          : Casing Collar Locator
TT3.usec                      : CBL 3' Travel Time
AMP3.mV                       : CBL 3' Amplitude
AMP5.mV                       : CBL 5' Amplitude
GR.GAPI                       : Gamma Ray
~Parameter Information Block
~A  Depth       CCL         TT3         AMP3        AMP5         GR     
# ...
  1910.7500      0.0000    287.8341     35.4184     68.3704    113.6106
  1911.0000      0.0000    277.5954     34.5955     68.5445    111.9369
  1911.2500      0.0000    270.8641     34.3878     68.1963    112.9529
  1911.5000     -2.0000    268.2091     34.3741     67.6740    116.7075
  1911.7500      0.0000    268.5173     34.4140     67.6740    121.3182
  1912.0000      0.0000    270.4307     34.6400     69.0668    124.1375
  1912.2500      0.0000    272.4415     35.4821     67.9352    123.9070
  1912.5000      0.0000    272.9842     37.5997     67.9352    121.8856
  1912.7500      0.0000    271.3003     41.5170     67.3258    120.8650
  1913.0000      0.0000    268.0241     47.0852     67.1517    122.9124
  1913.2500      0.0000    264.5701     53.3010     68.4574    128.0616
  1913.5000      0.0000    261.9849     58.8116     45.7383    135.0926
  1913.7500      0.0000    260.4909     62.7147     86.1279    142.6426
  1914.0000      0.0000    259.7997     64.9313     66.8906    148.9541
  1914.2500      0.0000    259.5458     65.9427     81.2533    151.6210
  1914.5000      0.0000    259.4804     66.3043     88.8263    148.9542
  1914.7500      0.0000    259.4770     66.3719     88.1299    141.6824
  1915.0000      0.0000    259.4854     66.3090     90.0450    132.8401
  1915.2500      0.0000    259.4887     66.2020     90.9154    125.8017
  1915.5000      0.0000    259.4833     66.1317     89.4356    122.2958
  1915.7500      0.0000    259.4703     66.1514     89.7838    121.9758
  1916.0000      0.0000    259.4548     66.2297     86.6502    123.5075
  1916.2500      0.0000    259.4437     66.2508     85.7797    126.0040
  1916.5000      0.0000    259.4399     66.0962     86.0408    129.8132
  1916.7500      0.0000    259.4387     65.7345     86.1279    136.0954
  1917.0000      0.0000    259.4342     65.2412     86.2149    145.3183
  1917.2500      0.0000    259.4274     64.7374     86.3020    155.8068
  1917.5000      0.0000    259.4274     64.3065     86.2149    163.8609
  1917.7500      0.0000    259.4445     63.9592     86.7372    165.8121
  1918.0000      0.0000    259.4802     63.6750     86.7372    160.6145
  1918.2500      0.0000    259.5244     63.4659     87.7818    150.7885
  1918.5000      0.0000    259.5615     63.3780     88.0429    140.6186
  1918.7500      0.0000    259.5821     63.4227     88.1299    133.1709
  1919.0000      0.0000    259.5872     63.5205     86.8242    129.0478
  1919.2500      0.0000    259.5840     63.5363     86.5631    127.6595
  1919.5000      0.0000    259.5783     63.3740     84.2999    128.7174
  1919.7500      0.0000    259.5728     63.0427     85.1704    131.9436
  1920.0000      0.0000    259.5690     62.6388     85.7797    136.0494
  1920.2500      0.0000    259.5702     62.2668     84.5610    139.0480
  1920.5000      0.0000    259.5787     61.9665     86.0408    139.7118
  1920.7500      0.0000    259.5951     61.7116     83.9517    138.3307
  1921.0000      0.0000    259.6185     61.4654     82.8201    136.1791
  1921.2500      0.0000    259.6481     61.2299     82.2108    134.6286
  1921.5000      0.0000    259.6813     61.0343     81.5144    134.6880
  1921.7500      0.0000    259.7104     60.8909     82.1237    136.9967
  1922.0000      0.0000    259.7255     60.7775     82.1237    141.8779
  1922.2500      0.0000    259.7229     60.6625     82.9942    148.9324
  1922.5000      0.0000    259.7094     60.5306     81.8626    156.5466
  1922.7500      0.0000    259.6963     60.3771     82.2108    162.4700
  1923.0000      0.0000    259.6904     60.1944     81.7756    165.3779
  1923.2500      0.0000    259.6928     59.9811     82.3849    165.8400
  1923.5000      0.0000    259.7021     59.7666     83.1683    165.6742
  1923.7500      0.0000    259.7151     59.6180     84.8222    166.4189
  1924.0000      0.0000    259.7251     59.6162     86.1279    168.3294
  1924.2500      0.0000    259.7231     59.8167     86.8242    170.4763
  1924.5000      0.0000    259.7056     60.2141     86.3020    171.6696
  1924.7500      0.0000    259.6776     60.7326     86.9983    171.5340
  1925.0000      0.0000    259.6485     61.2576     86.0408    170.6989
  1925.2500      0.0000    259.6257     61.6920     85.8667    169.7201
  1925.5000      0.0000    259.6147     61.9891     86.3890    167.9902
  1925.7500      0.0000    259.6196     62.1469     85.8667    164.0990
  1926.0000      0.0000    259.6397     62.1890     85.5185    157.2558
  1926.2500      0.0000    259.6663     62.1589     86.1279    148.1315
  1926.5000      0.0000    259.6836     62.1262     85.6926    138.4752
  1926.7500      0.0000    259.6766     62.1818     85.9538    130.0671
  1927.0000      0.0000    259.6403     62.4118     86.3020    123.6715
  1927.2500      0.0000    259.5833     62.8537     86.3890    118.6025
  1927.5000      0.0000    259.5247     63.4691     85.6926    113.4389
  1927.7500      0.0000    259.4843     64.1579     85.9538    107.3915
  1928.0000      0.0000    259.4724     64.8098     85.6056    100.8996
  1928.2500      0.0000    259.4846     65.3480     85.6926     94.8609
  1928.5000      0.0000    259.5068     65.7406     86.5631     89.6915
  1928.7500      0.0000    259.5254     65.9850     87.6947     85.4879
  1929.0000      0.0000    259.5343     66.0953     88.9134     82.7784
  1929.2500      0.0000    259.5352     66.1037     89.2616     82.4948
  1929.5000      0.0000    259.5322     66.0611     90.4802     85.1737
  1929.7500      0.0000    259.5287     66.0154     89.6968     90.4532
  1930.0000      0.0000    259.5262     65.9692     88.3911     97.0266
  1930.2500      0.0000    259.5265     65.8517     85.5185    102.7796
  1930.5000      0.0000    259.5331     65.5453     86.6502    105.5338
  1930.7500      0.0000    259.5490     64.9817     86.3890    104.4354
  1931.0000      0.0000    259.5721     64.2370     86.7372    100.7859
  1931.2500      0.0000    259.5953     63.5186     86.6502     97.2723
  1931.5000      0.0000    259.6129     63.0262     86.7372     96.0970
  1931.7500      0.0000    259.6241     62.8149     86.1279     97.6169
  1932.0000      0.0000    259.6327     62.7911     86.3890    100.6686
  1932.2500      0.0000    259.6444     62.8130     85.7797    103.9842
  1932.5000      0.0000    259.6656     62.7757     84.6481    107.1306
  1932.7500      0.0000    259.6999     62.6234     84.7351    110.4460
  1933.0000      0.0000    259.7458     62.3182     84.5610    114.6079
  1933.2500      0.0000    259.7971     61.8218     84.5610    120.1846
  1933.5000      0.0000    259.8449     61.1233     84.6481    127.2143
  1933.7500      0.0000    259.8794     60.2924     84.5610    135.2782
  1934.0000      0.0000    259.8918     59.4863     85.0833    144.0768
  1934.2500      0.0000    259.8798     58.8709     86.3020    153.4413
  1934.5000      0.0000    259.8506     58.5271     86.4761    162.5016
  1934.7500      0.0000    259.8167     58.4343     86.9983    169.4989
  1935.0000      0.0000    259.7876     58.5153     81.8626    173.0275
  1935.2500      0.0000    259.7680     58.6652     80.3828    173.1885
  1935.5000      0.0000    259.7641     58.7601     79.5123    171.3740
  1935.7500      0.0000    259.7853     58.6937     81.1662    169.3513
  1936.0000      0.0000    259.8362     58.4391     82.2978    168.4979
  1936.2500      0.0000    259.9066     58.0824     82.1237    169.2576
  1936.5000      0.0000    259.9716     57.7878     82.4719    171.1162
  1936.7500      0.0000    260.0029     57.7034     82.6460    173.2497
  1937.0000      0.0000    259.9865     57.8668     82.4719    175.0021
  1937.2500      0.0000    259.9309     58.1925     81.9496    175.6596
  1937.5000      0.0000    259.8608     58.5526     79.5123    174.4893
  1937.7500      0.0000    259.8003     58.8663     79.5994    171.6074
  1938.0000      0.0000    259.7632     59.1150     79.3382    168.3758
  1938.2500      0.0000    259.7519     59.3016     81.6885    166.3826
  1938.5000      0.0000    259.7599     59.4359     82.8201    166.2290
