~Version Information
VERS.                      2.0: CWLS Log ASCII Standard - VERSION 2.0
WRAP.                       NO: One line per depth step
~Well Information Block
STRT.FT               825.0000: 
STOP.FT              2446.5000: 
STEP.FT                 0.2500: 
NULL.                -999.2500: 
COMP.          Petrogulf Corporation: COMPANY
WELL.            Kraft 17-23 V: WELL
FLD.           Purgatorie River: FIELD
LOC.           1500' FSL & 1773' FWL: LOCATION
CNTY.               Las Animas: COUNTY
SRVC.                         : SERVICE COMPANY
DATE.          Thu Nov 20 06:35:41 2003: LOG DATE
UWI.                          : UNIQUE WELL ID
STAT.                 Colorado: STATE
~Curve Information Block
DEPT.FT            0 000 00 00: Depth
SN.Ohm-m                      : IEL Short Normal
SP.mV                         : IEL Spontaneous Potential
DIR.Ohm-m                     : IEL Induction Resistivity
GR.GAPI                       : Gamma Ray
~Parameter Information Block
~A  Depth        SN          SP         DIR          GR     
# ...
  1662.5000     12.2424   -102.7312      8.4664    106.6340
  1662.7500     11.1359   -102.7732      8.0496    113.9826
  1663.0000     10.3855   -102.9883      7.6406    124.4691
  1663.2500      9.7480   -103.3125      7.2457    129.3645
  1663.5000      9.0762   -103.6652      6.8774    132.2781
  1663.7500      8.6235   -103.9470      6.5552    131.8472
  1664.0000      8.6409   -104.0241      6.3008    130.1058
  1664.2500      8.8790   -103.7580      6.1315    129.6201
  1664.5000      8.8094   -103.1004      6.0560    130.8414
  1664.7500      8.2856   -102.1758      6.0726    132.4892
  1665.0000      7.8228   -101.2386      6.1732    134.5216
  1665.2500      7.9549   -100.5028      6.3457    134.8885
  1665.5000      8.4973    -99.9953      6.5765    134.4462
  1665.7500      8.9494    -99.5871      6.8491    134.4784
  1666.0000      9.2156    -99.1277      7.1437    135.7322
  1666.2500      9.4349    -98.4693      7.4403    136.5468
  1666.5000      9.5916    -97.3660      7.7256    135.7903
  1666.7500      9.6285    -95.5191      7.9973    133.8894
  1667.0000      9.5871    -92.8634      8.2625    130.9006
  1667.2500      9.6222    -89.7255      8.5300    129.9807
  1667.5000     10.0120    -86.5693      8.8059    130.0191
  1667.7500     10.8944    -83.6774      9.0965    129.5700
  1668.0000     12.1273    -81.2025      9.4171    125.5243
  1668.2500     13.6775    -79.3477      9.7958    120.0105
  1668.5000     15.7668    -78.2583     10.2709    108.7035
  1668.7500     18.2991    -77.8303     10.8795    100.6690
  1669.0000     20.4764    -77.8353     11.6445     90.7255
  1669.2500     21.6189    -78.1689     12.5606     86.5495
  1669.5000     22.0460    -78.8160     13.5829     83.7448
  1669.7500     22.3970    -79.6140     14.6286     83.0863
  1670.0000     22.7908    -80.1967     15.5925     81.9336
  1670.2500     23.1639    -80.2589     16.3781     80.5094
  1670.5000     23.5823    -79.8667     16.9194     77.6939
  1670.7500     23.9941    -79.4518     17.1901     75.9548
  1671.0000     24.2232    -79.4550     17.2059     74.5057
  1671.2500     24.3437    -79.9704     17.0282     74.5004
  1671.5000     24.6716    -80.7147     16.7588     75.5905
  1671.7500     25.2249    -81.2678     16.5174     76.7777
  1672.0000     25.6671    -81.3480     16.4132     79.0025
  1672.2500     25.8976    -80.9459     16.5235     80.4871
  1672.5000     26.2925    -80.2733     16.8868     81.4898
  1672.7500     27.2722    -79.6131     17.4965     80.5818
  1673.0000     28.8621    -79.1991     18.2958     76.6656
  1673.2500     30.7809    -79.1403     19.1822     72.9195
  1673.5000     32.7061    -79.3500     20.0378     66.6090
  1673.7500     34.4161    -79.5584     20.7686     62.1462
  1674.0000     35.9771    -79.4771     21.3245     55.2700
  1674.2500     37.6001    -79.0055     21.6581     51.0397
  1674.5000     39.1563    -78.2973     21.6659     46.3496
  1674.7500     40.1064    -77.6375     21.1990     44.5400
  1675.0000     39.9679    -77.2371     20.1815     42.9955
  1675.2500     38.6882    -77.1097     18.7342     42.1108
  1675.5000     36.4742    -77.0993     17.1410     40.8107
  1675.7500     33.5065    -76.9933     15.6871     40.4407
  1676.0000     30.0145    -76.6246     14.5393     41.6772
  1676.2500     26.3988    -75.9230     13.7375     44.0714
  1676.5000     23.1144    -74.9339     13.2379     50.3210
  1676.7500     20.5471    -73.8042     12.9568     56.3659
  1677.0000     18.9299    -72.7308     12.8035     67.9368
  1677.2500     18.2422    -71.8690     12.7072     76.4860
  1677.5000     18.1739    -71.2224     12.6341     88.2666
  1677.7500     18.0759    -70.6034     12.5892     94.4264
  1678.0000     17.3850    -69.7697     12.6009    101.2996
  1678.2500     16.3318    -68.6482     12.6998    105.1738
  1678.5000     15.5771    -67.3872     12.9023    110.8122
  1678.7500     15.3445    -66.1919     13.2002    114.1295
  1679.0000     15.4015    -65.2049     13.5588    117.4172
  1679.2500     15.5695    -64.5213     13.9249    118.3156
  1679.5000     15.8504    -64.1461     14.2433    118.2847
  1679.7500     16.2089    -63.8759     14.4816    117.8195
  1680.0000     16.5576    -63.3655     14.6488    117.1294
  1680.2500     16.9334    -62.4287     14.7906    116.9094
  1680.5000     17.5190    -61.2230     14.9734    116.8043
  1680.7500     18.4028    -60.0821     15.2632    116.4179
  1681.0000     19.4883    -59.2258     15.7078    114.3378
  1681.2500     20.7814    -58.6559     16.3235    111.5937
  1681.5000     22.4696    -58.2406     17.0841    105.4725
  1681.7500     24.5940    -57.8326     17.9132    100.2834
  1682.0000     26.8125    -57.3392     18.6903     91.5297
  1682.2500     28.5055    -56.7393     19.2751     85.8619
  1682.5000     29.2293    -56.0710     19.5515     79.8378
  1682.7500     29.1467    -55.4127     19.4757     78.7284
  1683.0000     28.7548    -54.8684     19.1031     81.8141
  1683.2500     28.2355    -54.5236     18.5719     85.7279
  1683.5000     27.4674    -54.3874     18.0393     90.7123
  1683.7500     26.5975    -54.4062     17.6241     91.9588
  1684.0000     26.1293    -54.5625     17.3741     90.9710
  1684.2500     26.2757    -54.9139     17.2707     89.6313
  1684.5000     26.6541    -55.4871     17.2573     88.3552
  1684.7500     26.8850    -56.1808     17.2720     88.3635
  1685.0000     27.0153    -56.8279     17.2697     89.7311
  1685.2500     27.2605    -57.3177     17.2209     91.4319
  1685.5000     27.7425    -57.6188     17.0970     94.3947
  1685.7500     28.3410    -57.7229     16.8648     95.9304
  1686.0000     28.7736    -57.6230     16.5070     96.6664
  1686.2500     29.0047    -57.3586     16.0641     96.0066
  1686.5000     29.1390    -57.0631     15.6505     93.6766
  1686.7500     29.0415    -56.9256     15.4166     91.6653
  1687.0000     28.6743    -57.0742     15.4849     88.8890
  1687.2500     28.3586    -57.4955     15.8932     87.5958
  1687.5000     28.2936    -58.0749     16.5542     86.3646
  1687.7500     28.3721    -58.6894     17.2505     85.4577
  1688.0000     28.4736    -59.2412     17.7204     82.8522
  1688.2500     28.5145    -59.6467     17.8319     80.0538
  1688.5000     28.4306    -59.8617     17.6789     75.0143
  1688.7500     28.3075    -59.9431     17.4771     71.9902
  1689.0000     28.3202    -60.0375     17.3933     69.3800
  1689.2500     28.5941    -60.2570     17.4685     69.2164
  1689.5000     29.1112    -60.5824     17.6375     70.6092
  1689.7500     29.4592    -60.9058     17.7999     71.7538
  1690.0000     29.0217    -61.1022     17.8828     72.5573
  1690.2500     27.9182    -61.0159     17.8809     72.3353
  1690.5000     27.2163    -60.4639     17.8472     71.4178
  1690.7500     27.5958    -59.3397     17.8564     70.7651
  1691.0000     28.4212    -57.6858     17.9774     69.8610
  1691.2500     28.8075    -55.6467     18.2550     69.2048
  1691.5000     28.8477    -53.3878     18.7068     67.9739
  1691.7500     29.1347    -51.0747     19.3201     66.9868
  1692.0000     29.8494    -48.8944     20.0626     65.4799
  1692.2500     30.9056    -47.0603     20.8949     64.6595
  1692.5000     32.1685    -45.7162     21.7875     63.8146
  1692.7500     33.1376    -44.7886     22.7224     63.3447
  1693.0000     33.3582    -44.0128     23.6708     62.4073
  1693.2500     33.1156    -43.1815     24.5730     61.5248
  1693.5000     32.8990    -42.3257     25.3445     59.8202
  1693.7500     32.7793    -41.6181     25.9242     58.5294
  1694.0000     32.6952    -41.1474     26.3198     56.6901
  1694.2500     32.6880    -40.8344     26.5928     55.6424
  1694.5000     32.7532    -40.5468     26.7858     54.1536
  1694.7500     32.7767    -40.2375     26.8578     53.1490
  1695.0000     32.6527    -39.9762     26.6929     52.2128
  1695.2500     32.4018    -39.9130     26.1863     52.5359
  1695.5000     32.1671    -40.2238     25.3349     54.7002
  1695.7500     32.0455    -41.0371     24.2502     56.7456
