~Version Information
VERS.                      2.0: CWLS Log ASCII Standard - VERSION 2.0
WRAP.                       NO: One line per depth step
~Well Information Block
STRT.FT               588.6000: 
STOP.FT              2281.0000: 
STEP.FT                 0.1000: 
NULL.                -999.2500: 
COMP.          Petrogulf Corporation: COMPANY
WELL.             State 16-41V: WELL
FLD.           Purgatorie River: FIELD
LOC.           335' FNL & 823' FEL: LOCATION
CNTY.               Las Animas: COUNTY
SRVC.                         : SERVICE COMPANY
DATE.          Tue Aug 02 07:31:25 2005: LOG DATE
UWI.                          : UNIQUE WELL ID
STAT.                 Colorado: STATE
~Curve Information Block
DEPT.FT            0 000 00 00: Depth
DCAL.in                       : CDL Caliper
RHOB.g/cc                     : CDL Bulk Density
RHOC.g/cc                     : CDL Density Correction
DPOR.pu                       : CDL Density Porosity
GR.GAPI                       : Gamma Ray
NPOR.pu                       : Neutron Porosity
~Parameter Information Block
~A  Depth       DCAL        RHOB        RHOC        DPOR         GR         NPOR    
# ...
  2019.0000      8.0521      2.5247      0.1005      7.5936    127.5386     26.2950
  2019.1000      8.0521      2.5412      0.0786      6.5910    125.1917     27.2930
  2019.2000      8.0521      2.5569      0.0552      5.6401    125.2559     27.9975
  2019.3000      8.0215      2.5730      0.0921      4.6650    125.8446     28.4190
  2019.4000      8.0215      2.5754      0.1346      4.5186    125.3307     28.5856
  2019.5000      8.0070      2.5559      0.0958      5.7028    126.2185     28.5373
  2019.6000      8.0070      2.5315      0.0439      7.1842    128.7589     28.3210
  2019.7000      8.0070      2.5179      0.0644      8.0051    129.1100     27.9852
  2019.8000      8.0048      2.5139      0.0330      8.2465    125.6574     27.5758
  2019.9000      8.0048      2.5143      0.0641      8.2261    122.5182     27.1332
  2020.0000      7.9909      2.5117      0.0729      8.3838    122.3792     26.6897
  2020.1000      7.9909      2.5069      0.0363      8.6739    122.1911     26.2688
  2020.2000      7.9909      2.5111      0.0346      8.4191    119.4257     25.8862
  2020.3000      7.9910      2.5265      0.0690      7.4869    115.5054     25.5499
  2020.4000      7.9910      2.5399      0.0860      6.6699    112.9229     25.2627
  2020.5000      7.9904      2.5338      0.0976      7.0438    113.3310     25.0234
  2020.6000      7.9904      2.5054      0.0704      8.7628    115.4199     24.8294
  2020.7000      7.9904      2.4771      0.0018     10.4815    113.8101     24.6769
  2020.8000      8.0120      2.4670      0.0299     11.0889    106.7162     24.5625
  2020.9000      8.0120      2.4679      0.0218     11.0343    101.1390     24.4831
  2021.0000      8.0148      2.4707      0.0181     10.8689    102.4432     24.4363
  2021.1000      8.0148      2.4783      0.0079     10.4071    107.5587     24.4192
  2021.2000      8.0148      2.4850      0.0335      9.9987    112.0846     24.4291
  2021.3000      8.0202      2.4774      0.0621     10.4588    114.1712     24.4626
  2021.4000      8.0202      2.4628      0.0315     11.3437    113.8765     24.5161
  2021.5000      8.0037      2.4608      0.0098     11.4677    112.7160     24.5856
  2021.6000      8.0037      2.4692      0.0668     10.9551    112.6165     24.6679
  2021.7000      8.0037      2.4718      0.0238     10.7975    114.9847     24.7604
  2021.8000      7.9948      2.4648      0.0400     11.2238    118.7519     24.8615
  2021.9000      7.9948      2.4562      0.0429     11.7430    120.5155     24.9706
  2022.0000      7.9738      2.4576      0.0315     11.6623    117.6750     25.0877
  2022.1000      7.9738      2.4713      0.1084     10.8277    111.6054     25.2126
  2022.2000      7.9738      2.4916      0.0529      9.6016    106.1012     25.3448
  2022.3000      7.9663      2.5173      0.0941      8.0444    101.2644     25.4829
  2022.4000      7.9663      2.5421      0.1180      6.5419     94.0760     25.6245
  2022.5000      7.9637      2.5534      0.1221      5.8553     87.0052     25.7665
  2022.6000      7.9637      2.5471      0.1200      6.2361     84.8554     25.9053
  2022.7000      7.9637      2.5328      0.0938      7.1008     85.6147     26.0374
  2022.8000      7.9310      2.5262      0.0317      7.5031     85.7425     26.1594
  2022.9000      7.9310      2.5287      0.0849      7.3505     86.2866     26.2686
  2023.0000      7.9220      2.5288      0.0788      7.3469     87.2358     26.3627
  2023.1000      7.9220      2.5256      0.0486      7.5387     86.5318     26.4405
  2023.2000      7.9220      2.5291      0.0339      7.3259     84.8267     26.5014
  2023.3000      7.9169      2.5429      0.0381      6.4892     83.7209     26.5460
  2023.4000      7.9169      2.5616      0.0402      5.3549     82.7961     26.5760
  2023.5000      7.9862      2.5772      0.0683      4.4101     82.5176     26.5946
  2023.6000      7.9862      2.5820      0.0818      4.1201     82.9695     26.6064
  2023.7000      7.9862      2.5729      0.0873      4.6704     83.8663     26.6172
  2023.8000      7.9899      2.5590      0.0403      5.5145     86.3575     26.6334
  2023.9000      7.9899      2.5483      0.0592      6.1624     91.0870     26.6621
  2024.0000      7.9921      2.5375      0.0337      6.8161     98.1392     26.7100
  2024.1000      7.9921      2.5298      0.0081      7.2870    108.1509     26.7835
  2024.2000      7.9921      2.5337      0.0388      7.0484    118.5525     26.8875
  2024.3000      7.9875      2.5478      0.0651      6.1926    124.6838     27.0258
  2024.4000      7.9875      2.5643      0.0618      5.1945    126.7746     27.1997
  2024.5000      7.9959      2.5760      0.0296      4.4819    128.0491     27.4085
  2024.6000      7.9959      2.5753      0.0672      4.5264    129.9532     27.6487
  2024.7000      7.9959      2.5617      0.0613      5.3541    133.6333     27.9143
  2024.8000      7.9879      2.5537      0.0538      5.8346    140.1445     28.1973
  2024.9000      7.9879      2.5685      0.0546      4.9371    147.9546     28.4880
  2025.0000      7.9826      2.5934      0.1314      3.4327    153.2754     28.7760
  2025.1000      7.9826      2.5997      0.1162      3.0499    154.5512     29.0516
  2025.2000      7.9826      2.5871      0.0648      3.8143    152.1268     29.3064
  2025.3000      7.9623      2.5816      0.0083      4.1452    146.2999     29.5344
  2025.4000      7.9623      2.5884      0.1063      3.7316    140.5428     29.7320
  2025.5000      7.9662      2.5905      0.0807      3.6089    137.6810     29.8981
  2025.6000      7.9662      2.5875      0.0706      3.7864    136.4447     30.0336
  2025.7000      7.9662      2.5866      0.0680      3.8398    135.5342     30.1405
  2025.8000      7.9671      2.5825      0.0476      4.0923    135.4906     30.2207
  2025.9000      7.9671      2.5751      0.0345      4.5408    134.6188     30.2754
  2026.0000      7.9594      2.5702      0.0204      4.8343    133.1119     30.3043
  2026.1000      7.9594      2.5665      0.0614      5.0633    134.3552     30.3056
  2026.2000      7.9594      2.5651      0.0396      5.1425    137.5677     30.2759
  2026.3000      7.9675      2.5711      0.0616      4.7814    142.0468     30.2109
  2026.4000      7.9675      2.5769      0.0805      4.4274    147.8531     30.1062
  2026.5000      7.9649      2.5751      0.0711      4.5396    151.3582     29.9577
  2026.6000      7.9649      2.5660      0.0826      5.0898    149.3640     29.7618
  2026.7000      7.9649      2.5457      0.1092      6.3217    144.3272     29.5158
  2026.8000      7.9226      2.5181      0.0490      7.9959    141.1042     29.2172
  2026.9000      7.9226      2.5079      0.0348      8.6099    141.5058     28.8642
  2027.0000      7.8910      2.5302      0.0774      7.2596    145.1472     28.4559
  2027.1000      7.8910      2.5725      0.1120      4.6963    149.4101     27.9940
  2027.2000      7.8910      2.6139      0.1454      2.1895    150.4455     27.4849
  2027.3000      7.9334      2.6410      0.1694      0.5477    147.4660     26.9433
  2027.4000      7.9334      2.6485      0.1466      0.0906    143.8584     26.3953
  2027.5000      7.9288      2.6337      0.1664      0.9859    142.1292     25.8820
  2027.6000      7.9288      2.6019      0.1489      2.9168    142.0100     25.4594
  2027.7000      7.9288      2.5678      0.1234      4.9797    142.3692     25.1981
  2027.8000      7.8655      2.5402      0.1129      6.6542    141.5165     25.1784
  2027.9000      7.8655      2.5195      0.0629      7.9063    140.0364     25.4842
  2028.0000      7.8650      2.5014      0.1266      9.0032    138.7172     26.1940
  2028.1000      7.8650      2.4864      0.0298      9.9174    135.3375     27.3712
  2028.2000      7.8650      2.4927      0.0155      9.5358    130.1408     29.0519
  2028.3000      8.0073      2.5201      0.0988      7.8700    126.2289     31.2330
  2028.4000      8.0073      2.5412      0.0929      6.5916    126.1167     33.8629
  2028.5000      8.0866      2.5467      0.0993      6.2597    129.7857     36.8395
