~Version Information
VERS.                      2.0: CWLS Log ASCII Standard - VERSION 2.0
WRAP.                       NO: One line per depth step
~Well Information Block
STRT.FT                -7.5000: 
STOP.FT              2339.2500: 
STEP.FT                 0.2500: 
NULL.                -999.2500: 
COMP.          Pioneer Natural Resources: COMPANY
WELL.            Harrier 44-33: WELL
FLD.           Purgatorie River: FIELD
LOC.           456' FSL & 930' FEL--: LOCATION
PROV.                       CO: PROVINCE
CNTY.               Las Animas: COUNTRY
SRVC.          Patterson Wireline: SERVICE COMPANY
DATE.          Wed Jun 29 11:08:51 2005: LOG DATE
UWI.           05 071 08398 00: UNIQUE WELL ID
~Curve Information Block
DEPT.FT            0 000 00 00: Depth
CCL.                          : Casing Collar Locator
TT3.usec                      : CBL 3' Travel Time
AMP3.mV                       : CBL 3' Amplitude
GR.GAPI                       : Gamma Ray
~Parameter Information Block
~A  Depth       CCL         TT3         AMP3         GR     
# ...
  1064.5000      0.0000    753.3125      6.5919     97.0478
  1064.7500      0.0000    771.5661      6.5963     92.8792
  1065.0000      0.0000    778.4116      6.6091     88.7221
  1065.2500     -2.0000    776.8375      6.6304     84.8540
  1065.5000      0.0000    770.1349      6.6548     81.8757
  1065.7500      0.0000    757.9251      6.6639     80.2664
  1066.0000      0.0000    736.5739      6.6536     79.5760
  1066.2500      0.0000    706.4461      6.6586     78.6138
  1066.5000      0.0000    678.1095      6.7152     76.6048
  1066.7500      0.0000    666.3104      6.8009     73.8213
  1067.0000      0.0000    675.8037      6.8387     70.9057
  1067.2500      0.0000    697.0901      6.7584     67.8810
  1067.5000      0.0000    717.2728      6.5359     64.2718
  1067.7500      0.0000    730.9131      6.2003     60.1335
  1068.0000      0.0000    739.1950      5.8317     56.3868
  1068.2500      0.0000    742.2820      5.5317     53.9148
  1068.5000      0.0000    735.5418      5.3628     52.7230
  1068.7500      0.0000    713.3799      5.3074     52.2122
  1069.0000      0.0000    676.0121      5.2939     51.9667
  1069.2500      0.0000    631.7355      5.2697     52.0393
  1069.5000      0.0000    591.9708      5.2419     52.7436
  1069.7500      0.0000    564.1071      5.2451     54.3437
  1070.0000      0.0000    549.5629      5.2828     56.6104
  1070.2500      0.0000    547.9873      5.3231     58.4879
  1070.5000      0.0000    561.4246      5.3412     58.6971
  1070.7500      0.0000    592.8705      5.3431     56.9685
  1071.0000      0.0000    640.5896      5.3450     54.3356
  1071.2500      0.0000    695.1110      5.3456     52.0134
  1071.5000      0.0000    743.2682      5.3300     50.3973
  1071.7500      0.0000    775.4559      5.2969     49.2913
  1072.0000      0.0000    788.9310      5.2730     48.6409
  1072.2500      0.0000    785.8777      5.2918     48.6725
  1072.5000      0.0000    771.0591      5.3523     49.4942
  1072.7500      0.0000    751.8194      5.4124     50.8661
  1073.0000      0.0000    737.5518      5.4323     52.3935
  1073.2500      0.0000    735.4146      5.4159     53.7864
  1073.5000      0.0000    745.2139      5.3983     54.8041
  1073.7500      0.0000    759.7387      5.3986     55.0091
  1074.0000      0.0000    770.6544      5.4054     53.8555
  1074.2500      0.0000    773.8978      5.4057     51.2855
  1074.5000      0.0000    771.0604      5.4046     48.1365
  1074.7500      0.0000    767.9858      5.4091     45.6452
  1075.0000      0.0000    771.3712      5.4123     44.5128
  1075.2500      0.0000    783.9457      5.4044     44.4939
  1075.5000      0.0000    802.1414      5.3891     44.7407
  1075.7500      0.0000    819.3369      5.3745     44.4879
  1076.0000      0.0000    831.1864      5.3571     43.6204
  1076.2500      0.0000    837.4910      5.3246     42.6280
  1076.5000      0.0000    840.2895      5.2687     41.9499
  1076.7500      0.0000    841.5665      5.1917     41.5419
  1077.0000      0.0000    842.3926      5.1051     41.1985
  1077.2500      0.0000    842.9570      5.0285     40.9820
  1077.5000      0.0000    842.7484      4.9832     41.0178
  1077.7500      0.0000    840.9133      4.9813     41.0411
  1078.0000      0.0000    836.7490      5.0224     40.5773
  1078.2500      0.0000    829.6634      5.0961     39.7409
  1078.5000      0.0000    817.9255      5.1811     39.6517
  1078.7500      0.0000    797.8225      5.2507     41.8116
  1079.0000      0.0000    766.8387      5.2904     46.9149
  1079.2500      0.0000    730.0093      5.3089     54.0154
  1079.5000      0.0000    701.0093      5.3227     60.7027
  1079.7500      0.0000    692.3111      5.3314     64.3928
  1080.0000      0.0000    703.1489      5.3192     63.9503
  1080.2500      0.0000    719.2778      5.2795     60.2837
  1080.5000      0.0000    724.5515      5.2253     55.4257
  1080.7500      0.0000    712.0952      5.1769     51.1219
  1081.0000      0.0000    686.9767      5.1447     48.1943
  1081.2500      0.0000    661.3592      5.1238     46.7932
  1081.5000      0.0000    645.8632      5.1033     46.8318
  1081.7500      0.0000    643.2139      5.0824     48.1312
  1082.0000      0.0000    649.6429      5.0723     50.2861
  1082.2500      0.0000    661.2717      5.0857     52.5705
  1082.5000      0.0000    677.3030      5.1322     54.2683
  1082.7500      0.0000    697.7843      5.2142     55.2286
  1083.0000      0.0000    720.6737      5.3117     55.8899
  1083.2500      0.0000    741.8593      5.3762     56.6711
  1083.5000      0.0000    757.2548      5.3564     57.6227
  1083.7500      0.0000    764.7734      5.2402     58.6083
  1084.0000      0.0000    765.3629      5.0762     59.2917
  1084.2500      0.0000    762.7755      4.9505     58.9903
  1084.5000      0.0000    761.5641      4.9348     57.1201
  1084.7500      0.0000    764.1357      5.0450     53.8949
  1085.0000      0.0000    769.4241      5.2409     50.3587
  1085.2500      0.0000    774.7075      5.4593     47.7795
  1085.5000      0.0000    778.2303      5.6450     46.9940
  1085.7500      0.0000    779.9770      5.7589     48.0175
  1086.0000      0.0000    780.6434      5.7781     50.1642
  1086.2500      0.0000    780.5436      5.7062     52.6481
  1086.5000      0.0000    779.2423      5.5815     55.0133
  1086.7500      0.0000    775.9723      5.4608     56.9705
  1087.0000      0.0000    770.7592      5.3889     58.0712
  1087.2500      0.0000    765.4992      5.3763     57.8652
  1087.5000      0.0000    763.3891      5.3961     56.6449
  1087.7500      0.0000    766.6575      5.4042     55.8666
  1088.0000      0.0000    774.9803      5.3850     57.3497
  1088.2500      0.0000    786.0994      5.3724     62.0015
  1088.5000      0.0000    797.0859      5.4060     69.6073
  1088.7500      0.0000    804.8017      5.4690     79.5855
  1089.0000      0.0000    806.2800      5.4956     91.3133
  1089.2500      0.0000    799.5528      5.4407    103.7186
  1089.5000      0.0000    784.3654      5.3241    115.0956
  1089.7500      0.0000    762.7105      5.2066    123.7347
  1090.0000      0.0000    739.1506      5.1367    128.9464
  1090.2500      0.0000    720.1342      5.1215    131.4583
  1090.5000      0.0000    712.0141      5.1376    132.5839
  1090.7500      0.0000    718.6639      5.1642    132.8928
  1091.0000      0.0000    739.5009      5.2029    131.8528
  1091.2500      0.0000    768.6870      5.2670    128.8946
  1091.5000      0.0000    796.6719      5.3570    124.6727
  1091.7500      0.0000    813.8344      5.4589    120.9666
  1092.0000      0.0000    813.7837      5.5611    119.3307
  1092.2500      0.0000    794.9958      5.6533    120.0603
  1092.5000      0.0000    761.6075      5.7068    122.2380
  1092.7500      0.0000    722.9926      5.6834    124.2473
  1093.0000      0.0000    690.3431      5.5834    124.3630
  1093.2500      0.0000    671.7126      5.4717    121.6122
  1093.5000      0.0000    669.6510      5.4346    116.4058
  1093.7500      0.0000    682.2121      5.5030    110.1751
  1094.0000      0.0000    704.4673      5.6334    104.3741
  1094.2500      0.0000    729.5320      5.7644     99.8534
  1094.5000      0.0000    750.5580      5.8749     96.8315
  1094.7500      0.0000    763.3550      5.9869     95.0012
  1095.0000      0.0000    767.4031      6.1238     93.7566
  1095.2500      0.0000    765.0449      6.2678     92.6505
  1095.5000      0.0000    760.5574      6.3602     91.7570
  1095.7500      0.0000    759.1077      6.3533     91.7003
  1096.0000      0.0000    764.3855      6.2670     93.4472
  1096.2500      0.0000    776.3088      6.1926     97.8156
  1096.5000      0.0000    791.5466      6.2343    104.6795
  1096.7500      0.0000    806.2166      6.4322    112.4686
  1097.0000      0.0000    817.5119      6.7331    118.7019
  1097.2500      0.0000    823.8059      7.0348    121.3169
  1097.5000      0.0000    825.2417      7.2558    119.8514
  1097.7500      0.0000    824.5930      7.3677    115.8388
