~Version Information
VERS.                      2.0: CWLS Log ASCII Standard - VERSION 2.0
WRAP.                       NO: One line per depth step
~Well Information Block
STRT.FT               488.0000: 
STOP.FT              1824.7000: 
STEP.FT                 0.1000: 
NULL.                -999.2500: 
COMP.          Pioneer Natural Resources: COMPANY
WELL.            Buckeye 11-13: WELL
FLD.           Purgatoire River: FIELD
LOC.           211' FNL & 1054' FWL: LOCATION
STAT.                 Colorado: State
CNTY.               Las Animas: COUNTY
CTRY. USA : Country
SECT. 13 : Section
TOWN. 33S : Township
RANG. 67W : Range
SRVC.                Patterson: SERVICE COMPANY
DATE.          Mon Mar 07 02:06:39 2005: LOG DATE
API.           05 071 08317 00: UNIQUE WELL ID
~Curve Information Block
DEPT.FT            0 000 00 00: Depth
DCAL.in                       : CDL Caliper
RHOB.g/cc                     : CDL Bulk Density
RHOC.g/cc                     : CDL Density Correction
DPOR.pu                       : CDL Density Porosity
GR.GAPI                       : Gamma Ray
NPOR.pu                       : Neutron Porosity
~Parameter Information Block
~A  Depth       DCAL        RHOB        RHOC        DPOR         GR         NPOR    
# ...
  1640.0000      7.9696      2.5486      0.0235      6.1432     94.3281     21.6967
  1640.1000      7.9696      2.5761      0.0317      4.4769     98.1078     21.6423
  1640.2000      7.9696      2.5864      0.0351      3.8545    106.9677     22.0441
  1640.3000      7.9697      2.5731     -0.0103      4.6610    115.7801     22.6822
  1640.4000      7.9697      2.5567     -0.0051      5.6537    119.6349     23.1371
  1640.5000      7.9702      2.5465      0.0468      6.2714    118.5385     23.5242
  1640.6000      7.9702      2.5342      0.0244      7.0197    116.7947     23.9753
  1640.7000      7.9702      2.5209      0.0032      7.8231    115.9443     24.0797
  1640.8000      7.9714      2.5149     -0.0026      8.1859    114.2188     24.1162
  1640.9000      7.9714      2.5168      0.0030      8.0730    112.7567     24.7633
  1641.0000      7.9715      2.5197      0.0515      7.8941    114.9956     25.2395
  1641.1000      7.9715      2.5242      0.0150      7.6268    119.7589     24.6766
  1641.2000      7.9715      2.5412      0.0027      6.5918    121.0964     23.8300
  1641.3000      7.9709      2.5693      0.0367      4.8933    117.3744     22.9761
  1641.4000      7.9709      2.5894      0.0755      3.6701    112.6024     21.8151
  1641.5000      7.9712      2.5982      0.0597      3.1419    109.1809     20.8017
  1641.6000      7.9712      2.6049      0.0667      2.7355    106.7877     20.7864
  1641.7000      7.9712      2.6043      0.0836      2.7692    106.0021     22.0870
  1641.8000      7.9717      2.5919      0.0624      3.5228    106.7339     23.4503
  1641.9000      7.9717      2.5761      0.0263      4.4814    108.1168     23.4985
  1642.0000      7.9709      2.5644      0.0182      5.1854    110.4074     22.8125
  1642.1000      7.9709      2.5603      0.0463      5.4370    113.3352     22.7023
  1642.2000      7.9709      2.5635      0.0171      5.2405    117.9335     23.4952
  1642.3000      7.9733      2.5647      0.0502      5.1695    123.0352     24.6535
  1642.4000      7.9733      2.5453      0.0526      6.3466    124.1578     25.6897
  1642.5000      7.9751      2.5051      0.0179      8.7804    121.7889     26.4593
  1642.6000      7.9751      2.4772     -0.0651     10.4756    121.4220     26.9948
  1642.7000      7.9751      2.4926     -0.0342      9.5365    126.8413     27.3694
  1642.8000      7.9846      2.5412      0.0449      6.5913    132.6932     27.2299
  1642.9000      7.9846      2.5829      0.1432      4.0694    132.2515     26.3646
  1643.0000      8.0211      2.5889      0.1491      3.7046    130.0399     25.1238
  1643.1000      8.0211      2.5606      0.1184      5.4180    128.2766     24.3402
  1643.2000      8.0211      2.5167      0.1203      8.0759    123.7803     24.6539
  1643.3000      8.0187      2.4827     -0.0155     10.1410    120.5462     25.2179
  1643.4000      8.0187      2.4692      0.0605     10.9568    120.7566     25.2445
  1643.5000      7.9816      2.4654      0.0002     11.1875    122.3276     25.0029
  1643.6000      7.9816      2.4713     -0.0340     10.8318    126.3441     24.7342
  1643.7000      7.9816      2.4826      0.0392     10.1433    130.8935     24.6151
  1643.8000      7.9749      2.4842     -0.0105     10.0465    131.8198     24.5356
  1643.9000      7.9749      2.4902     -0.0214      9.6843    129.5909     24.1151
  1644.0000      7.9830      2.5190      0.0128      7.9413    125.7209     23.7579
  1644.1000      7.9830      2.5546      0.0734      5.7836    121.8007     24.0160
  1644.2000      7.9830      2.5690      0.1184      4.9065    119.5607     24.3458
  1644.3000      8.0190      2.5539      0.0629      5.8226    115.7814     24.2176
  1644.4000      8.0190      2.5281      0.0250      7.3900    108.9913     24.1478
  1644.5000      7.9732      2.5129      0.0079      8.3066    105.3353     24.3115
  1644.6000      7.9732      2.5107      0.0272      8.4419    107.7158     24.1854
  1644.7000      7.9732      2.5126     -0.0037      8.3302    111.1295     23.5694
  1644.8000      7.9642      2.5120      0.0019      8.3659    112.3050     22.8775
  1644.9000      7.9642      2.5121     -0.0636      8.3595    111.7039     22.6365
  1645.0000      7.9658      2.5215     -0.0415      7.7906    111.5616     23.2758
  1645.1000      7.9658      2.5364      0.0138      6.8846    113.2289     24.9250
  1645.2000      7.9658      2.5457      0.0362      6.3183    114.8794     26.4846
  1645.3000      7.9648      2.5479      0.0510      6.1885    114.6839     26.5814
  1645.4000      7.9648      2.5530      0.0142      5.8799    113.0141     25.8957
  1645.5000      7.9639      2.5623      0.0729      5.3151    110.6105     25.9718
  1645.6000      7.9639      2.5633      0.0348      5.2516    108.7886     26.6064
  1645.7000      7.9639      2.5610     -0.0006      5.3945    111.9244     27.0517
  1645.8000      7.9648      2.5746     -0.0562      4.5691    118.8474     27.2503
  1645.9000      7.9648      2.5982      0.0482      3.1380    120.3547     26.9104
  1646.0000      7.9643      2.6104      0.0345      2.4011    115.3879     26.2040
  1646.1000      7.9643      2.6156      0.0472      2.0819    112.9670     25.8686
  1646.2000      7.9643      2.6278      0.0074      1.3460    115.7400     26.1759
  1646.3000      7.9653      2.6374      0.0265      0.7627    118.9710     26.6204
  1646.4000      7.9653      2.6280     -0.0107      1.3319    120.2255     26.2927
  1646.5000      7.9651      2.6035     -0.0238      2.8152    119.2675     25.6126
  1646.6000      7.9651      2.5754     -0.0829      4.5214    115.3293     25.4947
  1646.7000      7.9651      2.5467     -0.1211      6.2605    111.3522     25.6308
  1646.8000      7.9646      2.5206     -0.0799      7.8436    112.3530     25.6570
  1646.9000      7.9646      2.5027     -0.0737      8.9277    117.1671     25.9716
  1647.0000      7.9660      2.4957     -0.0127      9.3541    121.2420     26.7961
  1647.1000      7.9660      2.4988     -0.0199      9.1631    123.7570     27.4190
  1647.2000      7.9660      2.5090      0.0005      8.5477    125.7417     27.4450
  1647.3000      7.9659      2.5185      0.0365      7.9667    126.1801     27.1002
  1647.4000      7.9659      2.5149     -0.0078      8.1854    124.2474     26.6433
  1647.5000      7.9658      2.4943     -0.0265      9.4363    122.9533     26.7870
  1647.6000      7.9658      2.4743     -0.0099     10.6489    123.5738     27.6642
  1647.7000      7.9658      2.4746      0.0259     10.6310    125.2258     28.1963
  1647.8000      7.9655      2.4912      0.0339      9.6264    128.9413     27.6782
  1647.9000      7.9655      2.5078      0.0058      8.6205    133.4694     26.7665
  1648.0000      7.9675      2.5152      0.0288      8.1687    136.9100     26.5184
  1648.1000      7.9675      2.5066      0.0463      8.6901    140.3343     27.5207
  1648.2000      7.9675      2.4831      0.0058     10.1138    141.4159     29.1063
  1648.3000      7.9680      2.4599     -0.0088     11.5227    136.5415     29.6844
  1648.4000      7.9680      2.4537     -0.0116     11.8942    133.4211     28.9064
  1648.5000      7.9668      2.4720     -0.0077     10.7903    139.2366     27.7603
  1648.6000      7.9668      2.5076      0.0129      8.6282    145.7569     26.9930
  1648.7000      7.9668      2.5435      0.0585      6.4549    145.0075     26.4376
  1648.8000      7.9666      2.5630      0.0774      5.2725    138.2753     25.8074
  1648.9000      7.9666      2.5596      0.0860      5.4790    130.5534     25.4886
  1649.0000      7.9660      2.5384      0.0563      6.7663    127.6850     26.1515
  1649.1000      7.9660      2.5124      0.0472      8.3384    130.6793     27.9377
  1649.2000      7.9660      2.4956      0.0078      9.3569    133.7723     29.6407
  1649.3000      7.9667      2.4989     -0.0473      9.1582    131.9357     29.8922
  1649.4000      7.9667      2.5080      0.0510      8.6031    126.2547     28.3568
  1649.5000      7.9696      2.4882      0.0076      9.8037    120.4353     26.1769
