~Version Information
VERS.                      2.0: CWLS Log ASCII Standard - VERSION 2.0
WRAP.                       NO: One line per depth step
~Well Information Block
STRT.FT               554.0000: 
STOP.FT              1002.0000: 
STEP.FT                 0.1000: 
NULL.                -999.2500: 
COMP.          Pioneer Natural Resources: COMPANY
WELL.          Rising Star 22-11: WELL
FLD.           Purgatoire River: FIELD
LOC.           2152' FNL & 2105' FWL: LOCATION
PROV.                 Colorado: PROVINCE
CNTY.               Las Animas: COUNTRY
SRVC.                Patterson: SERVICE COMPANY
DATE.          Mon Apr 11 16:46:53 2005: LOG DATE
UWI.           05 071 08354 00: UNIQUE WELL ID
~Curve Information Block
DEPT.FT            0 000 00 00: Depth
DCAL.in                       : CDL Caliper
RHOB.g/cc                     : CDL Bulk Density
RHOC.g/cc                     : CDL Density Correction
DPOR.pu                       : CDL Density Porosity
GR.GAPI                       : Gamma Ray
NPOR.pu                       : Neutron Porosity
~Parameter Information Block
~A  Depth       DCAL        RHOB        RHOC        DPOR         GR         NPOR    
# ...
   640.4000      7.9187      2.4602      0.0039     11.5031    112.2937     21.9805
   640.5000      7.9123      2.4327      0.0209     13.1672    108.2652     23.0955
   640.6000      7.9123      2.4212      0.0252     13.8668    104.6404     24.7549
   640.7000      7.9123      2.4458      0.0113     12.3745    103.6242     26.0332
   640.8000      7.8963      2.5296      0.0172      7.2950    102.5314     26.4543
   640.9000      7.8963      2.6686      0.1128     -1.1285     98.7732     26.3804
   641.0000      7.8760      2.8268      0.1597    -10.7124     94.8855     26.3054
   641.1000      7.8760      2.9775      0.2492    -19.8510     92.4188     26.2883
   641.2000      7.8760      3.1070      0.3509    -27.6986     90.7912     26.2037
   641.3000      7.8721      3.1864      0.3757    -32.5094     89.3551     26.2898
   641.4000      7.8721      3.2016      0.2812    -33.4297     85.1609     26.5794
   641.5000      7.8552      3.1732      0.1613    -31.7070     77.3777     26.5473
   641.6000      7.8552      3.1159      0.0759    -28.2386     70.4212     25.8792
   641.7000      7.8552      3.0318      0.0222    -23.1407     65.9520     24.9171
   641.8000      7.8540      2.9420     -0.0332    -17.6961     62.5122     24.0622
   641.9000      7.8540      2.8614      0.0144    -12.8141     61.1255     23.4746
   642.0000      7.8678      2.7804      0.0088     -7.9022     63.1385     22.9846
   642.1000      7.8678      2.7123     -0.0180     -3.7774     68.1321     22.4591
   642.2000      7.8678      2.6811      0.0471     -1.8849     74.3861     22.0263
   642.3000      7.8627      2.6717      0.0942     -1.3143     78.5496     21.6739
   642.4000      7.8627      2.6525      0.1021     -0.1496     78.3492     21.3938
   642.5000      7.8737      2.6151      0.0459      2.1151     74.5611     21.2091
   642.6000      7.8737      2.5797      0.0357      4.2634     70.4658     20.9986
   642.7000      7.8737      2.5742      0.0093      4.5949     70.1237     20.7132
   642.8000      7.9187      2.5972      0.0825      3.2016     73.7832     20.5183
   642.9000      7.9187      2.6243      0.0379      1.5580     76.9961     20.4109
   643.0000      7.9218      2.6448      0.1073      0.3155     76.9140     20.2341
   643.1000      7.9218      2.6452      0.1116      0.2887     75.7060     20.2385
   643.2000      7.9218      2.6210      0.0704      1.7555     74.0991     20.6234
   643.3000      7.9193      2.5976      0.0553      3.1758     70.8267     20.9114
   643.4000      7.9193      2.5867      0.1012      3.8386     70.5349     20.7076
   643.5000      7.9096      2.5769     -0.0031      4.4311     75.9067     20.3326
   643.6000      7.9096      2.5673      0.0255      5.0109     81.0315     20.1613
   643.7000      7.9096      2.5595      0.0485      5.4845     82.6110     20.1247
   643.8000      7.9069      2.5566      0.0071      5.6611     83.2519     20.0304
   643.9000      7.9069      2.5647      0.0411      5.1707     85.8667     19.9816
   644.0000      7.9064      2.5709      0.0845      4.7934     88.2290     20.1947
   644.1000      7.9064      2.5681      0.0322      4.9617     85.0137     20.5684
   644.2000      7.9064      2.5689      0.0692      4.9166     79.5012     21.0056
   644.3000      7.9001      2.5726      0.0813      4.6916     79.7406     21.4048
   644.4000      7.9001      2.5743      0.0813      4.5852     83.0501     21.3563
   644.5000      7.8739      2.5889      0.0237      3.7007     83.4710     20.8986
   644.6000      7.8739      2.6231      0.0928      1.6312     81.8561     20.4739
   644.7000      7.8739      2.6552      0.0986     -0.3150     78.9034     20.1535
   644.8000      7.8952      2.6621      0.1064     -0.7332     74.3010     19.8489
   644.9000      7.8952      2.6341      0.0957      0.9651     70.8430     19.5585
   645.0000      7.9078      2.5857      0.0231      3.8964     70.9599     19.4141
   645.1000      7.9078      2.5514     -0.0111      5.9784     73.6568     19.5080
   645.2000      7.9078      2.5448      0.0169      6.3733     75.9081     19.5932
   645.3000      7.9097      2.5499     -0.0018      6.0644     75.2519     19.6994
   645.4000      7.9097      2.5496      0.0141      6.0844     74.2103     20.0438
   645.5000      7.9164      2.5418     -0.0162      6.5568     77.5010     20.4532
   645.6000      7.9164      2.5354      0.0225      6.9427     82.2709     20.5646
   645.7000      7.9164      2.5366     -0.0303      6.8739     81.0780     20.3216
   645.8000      7.9332      2.5419     -0.0020      6.5514     74.7911     19.8787
   645.9000      7.9332      2.5448      0.0175      6.3775     72.0986     19.3792
   646.0000      7.9436      2.5486      0.0057      6.1470     75.9522     19.2373
   646.1000      7.9436      2.5536      0.0228      5.8437     81.4497     19.5916
   646.2000      7.9436      2.5491     -0.0193      6.1131     83.5716     19.9217
   646.3000      7.9435      2.5294      0.0131      7.3103     81.2566     20.0613
   646.4000      7.9435      2.5036     -0.0087      8.8723     77.6050     20.2485
   646.5000      7.9416      2.4902     -0.0119      9.6864     77.2426     20.4050
   646.6000      7.9416      2.4915     -0.0210      9.6076     81.0771     20.3538
   646.7000      7.9416      2.5040     -0.0479      8.8464     84.0027     20.2653
   646.8000      7.9461      2.5300     -0.0174      7.2712     82.3517     20.4129
   646.9000      7.9461      2.5571      0.0683      5.6278     81.1102     20.5504
   647.0000      7.9478      2.5740      0.0609      4.6074     84.6587     20.2573
   647.1000      7.9478      2.5875      0.0383      3.7879     89.1604     19.7287
   647.2000      7.9478      2.5965      0.0801      3.2451     91.4549     19.4409
   647.3000      7.9214      2.5870      0.0557      3.8205     92.1389     19.5414
   647.4000      7.9214      2.5586      0.0516      5.5395     90.9879     19.7695
   647.5000      7.9122      2.5291     -0.0097      7.3249     89.1856     19.8286
   647.6000      7.9122      2.5256     -0.0300      7.5404     87.4795     19.9435
   647.7000      7.9122      2.5522      0.0614      5.9302     85.1672     20.2910
   647.8000      7.9119      2.5784      0.0658      4.3364     83.0070     20.4807
   647.9000      7.9119      2.5807      0.0406      4.2027     83.3985     20.1780
   648.0000      7.9171      2.5609      0.0147      5.3989     86.7042     19.4516
   648.1000      7.9171      2.5319      0.0223      7.1597     89.0682     18.9035
   648.2000      7.9171      2.5124     -0.0512      8.3365     85.5180     18.9737
   648.3000      7.9068      2.5169      0.0063      8.0671     76.1356     19.0669
   648.4000      7.9068      2.5262      0.0869      7.5018     68.0719     18.8210
   648.5000      7.9161      2.5182      0.0499      7.9854     67.2577     18.8011
   648.6000      7.9161      2.4975      0.0229      9.2429     73.7343     19.1642
   648.7000      7.9161      2.4780      0.0313     10.4237     84.2844     19.2984
   648.8000      7.9205      2.4749     -0.0167     10.6114     94.4548     18.9716
   648.9000      7.9205      2.4909      0.0472      9.6421    101.7931     18.7136
   649.0000      7.9088      2.5099      0.0280      8.4912    105.5976     18.7297
   649.1000      7.9088      2.5200      0.0640      7.8800    105.8000     18.8871
   649.2000      7.9088      2.5225      0.0285      7.7250    104.5513     19.2394
   649.3000      7.9087      2.5290      0.0150      7.3341    102.4958     19.7388
   649.4000      7.9087      2.5423      0.0757      6.5276     99.7334     20.2882
   649.5000      7.9306      2.5538      0.0601      5.8283     97.5891     20.8526
   649.6000      7.9306      2.5588      0.0848      5.5298     94.2864     21.1788
   649.7000      7.9306      2.5531      0.0674      5.8738     90.0893     21.0810
   649.8000      7.9331      2.5418      0.0405      6.5597     86.8125     20.9055
   649.9000      7.9331      2.5413      0.0305      6.5854     83.0367     20.9326
