~Version Information
 VERS.                                  2.0 : CWLS LAS VERSION
 WRAP.                                   NO : WRAPING MODE
 SWARE .                 MController 2.5.0N : SOFTWARE VERSION
~Well Information
 WELL.                          Bobsy 34-11 : WELL
 COMP.    Pioneer Natural Resources USA Inc : COMPANY
 FLD.                      Purgatoire River : FIELD
 LOC.                SW/SE Sec 11 T32S R66W : LOCATION
 DATE.                               4/7/05 : DATE(S) LOGGED
 SRVC.       Blanco Geological Services LLC : SERVICE COMPANY
 STAT.                                   CO : STATE
 CNTY.                           Las Animas : COUNTY
 CTRY.                                  USA : COUNTRY
 API.                       05-071-08330-00 : API NUMBER
 STRT.FT                             842.00 : START DEPTH
 STOP.FT                            2345.00 : STOP DEPTH
 STEP.FT                               1.00 : DEPTH INCREMENT
 NULL.                                -9999 : NULL VALUE
~Curve information
 DEPTH.FT                                   :
 ROP.MIN/FT                                 :
 GAS.UNITS                                  :
~ASCII Log data
# ...
      2042.0         0.27        342.8 
      2043.0         0.27        318.4 
      2044.0         0.30        286.2 
      2045.0         0.27        250.3 
      2046.0         0.27        225.4 
      2047.0         0.35        205.6 
      2048.0         0.30        185.1 
      2049.0         0.33        173.1 
      2050.0         0.30        167.7 
      2051.0         0.13        164.7 
      2052.0         0.30        163.3 
      2053.0         0.27        159.7 
      2054.0         0.30        157.3 
      2055.0         0.23        155.7 
      2056.0         0.27        154.6 
      2057.0         0.30        152.1 
      2058.0         0.27        148.4 
      2059.0         0.30        148.7 
      2060.0         0.32        152.5 
      2061.0         0.30        152.2 
      2062.0         0.20        145.2 
      2063.0         0.10        139.3 
      2064.0         0.27        136.9 
      2065.0         0.40        130.8 
      2066.0         2.05        207.2 
      2067.0         0.23        245.8 
      2068.0         0.30        311.0 
      2069.0         0.40        406.2 
      2070.0         0.43        470.5 
      2071.0         0.27        777.1 
      2072.0         0.13        746.4 
      2073.0         0.27        726.8 
      2074.0         0.27        648.6 
      2075.0         0.27        571.4 
      2076.0         0.20        507.2 
      2077.0         0.13        474.2 
      2078.0         0.13        500.0 
      2079.0         0.35        484.0 
      2080.0         0.37        440.0 
      2081.0         0.33        280.4 
      2082.0         0.37        304.0 
      2083.0         0.40        317.1 
      2084.0         0.40        317.6 
      2085.0         0.37        312.1 
      2086.0         0.37        302.8 
      2087.0         0.30        288.7 
      2088.0         0.32        276.9 
      2089.0         0.20        278.1 
      2090.0         0.17        277.9 
      2091.0         0.13        276.3 
      2092.0         0.27        276.3 
      2093.0         0.20        286.2 
      2094.0         0.27        306.9 
      2095.0         0.60        331.1 
      2096.0         1.85        967.9 
      2097.0         0.37       1226.6 
      2098.0         0.33       1387.6 
      2099.0         0.43       1467.1 
      2100.0         0.47       1464.1 
      2101.0         0.40       1325.4 
      2102.0         0.40       1139.3 
      2103.0         0.42        987.2 
      2104.0         0.40        882.5 
      2105.0         0.37        824.6 
      2106.0         0.40        809.5 
      2107.0         0.33        800.0 
      2108.0         0.37        791.9 
      2109.0         0.37        764.0 
      2110.0         0.33        728.4 
      2111.0         0.33        707.5 
      2112.0         0.33        687.2 
      2113.0         0.28        668.2 
      2114.0         0.23        651.5 
      2115.0         0.33        646.9 
      2116.0         0.33        635.2 
      2117.0         0.30        619.8 
      2118.0         0.40        613.2 
      2119.0         0.33        606.4 
      2120.0         0.43        597.9 
      2121.0         0.40        606.0 
      2122.0         0.33        619.4 
      2123.0         0.35        620.1 
      2124.0         0.33        598.2 
      2125.0         0.27        570.7 
      2126.0         2.65       1077.5 
      2127.0         0.50       1379.4 
      2128.0         0.43       1464.1 
      2129.0         0.33       1459.6 
      2130.0         0.37       1380.7 
      2131.0         0.33       1204.4 
      2132.0         0.40       1041.8 
      2133.0         0.43        909.0 
      2134.0         0.45        821.3 
      2135.0         0.37        776.8 
      2136.0         0.37        771.9 
      2137.0         0.27        765.0 
      2138.0         0.33        751.3 
      2139.0         0.27        727.7 
      2140.0         0.20        711.1 
      2141.0         0.23        700.3 
      2142.0         0.30        690.4 
      2143.0         0.27        659.4 
      2144.0         0.27        640.4 
      2145.0         0.23        628.9 
      2146.0         0.18        630.2 
      2147.0         0.13        625.7 
      2148.0         0.27        624.0 
      2149.0         0.23        630.9 
      2150.0         0.30        674.1 
      2151.0         0.33        750.6 
      2152.0         0.30        762.4 
      2153.0         0.33        756.2 
      2154.0         0.23        719.9 
      2155.0         0.50        687.5 
      2156.0         2.05       1023.2 
      2157.0         0.40       1338.2 
      2158.0         0.40       1540.7 
      2159.0         0.43       1602.9 
      2160.0         0.37       1589.1 
      2161.0         0.38       1439.3 
      2162.0         0.33       1222.4 
      2163.0         0.33       1077.1 
      2164.0         0.27        974.4 
      2165.0         0.33        908.6 
      2166.0         0.33        852.4 
      2167.0         0.37        838.3 
      2168.0         0.37        833.1 
      2169.0         0.33        824.9 
      2170.0         0.37        804.3 
      2171.0         0.35        777.5 
      2172.0         0.37        747.7 
      2173.0         0.33        717.3 
      2174.0         0.30        696.3 
      2175.0         0.37        684.6 
      2176.0         0.33        667.2 
      2177.0         0.27        662.6 
      2178.0         0.23        662.6 
      2179.0         0.30        679.0 
      2180.0         0.27        681.0 
      2181.0         0.23        671.8 
      2182.0         0.17        660.7 
      2183.0         0.18        643.7 
      2184.0         0.17        623.4 
      2185.0         0.43        603.7 
      2186.0         1.87        820.6 
      2187.0         0.30       1118.0 
      2188.0         0.37       1446.8 
      2189.0         0.55       1682.4 
      2190.0         0.30       1702.0 
      2191.0         0.27       1669.3 
      2192.0         0.13       1564.6 
      2193.0         0.23       1489.3 
      2194.0         0.27       1361.4 
      2195.0         0.27       1230.2 
      2196.0         0.27       1105.3 
      2197.0         0.37       1011.4 
      2198.0         0.40        943.3 
      2199.0         0.37        888.7 
      2200.0         0.35        885.1 
      2201.0         0.30        882.5 
      2202.0         0.37        866.4 
      2203.0         0.33        836.0 
      2204.0         0.27        800.4 
      2205.0         0.30        779.8 
      2206.0         0.30        756.5 
      2207.0         0.33        734.6 
      2208.0         0.33        714.3 
      2209.0         0.33        694.4 
      2210.0         0.32        677.4 
      2211.0         0.30        680.0 
      2212.0         0.30        699.6 
      2213.0         0.40        703.5 
      2214.0         0.33        681.3 
      2215.0         0.27        651.5 
      2216.0         7.83       2509.4 
      2217.0         0.82       1012.4 
      2218.0         0.23        653.5 
      2219.0         0.20        557.0 
      2220.0         0.67        710.4 
      2221.0         0.57        947.9 
      2222.0         0.53       1094.8 
      2223.0         0.43       1115.7 
      2224.0         0.33       1086.3 
      2225.0         0.25       1012.0 
      2226.0         0.30        944.0 
      2227.0         0.33        893.3 
      2228.0         0.30        850.7 
      2229.0         0.30        823.9 
      2230.0         0.30        798.1 
      2231.0         0.27        764.7 
      2232.0         0.30        731.3 
      2233.0         0.30        690.1 
      2234.0         0.33        673.8 
      2235.0         0.30        681.6 
      2236.0         0.32        689.1 
      2237.0         0.30        694.4 
      2238.0         0.33        694.4 
      2239.0         0.37        686.8 
      2240.0         0.33        683.2 
      2241.0         0.33        694.7 
