~Version Information
VERS.                      2.0: CWLS Log ASCII Standard - VERSION 2.0
WRAP.                       NO: One line per depth step
~Well Information Block
STRT.FT               234.0000: 
STOP.FT              1773.2000: 
STEP.FT                 0.1000: 
NULL.                -999.2500: 
COMP.          Pioneer Natural Resources: COMPANY
WELL.             Tami J 23-18: WELL
FLD.           Purgatorie River: FIELD
LOC.           2250' FSL & 2400' FWL: LOCATION
PROV.                 Colorado: PROVINCE
CNTY.               Las Animas: COUNTRY
SRVC.                         : SERVICE COMPANY
DATE.          Mon Dec 13 07:02:50 2004: LOG DATE
UWI.           05 071 08073 00: UNIQUE WELL ID
~Curve Information Block
DEPT.FT            0 000 00 00: Depth
LTEN.lb                       : Surface Line Tension
DCAL.in                       : CDL Caliper
RHOB.g/cc                     : CDL Bulk Density
RHOC.g/cc                     : CDL Density Correction
DPOR.pu                       : CDL Density Porosity
GR.GAPI                       : Gamma Ray
NPOR.pu                       : Neutron Porosity
~Parameter Information Block
~A  Depth       LTEN        DCAL        RHOB        RHOC        DPOR         GR         NPOR    
# ...
   948.0000    964.9638      7.7889      2.4017      0.0197     15.0461    115.5249     18.7580
   948.1000    964.9638      7.7889      2.4190      0.0411     13.9980    108.0818     18.6717
   948.2000    964.9638      7.7889      2.4207      0.0852     13.8965    100.3699     18.8244
   948.3000    951.6928      7.7930      2.4023      0.0386     15.0135     96.6885     18.6865
   948.4000    951.6928      7.7930      2.3867      0.0152     15.9579     92.6982     18.4222
   948.5000    954.8223      7.7944      2.3971      0.0312     15.3294     86.8459     18.4894
   948.6000    954.8223      7.7944      2.4292      0.0591     13.3805     82.5171     18.6625
   948.7000    954.8223      7.7944      2.4637      0.0850     11.2912     79.2263     18.6464
   948.8000    951.3510      7.7955      2.4857      0.0903      9.9580     75.8845     18.6012
   948.9000    951.3510      7.7955      2.4928      0.0834      9.5252     74.3760     18.5937
   949.0000    967.1350      7.7965      2.4981      0.0527      9.2066     75.7010     18.4339
   949.1000    967.1350      7.7965      2.5131      0.0692      8.2955     77.6759     18.2183
   949.2000    967.1350      7.7965      2.5294      0.0891      7.3103     78.8811     18.1859
   949.3000    948.7249      7.7952      2.5320      0.1147      7.1537     80.6710     18.2892
   949.4000    948.7249      7.7952      2.5170      0.0690      8.0623     83.7514     18.4415
   949.5000    974.5457      7.7971      2.4911      0.0279      9.6290     86.0898     18.7129
   949.6000    974.5457      7.7971      2.4659      0.0087     11.1595     85.4625     18.8652
   949.7000    974.5457      7.7971      2.4524      0.0074     11.9754     82.4786     18.6021
   949.8000    994.3911      7.7995      2.4537      0.0197     11.8982     78.7088     18.2835
   949.9000    994.3911      7.7995      2.4624      0.0354     11.3691     78.5247     18.2769
   950.0000    937.7502      7.7999      2.4700      0.0397     10.9084     84.7554     18.3580
   950.1000    937.7502      7.7999      2.4705      0.0419     10.8798     89.8605     18.3309
   950.2000    937.7502      7.7999      2.4614      0.0473     11.4290     88.0205     18.2625
   950.3000    969.8320      7.7993      2.4510     -0.0055     12.0624     84.7864     18.1979
   950.4000    969.8320      7.7993      2.4478      0.0173     12.2573     84.7838     18.1541
   950.5000    992.5554      7.7977      2.4490      0.0285     12.1816     85.5765     18.0075
   950.6000    992.5554      7.7977      2.4558      0.0466     11.7678     84.5780     17.7505
   950.7000    992.5554      7.7977      2.4679      0.0904     11.0394     81.1352     17.5349
   950.8000    978.2838      7.8016      2.4749      0.0848     10.6145     75.2573     17.4913
   950.9000    978.2838      7.8016      2.4766      0.0410     10.5077     70.1599     17.7048
   951.0000    931.2020      7.8104      2.4825      0.0643     10.1527     69.9657     17.9881
   951.1000    931.2020      7.8104      2.4902      0.0898      9.6855     73.5340     18.1046
   951.2000    931.2020      7.8104      2.4879      0.0819      9.8257     78.6703     17.9677
   951.3000    973.3777      7.8132      2.4722      0.0380     10.7784     84.1415     17.7431
   951.4000    973.3777      7.8132      2.4541      0.0251     11.8757     87.6538     17.6945
   951.5000    963.5284      7.8082      2.4445      0.0294     12.4560     88.0194     17.9733
   951.6000    963.5284      7.8082      2.4452      0.0248     12.4125     85.5191     18.4333
   951.7000    963.5284      7.8082      2.4581      0.0162     11.6297     80.6025     18.6835
   951.8000    935.0460      7.8046      2.4831      0.0394     10.1160     76.0464     18.6589
   951.9000    935.0460      7.8046      2.5022      0.1131      8.9558     75.0048     18.5949
   952.0000    984.8950      7.8066      2.4985      0.0670      9.1841     76.1775     18.6262
   952.1000    984.8950      7.8066      2.4878      0.0294      9.8312     77.7507     18.8054
   952.2000    984.8950      7.8066      2.4921      0.0628      9.5694     79.6511     18.9334
   952.3000    958.6248      7.8135      2.4973      0.1033      9.2565     81.4063     18.7325
   952.4000    958.6248      7.8135      2.4784      0.0565     10.4019     81.4573     18.3956
   952.5000    968.9235      7.8131      2.4479      0.0227     12.2474     80.7798     18.1357
   952.6000    968.9235      7.8131      2.4363      0.0083     12.9488     82.4214     17.8994
   952.7000    968.9235      7.8131      2.4468      0.0299     12.3168     85.4079     17.7141
   952.8000    957.3240      7.8044      2.4636      0.0239     11.2953     85.4797     17.5278
   952.9000    957.3240      7.8044      2.4800      0.0490     10.3021     81.4501     17.4769
   953.0000    962.9741      7.8082      2.4928      0.0639      9.5289     77.7450     17.7449
   953.1000    962.9741      7.8082      2.4940      0.0691      9.4558     78.1320     18.0669
   953.2000    962.9741      7.8082      2.4902      0.0092      9.6871     80.4444     18.3190
   953.3000    995.6384      7.8155      2.4964      0.0610      9.3097     81.9871     18.4560
   953.4000    995.6384      7.8155      2.5032      0.0943      8.8954     82.0613     18.5639
   953.5000    980.3657      7.8110      2.4990      0.0636      9.1505     80.8958     18.9312
   953.6000    980.3657      7.8110      2.4972      0.0525      9.2604     79.7052     19.2234
   953.7000    980.3657      7.8110      2.5036      0.0882      8.8735     78.0235     18.9292
   953.8000    975.7483      7.8028      2.5054      0.0569      8.7614     75.5958     18.3290
   953.9000    975.7483      7.8028      2.4984      0.0765      9.1895     74.5004     17.9300
   954.0000    989.0645      7.7988      2.4857      0.0259      9.9555     75.0595     17.8014
   954.1000    989.0645      7.7988      2.4768     -0.0256     10.4942     76.0520     17.8156
   954.2000    989.0645      7.7988      2.4815      0.0351     10.2126     76.1170     17.8477
   954.3000    979.3763      7.8066      2.4940      0.0052      9.4550     76.7297     17.8543
   954.4000    979.3763      7.8066      2.5044      0.0044      8.8231     79.4510     17.8691
   954.5000    947.3027      7.8179      2.5089      0.0389      8.5492     81.4400     17.9547
   954.6000    947.3027      7.8179      2.5083      0.0281      8.5890     80.3468     18.0737
   954.7000    947.3027      7.8179      2.5053      0.0422      8.7678     77.4724     18.1300
   954.8000    955.4957      7.8175      2.5049      0.0044      8.7970     75.9616     18.1648
   954.9000    955.4957      7.8175      2.5080      0.0499      8.6055     74.3697     18.1275
   955.0000   1022.0308      7.8071      2.5084      0.0136      8.5799     69.0684     17.8388
   955.1000   1022.0308      7.8071      2.5040      0.0137      8.8470     63.6484     17.4297
   955.2000   1022.0308      7.8071      2.4956      0.0306      9.3585     62.7340     17.3139
   955.3000    989.1153      7.8028      2.4878     -0.0221      9.8332     66.4012     17.5635
   955.4000    989.1153      7.8028      2.4845      0.0330     10.0325     73.1639     17.9101
   955.5000    938.9063      7.8079      2.4803      0.0086     10.2866     78.8491     18.2252
   955.6000    938.9063      7.8079      2.4774     -0.0180     10.4595     80.7522     18.5579
   955.7000    938.9063      7.8079      2.4818      0.0143     10.1935     80.9968     18.8917
   955.8000    979.9959      7.8131      2.4928      0.0260      9.5265     80.4863     18.9622
   955.9000    979.9959      7.8131      2.5084      0.0394      8.5829     77.5249     18.7841
   956.0000    981.9514      7.8138      2.5240      0.0732      7.6381     71.5123     18.7679
   956.1000    981.9514      7.8138      2.5399      0.0815      6.6713     66.4050     18.8699
   956.2000    981.9514      7.8138      2.5629      0.1077      5.2765     66.6067     18.7639
   956.3000   1002.8722      7.8070      2.5886      0.1276      3.7230     69.0654     18.5534
