~Version Information
VERS.                      2.0: CWLS Log ASCII Standard - VERSION 2.0
WRAP.                       NO: One line per depth step
~Well Information Block
STRT.FT                -0.2500: 
STOP.FT              2376.7500: 
STEP.FT                 0.2500: 
NULL.                -999.2500: 
COMP.          Petrogulf Corporation: COMPANY
WELL.             State 16-23V: WELL
FLD.           Purgatorie River: FIELD
LOC.           2414' FSL & 2215' FWL: LOCATION
PROV.                 Colorado: PROVINCE
CNTY.               Las Animas: COUNTRY
SRVC.          Patterson Wireline: SERVICE COMPANY
DATE.          Wed Jun 25 14:56:54 2003: LOG DATE
UWI.           05 071 07865 00: UNIQUE WELL ID
~Curve Information Block
DEPT.FT            0 000 00 00: Depth
CCL.                          : Casing Collar Locator
TT3.usec                      : CBL 3' Travel Time
AMP3.mV                       : CBL 3' Amplitude
GR.GAPI                       : Gamma Ray
~Parameter Information Block
~A  Depth       CCL         TT3         AMP3         GR     
# ...
  1574.2500      0.0000    256.9709     60.5948    132.5872
  1574.5000      0.0000    256.9265     60.5555    129.0645
  1574.7500      0.0000    256.8521     60.2978    121.9697
  1575.0000      0.0000    256.7592     59.9436    113.0724
  1575.2500      0.0000    256.6796     59.6166    104.9925
  1575.5000      0.0000    256.6479     59.3661    100.1909
  1575.7500      0.0000    256.6791     59.2232    100.2211
  1576.0000      0.0000    256.7570     59.2605    105.4944
  1576.2500      0.0000    256.8433     59.5282    115.3007
  1576.5000      0.0000    256.8995     59.9456    127.6865
  1576.7500      0.0000    256.9061     60.3124    139.6137
  1577.0000      0.0000    256.8698     60.4456    148.3831
  1577.2500      0.0000    256.8217     60.2981    153.4889
  1577.5000      0.0000    256.8001     59.9697    156.4727
  1577.7500      0.0000    256.8239     59.6311    158.8275
  1578.0000      0.0000    256.8790     59.4216    160.8944
  1578.2500      0.0000    256.9353     59.3746    162.6241
  1578.5000      0.0000    256.9730     59.4077    163.9720
  1578.7500      0.0000    256.9908     59.3800    164.2488
  1579.0000      0.0000    256.9956     59.1805    162.1458
  1579.2500      0.0000    256.9909     58.8060    156.8962
  1579.5000      0.0000    256.9741     58.3746    149.1774
  1579.7500      0.0000    256.9418     58.0345    140.8990
  1580.0000      0.0000    256.9087     57.8183    134.1137
  1580.2500      0.0000    256.9312     57.5693    129.8584
  1580.5000      0.0000    257.1168     56.9857    127.9593
  1580.7500      0.0000    257.5964     55.6910    127.9712
  1581.0000      0.0000    258.4655     53.2965    129.9858
  1581.2500      0.0000    259.7202     49.5923    134.2250
  1581.5000      0.0000    261.2172     44.8746    140.2614
  1581.7500      0.0000    262.6971     40.0466    146.9675
  1582.0000      0.0000    263.8934     36.1697    152.7887
  1582.2500      0.0000    264.6803     33.7731    155.7402
  1582.5000     -2.0000    265.1554     32.6262    153.9284
  1582.7500      0.0000    265.6534     32.1516    147.1219
  1583.0000      2.0000    266.7743     31.9321    137.7775
  1583.2500      0.0000    269.3419     31.8433    129.5974
  1583.5000      0.0000    273.8667     32.0183    124.7862
  1583.7500      0.0000    279.4743     32.9105    123.2104
  1584.0000      0.0000    283.5016     35.1921    124.0163
  1584.2500      0.0000    283.1071     39.2037    126.9656
  1584.5000      0.0000    277.8413     44.4363    131.9344
  1584.7500      0.0000    270.2040     49.7449    138.1649
  1585.0000      0.0000    263.4272     54.0890    144.6293
  1585.2500      0.0000    259.1423     57.0070    150.6388
  1585.5000      0.0000    257.1270     58.5753    155.7171
  1585.7500      0.0000    256.4371     59.1542    159.1929
  1586.0000      0.0000    256.3056     59.1682    160.3548
  1586.2500      0.0000    256.3321     58.9695    159.1387
  1586.5000      0.0000    256.3532     58.7750    156.5670
  1586.7500      0.0000    256.3207     58.6745    154.1195
  1587.0000      0.0000    256.2412     58.6820    152.4875
  1587.2500      0.0000    256.1502     58.7666    151.1380
  1587.5000      0.0000    256.0823     58.8624    149.1679
  1587.7500      0.0000    256.0562     58.8908    146.4215
  1588.0000      0.0000    256.0745     58.8064    143.7719
  1588.2500      0.0000    256.1260     58.6196    142.3682
  1588.5000      0.0000    256.1880     58.3837    142.7540
  1588.7500      0.0000    256.2380     58.1719    144.8037
  1589.0000      0.0000    256.2787     58.0515    148.0082
  1589.2500      0.0000    256.3425     58.0466    151.2998
  1589.5000      0.0000    256.4535     58.1208    153.0202
  1589.7500      0.0000    256.5882     58.2046    151.9992
  1590.0000      0.0000    256.6813     58.2340    148.8766
  1590.2500      0.0000    256.6747     58.1581    145.9235
  1590.5000      0.0000    256.5618     57.9410    145.3196
  1590.7500      0.0000    256.3894     57.5959    147.5233
  1591.0000      0.0000    256.2241     57.2080    151.2928
  1591.2500      0.0000    256.1138     56.8972    155.1222
  1591.5000      0.0000    256.0747     56.7563    158.0320
  1591.7500      0.0000    256.1060     56.8144    158.8444
  1592.0000      0.0000    256.2000     57.0176    155.8820
  1592.2500      0.0000    256.3360     57.2290    148.3240
  1592.5000      0.0000    256.4784     57.2960    137.4935
  1592.7500      0.0000    256.5974     57.1612    126.2575
  1593.0000      0.0000    256.6880     56.8957    117.1659
  1593.2500      0.0000    256.7558     56.6134    111.1553
  1593.5000      0.0000    256.7918     56.3864    107.6327
  1593.7500      0.0000    256.7758     56.2501    105.2604
  1594.0000      0.0000    256.7046     56.2399    102.5574
  1594.2500      0.0000    256.6054     56.3771     98.4090
  1594.5000      0.0000    256.5220     56.6220     92.7437
  1594.7500      0.0000    256.4916     56.8683     86.7835
  1595.0000      0.0000    256.5212     56.9909     82.2798
  1595.2500      0.0000    256.5732     56.9026     80.4594
  1595.5000      0.0000    256.5837     56.5928     81.6905
  1595.7500      0.0000    256.5159     56.1494     85.6606
  1596.0000      0.0000    256.3977     55.7197     91.3391
  1596.2500      0.0000    256.3042     55.4108     96.9442
  1596.5000      0.0000    256.3026     55.2361    100.6452
  1596.7500      0.0000    256.4083     55.1646    101.8034
  1597.0000      0.0000    256.5743     55.1787    101.6456
  1597.2500      0.0000    256.7095     55.2602    102.6303
  1597.5000      0.0000    256.7309     55.3672    106.7514
  1597.7500      0.0000    256.6288     55.4695    113.8056
  1598.0000      0.0000    256.4821     55.5917    121.1147
  1598.2500      0.0000    256.3910     55.7904    125.3606
  1598.5000      0.0000    256.3890     56.0922    125.0580
  1598.7500      0.0000    256.4292     56.4786    121.3270
  1599.0000      0.0000    256.4470     56.9191    116.4283
  1599.2500      0.0000    256.4193     57.3750    111.9688
  1599.5000      0.0000    256.3620     57.7731    108.5719
  1599.7500      0.0000    256.2912     58.0259    106.6946
  1600.0000      0.0000    256.2118     58.1036    106.9342
  1600.2500      0.0000    256.1324     58.0634    109.2527
  1600.5000      0.0000    256.0696     57.9976    112.2813
  1600.7500      0.0000    256.0363     57.9809    113.9550
  1601.0000      0.0000    256.0358     58.0691    113.1107
  1601.2500      0.0000    256.0670     58.2973    110.3479
  1601.5000      0.0000    256.1215     58.6388    107.3015
  1601.7500      0.0000    256.1765     58.9900    105.3652
  1602.0000      0.0000    256.2017     59.2288    105.1142
  1602.2500      0.0000    256.1848     59.2895    106.3401
  1602.5000      0.0000    256.1480     59.1952    108.3509
  1602.7500      0.0000    256.1296     59.0334    110.6779
  1603.0000      0.0000    256.1484     58.8936    113.5104
  1603.2500      0.0000    256.1871     58.8169    116.7426
  1603.5000      0.0000    256.2109     58.8041    118.5921
  1603.7500      0.0000    256.2057     58.8455    116.2960
  1604.0000      0.0000    256.1946     58.9332    108.8476
  1604.2500      0.0000    256.2132     59.0665     98.4466
  1604.5000      0.0000    256.2700     59.2584     88.7719
  1604.7500      0.0000    256.3380     59.5242     82.3955
  1605.0000      0.0000    256.3813     59.8673     80.0422
  1605.2500      0.0000    256.3857     60.2747     81.2532
  1605.5000      0.0000    256.3619     60.7108     84.9208
  1605.7500      0.0000    256.3244     61.1095     89.7960
  1606.0000      0.0000    256.2752     61.3951     95.3443
  1606.2500      0.0000    256.2140     61.5377    101.9467
  1606.5000      0.0000    256.1572     61.5819    109.7723
  1606.7500      0.0000    256.1318     61.6036    117.5728
  1607.0000      0.0000    256.1485     61.6366    123.0199
  1607.2500      0.0000    256.1853     61.6487    124.3902
  1607.5000      0.0000    256.2039     61.5817    121.9963
