~Version Information
VERS.                      2.0: CWLS Log ASCII Standard - VERSION 2.0
WRAP.                       NO: One line per depth step
~Well Information Block
STRT.FT                 0.5000: 
STOP.FT              2744.2500: 
STEP.FT                 0.2500: 
NULL.                -999.2500: 
COMP.          Petrogulf Corporation: COMPANY
WELL.              Silva 1-43V: WELL
FLD.           Purgatoire River: FIELD
LOC.           2010' FSL & 614' FEL--: LOCATION
PROV.                 Colorado: PROVINCE
CNTY.               Las Animas: COUNTRY
SRVC.                Patterson: SERVICE COMPANY
DATE.          Mon Sep 12 10:37:12 2005: LOG DATE
UWI.           05 071 08371 00: UNIQUE WELL ID
~Curve Information Block
DEPT.FT            0 000 00 00: Depth
CCL.                          : Casing Collar Locator
TT3.usec                      : CBL 3' Travel Time
AMP3.mV                       : CBL 3' Amplitude
GR.GAPI                       : Gamma Ray
~Parameter Information Block
~A  Depth       CCL         TT3         AMP3         GR     
# ...
  1642.0000      0.0000    684.6620      8.4467    117.1690
  1642.2500      0.0000    681.8590      8.9033    118.1031
  1642.5000      0.0000    682.1744      9.3660    119.7919
  1642.7500      0.0000    685.9340      9.8352    120.8404
  1643.0000      0.0000    691.5438     10.3661    119.9442
  1643.2500      0.0000    697.2560     11.0587    116.0986
  1643.5000      0.0000    702.5310     11.9990    109.1446
  1643.7500      0.0000    707.0552     13.2037    100.2888
  1644.0000      0.0000    708.5811     14.6147     91.6874
  1644.2500      0.0000    702.0672     16.1309     85.1719
  1644.5000      0.0000    680.9957     17.6385     81.1193
  1644.7500      0.0000    640.6069     19.0275     78.5935
  1645.0000      0.0000    582.5230     20.2053     76.6879
  1645.2500      0.0000    517.6188     21.1053     75.5602
  1645.5000      0.0000    462.5724     21.6857     76.0263
  1645.7500      0.0000    431.9322     21.9232     78.3772
  1646.0000      0.0000    433.1961     21.8093     81.9657
  1646.2500      0.0000    466.5128     21.3533     86.1530
  1646.5000      0.0000    524.1783     20.5915     91.3937
  1646.7500      0.0000    590.5464     19.5888     98.8553
  1647.0000      0.0000    647.9515     18.4232    108.6950
  1647.2500      0.0000    685.9875     17.1657    118.9458
  1647.5000      0.0000    704.4825     15.8713    126.4184
  1647.7500      0.0000    708.5533     14.5824    128.9176
  1648.0000      0.0000    703.5243     13.3321    126.8729
  1648.2500      0.0000    693.9330     12.1489    122.9993
  1648.5000      0.0000    683.9172     11.0715    120.3340
  1648.7500      0.0000    676.5466     10.1532    120.2626
  1649.0000      0.0000    673.2977      9.4419    121.8263
  1649.2500      0.0000    674.9012      8.9549    122.7116
  1649.5000      0.0000    682.4652      8.6721    121.4491
  1649.7500      0.0000    697.1554      8.5390    118.9392
  1650.0000      0.0000    718.2661      8.4714    117.5017
  1650.2500      0.0000    741.6386      8.3755    118.4485
  1650.5000      0.0000    760.8167      8.1825    120.9346
  1650.7500      0.0000    770.6758      7.8684    122.9665
  1651.0000      0.0000    770.2231      7.4464    122.9713
  1651.2500      0.0000    762.0949      6.9534    120.5010
  1651.5000      0.0000    750.3596      6.4493    115.9876
  1651.7500      0.0000    739.2019      6.0101    110.2428
  1652.0000      0.0000    732.1679      5.6988    104.2680
  1652.2500      0.0000    730.8444      5.5316     99.2012
  1652.5000      0.0000    734.2637      5.4730     95.9854
  1652.7500      0.0000    740.0183      5.4646     95.0292
  1653.0000      0.0000    745.3876      5.4622     96.3844
  1653.2500      0.0000    747.9391      5.4500    100.1395
  1653.5000      0.0000    747.3736      5.4314    106.2128
  1653.7500      0.0000    747.2033      5.4129    113.6347
  1654.0000      0.0000    752.2520      5.4013    120.5420
  1654.2500      0.0000    763.1805      5.4088    125.4308
  1654.5000      0.0000    774.4658      5.4569    128.4371
  1654.7500      0.0000    778.1943      5.5692    131.0822
  1655.0000      0.0000    769.4764      5.7617    134.5891
  1655.2500      0.0000    749.5175      6.0382    138.7212
  1655.5000      0.0000    725.1829      6.3914    142.5656
  1655.7500      0.0000    704.9999      6.7987    145.9036
  1656.0000      0.0000    694.0377      7.2131    148.9983
  1656.2500      0.0000    691.9716      7.5734    151.4680
  1656.5000      0.0000    695.1306      7.8415    152.3067
  1656.7500      0.0000    699.1794      8.0353    150.8997
  1657.0000      0.0000    700.4415      8.2205    147.3911
  1657.2500      0.0000    696.9359      8.4699    142.2257
  1657.5000      0.0000    689.4248      8.8262    135.9525
  1657.7500      0.0000    680.8680      9.2885    129.5181
  1658.0000      0.0000    674.1563      9.8147    124.1763
  1658.2500      0.0000    670.3467     10.3341    120.6578
  1658.5000      0.0000    668.8391     10.7678    118.5722
  1658.7500      0.0000    668.6727     11.0495    116.9906
  1659.0000      0.0000    669.5198     11.1456    115.6123
  1659.2500      0.0000    672.0392     11.0681    115.0904
  1659.5000      0.0000    677.5197     10.8704    116.2051
  1659.7500      0.0000    686.6727     10.6221    118.8273
  1660.0000      0.0000    698.0560     10.3766    121.6362
  1660.2500      0.0000    707.7969     10.1517    123.0999
  1660.5000      0.0000    711.6030      9.9301    123.0245
  1660.7500      0.0000    707.7591      9.6745    122.8535
  1661.0000      0.0000    698.7465      9.3546    124.2315
  1661.2500      0.0000    690.3397      8.9740    127.6558
  1661.5000      0.0000    688.7933      8.5764    132.5639
  1661.7500      0.0000    697.7336      8.2189    138.1137
  1662.0000      0.0000    716.1125      7.9330    143.4809
  1662.2500      0.0000    738.1707      7.7120    147.7482
  1662.5000      0.0000    755.8636      7.5331    150.1838
  1662.7500      0.0000    762.5858      7.3847    150.8397
  1663.0000      0.0000    755.9067      7.2722    150.4645
  1663.2500      0.0000    738.4424      7.2050    149.6289
  1663.5000      0.0000    716.7559      7.1836    148.2776
  1663.7500      0.0000    698.0543      7.1978    146.1453
  1664.0000      0.0000    686.2929      7.2344    143.1979
  1664.2500      0.0000    681.2961      7.2889    139.7056
  1664.5000      0.0000    681.4135      7.3694    136.2155
  1664.7500      0.0000    685.6835      7.4856    133.3370
  1665.0000      0.0000    692.7290      7.6319    131.2743
  1665.2500      0.0000    699.0734      7.7856    129.6976
  1665.5000      0.0000    700.7123      7.9224    128.4000
  1665.7500      0.0000    696.9843      8.0303    127.8953
  1666.0000      0.0000    692.0563      8.1124    128.8723
  1666.2500      0.0000    691.8084      8.1801    131.1497
  1666.5000      0.0000    698.8807      8.2436    133.6353
  1666.7500      0.0000    710.1799      8.3062    135.2746
  1667.0000      0.0000    718.9159      8.3573    135.6727
  1667.2500      0.0000    719.7866      8.3663    134.9694
  1667.5000      0.0000    713.3240      8.2860    133.6058
  1667.7500      0.0000    705.6789      8.0872    132.3006
  1668.0000      0.0000    704.1954      7.8068    131.8591
  1668.2500      0.0000    713.4781      7.5404    132.4871
  1668.5000      0.0000    734.7756      7.3478    133.1798
  1668.7500      0.0000    766.4923      7.1809    132.1878
  1669.0000      0.0000    803.8137      6.9517    128.4501
  1669.2500      0.0000    839.0814      6.6525    122.4574
  1669.5000      0.0000    863.8936      6.3583    115.6503
  1669.7500      2.0000    871.3839      6.1320    109.3530
  1670.0000     -2.0000    858.8327      5.9771    104.4853
  1670.2500      0.0000    830.6633      5.8718    101.7728
  1670.5000      0.0000    797.5016      5.8161    101.5102
  1670.7500      0.0000    769.3820      5.8404    103.0954
  1671.0000      0.0000    749.6626      5.9627    105.2908
  1671.2500      0.0000    735.4000      6.1352    107.2128
  1671.5000      0.0000    722.1074      6.2608    109.0749
  1671.7500      0.0000    708.1373      6.2933    112.0448
  1672.0000      0.0000    695.6700      6.2899    117.3570
  1672.2500      0.0000    687.9484      6.3346    125.4326
  1672.5000      0.0000    685.8038      6.4415    135.6576
  1672.7500      0.0000    687.1591      6.5606    146.5992
  1673.0000      0.0000    689.1639      6.6446    156.1800
  1673.2500      0.0000    689.9705      6.6833    162.1542
  1673.5000      0.0000    688.8779      6.6935    163.2591
  1673.7500      0.0000    685.8430      6.6981    160.2268
  1674.0000      0.0000    681.2502      6.7115    155.4784
  1674.2500      0.0000    675.5848      6.7325    151.5386
  1674.5000      0.0000    668.8299      6.7473    149.3904
  1674.7500      0.0000    660.3318      6.7415    148.0808
  1675.0000      0.0000    649.6708      6.7128    145.7995
  1675.2500      0.0000    637.4634      6.6738    141.4548
