~Version Information
VERS.                      2.0: CWLS Log ASCII Standard - VERSION 2.0
WRAP.                       NO: One line per depth step
~Well Information Block
STRT.FT                15.0000: 
STOP.FT              2620.5000: 
STEP.FT                 0.2500: 
NULL.                -999.2500: 
COMP.          Pioneer Natural Resources: COMPANY
WELL.               Zink 44-10: WELL
FLD.           Purgatoire River: FIELD
LOC.           548' FSL & 473' FEL: LOCATION
PROV.                 Colorado: PROVINCE
CNTY.               Las Animas: COUNTRY
SRVC.                Patterson: SERVICE COMPANY
DATE.          Tue Jun 21 13:36:23 2005: LOG DATE
UWI.           05 071 08380 00: UNIQUE WELL ID
~Curve Information Block
DEPT.FT            0 000 00 00: Depth
GR.GAPI                       : Gamma Ray
CCL.                          : Casing Collar Locator
TT3.usec                      : CBL 3' Travel Time
AMP3.mV                       : CBL 3' Amplitude
~Parameter Information Block
~A  Depth        GR         CCL         TT3         AMP3    
    15.0000   -999.2500      0.0000   1455.0000     -0.2285
    15.2500   -999.2500      0.0000   1455.0000     -0.2577
    15.5000   -999.2500      0.0000   1455.0000     -0.2834
    15.7500   -999.2500      0.0000   1455.0000     -0.2911
    16.0000   -999.2500      0.0000   1455.0000     -0.2777
    16.2500   -999.2500      0.0000   1455.0000     -0.2531
    16.5000   -999.2500      0.0000   1455.0000     -0.2323
    16.7500   -999.2500      0.0000   1455.0000     -0.2252
    17.0000   -999.2500      0.0000   1455.0000     -0.2311
    17.2500   -999.2500      0.0000   1455.0000     -0.2404
    17.5000   -999.2500      0.0000   1455.0000     -0.2420
    17.7500   -999.2500      0.0000   1455.0000     -0.2312
    18.0000     65.0210      0.0000   1454.9592     -0.2139
    18.2500     63.7331      0.0000   1454.7338     -0.2011
    18.5000     62.8371      0.0000   1453.6074     -0.1907
    18.7500     62.8205      0.0000   1449.3474     -0.1404
    19.0000     63.8336      0.0000   1436.8756      0.0566
    19.2500     65.6802      0.0000   1408.5367      0.5646
    19.5000     67.8027      0.0000   1358.0161      1.5267
    19.7500     69.5450      0.0000   1286.0929      2.9248
    20.0000     70.6946      0.0000   1202.5609      4.5064
    20.2500     71.5899      0.0000   1123.6642      5.9049
    20.5000     72.4327      2.5000   1069.6978      6.8710
    20.7500     72.7064      0.0000   1059.5935      7.3864
    21.0000     71.6170      0.0000   1097.1600      7.5883
    21.2500     68.9661      0.0000   1161.8220      7.6406
    21.5000     65.3503      0.0000   1220.4063      7.6667
    21.7500     61.7332      0.0000   1249.4174      7.7356
    22.0000     58.9840      0.0000   1245.1550      7.8611
    22.2500     57.5296      0.0000   1220.3456      8.0140
    22.5000     57.2516      0.0000   1194.7043      8.1545
    22.7500     57.8395      0.0000   1178.5984      8.2632
    23.0000     59.1944      0.0000   1160.5094      8.3446
    23.2500     61.2837      0.0000   1119.0248      8.4089
    23.5000     63.6799      0.0000   1049.3563      8.4614
    23.7500     65.5414      0.0000    971.1135      8.5076
    24.0000     66.1467      0.0000    910.5974      8.5590
    24.2500     65.3980      0.0000    881.6768      8.6253
    24.5000     63.8901      0.0000    880.6679      8.7041
    24.7500     62.5902      0.0000    891.6493      8.7839
    25.0000     62.3132      0.0000    896.5320      8.8578
    25.2500     63.2730      0.0000    885.6614      8.9307
    25.5000     65.0640      0.0000    862.0974      9.0094
    25.7500     67.1049      0.0000    836.2485      9.0894
    26.0000     69.1067      0.0000    816.6638      9.1573
    26.2500     71.1946      0.0000    805.5470      9.2066
    26.5000     73.6837      0.0000    800.5789      9.2482
    26.7500     76.6190      0.0000    798.6595      9.3007
    27.0000     79.3534      0.0000    797.8243      9.3727
    27.2500     80.7369      0.0000    797.2914      9.4549
    27.5000     80.0470      0.0000    796.8903      9.5305
    27.7500     77.6706      0.0000    796.6320      9.5929
    28.0000     74.6343      0.0000    796.5178      9.6510
    28.2500     71.6939      0.0000    796.5204      9.7157
    28.5000     69.2167      0.0000    796.5890      9.7828
    28.7500     67.7136      0.0000    796.6512      9.8325
    29.0000     67.9314      0.0000    796.6309      9.8491
    29.2500     70.3072      0.0000    796.4872      9.8356
    29.5000     74.5739      0.0000    796.2369      9.8094
    29.7500     80.0072      0.0000    795.9423      9.7848
    30.0000     85.9948      0.0000    795.6801      9.7637
    30.2500     92.2810      0.0000    795.5053      9.7425
    30.5000     98.6269      0.0000    795.4328      9.7214
    30.7500    104.3781      0.0000    795.4427      9.7039
    31.0000    108.5670      0.0000    795.5055      9.6908
    31.2500    110.4387      0.0000    795.6022      9.6808
    31.5000    109.8498      0.0000    795.7252      9.6773
    31.7500    107.3136      0.0000    795.8637      9.6909
    32.0000    103.7722      0.0000    795.9988      9.7287
    32.2500    100.2493      0.0000    796.1167      9.7837
    32.5000     97.5702      0.0000    796.2209      9.8382
    32.7500     96.1951      0.0000    796.3224      9.8786
    33.0000     96.1935      0.0000    796.4184      9.9041
    33.2500     97.3742      0.0000    796.4885      9.9229
    33.5000     99.3769      0.0000    796.5122      9.9413
    33.7500    101.6242      0.0000    796.4813      9.9594
    34.0000    103.4445      0.0000    796.3950      9.9769
    34.2500    104.4460      0.0000    796.2587      9.9971
    34.5000    104.7348      0.0000    796.0911     10.0218
    34.7500    104.6734      0.0000    795.9241     10.0452
    35.0000    104.4432      0.0000    795.7938     10.0561
    35.2500    103.9612      0.0000    795.7261     10.0498
    35.5000    103.1616      0.0000    795.7189     10.0369
    35.7500    102.0524      0.0000    795.7391     10.0377
    36.0000    100.3803      0.0000    795.7550     10.0653
    36.2500     97.7106      0.0000    795.7716     10.1133
    36.5000     94.1546      0.0000    795.8220     10.1594
    36.7500     90.6749      0.0000    795.9188     10.1848
    37.0000     88.3869      0.0000    796.0297     10.1892
    37.2500     87.7899      0.0000    796.1074     10.1878
    37.5000     88.6794      0.0000    796.1369     10.1942
    37.7500     90.2700      0.0000    796.1381     10.2104
    38.0000     91.3163      0.0000    796.1289     10.2307
    38.2500     90.7055      0.0000    796.0999     10.2525
    38.5000     88.3622      0.0000    796.0325     10.2795
    38.7500     85.5415      0.0000    795.9324     10.3164
    39.0000     84.1411      0.0000    795.8289     10.3629
    39.2500     85.5987      0.0000    795.7471     10.4132
    39.5000     90.1903      0.0000    795.6957     10.4632
    39.7500     97.0974      0.0000    795.6817     10.5157
    40.0000    104.9468      0.0000    795.7210     10.5756
    40.2500    112.3803      0.0000    795.8223     10.6402
    40.5000    118.4577      0.0000    795.9647     10.6963
    40.7500    122.8834      0.0000    796.0999     10.7300
    41.0000    125.8356      0.0000    796.1830     10.7387
    41.2500    127.4496      0.0000    796.1997     10.7325
    41.5000    127.5218      0.0000    796.1650     10.7260
    41.7500    125.7468      0.0000    796.1104     10.7270
    42.0000    122.1727      0.0000    796.0742     10.7333
    42.2500    117.5241      0.0000    796.0848     10.7390
    42.5000    113.0238      0.0000    796.1371     10.7450
    42.7500    109.5906      0.0000    796.1962     10.7616
    43.0000    107.1068      0.0000    796.2354     10.7974
    43.2500    104.6461      0.0000    796.2638     10.8458
    43.5000    101.4916      0.0000    796.3050     10.8884
    43.7500     97.9048      0.0000    796.3653     10.9130
    44.0000     94.9949      0.0000    796.4330     10.9261
    44.2500     93.7495      0.0000    796.4964     10.9439
    44.5000     93.8950      0.0000    796.5511     10.9729
    44.7500     93.6901      0.0000    796.5994     11.0018
    45.0000     91.1983      0.0000    796.6465     11.0121
    45.2500     85.9999      0.0000    796.6931     10.9974
    45.5000     79.5424      0.0000    796.7329     10.9709
    45.7500     73.7807      0.0000    796.7579     10.9570
    46.0000     69.7704      0.0000    796.7656     10.9741
    46.2500     67.6161      0.0000    796.7607     11.0225
    46.5000     67.1743      0.0000    796.7579     11.0865
    46.7500     68.2119      0.0000    796.7858     11.1484
    47.0000     70.0816      0.0000    796.8792     11.2026
    47.2500     71.9519      0.0000    797.0538     11.2596
    47.5000     73.4721      0.0000    797.2928     11.3365
    47.7500     74.7004      0.0000    797.5593     11.4431
    48.0000     75.5133      0.0000    797.8217     11.5761
    48.2500     75.8694      0.0000    798.0674     11.7245
