~Version Information
VERS.                      2.0: CWLS Log ASCII Standard - VERSION 2.0
WRAP.                       NO: One line per depth step
~Well Information Block
STRT.FT               360.0000: 
STOP.FT              1622.7500: 
STEP.FT                 0.2500: 
NULL.                -999.2500: 
COMP.          Pioneer Natural Resources: COMPANY
WELL.                Eric 42-9: WELL
FLD.           Purgatoire River: FIELD
LOC.           2050' FNL & 850' FEL: LOCATION
PROV.                 Colorado: PROVINCE
CNTY.               Las Animas: COUNTRY
SRVC.                Patterson: SERVICE COMPANY
DATE.          Sun Oct 31 17:26:46 2004: LOG DATE
UWI.           05 071 07999 00: UNIQUE WELL ID
~Curve Information Block
DEPT.FT            0 000 00 00: Depth
SN.Ohm-m                      : IEL Short Normal
SP.mV                         : IEL Spontaneous Potential
DIR.Ohm-m                     : IEL Induction Resistivity
GR.GAPI                       : Gamma Ray
~Parameter Information Block
~A  Depth        SN          SP         DIR          GR     
# ...
   527.5000   2000.0000   2100.0000     12.1116    127.6782
   527.7500   2000.0000   2100.0000     12.6003    121.2893
   528.0000   2000.0000   2100.0000     13.2301    109.2311
   528.2500   2000.0000   2100.0000     14.0279    100.0126
   528.5000   2000.0000   2100.0000     15.0215     85.8015
   528.7500   2000.0000   2100.0000     16.2303     77.1167
   529.0000   2000.0000   2100.0000     17.6517     66.8073
   529.2500   2000.0000   2100.0000     19.2504     62.2479
   529.5000   2000.0000   2100.0000     20.9554     58.9319
   529.7500   2000.0000   2100.0000     22.6652     58.5978
   530.0000   2000.0000   2100.0000     24.2617     59.5350
   530.2500   2000.0000   2100.0000     25.6347     60.3513
   530.5000   2000.0000   2100.0000     26.7139     61.0828
   530.7500   2000.0000   2100.0000     27.4902     61.0746
   531.0000   2000.0000   2100.0000     28.0103     60.3147
   531.2500   2000.0000   2100.0000     28.3426     59.4283
   531.5000   2000.0000   2100.0000     28.5322     57.8482
   531.7500   2000.0000   2100.0000     28.5646     56.7906
   532.0000   2000.0000   2100.0000     28.3618     55.4944
   532.2500   2000.0000   2100.0000     27.8211     55.1622
   532.5000   2000.0000   2100.0000     26.8834     56.3451
   532.7500   2000.0000   2100.0000     25.5866     58.7587
   533.0000   2000.0000   2100.0000     24.0651     65.3698
   533.2500   2000.0000   2100.0000     22.4977     71.7952
   533.5000   2000.0000   2100.0000     21.0455     83.6606
   533.7500   2000.0000   2100.0000     19.8135     92.0112
   534.0000   2000.0000   2100.0000     18.8437    102.8871
   534.2500   2000.0000   2100.0000     18.1276    107.8305
   534.5000   2000.0000   2100.0000     17.6230    110.4983
   534.7500   2000.0000   2100.0000     17.2738    108.9141
   535.0000   2000.0000   2100.0000     17.0326    102.1802
   535.2500   2000.0000   2100.0000     16.8847     95.8004
   535.5000   2000.0000   2100.0000     16.8600     85.9573
   535.7500   2000.0000   2100.0000     17.0262     80.8714
   536.0000   2000.0000   2100.0000     17.4656     77.6908
   536.2500   2000.0000   2100.0000     18.2499     78.9040
   536.5000   2000.0000   2100.0000     19.4149     83.9891
   536.7500   2000.0000   2100.0000     20.9317     87.3692
   537.0000   2000.0000   2100.0000     22.6726     88.5839
   537.2500   2000.0000   2100.0000     24.3934     85.8605
   537.5000   2000.0000   2100.0000     25.7717     78.0909
   537.7500   2000.0000   2100.0000     26.5148     72.6591
   538.0000   2000.0000   2100.0000     26.4839     67.7106
   538.2500   2000.0000   2100.0000     25.7496     67.6236
   538.5000   2000.0000   2100.0000     24.5447     72.3043
   538.7500   2000.0000   2100.0000     23.1509     77.9294
   539.0000   2000.0000   2100.0000     21.7938     88.3913
   539.2500   2000.0000   2100.0000     20.5924     95.5934
   539.5000   2000.0000   2100.0000     19.5728    104.9478
   539.7500   2000.0000   2100.0000     18.7138    109.5127
   540.0000   2000.0000   2100.0000     17.9939    113.6326
   540.2500   2000.0000   2100.0000     17.4167    114.8896
   540.5000   2000.0000   2100.0000     17.0074    115.0995
   540.7500   2000.0000   2100.0000     16.7940    114.1618
   541.0000   2000.0000   2100.0000     16.7895    110.9060
   541.2500   2000.0000   2100.0000     16.9828    107.4755
   541.5000   2000.0000   2100.0000     17.3396    100.8391
   541.7500   2000.0000   2100.0000     17.8081     95.8164
   542.0000   2000.0000   2100.0000     18.3211     88.1150
   542.2500   2000.0000   2100.0000     18.7952     83.3841
   542.5000   2000.0000   2100.0000     19.1338     78.1019
   542.7500   2000.0000   2100.0000     19.2492     76.5097
   543.0000   2000.0000   2100.0000     19.0962     77.5717
   543.2500   2000.0000   2100.0000     18.6959     80.3459
   543.5000   2000.0000   2100.0000     18.1240     86.6440
   543.7500   2000.0000   2100.0000     17.4736     91.7038
   544.0000   2000.0000   2100.0000     16.8217     99.8369
   544.2500   2000.0000   2100.0000     16.2167    105.1542
   544.5000   2000.0000   2100.0000     15.6823    111.8725
   544.7500   2000.0000   2100.0000     15.2270    114.8295
   545.0000   2000.0000   2100.0000     14.8512    116.2392
   545.2500   2000.0000   2100.0000     14.5521    115.1314
   545.5000   2000.0000   2100.0000     14.3262    111.0543
   545.7500   2000.0000   2100.0000     14.1673    107.4429
   546.0000   2000.0000   2100.0000     14.0608    102.0568
   546.2500   2000.0000   2100.0000     13.9814     99.1394
   546.5000   2000.0000   2100.0000     13.8960     96.6468
   546.7500   2000.0000   2100.0000     13.7718     96.6717
   547.0000   2000.0000   2100.0000     13.5834     99.4986
   547.2500   2000.0000   2100.0000     13.3173    102.8154
   547.5000   2000.0000   2100.0000     12.9756    108.1410
   547.7500   2000.0000   2100.0000     12.5789    110.6663
   548.0000   2000.0000   2100.0000     12.1638    111.6940
   548.2500   2000.0000   2100.0000     11.7724    110.8396
   548.5000   2000.0000   2100.0000     11.4427    108.9523
   548.7500   2000.0000   2100.0000     11.2022    108.1094
   549.0000   2000.0000   2100.0000     11.0692    107.5411
   549.2500   2000.0000   2100.0000     11.0557    107.1526
   549.5000   2000.0000   2100.0000     11.1681    106.0883
   549.7500   2000.0000   2100.0000     11.4022    105.3055
   550.0000   2000.0000   2100.0000     11.7331    104.9790
   550.2500   2000.0000   2100.0000     12.1083    105.7870
   550.5000   2000.0000   2100.0000     12.4548    108.4787
   550.7500   2000.0000   2100.0000     12.7045    110.5757
   551.0000   2000.0000   2100.0000     12.8222    112.5256
   551.2500   2000.0000   2100.0000     12.8126    112.5022
   551.5000   2000.0000   2100.0000     12.7053    111.1061
   551.7500   2000.0000   2100.0000     12.5349    110.2276
   552.0000   2000.0000   2100.0000     12.3309    110.3882
   552.2500   2000.0000   2100.0000     12.1138    111.6161
   552.5000   2000.0000   2100.0000     11.8953    114.1289
   552.7500   2000.0000   2100.0000     11.6808    115.4230
   553.0000   2000.0000   2100.0000     11.4724    116.0962
   553.2500   2000.0000   2100.0000     11.2720    115.9417
   553.5000   2000.0000   2100.0000     11.0806    115.7477
   553.7500   2000.0000   2100.0000     10.8977    116.0365
   554.0000   2000.0000   2100.0000     10.7232    117.1588
   554.2500   2000.0000   2100.0000     10.5621    118.2162
   554.5000   2000.0000   2100.0000     10.4303    120.1038
   554.7500   2000.0000   2100.0000     10.3523    121.4900
   555.0000   2000.0000   2100.0000     10.3504    123.2906
   555.2500   2000.0000   2100.0000     10.4309    123.8559
   555.5000   2000.0000   2100.0000     10.5779    123.2781
   555.7500   2000.0000   2100.0000     10.7595    122.0681
   556.0000   2000.0000   2100.0000     10.9428    119.6597
   556.2500   2000.0000   2100.0000     11.1082    118.0161
   556.5000   2000.0000   2100.0000     11.2534    115.9405
   556.7500   2000.0000   2100.0000     11.3880    115.0192
   557.0000   2000.0000   2100.0000     11.5243    114.3797
   557.2500   2000.0000   2100.0000     11.6718    114.0959
   557.5000   2000.0000   2100.0000     11.8388    112.7779
   557.7500   2000.0000   2100.0000     12.0372    110.7998
   558.0000   2000.0000   2100.0000     12.2848    106.2712
   558.2500   2000.0000   2100.0000     12.6017    102.7495
   558.5000   2000.0000   2100.0000     13.0033     97.7076
   558.7500   2000.0000   2100.0000     13.4935     94.7898
   559.0000   2000.0000   2100.0000     14.0635     91.0212
   559.2500   2000.0000   2100.0000     14.6938     88.7012
   559.5000   2000.0000   2100.0000     15.3599     85.0094
   559.7500   2000.0000   2100.0000     16.0396     82.2036
   560.0000   2000.0000   2100.0000     16.7205     77.7891
   560.2500   2000.0000   2100.0000     17.4037     75.2835
   560.5000   2000.0000   2100.0000     18.0988     73.0048
   560.7500   2000.0000   2100.0000     18.8105     72.4793
