~Version Information
VERS.                      2.0: CWLS Log ASCII Standard - VERSION 2.0
WRAP.                       NO: One line per depth step
~Well Information Block
STRT.FT               754.6000: 
STOP.FT              2329.0000: 
STEP.FT                 0.1000: 
NULL.                -999.2500: 
COMP.          Petrogulf Corporation: COMPANY
WELL.           Anderson 18-42: WELL
FLD.           Purgatoire River: FIELD
LOC.           1668' FNL & 1110' FEL: LOCATION
CNTY.               Las Animas: COUNTY
SRVC.                         : SERVICE COMPANY
DATE.          Tue Dec 16 12:18:55 2003: LOG DATE
UWI.                          : UNIQUE WELL ID
STAT.                 Colorado: STATE
~Curve Information Block
DEPT.FT            0 000 00 00: Depth
DCAL.in                       : CDL Caliper
RHOB.g/cc                     : CDL Bulk Density
RHOC.g/cc                     : CDL Density Correction
DPOR.pu                       : CDL Density Porosity
NPOR.pu                       : Neutron Porosity
GR.GAPI                       : Gamma Ray
~Parameter Information Block
~A  Depth       DCAL        RHOB        RHOC        DPOR        NPOR         GR     
# ...
  2117.8000      8.1296      2.5246      0.1341      7.6026     10.7583     88.8082
  2117.9000      8.1296      2.4976      0.1213      9.2387     10.4713     79.5551
  2118.0000      8.1382      2.4935      0.1475      9.4824     10.0454     66.8125
  2118.1000      8.1382      2.5084      0.1233      8.5798      9.7128     61.8992
  2118.2000      8.1382      2.5245      0.1386      7.6032      9.6600     65.3971
  2118.3000      8.1645      2.5297      0.0514      7.2890      9.6753     71.2894
  2118.4000      8.1645      2.5333      0.0340      7.0709      9.5331     73.9772
  2118.5000      8.1879      2.5420      0.0714      6.5467      9.5257     72.3983
  2118.6000      8.1879      2.5419      0.0772      6.5531      9.8226     72.3940
  2118.7000      8.1879      2.5269      0.0427      7.4612      9.8744     78.8834
  2118.8000      8.1854      2.5117      0.0506      8.3807      9.5087     87.3922
  2118.9000      8.1854      2.5109      0.0516      8.4320      9.3603     88.1283
  2119.0000      8.1879      2.5210      0.1126      7.8172      9.6972     78.2482
  2119.1000      8.1879      2.5265      0.1078      7.4858     10.2503     66.6601
  2119.2000      8.1879      2.5244      0.0714      7.6096     10.6944     61.1718
  2119.3000      8.1855      2.5219      0.0690      7.7622     10.9006     61.2593
  2119.4000      8.1855      2.5169      0.0527      8.0660     10.7351     64.0251
  2119.5000      8.1854      2.5105      0.0300      8.4531     10.2425     68.4139
  2119.6000      8.1854      2.5130      0.0604      8.3002      9.7751     72.0366
  2119.7000      8.1854      2.5232      0.0602      7.6873      9.5755     73.7114
  2119.8000      8.1874      2.5280      0.0724      7.3920      9.6582     76.9927
  2119.9000      8.1874      2.5230      0.0883      7.6967      9.7680     80.5008
  2120.0000      8.1866      2.5153      0.0680      8.1657      9.6349     79.8746
  2120.1000      8.1866      2.5105      0.0596      8.4518      9.3650     78.1322
  2120.2000      8.1866      2.5070      0.0263      8.6671      9.1356     80.2537
  2120.3000      8.1885      2.5059      0.0116      8.7359      9.0773     83.2617
  2120.4000      8.1885      2.5109      0.0303      8.4274      9.3906     80.5295
  2120.5000      8.1846      2.5155      0.0830      8.1519      9.9422     73.7140
  2120.6000      8.1846      2.5063      0.0567      8.7099     10.1090     66.7241
  2120.7000      8.1846      2.4933     -0.0205      9.4975      9.5086     61.3924
  2120.8000      8.1972      2.4995      0.0176      9.1217      8.5360     58.9485
  2120.9000      8.1972      2.5202      0.0611      7.8682      7.9332     58.2061
  2121.0000      8.2172      2.5367      0.0606      6.8694      7.9122     57.8747
  2121.1000      8.2172      2.5453      0.0552      6.3474      8.0130     57.4934
  2121.2000      8.2172      2.5466      0.0526      6.2663      8.0024     53.9625
  2121.3000      8.2250      2.5376      0.0516      6.8151      8.1482     46.4383
  2121.4000      8.2250      2.5211      0.0329      7.8118      8.4385     43.3894
  2121.5000      8.2484      2.5054      0.0217      8.7619      8.5003     47.6064
  2121.6000      8.2484      2.4993      0.0080      9.1326      8.4133     52.5565
  2121.7000      8.2484      2.5050      0.0085      8.7908      8.7882     58.1945
  2121.8000      8.2477      2.5079      0.0318      8.6105      9.8000     65.0587
  2121.9000      8.2477      2.4950      0.0248      9.3942     10.9232     69.6083
  2122.0000      8.2370      2.4709      0.0313     10.8557     11.6418     73.0538
  2122.1000      8.2370      2.4492      0.0079     12.1718     11.9006     77.9512
  2122.2000      8.2370      2.4402      0.0190     12.7170     12.0400     81.5766
  2122.3000      8.2493      2.4437      0.0057     12.5048     12.4686     82.5991
  2122.4000      8.2493      2.4569      0.0114     11.7017     13.2179     85.1500
  2122.5000      8.2478      2.4746      0.0492     10.6317     13.8084     88.9579
  2122.6000      8.2478      2.4824      0.1051     10.1554     14.2874     91.0014
  2122.7000      8.2478      2.4745      0.1001     10.6387     14.9055     93.5162
  2122.8000      8.2595      2.4585      0.1347     11.6081     15.3377     97.3066
  2122.9000      8.2595      2.4376      0.1437     12.8718     15.4925     96.8245
  2123.0000      8.2798      2.4123      0.1653     14.4037     15.3563     91.2454
  2123.1000      8.2798      2.3945      0.0791     15.4841     14.7301     90.5082
  2123.2000      8.2798      2.3988      0.0857     15.2235     14.1035    101.9145
  2123.3000      8.1113      2.4182      0.0996     14.0494     14.1541    117.7140
  2123.4000      8.1113      2.4356      0.0904     12.9946     14.6528    124.3428
  2123.5000      8.0876      2.4532      0.0584     11.9254     14.7417    119.4860
  2123.6000      8.0876      2.4798      0.1314     10.3145     13.7959    109.6596
  2123.7000      8.0876      2.5105      0.1712      8.4575     12.4955     97.3580
  2123.8000      8.0872      2.5340      0.1819      7.0297     11.8428     84.5659
  2123.9000      8.0872      2.5418      0.1549      6.5601     11.5788     78.1019
  2124.0000      8.0547      2.5348      0.1614      6.9802     11.0181     76.6173
  2124.1000      8.0547      2.5288      0.1619      7.3459     10.2488     75.8749
  2124.2000      8.0547      2.5398      0.0289      6.6818      9.5332     78.9965
  2124.3000      8.0535      2.5629      0.0834      5.2760      9.0054     83.0959
  2124.4000      8.0535      2.5795      0.0525      4.2743      9.0341     81.5339
  2124.5000      8.0572      2.5874      0.0412      3.7930      9.7271     75.9123
  2124.6000      8.0572      2.5977      0.0696      3.1692     10.4402     70.4795
  2124.7000      8.0572      2.6108      0.0432      2.3742     10.5081     68.5057
  2124.8000      8.0559      2.6155      0.1050      2.0896     10.1913     70.2382
  2124.9000      8.0559      2.6050      0.0559      2.7270      9.9437     71.2103
  2125.0000      8.0628      2.5878      0.0617      3.7672      9.6305     70.1050
  2125.1000      8.0628      2.5742      0.0209      4.5921      9.1914     69.5779
  2125.2000      8.0628      2.5618      0.0423      5.3428      9.1208     70.5201
  2125.3000      8.0537      2.5460      0.0241      6.3048      9.3096     72.3488
  2125.4000      8.0537      2.5350      0.0330      6.9726      9.0727     70.7020
  2125.5000      8.0567      2.5402      0.0066      6.6530      8.6223     64.0777
  2125.6000      8.0567      2.5586      0.0341      5.5395      8.4972     60.9433
  2125.7000      8.0567      2.5730      0.0382      4.6687      8.6323     67.1454
  2125.8000      8.0581      2.5683      0.0628      4.9526      8.8717     74.6893
  2125.9000      8.0581      2.5469      0.0116      6.2497      9.4928     73.6668
  2126.0000      8.0595      2.5296      0.0019      7.2987     10.7700     68.1097
  2126.1000      8.0595      2.5249      0.0264      7.5847     12.0837     69.8818
  2126.2000      8.0595      2.5213      0.0323      7.8028     12.8550     80.1743
  2126.3000      8.0633      2.5164      0.0231      8.0968     13.3975     89.3784
  2126.4000      8.0633      2.5139      0.0237      8.2496     14.0420     92.7466
  2126.5000      8.0587      2.5035      0.0253      8.8812     14.7621     94.0014
  2126.6000      8.0587      2.4780      0.0249     10.4254     15.2470     94.7702
  2126.7000      8.0587      2.4551     -0.0075     11.8104     15.4165     94.7614
  2126.8000      8.0573      2.4548      0.0449     11.8279     15.5195     98.5723
  2126.9000      8.0573      2.4662      0.0781     11.1385     15.6105    107.0150
  2127.0000      8.0576      2.4690      0.0817     10.9689     15.7600    116.0745
  2127.1000      8.0576      2.4597      0.1375     11.5307     15.9399    123.5936
  2127.2000      8.0576      2.4435      0.0840     12.5123     15.7628    125.1948
  2127.3000      8.0545      2.4309      0.1045     13.2786     15.1316    118.3804
