~Version Information
VERS.                      2.0: CWLS Log ASCII Standard - VERSION 2.0
WRAP.                       NO: One line per depth step
~Well Information Block
STRT.FT                -4.7500: 
STOP.FT              1784.7500: 
STEP.FT                 0.2500: 
NULL.                -999.2500: 
COMP.          Pioneer Natural Resources: COMPANY
WELL.          Buckeye 11-13 Tr: WELL
FLD.           Purgatorie River: FIELD
LOC.           211' FNL & 1054' FWL--: LOCATION
STAT.                       CO: State
CNTY.               Las Animas: COUNTY
CTRY. USA : Country
SECT. 13 : Section
TOWN. 33S : Township
RANG. 67W : range
SRVC.          Patterson Wireline: SERVICE COMPANY
DATE.          Wed Mar 16 09:19:21 2005: LOG DATE
API.           05 071 08317 00: UNIQUE WELL ID
~Curve Information Block
DEPT.FT            0 000 00 00: Depth
CCL.                          : Casing Collar Locator
TT3.usec                      : CBL 3' Travel Time
AMP3.mV                       : CBL 3' Amplitude
GR.GAPI                       : Gamma Ray
~Parameter Information Block
~A  Depth       CCL         TT3         AMP3         GR     
# ...
  1402.2500      0.0000    648.3817      5.0059     72.4198
  1402.5000      0.0000    645.3356      4.8026     72.6286
  1402.7500      0.0000    644.9066      4.5695     71.8444
  1403.0000      0.0000    647.6814      4.4579     71.1652
  1403.2500      0.0000    653.4141      4.5456     71.9052
  1403.5000      0.0000    661.0729      4.7355     74.8950
  1403.7500      0.0000    669.6929      4.8492     80.0252
  1404.0000      0.0000    679.3997      4.7908     86.3410
  1404.2500      0.0000    691.2589      4.6009     92.9326
  1404.5000      0.0000    705.9957      4.3968     99.9524
  1404.7500      0.0000    723.2036      4.2820    108.5169
  1405.0000      0.0000    741.4568      4.2782    119.3181
  1405.2500      0.0000    758.1852      4.3329    131.3985
  1405.5000      0.0000    769.6138      4.4059    142.4202
  1405.7500      0.0000    772.4044      4.5141    150.1030
  1406.0000      0.0000    766.3290      4.6697    153.3033
  1406.2500      0.0000    755.1894      4.8244    151.9269
  1406.5000      0.0000    744.7208      4.9214    146.3003
  1406.7500      0.0000    738.8015      4.9764    136.8582
  1407.0000      0.0000    736.8832      5.0663    124.3739
  1407.2500      0.0000    735.2363      5.2475    110.4541
  1407.5000      0.0000    730.8239      5.4924     97.7456
  1407.7500      0.0000    723.5487      5.6983     89.3454
  1408.0000      0.0000    715.3078      5.7666     87.6170
  1408.2500      0.0000    708.7010      5.6966     93.2113
  1408.5000      0.0000    706.7286      5.5802    104.8773
  1408.7500      0.0000    711.3078      5.4939    119.9641
  1409.0000      0.0000    720.0614      5.4313    135.1582
  1409.2500      0.0000    725.5439      5.3636    147.3024
  1409.5000      0.0000    720.5901      5.3129    154.3019
  1409.7500      0.0000    705.9698      5.3236    155.7345
  1410.0000      0.0000    691.4936      5.3954    152.8034
  1410.2500      0.0000    687.8003      5.4784    147.9870
  1410.5000      0.0000    697.3671      5.5166    144.5950
  1410.7500      0.0000    714.1271      5.4873    145.5835
  1411.0000      0.0000    730.1431      5.4179    151.6476
  1411.2500      0.0000    741.2126      5.3685    160.2576
  1411.5000      0.0000    747.4422      5.3787    167.1151
  1411.7500      0.0000    750.2697      5.4318    168.7733
  1412.0000      0.0000    749.2675      5.4690    163.9603
  1412.2500      0.0000    742.0405      5.4271    153.4180
  1412.5000      0.0000    727.5211      5.2800    139.7227
  1412.7500      0.0000    708.7903      5.0820    126.7854
  1413.0000      0.0000    691.6358      4.9510    117.8998
  1413.2500      0.0000    680.2717      4.9563    113.5483
  1413.5000      0.0000    674.9877      5.0425    111.5004
  1413.7500      0.0000    673.5192      5.1189    109.2761
  1414.0000      0.0000    673.5775      5.1988    106.2729
  1414.2500      0.0000    673.9153      5.3640    103.5892
  1414.5000      0.0000    674.0549      5.6007    102.3903
  1414.7500      0.0000    673.8766      5.7656    102.7338
  1415.0000      0.0000    673.4538      5.7423    103.6786
  1415.2500      0.0000    672.8915      5.5773    104.1188
  1415.5000      0.0000    672.1083      5.4232    103.5430
  1415.7500      0.0000    670.7072      5.3708    102.4388
  1416.0000      0.0000    668.1137      5.3755    102.0788
  1416.2500      0.0000    664.1265      5.3514    103.3816
  1416.5000      0.0000    659.6465      5.2917    105.7164
  1416.7500      0.0000    656.6796      5.2601    107.3097
  1417.0000      0.0000    656.9760      5.2917    107.1607
  1417.2500      0.0000    660.4208      5.3558    106.1288
  1417.5000      0.0000    665.0846      5.4117    105.9474
  1417.7500      0.0000    668.8281      5.4569    107.8030
  1418.0000      0.0000    670.4768      5.5122    111.9632
  1418.2500      0.0000    669.4774      5.5851    117.7857
  1418.5000      0.0000    665.1240      5.6621    123.5551
  1418.7500      0.0000    656.7906      5.7296    127.0380
  1419.0000      0.0000    645.0227      5.7951    126.8863
  1419.2500      0.0000    632.1026      5.8728    123.4326
  1419.5000      0.0000    621.3904      5.9373    118.1191
  1419.7500      0.0000    616.0021      5.9164    112.4658
  1420.0000      0.0000    617.3790      5.7694    107.4446
  1420.2500      0.0000    624.4422      5.5522    103.2813
  1420.5000      0.0000    634.4429      5.3619     99.6177
  1420.7500      0.0000    644.8635      5.2359     96.0538
  1421.0000      0.0000    654.2345      5.1531     92.6585
  1421.2500      0.0000    661.7153      5.1109     89.8547
  1421.5000      0.0000    666.9231      5.1360     87.9327
  1421.7500      0.0000    670.1842      5.2100     87.0655
  1422.0000      0.0000    672.4492      5.2532     87.9016
  1422.2500      0.0000    674.9022      5.2150     91.8080
  1422.5000      0.0000    678.6945      5.1476     99.9558
  1422.7500      0.0000    684.6817      5.1463    111.8921
  1423.0000      0.0000    693.1617      5.2371    125.3582
  1423.2500      0.0000    703.9752      5.3604    137.8045
  1423.5000      0.0000    716.7037      5.4523    147.6416
  1423.7500      0.0000    730.1747      5.4959    153.9317
  1424.0000      0.0000    741.8320      5.5010    156.1347
  1424.2500      0.0000    748.7337      5.4815    154.9196
  1424.5000      0.0000    749.9133      5.4611    152.2418
  1424.7500      0.0000    747.2585      5.4660    149.6669
  1425.0000      0.0000    743.5776      5.5055    146.8297
  1425.2500      0.0000    740.0936      5.5683    141.9471
  1425.5000      0.0000    735.9220      5.6385    134.0115
  1425.7500      0.0000    729.3398      5.7051    124.5353
  1426.0000      0.0000    719.4980      5.7554    116.9222
  1426.2500      0.0000    707.8404      5.7607    113.8822
  1426.5000      0.0000    698.2809      5.6905    115.5988
  1426.7500      0.0000    695.4997      5.5590    120.4148
  1427.0000      0.0000    702.2039      5.4395    126.5587
  1427.2500      0.0000    716.8727      5.3989    132.9379
  1427.5000      0.0000    733.0403      5.4214    139.0188
  1427.7500      0.0000    741.4688      5.4201    144.4958
  1428.0000      0.0000    735.6940      5.3212    148.7564
  1428.2500      0.0000    717.5148      5.1339    150.5786
  1428.5000      0.0000    696.4312      4.9527    148.9121
  1428.7500      0.0000    682.2194      4.8898    144.2716
  1429.0000      0.0000    678.3864      4.9792    139.1937
  1429.2500      0.0000    682.6127      5.1459    136.9112
  1429.5000      0.0000    690.7163      5.2830    138.9962
  1429.7500      0.0000    698.7844      5.3482    144.0011
  1430.0000      0.0000    703.9310      5.3776    148.7281
  1430.2500      0.0000    705.3166      5.4299    150.9783
  1430.5000      0.0000    704.5632      5.5237    150.8034
  1430.7500      0.0000    704.5021      5.6103    149.4516
  1431.0000      0.0000    706.8506      5.6115    148.0595
  1431.2500      0.0000    710.8062      5.5073    147.5303
  1431.5000      0.0000    714.1671      5.3741    148.8280
  1431.7500      0.0000    715.8036      5.3088    152.8015
  1432.0000      0.0000    716.1327      5.3284    159.6597
  1432.2500      0.0000    715.2954      5.3722    168.4512
  1432.5000      0.0000    712.5760      5.3856    176.8737
  1432.7500      0.0000    707.9604      5.3646    182.1025
  1433.0000      0.0000    703.0115      5.3235    182.6484
  1433.2500      0.0000    700.2809      5.2639    179.6037
  1433.5000      0.0000    702.7228      5.1873    175.7605
  1433.7500      0.0000    712.8008      5.1049    173.3648
  1434.0000      0.0000    730.5852      5.0358    172.6862
  1434.2500      0.0000    752.8010      5.0144    172.4572
  1434.5000      0.0000    774.6192      5.0773    171.2890
  1434.7500      0.0000    792.3792      5.2123    168.6176
  1435.0000      0.0000    804.7861      5.3455    164.6636
  1435.2500      0.0000    812.4003      5.3973    159.9165
  1435.5000      0.0000    816.3498      5.3396    154.9395
