~Version Information
 VERS.                                  2.0 : CWLS LAS VERSION
 WRAP.                                   NO : WRAPING MODE
 SWARE .                 MController 2.5.0E : SOFTWARE VERSION
~Well Information
 WELL.                        Labrador 34-30: WELL
 COMP.             Pioneer Natural Resources: COMPANY
 FLD.                       Purgatoire River: FIELD
 LOC.                SW/SE Sec 30 T34S R65W : LOCATION
 DATE.                            12/05/2004: DATE(S) LOGGED
 SRVC.       Blanco Geological Services LLC : SERVICE COMPANY
 STAT.                                    CO: STATE
 CNTY.                            Las Animas: COUNTY
 CTRY.                                   USA: COUNTRY
 API.                           05-071-08202: API NUMBER
 STRT.FT                             302.00 : START DEPTH
 STOP.FT                            1765.00 : STOP DEPTH
 STEP.FT                               1.00 : DEPTH INCREMENT
 NULL.                                -9999 : NULL VALUE
~Curve information
 DEPTH.FT                                   :
 ROP.MIN/FT                                 :
 GAS.UNITS                                  :
~ASCII Log data
# ...
     1302.00        0.200         23.4 
     1303.00        0.200         22.2 
     1304.00        0.233         21.4 
     1305.00        0.183         20.7 
     1306.00        0.167         20.2 
     1307.00        0.167         19.9 
     1308.00        0.167         19.1 
     1309.00        0.133         16.3 
     1310.00        0.133         15.1 
     1311.00        0.167         14.4 
     1312.00        0.200         12.7 
     1313.00        0.100         12.3 
     1314.00        0.100         11.9 
     1315.00        0.167         12.2 
     1316.00        4.483         68.5 
     1317.00        0.233         44.2 
     1318.00        0.267         42.3 
     1319.00        0.283         39.9 
     1320.00        0.200         38.8 
     1321.00        0.200         37.5 
     1322.00        0.200         35.6 
     1323.00        0.233         34.7 
     1324.00        0.300         33.1 
     1325.00        0.267         30.6 
     1326.00        0.267         28.7 
     1327.00        0.200         27.2 
     1328.00        0.233         26.4 
     1329.00        0.267         25.4 
     1330.00        0.267         23.4 
     1331.00        0.233         22.5 
     1332.00        0.233         24.1 
     1333.00        0.250         23.6 
     1334.00        0.200         22.6 
     1335.00        0.200         21.9 
     1336.00        0.233         20.4 
     1337.00        0.200         19.1 
     1338.00        0.233         19.1 
     1339.00        0.267         17.7 
     1340.00        0.200         17.2 
     1341.00        0.267         14.8 
     1342.00        0.233         13.8 
     1343.00        0.233         12.6 
     1344.00        0.233         10.0 
     1345.00        0.233          9.6 
     1346.00        3.450         39.1 
     1347.00        0.417         36.3 
     1348.00        0.300         35.2 
     1349.00        0.300         33.0 
     1350.00        0.667         29.2 
     1351.00        0.267         27.4 
     1352.00        0.267         26.7 
     1353.00        0.233         26.5 
     1354.00        0.233         25.8 
     1355.00        0.300         24.7 
     1356.00        0.233         23.0 
     1357.00        0.233         21.8 
     1358.00        0.200         21.3 
     1359.00        0.217         20.8 
     1360.00        0.167         20.3 
     1361.00        0.167         20.5 
     1362.00        0.167         21.5 
     1363.00        0.200         23.3 
     1364.00        0.233         23.4 
     1365.00        0.200         22.2 
     1366.00        0.233         19.8 
     1367.00        0.233         19.0 
     1368.00        0.200         16.4 
     1369.00        0.233         15.5 
     1370.00        0.233         14.2 
     1371.00        0.233         12.8 
     1372.00        0.233         12.6 
     1373.00        0.233         12.6 
     1374.00        0.250         11.5 
     1375.00        0.300          9.4 
     1376.00        3.083         43.9 
     1377.00        0.300         43.1 
     1378.00        0.333         40.3 
     1379.00        0.300         37.0 
     1380.00        0.333         33.2 
     1381.00        0.333         29.4 
     1382.00        0.267         27.2 
     1383.00        0.500         26.2 
     1384.00        0.267         24.6 
     1385.00        0.333         22.9 
     1386.00        0.317         21.4 
     1387.00        0.233         20.4 
     1388.00        0.300         19.4 
     1389.00        0.267         18.6 
     1390.00        0.200         18.0 
     1391.00        0.267         20.5 
     1392.00        0.233         21.9 
     1393.00        0.233         21.1 
     1394.00        0.233         20.3 
     1395.00        0.200         17.9 
     1396.00        0.200         17.1 
     1397.00        0.200         15.8 
     1398.00        0.233         15.4 
     1399.00        0.233         14.3 
     1400.00        0.233         13.8 
     1401.00        0.250         12.6 
     1402.00        0.167         11.5 
     1403.00        0.200         11.3 
     1404.00        0.200         10.3 
     1405.00        0.200          9.4 
     1406.00        2.917         45.4 
     1407.00        0.200         38.6 
     1408.00        0.333         36.8 
     1409.00        0.267         34.8 
     1410.00        0.267         33.1 
     1411.00        0.267         31.3 
     1412.00        0.267         29.3 
     1413.00        0.200         28.5 
     1414.00        0.233         28.2 
     1415.00        0.267         28.4 
     1416.00        0.267         28.1 
     1417.00        0.283         28.0 
     1418.00        0.233         27.0 
     1419.00        0.233         24.8 
     1420.00        0.267         23.3 
     1421.00        0.167         23.0 
     1422.00        0.167         23.4 
     1423.00        0.200         23.5 
     1424.00        0.233         22.9 
     1425.00        0.233         21.0 
     1426.00        0.233         19.2 
     1427.00        0.300         17.7 
     1428.00        0.200         17.6 
     1429.00        0.200         16.4 
     1430.00        0.100         15.8 
     1431.00        0.100         14.3 
     1432.00        0.100         13.3 
     1433.00        0.233         13.1 
     1434.00        0.283         11.4 
     1435.00        0.233          9.8 
     1436.00        6.967        153.5 
     1437.00        0.867        107.6 
     1438.00        0.100        109.4 
     1439.00        0.067        109.7 
     1440.00        0.200        110.3 
     1441.00        0.300        110.3 
     1442.00        0.267        106.5 
     1443.00        0.267        100.8 
     1444.00        0.300         93.2 
     1445.00        0.267         83.6 
     1446.00        0.350         74.6 
     1447.00        0.267         66.1 
     1448.00        0.267         59.9 
     1449.00        0.300         53.9 
     1450.00        0.267         46.6 
     1451.00        0.267         41.8 
     1452.00        0.233         37.8 
     1453.00        0.267         38.7 
     1454.00        0.300         37.0 
     1455.00        0.233         31.7 
     1456.00        0.233         26.9 
     1457.00        0.267         22.3 
     1458.00        0.283         20.7 
     1459.00        0.200         21.0 
     1460.00        0.233         22.2 
     1461.00        0.167         22.6 
     1462.00        0.200         22.6 
     1463.00        0.200         21.2 
     1464.00        0.233         19.7 
     1465.00        0.367         18.5 
     1466.00        2.750        166.2 
     1467.00        0.233        144.6 
     1468.00        0.133        129.3 
     1469.00        0.367        122.6 
     1470.00        0.333        126.2 
     1471.00        0.100        132.3 
     1472.00        0.200        146.6 
     1473.00        0.200        157.3 
     1474.00        0.133        161.2 
     1475.00        0.133        165.4 
     1476.00        0.133        167.7 
     1477.00        0.167        168.1 
     1478.00        0.150        165.7 
     1479.00        0.100        164.1 
     1480.00        0.300        186.8 
     1481.00        0.200        183.2 
     1482.00        0.167        167.4 
     1483.00        0.233        152.0 
     1484.00        0.200        129.2 
     1485.00        0.233        115.9 
     1486.00        0.233        106.0 
     1487.00        0.167        100.3 
     1488.00        0.167         98.4 
     1489.00        0.167         97.4 
     1490.00        0.167         96.5 
     1491.00        0.167         94.7 
     1492.00        0.133         91.3 
     1493.00        0.167         87.2 
     1494.00        0.267         81.5 
     1495.00        0.350         74.9 
     1496.00        3.000        336.5 
     1497.00        0.483        272.8 
     1498.00        0.367        227.2 
     1499.00        0.300        199.6 
     1500.00        0.333        183.0 
     1501.00        0.233        173.2 
