~Version Information
 VERS.                2.0:  CWLS LOG ASCII STANDARD -VERSION 2.0
 WRAP.                 NO:  ONE LINE PER DEPTH STEP
~WELL INFORMATION BLOCK
#MNEM.UNIT       DATA		            DESCRIPTION OF MNEMONIC
#---------    -------------            ------------------------
 STRT.FT  0.500                          :START DEPTH
 STOP.FT  1808.700                       :STOP DEPTH
 STEP.FT  0.100                          :STEP    UP_HOLE  
 NULL.    -999.25                        :NULL VALUE
 COMP.              EL PASO PRODUCTIONS  :COMPANY
 WELL.                     COREHOLE #38  :WELL
 FLD .                 PURGATOIRE RIVER  :FIELD
 LOC .      15   35S   65W               :LOCATION
 CNTY.                           COLFAX  :COUNTY
 STAT.                     NM            :STATE
 CTRY.                                   :
 SRVC.     O'DRISCOLL                    :SERVICE COMPANY
 DATE.   04/28/05                        :LOG DATE
 API .                                   :API NUMBER
 LIC .                                   :LICENSE NUMBER
~Curve Information Block
#MNEM.UNIT      API CODE     Curve Description
#---------    -------------  ------------------------
 DEPT     .FT        00 001 00 00          :  1  DEPTH   
 GAMMA    .API-GR    00 310 00 00          :  2                GAMMA
 VOLTAGE  .MV        00 000 00 00          :  3              VOLTAGE
 CALIPER  .INCH      00 280 00 00          :  4              CALIPER
 DEN(LS)  .G/CC      00 350 00 00          :  5              DEN(LS)
 DEN(SS)  .G/CC      00 350 00 00          :  6              DEN(SS)
 CURRENT  .UA        00 000 00 00          :  7              CURRENT
 RES(SG)  .OHM-M     00 220 00 00          :  8              RES(SG)
 POR(DEN) .PERCENT   00 890 00 00          :  9             POR(DEN)
 DEN(LS)  .CPS       00 350 00 00          : 10              DEN(LS)
 DEN(SS)  .CPS       00 350 00 00          : 11              DEN(SS)
 COMP     .G/CC      00 356 00 00          : 12                 COMP
 DEN(CDL) .G/CC      00 350 00 00          : 13             DEN(CDL)
 TEMP     .DEG F     00 660 00 00          : 14                 TEMP
 DEL_TEMP .DEG F     00 000 00 00          : 15             DEL_TEMP
 TIME     .MINUTES   00 000 00 00          : 16                 TIME
~Parameter Information Block
#MNEM.UNIT   Information     Description
#---------- ---------------  ------------------------
 FILE.      ORIGINAL           :File Type
 FIID.      9139A              :File Type Identifier
 VERS.      3.58G              :System Version
 SER .      1                  :System Serial Number
 TRUK.      .498775            :Truck Calibration Number
 TOOL.        1245             :Tool Serial Number
 TIME.      1507               :Time    HrHrMinMin
 LAT .       36 59'            :Latitude
 LON .       104 39'           :Longitude
 LMF .            GL           :Log Measured From
 DMF .            GL           :Driller Measured From
 PD  .            GL           :Permanent Data
 PDEV.                         :Elevation Permanent Data
 EKB .M                        :Elevation Kelly Bushing
 ELEV.DF                       :Elevation DF
 EGL .M        7777            :Elevation Ground Level
 DRDP.          1825           :Driller's Depth
 CASD.       10.               :Casing Diameter
 CASB.           300           :Casing Bottom
 CASX.         STEEL           :Casing Type
 CAST.                         :Casing Thickness
 TNOC.                         :Time Circulation Stopped
 LOGU.        108              :Logging Unit
 RECB.           R.SIPES       :Recorded By
 OSR1.          9057           :Other Services
 OSR2.                         :Other Services
 OSR3.                         :Other Services
 BS  .MM         3.5           :Bit Size
 MST .                         :Mean Surface Temperature
 TGRD.                         :Temperature Gradiant
 MAGN.            12           :Magnetic Declination
 MDEN.       2.7               :Density Matrix
 MATR.      SANDSTONE          :Neutron Matrix
 DTMT.            54           :Delta T Matrix
 DTFL.                         :Delta T Fluid
 MUDS.                         :Mud Sample Source
 MRS .                         :Mud Resistivity
 MTP .                         :Mud Temperature
 MFRS.                         :Resistivity Mud Filtrate
 MFTP.                         :Temperature Mud Filtrate
 MCRS.                         :Resistivity Mud Cake
 MCTP.                         :Temperature Mud Cake
 FTYP.                         :Fluid Type
 FD  .K/M3                     :Fluid Density
 DFV .S                        :Fluid Viscosity
 FPH .                         :Fuild PH
 ELCO.       50000             :Electron Cutoff
~Other Information
#MNEM.UNIT  Information      Description
#---------- ---------------  ------------------------
# -------------------------- 
~A DEPTH  GAMMA    VOLTAGE  CALIPER DEN(LS) DEN(SS) CURRENT  RES(SG)  POR(DEN) DEN(LS) DEN(SS) COMP  DEN(CDL) TEMP  DEL_TEMP TIME    
# ...
 243.000     81.3      6.6   2.9  3.08 3.63   133.9      3.5  62.6  210.14 1961.47 -1.448 1.75 33.3  0.00 0.20000 
 243.100     75.6      5.6   2.9  3.07 3.62   136.2      2.9  61.2  215.14 1991.86 -1.416 1.69 33.3  0.00 0.20000 
 243.200     78.4      7.6   2.9  3.06 3.64   137.1      4.0  72.3  225.15 1941.26 -1.586 1.70 33.3  0.00 0.20000 
 243.300     74.7      6.6   2.9  3.14 3.62   138.7      3.4  46.1  185.10 1976.66 -1.221 1.80 33.3  0.00 0.20000 
 243.400     81.3      6.3   2.9  3.08 3.58   141.3      3.2  51.1  210.14 2062.75 -1.252 1.82 33.3  0.00 0.20000 
 243.500     76.6      6.6   2.9  3.07 3.47   148.5      3.2  33.2  220.15 2295.73 -0.931 1.85 33.3  0.00 0.20000 
 243.600     75.6      7.4   2.9  3.05 3.56   149.8      3.5  56.9  230.16 2093.06 -1.317 1.87 33.3  0.00 0.20000 
 243.700     73.7      4.0   2.9  3.08 3.63   122.0      2.3  61.4  210.13 1971.60 -1.427 1.76 33.3  0.00 0.10000 
 243.800     74.7      2.5   2.9  3.14 3.60    82.8      2.2  41.0  185.10 2022.24 -1.134 1.70 33.3  0.00 0.20000 
 243.900     68.1      5.8   2.9  2.94 3.55   141.3      2.9  84.1  285.25 2123.44 -1.670 1.75 33.3  0.00 0.20000 
 244.000     68.1      6.0   2.9  3.12 3.64   152.0      2.8  51.8  190.11 1956.45 -1.306 1.84 33.3  0.00 0.20000 
 244.100     64.3      5.4   2.9  3.08 3.52   151.3      2.5  39.9  210.13 2174.21 -1.062 1.71 33.3  0.00 0.20000 
 244.200     63.3      6.2   2.9  3.11 3.54   152.6      2.9  36.5  195.11 2133.57 -1.033 1.81 33.3  0.00 0.20000 
 244.300     61.4      5.8   3.0  3.00 3.59   151.8      2.7  77.7  250.19 2032.32 -1.620 1.79 33.3  0.00 0.20000 
 244.400     61.4      5.6   2.9  3.06 3.58   152.4      2.6  57.3  225.15 2067.79 -1.332 1.79 33.3  0.00 0.20000 
 244.500     60.5      6.2   2.9  3.04 3.55   149.7      3.0  57.1  235.17 2123.44 -1.308 1.55 33.3  0.00 0.20000 
 244.600     56.7      4.3   2.9  3.05 3.47   138.5      2.2  38.6  230.16 2280.50 -1.006 1.63 33.3  0.00 0.10000 
 244.700     56.7      5.4   2.9  2.89 3.58   126.4      3.0  107.9 315.31 2052.58 -2.025 1.70 33.3  0.00 0.20000 
 244.800     55.8      5.6   2.9  3.02 3.52   118.2      3.4  54.1  240.19 2184.22 -1.244 1.67 33.3  0.00 0.20000 
 244.900     64.3      5.3   2.9  3.07 3.49   115.7      3.3  36.3  215.14 2234.89 -0.992 1.65 33.3  0.00 0.19900 
 245.000     76.6      5.6   2.9  3.04 3.59   117.4      3.4  65.3  235.17 2047.50 -1.447 1.91 33.3  0.00 0.20100 
 245.100     76.6      4.6   2.9  3.07 3.53   118.7      2.7  45.7  220.15 2158.95 -1.143 1.87 33.3  0.00 0.20000 
 245.200     81.3      4.7   2.9  3.10 3.50   122.3      2.7  32.0  200.12 2214.62 -0.943 1.78 33.3  0.00 0.20000 
 245.300     87.9      5.3   2.9  3.04 3.59   128.3      2.9  65.8  235.17 2042.48 -1.456 1.88 33.3  0.00 0.19900 
 245.400     84.1      4.8   2.9  3.02 3.55   123.0      2.8  60.5  240.17 2123.47 -1.353 1.98 33.3  0.00 0.10100 
 245.500     84.1      4.4   2.9  3.10 3.54   121.1      2.6  38.2  200.12 2148.77 -1.049 1.74 33.3  0.00 0.19900 
 245.600     90.7      4.2   2.9  3.15 3.47   116.9      2.6  15.3  180.10 2275.43 -0.709 1.81 33.3  0.00 0.20000 
 245.700     92.6      5.6   2.9  2.89 3.56   127.1      3.1  102.2 315.31 2098.14 -1.928 1.86 33.3  0.00 0.20000 
 245.800     92.6      5.1   2.9  3.02 3.48   138.2      2.7  46.3  240.17 2265.35 -1.112 1.69 33.3  0.00 0.20100 
 245.900     88.8      5.2   3.0  3.07 3.54   158.3      2.3  44.5  215.15 2148.77 -1.132 1.55 33.3  0.00 0.20000 
 246.000     83.2      3.8   3.0  2.87 3.48   171.5      1.6  88.0  325.32 2260.28 -1.671 1.97 33.3  0.00 0.19900 
 246.100     84.1      5.2   3.0  3.00 3.50   170.5      2.2  56.1  250.19 2229.82 -1.254 1.92 33.3  0.00 0.20000 
 246.200     79.4      4.6   3.0  3.25 3.38   169.1      1.9  -19.1 150.07 2498.59 -0.224 1.95 33.3  0.00 0.10000 
 246.300     76.6      5.6   3.0  2.94 3.44   171.5      2.3  61.1  285.24 2341.33 -1.281 2.08 33.3  0.00 0.20000 
 246.400     78.4      3.8   3.0  3.05 3.45   172.1      1.6  34.7  230.16 2326.12 -0.940 2.13 33.3  0.00 0.20000 
 246.500     64.3      5.0   3.0  2.95 3.40   174.0      2.0  49.6  280.24 2442.78 -1.093 1.89 33.3  0.00 0.20000 
 246.600     64.3      4.6   3.0  2.98 3.39   173.1      1.9  40.4  260.21 2452.97 -0.970 2.13 33.3  0.00 0.20100 
 246.700     55.8      4.5   3.0  2.97 3.43   148.2      2.1  51.7  270.22 2371.76 -1.145 2.19 33.3  0.00 0.19900 
 246.800     49.2      4.4   3.0  3.17 3.35   138.3      2.3  -8.5  170.11 2559.50 -0.330 2.45 33.3  0.00 0.20000 
 246.900     46.3      4.4   3.0  3.04 3.33   142.7      2.2  16.5  235.17 2610.28 -0.618 2.50 33.3  0.00 0.20000 
 247.000     46.3      4.5   3.0  3.30 3.39   110.6      2.9  -26.4 130.05 2468.15 -0.152 2.61 33.3  0.00 0.10000 
 247.100     34.1      5.0   3.0  3.05 3.41   120.2      3.0  26.8  230.16 2422.48 -0.806 2.42 33.3  0.00 0.20000 
 247.200     36.9      5.7   3.0  3.12 3.45   127.8      3.2  17.1  190.11 2326.12 -0.715 2.34 33.3  0.00 0.20000 
 247.300     36.9      4.8   3.0  2.97 3.43   120.5      2.9  49.1  265.21 2376.84 -1.109 2.27 33.3  0.00 0.20000 
 247.400     28.4      4.8   3.0  3.01 3.43   134.9      2.5  40.5  245.18 2366.69 -1.001 2.32 33.3  0.00 0.20000 
 247.500     28.4      5.6   3.0  3.15 3.32   128.2      3.1  -7.4  180.10 2625.57 -0.325 2.31 33.3  0.00 0.20000 
 247.600     29.3      5.4   3.0  3.09 3.38   118.0      3.2  12.4  205.13 2493.58 -0.602 2.49 33.3  0.00 0.20000 
 247.700     29.3      4.1   3.0  3.05 3.37   119.5      2.5  19.9  230.16 2518.91 -0.688 2.47 33.3  0.00 0.20000 
 247.800     28.4      5.0   3.0  3.17 3.38   114.8      3.1  -5.1  170.09 2498.75 -0.388 2.30 33.3  0.00 0.10000 
 247.900     31.2      6.0   3.0  2.93 3.37   117.4      3.6  48.5  290.25 2508.74 -1.057 2.32 33.3  0.00 0.20000 
 248.000     40.7      4.8   3.0  3.02 3.46   123.5      2.8  41.8  240.18 2315.98 -1.035 2.31 33.3  0.00 0.20000 
 248.100     41.6      4.5   3.0  3.06 3.29   128.7      2.5   5.7  225.16 2711.89 -0.455 2.25 33.3  0.00 0.20000 
 248.200     42.6      4.8   3.0  3.00 3.32   128.8      2.7  24.2  250.19 2620.46 -0.710 2.28 33.3  0.00 0.20000 
 248.300     47.3      4.8   3.0  3.05 3.31   135.9      2.5  11.5  230.16 2645.86 -0.545 2.40 33.3  0.00 0.20000 
 248.400     54.8      4.4   3.0  2.98 3.39   133.1      2.4  40.4  260.20 2452.96 -0.970 2.35 33.3  0.00 0.20000 
 248.500     61.4      5.1   3.0  3.07 3.30   135.8      2.7   5.2  220.15 2691.56 -0.455 2.43 33.3  0.00 0.10000 
 248.600     67.1      5.5   3.0  3.05 3.38   137.3      2.8  21.3  230.17 2498.61 -0.712 2.35 33.3  0.00 0.20000 
 248.700     72.8      4.7   3.0  3.10 3.32   137.3      2.4   2.1  200.12 2630.60 -0.436 2.36 33.3  0.00 0.20000 
 248.800     65.2      4.4   3.0  2.95 3.32   137.6      2.3  35.0  280.24 2630.61 -0.844 2.24 33.3  0.00 0.20000 
 248.900     65.2      4.8   3.0  2.93 3.31   138.0      2.5  37.8  290.26 2645.85 -0.876 2.21 33.3  0.00 0.20000 
 249.000     59.6      5.3   3.0  2.90 3.28   140.8      2.7  39.3  310.29 2732.22 -0.868 2.09 33.3  0.00 0.20000 
 249.100     59.6      5.0   3.0  2.97 3.31   142.0      2.5  29.2  270.22 2656.02 -0.763 2.05 33.3  0.00 0.20000 
 249.200     57.7      4.4   3.0  2.96 3.35   141.9      2.2  38.3  275.26 2559.58 -0.909 2.14 33.3  0.00 0.20000 
 249.300     67.1      5.2   3.0  2.97 3.41   147.3      2.5  47.6  270.22 2417.44 -1.075 2.16 33.3  0.00 0.10000 
 249.400     63.3      3.6   3.0  3.04 3.29   140.7      1.8  10.0  235.17 2711.90 -0.507 2.16 33.3  0.00 0.20000 
 249.500     61.4      2.1   3.0  2.90 3.24   138.4      1.1  32.7  310.29 2823.72 -0.756 2.15 33.3  0.00 0.20000 
 249.600     65.2      3.3   3.0  2.99 3.34   137.8      1.7  28.9  255.20 2579.82 -0.783 2.21 33.3  0.00 0.20000 
 249.700     64.3      3.3   3.0  2.93 3.35   139.6      1.7  43.6  290.26 2569.90 -0.975 2.29 33.3  0.00 0.20000 
 249.800     64.3      1.6   3.0  2.96 3.30   140.6      0.8  29.0  275.23 2686.48 -0.750 2.35 33.3  0.00 0.20000 
 249.900     69.9      4.1   3.0  3.16 3.29   143.2      2.0  -13.6 175.09 2701.86 -0.230 2.36 33.3  0.00 0.20000 
