~Version Information
VERS.                      2.0: CWLS Log ASCII Standard - VERSION 2.0
WRAP.                       NO: One line per depth step
~Well Information Block
STRT.FT                -9.7500: 
STOP.FT              2566.5000: 
STEP.FT                 0.2500: 
NULL.                -999.2500: 
COMP.          Petrogulf Corporation: COMPANY
WELL.             Valejo 8-12V: WELL
FLD.           Purgatorie River: FIELD
LOC.           1510' FNL & 1460' FWL: LOCATION
CNTY.               Las Animas: COUNTY
SRVC.                         : SERVICE COMPANY
DATE.          Tue Nov 18 14:36:15 2003: LOG DATE
UWI.                          : UNIQUE WELL ID
STAT.                 Colorado: STATE
~Curve Information Block
DEPT.FT            0 000 00 00: Depth
CCL.                          : Casing Collar Locator
TT3.usec                      : CBL 3' Travel Time
AMP3.mV                       : CBL 3' Amplitude
GR.GAPI                       : Gamma Ray
~Parameter Information Block
~A  Depth       CCL         TT3         AMP3         GR     
# ...
   157.7500      0.0000    878.3692      9.8503     97.1611
   158.0000      0.0000    892.5417      9.8254     98.8519
   158.2500      0.0000    913.1140      9.7744     98.9098
   158.5000      0.0000    931.2589      9.6691     99.5995
   158.7500      0.0000    936.6086      9.4894    102.8102
   159.0000      0.0000    926.9080      9.2702    108.3771
   159.2500      0.0000    909.7263      9.0696    114.4703
   159.5000      0.0000    894.5396      8.9121    119.2462
   159.7500      0.0000    885.7903      8.7993    121.6790
   160.0000      0.0000    883.2805      8.7565    121.0865
   160.2500      0.0000    885.5078      8.8172    116.8200
   160.5000      0.0000    890.8939      8.9613    109.1678
   160.7500      0.0000    897.4415      9.1155    100.2140
   161.0000      0.0000    902.7460      9.2171     92.9122
   161.2500      0.0000    904.2462      9.2424     88.9764
   161.5000      0.0000    899.7405      9.1812     88.0275
   161.7500      0.0000    888.7703      9.0415     88.7611
   162.0000      0.0000    873.8363      8.8773     90.2918
   162.2500      0.0000    859.4054      8.7488     92.1621
   162.5000      0.0000    849.0870      8.6469     93.7236
   162.7500      0.0000    843.8955      8.5131     94.0911
   163.0000      0.0000    842.8655      8.3291     92.7022
   163.2500      0.0000    844.3188      8.1233     89.7357
   163.5000      0.0000    846.3510      7.8982     86.1512
   163.7500      0.0000    847.3161      7.6401     83.4647
   164.0000      0.0000    846.4494      7.4055     83.0914
   164.2500      0.0000    843.9247      7.3003     85.2595
   164.5000      0.0000    841.0715      7.3410     88.4454
   164.7500      0.0000    842.3380      7.4152     90.2034
   165.0000      0.0000    855.7469      7.4114     88.8673
   165.2500      0.0000    885.7675      7.3256     84.7369
   165.5000      0.0000    922.3911      7.2198     79.9229
   165.7500      0.0000    942.7313      7.1493     77.0526
   166.0000      0.0000    930.8121      7.1579     77.5532
   166.2500      0.0000    894.3652      7.2705     80.4475
   166.5000      0.0000    857.5213      7.4479     82.7444
   166.7500      0.0000    839.2797      7.6011     81.5986
   167.0000      0.0000    842.0938      7.6874     76.5486
   167.2500      0.0000    857.0413      7.7521     69.6513
   167.5000      0.0000    874.2607      7.8429     63.5721
   167.7500      0.0000    888.6124      7.9316     59.7018
   168.0000      0.0000    899.2266      7.9604     57.7973
   168.2500      0.0000    906.5421      7.9277     56.8673
   168.5000      0.0000    910.2775      7.8863     56.1742
   168.7500      0.0000    909.6005      7.8867     55.4197
   169.0000      0.0000    904.3463      7.9604     54.2683
   169.2500      0.0000    896.0468      8.1203     52.2534
   169.5000      0.0000    887.7510      8.3350     49.4251
   169.7500      0.0000    882.5939      8.5288     46.8148
   170.0000      0.0000    882.1534      8.6418     45.8924
   170.2500      0.0000    885.3069      8.6705     47.4981
   170.5000      0.0000    887.5835      8.6297     51.2982
   170.7500      0.0000    882.3819      8.5206     56.1934
   171.0000      0.0000    865.7070      8.3707     61.2371
   171.2500      0.0000    841.8716      8.2544     66.0616
   171.5000      0.0000    823.1513      8.2074     70.4408
   171.7500      0.0000    820.6104      8.1651     73.7624
   172.0000      0.0000    834.2311      8.0577     75.2145
   172.2500      0.0000    853.3941      7.9258     74.4244
   172.5000      0.0000    867.1085      7.8675     71.8276
   172.7500      0.0000    872.3277      7.9033     68.4902
   173.0000      2.0000    872.6987      7.9644     65.7274
   173.2500      0.0000    871.8426      7.9840     64.7133
   173.5000      0.0000    869.6042      7.9584     65.8970
   173.7500      0.0000    864.4825      7.9435     68.5217
   174.0000      0.0000    857.9296      8.0151     71.0335
   174.2500      0.0000    854.2512      8.2040     72.2966
   174.5000      0.0000    856.0460      8.4636     72.2889
   174.7500      0.0000    861.5712      8.7245     71.5523
   175.0000      0.0000    867.1245      8.9500     70.3592
   175.2500      0.0000    870.6182      9.1194     68.6571
   175.5000      0.0000    872.4330      9.2142     66.5904
   175.7500      0.0000    874.0231      9.2505     64.7134
   176.0000      0.0000    876.2692      9.2736     63.5454
   176.2500      0.0000    878.6782      9.2987     63.0525
   176.5000      0.0000    879.8652      9.2885     62.7337
   176.7500      0.0000    879.0058      9.1965     62.0991
   177.0000      0.0000    876.7128      9.0188     60.9651
   177.2500      0.0000    874.3583      8.8041     59.5685
   177.5000      0.0000    872.8368      8.6110     58.6486
   177.7500      0.0000    872.2263      8.4514     59.1467
   178.0000      0.0000    872.3480      8.3036     61.3741
   178.2500      0.0000    873.1794      8.1797     64.4233
   178.5000      0.0000    874.5600      8.1269     66.6746
   178.7500      0.0000    875.6998      8.1508     67.0337
   179.0000      0.0000    875.4630      8.1942     65.5501
   179.2500      0.0000    873.4843      8.2059     62.8703
   179.5000      0.0000    870.9260      8.1848     59.4366
   179.7500      0.0000    869.9095      8.1501     55.4329
   180.0000      0.0000    872.1413      8.1075     51.3637
   180.2500      0.0000    877.8186      8.0494     48.3322
   180.5000      0.0000    885.4592      7.9743     47.3429
   180.7500      0.0000    892.8001      7.9003     48.2223
   181.0000      0.0000    898.1722      7.8539     49.6161
   181.2500      0.0000    901.2456      7.8409     50.2682
   181.5000      0.0000    902.7421      7.8532     49.8946
   181.7500      0.0000    903.7661      7.9062     48.7631
   182.0000      0.0000    905.3937      8.0238     47.1940
   182.2500      0.0000    908.4143      8.1771     45.8424
   182.5000      0.0000    912.7908      8.2875     45.8256
   182.7500      0.0000    917.0806      8.3074     47.8399
   183.0000      0.0000    918.9204      8.2595     51.1787
   183.2500      0.0000    916.9249      8.1930     54.1520
   183.5000      0.0000    912.1703      8.1335     55.6696
   183.7500      0.0000    907.2788      8.0779     56.1356
   184.0000      0.0000    904.1194      8.0162     56.6533
   184.2500      0.0000    902.7978      7.9507     57.6259
   184.5000      0.0000    902.4839      7.8903     58.4076
   184.7500      0.0000    902.4879      7.8256     58.1824
   185.0000      0.0000    902.5502      7.7283     56.8555
   185.2500      0.0000    902.6221      7.5905     54.9683
   185.5000      0.0000    902.6468      7.4467     52.9747
   185.7500      0.0000    902.4910      7.3575     50.8936
   186.0000      0.0000    901.9625      7.3834     48.6351
   186.2500      0.0000    900.9080      7.5460     46.4462
   186.5000      0.0000    899.4370      7.7864     45.0595
   186.7500      0.0000    898.1393      7.9830     45.3345
   187.0000      0.0000    897.8472      8.0416     47.3363
   187.2500      0.0000    898.9033      7.9704     49.6933
   187.5000      0.0000    900.7145      7.8708     50.4304
   187.7500      0.0000    902.1698      7.8512     48.8033
   188.0000      0.0000    902.3546      7.9409     46.1505
   188.2500      0.0000    900.6501      8.0892     44.8080
   188.5000      0.0000    896.2855      8.2374     46.2703
   188.7500      0.0000    887.8147      8.3665     50.1381
   189.0000      0.0000    872.8177      8.4787     54.4420
   189.2500      0.0000    848.6808      8.5636     57.1447
   189.5000      0.0000    815.3506      8.5964     57.9351
   189.7500      0.0000    778.0691      8.5690     58.6069
   190.0000      0.0000    745.8616      8.5154     61.2313
   190.2500      0.0000    725.7504      8.4841     66.0331
   190.5000      0.0000    718.2248      8.4814     71.5077
   190.7500      0.0000    717.7471      8.4711     76.3908
   191.0000      0.0000    716.3062      8.4315     80.8184
