~Version Information
VERS.                      2.0: CWLS Log ASCII Standard - VERSION 2.0
WRAP.                       NO: One line per depth step
~Well Information Block
STRT.FT                -3.2500: 
STOP.FT              1637.5000: 
STEP.FT                 0.2500: 
NULL.                -999.2500: 
COMP.          Pioneer Natural Resources: COMPANY
WELL.            Mad Dog 42-31: WELL
FLD.           Purgatorie River: FIELD
LOC.           2064' FNL & 479' FEL--: LOCATION
PROV.                       CO: PROVINCE
CNTY.               Las Animas: COUNTRY
SRVC.                         : SERVICE COMPANY
DATE.          Fri Oct 15 16:13:39 2004: LOG DATE
UWI.          005 071 08195   : UNIQUE WELL ID
~Curve Information Block
DEPT.FT            0 000 00 00: Depth
HVOLTA.V                      : Head Voltage Apparent
GR.GAPI                       : Gamma Ray
CCL.                          : Casing Collar Locator
TT3.usec                      : CBL 3' Travel Time
AMP3.mV                       : CBL 3' Amplitude
~Parameter Information Block
~A  Depth      HVOLTA        GR         CCL         TT3         AMP3    
# ...
  1396.7500     97.1194     96.0818      0.0000    724.8917      4.8652
  1397.0000     97.0609     98.0226      0.0000    733.3151      4.9272
  1397.2500     97.2221     99.1304      0.0000    729.3776      5.1570
  1397.5000     97.1947     98.5006      0.0000    707.3354      5.4824
  1397.7500     97.2079     96.4180      0.0000    665.3363      5.8154
  1398.0000     97.1433     94.1345      0.0000    609.5327      6.1662
  1398.2500     97.2114     93.0401      0.0000    554.9067      6.5988
  1398.5000     97.2353     93.4955      0.0000    519.5072      7.0906
  1398.7500     97.1158     94.1735      0.0000    514.6548      7.5090
  1399.0000     97.2556     93.0391      0.0000    538.7504      7.7501
  1399.2500     97.0812     89.5083      0.0000    579.6504      7.8426
  1399.5000     97.3727     85.4725      0.0000    622.9639      7.8921
  1399.7500     97.1697     83.6391      0.0000    659.1493      7.9571
  1400.0000     97.1947     84.8783      0.0000    685.0754      8.0037
  1400.2500     97.4366     87.6825      0.0000    701.5640      7.9701
  1400.5000     96.8247     90.1674      0.0000    710.4691      7.8496
  1400.7500     96.9977     91.8499      0.0000    713.0878      7.7024
  1401.0000     97.0203     93.3350      0.0000    709.9964      7.5907
  1401.2500     97.2400     95.1264      0.0000    701.3698      7.5210
  1401.5000     97.0167     97.1407      0.0000    686.9397      7.4558
  1401.7500     97.3691     98.8367      0.0000    666.1160      7.3707
  1402.0000     97.2257     99.5073      0.0000    639.7110      7.2821
  1402.2500     97.1804     98.7846      0.0000    612.8560      7.2170
  1402.5000     97.1230     97.0256      0.0000    594.9932      7.1704
  1402.7500     97.2878     95.0895      0.0000    593.9255      7.1066
  1403.0000     97.1087     93.8588      0.0000    608.7401      6.9975
  1403.2500     97.2999     93.9899      0.0000    630.2020      6.8513
  1403.5000     97.0167     95.6591      0.0000    648.5063      6.7052
  1403.7500     97.1875     98.1839      0.0000    659.4945      6.5999
  1404.0000     97.0538    100.3127      0.0000    664.2928      6.5628
  1404.2500     97.0477    101.4314      0.0000    665.7096      6.6029
  1404.5000     97.1601    102.4805      0.0000    665.8735      6.7028
  1404.7500     96.9928    105.1031      0.0000    665.9263      6.8073
  1405.0000     97.1732    109.5621      0.0000    666.5806      6.8294
  1405.2500     97.2318    113.8727      0.0000    668.6825      6.6914
  1405.5000     97.0538    115.5276      0.0000    673.2957      6.3785
  1405.7500     97.2999    113.9553      0.0000    680.9734      5.9508
  1406.0000     97.2150    110.8317      0.0000    690.6641      5.5044
  1406.2500     97.1732    108.0497      0.0000    699.6878      5.1228
  1406.5000     97.1875    105.7389      0.0000    705.7101      4.8583
  1406.7500     97.1362    102.1568      0.0000    709.1528      4.7344
  1407.0000     96.9892     95.3911      0.0000    713.3484      4.7456
  1407.2500     97.0645     85.3913      0.0000    721.9142      4.8481
  1407.5000     97.3751     74.4607      0.0000    735.6838      4.9673
  1407.7500     97.1158     65.6613      0.0000    751.9504      5.0312
  1408.0000     97.2114     60.7633      0.0000    766.4515      5.0062
  1408.2500     97.2735     59.5426      0.0000    776.0723      4.9007
  1408.5000     97.1875     60.6092      0.0000    780.1870      4.7394
  1408.7500     97.1469     62.6566      0.0000    780.1700      4.5448
  1409.0000     97.3345     65.1297      0.0000    777.7959      4.3450
  1409.2500     97.2186     67.9659      0.0000    773.8497      4.1836
  1409.5000     97.0752     70.9592      0.0000    768.1356      4.1000
  1409.7500     97.1565     73.6068      0.0000    760.7086      4.0919
  1410.0000     97.2221     75.3944      0.0000    752.7625      4.1076
  1410.2500     97.1947     75.9267      0.0000    746.2543      4.0916
  1410.5000     97.2257     74.9790      0.0000    742.7977      4.0336
  1410.7500     97.1326     72.5791      0.0000    742.7025      3.9653
  1411.0000     97.1636     68.7618      0.0000    744.7301      3.9144
  1411.2500     97.1301     63.2977      0.0000    746.9070      3.8776
  1411.5000     97.3177     56.2572      0.0000    748.1125      3.8434
  1411.7500     97.0955     48.8522      0.0000    749.2980      3.8249
  1412.0000     97.1601     43.1515      0.0000    752.8034      3.8555
  1412.2500     97.1505     40.7020      0.0000    759.7420      3.9483
  1412.5000     97.2628     41.6075      0.0000    768.1861      4.0703
  1412.7500     97.2150     44.9452      0.0000    774.3425      4.1618
  1413.0000     97.2806     49.8377      0.0000    775.1490      4.1851
  1413.2500     97.0609     56.0723      0.0000    769.6731      4.1540
  1413.5000     97.3965     63.8030      0.0000    759.1144      4.1211
  1413.7500     97.2150     72.7020      0.0000    746.2044      4.1434
  1414.0000     97.1636     81.4999      0.0000    734.1151      4.2581
  1414.2500     97.2938     88.6656      0.0000    725.2073      4.4833
  1414.5000     97.0370     93.5688      0.0000    720.2570      4.8269
  1414.7500     97.3655     96.3898      0.0000    718.4014      5.2823
  1415.0000     97.3345     96.6323      0.0000    717.9274      5.8090
  1415.2500     97.1875     92.6827      0.0000    717.6392      6.3233
  1415.5000     97.2318     83.8311      0.0000    717.4415      6.7221
  1415.7500     97.2556     72.3215      0.0000    717.4987      6.9355
  1416.0000     97.2806     62.5974      0.0000    717.4877      6.9698
  1416.2500     97.3655     58.4681      0.0000    717.1199      6.8995
  1416.5000     97.2389     60.9130      0.0000    716.6450      6.8070
  1416.7500     97.1230     67.9132      0.0000    716.0193      6.7258
  1417.0000     97.1397     75.9640      0.0000    713.9919      6.6469
  1417.2500     97.2425     82.1427      0.0000    708.6956      6.5678
  1417.5000     97.1433     85.5007      0.0000    699.1840      6.5172
  1417.7500     97.3548     87.0233      0.0000    686.4544      6.5293
  1418.0000     97.2186     88.2941      0.0000    673.1810      6.6065
  1418.2500     97.0370     90.0938      0.0000    661.7809      6.7137
  1418.5000     97.2938     92.2507      0.0000    651.4540      6.8040
  1418.7500     97.0788     94.4235      0.0000    636.9953      6.8524
  1419.0000     97.1804     96.2707      0.0000    612.0731      6.8697
  1419.2500     97.3356     97.0109      0.0000    575.4031      6.8846
  1419.5000     97.0812     95.9687      0.0000    534.0092      6.9099
  1419.7500     97.2460     93.9115      0.0000    499.2945      6.9314
  1420.0000     97.2221     92.9583      0.0000    479.3447      6.9296
  1420.2500     97.0406     94.6873      0.0000    475.2969      6.9026
  1420.5000     97.1301     98.6443      0.0000    484.6031      6.8630
  1420.7500     97.1840    102.7796      0.0000    505.9593      6.8258
  1421.0000     97.2318    105.0376      0.0000    539.5258      6.8046
  1421.2500     97.1875    104.6292      0.0000    582.4257      6.8108
  1421.5000     97.3894    102.2065      0.0000    626.0729      6.8391
  1421.7500     97.1672     99.0331      0.0000    660.2601      6.8628
  1422.0000     97.1087     95.8886      0.0000    680.0281      6.8560
  1422.2500     96.9892     92.5552      0.0000    687.4484      6.8127
  1422.5000     97.1875     88.1334      0.0000    687.4731      6.7348
  1422.7500     97.0024     81.8451      0.0000    684.1534      6.6112
  1423.0000     97.1982     73.7416      0.0000    680.7999      6.4252
  1423.2500     97.1697     64.8554      0.0000    681.3402      6.1774
  1423.5000     97.2460     56.6647      0.0000    689.5233      5.8943
  1423.7500     97.1875     50.2409      0.0000    706.3382      5.6169
  1424.0000     97.1697     45.6809      0.0000    728.4794      5.3876
  1424.2500     97.1911     42.2868      0.0000    749.7499      5.2471
  1424.5000     97.3034     39.4029      0.0000    764.5192      5.2380
