~Version Information
VERS.                      2.0: CWLS Log ASCII Standard - VERSION 2.0
WRAP.                       NO: One line per depth step
~Well Information Block
STRT.FT               650.0000: 
STOP.FT              1080.5000: 
STEP.FT                 0.2500: 
NULL.                -999.2500: 
COMP.          Pioneer Natural Resources: COMPANY
WELL.            Galileo 21-11: WELL
FLD.           Purgatoire River: FIELD
LOC.           407' FNL & 2394' FWL: LOCATION
PROV.                 Colorado: PROVINCE
CNTY.               Las Animas: COUNTRY
SRVC.                Patterson: SERVICE COMPANY
DATE.          Mon Apr 11 11:14:18 2005: LOG DATE
UWI.           05 071 08353 00: UNIQUE WELL ID
~Curve Information Block
DEPT.FT            0 000 00 00: Depth
SN.Ohm-m                      : IEL Short Normal
SP.mV                         : IEL Spontaneous Potential
DIR.Ohm-m                     : IEL Induction Resistivity
GR.GAPI                       : Gamma Ray
~Parameter Information Block
~A  Depth        SN          SP         DIR          GR     
   650.0000      1.6620    187.6698     77.7797     39.1037
   650.2500      1.6898    187.2259     78.1324     41.2237
   650.5000      1.7161    186.2697     78.0186     43.3165
   650.7500      1.7326    183.8710     77.6472     43.7799
   651.0000      1.7532    179.5569     77.2014     43.1225
   651.2500      1.8163    173.4534     76.7880     42.0943
   651.5000      1.9360    166.1643     76.4460     40.4032
   651.7500      2.0234    158.4956     76.1619     39.5200
   652.0000      1.9794    151.1527     75.8731     38.8743
   652.2500      1.8524    144.5619     75.4785     38.9365
   652.5000      1.7560    138.8846     74.9033     39.6349
   652.7500      1.7246    134.1323     74.1868     40.3703
   653.0000      1.7235    130.2593     73.5089     41.6817
   653.2500      1.7153    127.2299     73.0751     42.5474
   653.5000      1.6964    125.0786     72.9347     46.2667
   653.7500      1.6904    123.9090     72.8670     46.2260
   654.0000      1.7071    123.8059     72.4564     45.2058
   654.2500      1.7255    124.7154     71.3699     44.2282
   654.5000      1.7229    126.3654     69.6694     42.9277
   654.7500      1.6960    128.2848     67.8568     42.1892
   655.0000      1.6620    129.9558     66.5991     40.8278
   655.2500      1.6498    131.0198     66.3796     39.6278
   655.5000      1.6681    131.3597     67.3059     37.8616
   655.7500      1.6940    130.9885     69.1011     37.1663
   656.0000      1.7004    129.8986     71.2505     37.2446
   656.2500      1.6825    128.0926     73.2527     37.9171
   656.5000      1.6672    125.8267     74.8385     39.2955
   656.7500      1.6886    123.8152     75.9892     40.1312
   657.0000      1.7367    123.0751     76.7908     40.9090
   657.2500      1.7616    124.4277     77.2940     41.0992
   657.5000      1.7349    128.0855     77.4919     41.2025
   657.7500      1.6781    133.6787     77.3859     41.4162
   658.0000      1.6448    140.5868     77.0537     42.2318
   658.2500      1.6782    148.1963     76.6444     43.0373
   658.5000      1.7522    155.9157     76.3264     44.1574
   658.7500      1.8101    163.0837     76.1806     44.5031
   659.0000      1.8473    169.0022     76.1196     43.9907
   659.2500      1.8731    173.1802     75.8457     42.8486
   659.5000      1.8855    175.5965     74.9013     40.0321
   659.7500      1.9182    176.6902     72.8603     37.7053
   660.0000      2.0087    177.0363     69.6498     34.2790
   660.2500      2.1397    176.9982     65.7577     32.3663
   660.5000      2.2590    176.6768     62.0255     30.2191
   660.7500      2.3145    176.1516     59.1530     29.2872
   661.0000      2.3023    175.7176     57.3184     28.8601
   661.2500      2.2752    175.8776     56.1092     29.3989
   661.5000      2.2539    177.1632     54.7348     31.4734
   661.7500      2.1957    180.0140     52.4830     33.4894
   662.0000      2.0643    184.8032     49.2057     36.9016
   662.2500      1.8845    191.8976     45.4528     39.1238
   662.5000      1.7220    201.6067     42.2051     41.9220
   662.7500      1.6184    213.9957     40.5876     43.1800
   663.0000      1.5664    228.6742     41.9595     43.8788
   663.2500      1.5480    244.7295     48.8386     43.6318
   663.5000      1.5614    260.9132     68.6746     42.8007
   663.7500      1.6071    276.0363    139.1575     42.4359
   664.0000      1.6764    289.3318   5233.4038     43.0018
   664.2500      1.7491    300.4992 100000.0000     44.5314
   664.5000      1.7937    309.3991 100000.0000     48.9941
   664.7500      1.7973    315.7298 100000.0000     53.3328
   665.0000      1.7777    319.0663 100000.0000     60.8171
   665.2500      1.7465    319.2781 100000.0000     65.3462
   665.5000      1.6978    316.9197 100000.0000     69.3927
   665.7500      1.6503    313.1250 100000.0000     69.4728
   666.0000      1.6572    308.9239 100000.0000     65.7663
   666.2500      1.7344    304.4586 100000.0000     61.7210
   666.5000      1.8216    298.7259 100000.0000     55.7525
   666.7500      1.8604    289.9956 100000.0000     53.0227
   667.0000      1.8614    276.4420 100000.0000     51.5685
   667.2500      1.9109    256.4439 100000.0000     52.1442
   667.5000      2.1785    228.4945 100000.0000     54.4955
   667.7500      2.8019    191.2376 100000.0000     56.6402
   668.0000      3.5926    144.2749 100000.0000     60.4128
   668.2500      4.0254     89.6339 100000.0000     63.3607
   668.5000      3.8697     32.5519 100000.0000     68.9604
   668.7500      3.6520    -19.9429 100000.0000     73.9530
   669.0000      4.2049    -62.3447 100000.0000     83.6924
   669.2500      5.9140    -93.4063 100000.0000     91.0298
   669.5000      8.4690   -116.0967 100000.0000    100.4069
   669.7500     11.3963   -135.1929 100000.0000    103.6140
   670.0000     14.7898   -154.7822 100000.0000    102.3863
   670.2500     19.5168   -177.2825     11.0848     98.5157
   670.5000     26.9343   -203.6938      4.5636     92.0286
   670.7500     37.2320   -233.9234      3.1361     89.5230
   671.0000     47.8510   -266.6188      2.7475     90.3883
   671.2500     57.8311   -298.8353      2.8122     93.6842
   671.5000     75.0508   -326.1529      3.1957    100.3252
   671.7500    113.0187   -343.9751      3.9084    104.2085
   672.0000    174.6585   -350.1975      5.1145    107.0892
   672.2500    240.8235   -347.3227      7.3523    106.6101
   672.5000    286.0708   -341.1545     12.3761    103.0723
   672.7500    307.0977   -336.6923     27.8113     99.9658
   673.0000    323.3681   -335.6333    127.7187     96.4055
   673.2500    352.3773   -337.4810 100000.0000     95.8105
   673.5000    391.9180   -341.3862    200.2298    117.1766
   673.7500    426.2691   -346.1773     49.6894    122.3643
   674.0000    445.7122   -350.0325     27.5412    131.8268
   674.2500    452.9908   -351.4465     20.6837    136.1506
   674.5000    454.5770   -350.2717     18.2051    134.6363
   674.7500    454.2958   -347.4902     17.4559    127.6592
   675.0000    453.5326   -344.2431     17.4887    111.9851
   675.2500    452.6730   -340.9960     17.9146    101.4931
   675.5000    451.6631   -337.2491     18.5945     90.0001
   675.7500    450.2867   -332.2635     19.5337     85.8567
   676.0000    448.6748   -326.1938     20.8768     83.6155
   676.2500    447.5663   -320.0507     22.9190     83.4761
   676.5000    447.5912   -314.4301     26.0680     83.5899
   676.7500    448.4655   -308.7816     30.6239     83.4689
   677.0000    449.4334   -302.1285     36.1992     82.8817
   677.2500    450.1347   -294.1242     40.9879     82.0546
   677.5000    450.6413   -285.1859     42.5534     79.4399
   677.7500    451.0911   -275.8304     40.5270     76.5179
   678.0000    451.5550   -266.2013     36.7696     70.9561
   678.2500    452.0783   -256.1240     32.9285     67.2368
   678.5000    452.7262   -245.3635     29.5635     66.0277
   678.7500    453.5361   -233.7740     26.6836     63.9348
   679.0000    454.4100   -221.2979     24.2436     62.8587
   679.2500    454.8362   -207.9011     22.2815     63.8950
   679.5000    453.2503   -193.5187     20.8558     71.7775
   679.7500    447.4686   -178.1290     19.9649     76.3759
   680.0000    438.4375   -161.8952     19.5255     83.1823
   680.2500    431.0287   -145.1845     19.3960     86.1856
   680.5000    422.4873   -128.4010     19.4229     91.2875
   680.7500    395.4476   -111.8260     19.4881     89.7790
   681.0000    338.5944    -95.6275     19.5318     85.8045
   681.2500    268.9470    -79.9097     19.5413     82.8791
   681.5000    218.8463    -64.6055     19.5217     82.5151
   681.7500    207.1218    -49.2988     19.4768     80.1954
   682.0000    222.4391    -33.3032     19.4093     77.0566
   682.2500    226.5071    -16.1769     19.3291     74.8759
   682.5000    192.1015      1.5570     19.2548     74.4082
   682.7500    133.6689     17.9438     19.2072     72.0144
   683.0000     81.9881     29.6898     19.1979     69.1777
   683.2500     50.0085     32.8304     19.2263     67.7997
