~Version Information
VERS.                      2.0: CWLS Log ASCII Standard - VERSION 2.0
WRAP.                       NO: One line per depth step
~Well Information Block
STRT.FT               682.0000: 
STOP.FT              2190.5000: 
STEP.FT                 0.1000: 
NULL.                -999.2500: 
COMP.          Pioneer Natural Resources: COMPANY
WELL.               King 22-13: WELL
FLD.           Purgatoire River: FIELD
LOC.           2419' FNL & 1806' FWL----: LOCATION
PROV.                 Colorado: PROVINCE
CNTY.               Las Animas: COUNTRY
SRVC.                Patterson: SERVICE COMPANY
DATE.          Fri Apr 01 07:38:12 2005: LOG DATE
UWI.           05 071 08318 00: UNIQUE WELL ID
~Curve Information Block
DEPT.FT            0 000 00 00: Depth
DCAL.in                       : CDL Caliper
RHOB.g/cc                     : CDL Bulk Density
RHOC.g/cc                     : CDL Density Correction
DPOR.pu                       : CDL Density Porosity
NPOR.pu                       : Neutron Porosity
GR.GAPI                       : Gamma Ray
~Parameter Information Block
~A  Depth       DCAL        RHOB        RHOC        DPOR        NPOR         GR     
# ...
  2074.0000      7.9682      2.4972      0.0234      9.2588     16.1618     70.2269
  2074.1000      7.9682      2.5072      0.0368      8.6534     16.7819     72.1477
  2074.2000      7.9682      2.5209      0.0820      7.8239     17.3594     74.5674
  2074.3000      7.9671      2.5300      0.0673      7.2711     17.8119     76.2837
  2074.4000      7.9671      2.5333      0.0726      7.0751     18.1643     75.4527
  2074.5000      7.9658      2.5311      0.0571      7.2041     18.0128     75.3604
  2074.6000      7.9658      2.5255      0.0707      7.5477     17.1989     78.0550
  2074.7000      7.9658      2.5134      0.0746      8.2796     16.5108     78.5501
  2074.8000      7.9672      2.4944      0.0414      9.4296     16.6749     78.3091
  2074.9000      7.9672      2.4811      0.0344     10.2391     17.5033     82.9844
  2075.0000      7.9687      2.4834      0.0183     10.0940     18.2145     91.6826
  2075.1000      7.9687      2.4959      0.0428      9.3384     18.4397     97.6863
  2075.2000      7.9687      2.5056      0.0814      8.7508     18.6881     95.4504
  2075.3000      7.9688      2.5112      0.0130      8.4137     19.2512     87.5971
  2075.4000      7.9688      2.5156      0.0743      8.1477     19.5203     80.0498
  2075.5000      7.9676      2.5134      0.0584      8.2770     19.0657     76.6291
  2075.6000      7.9676      2.5114      0.0296      8.3982     18.4924     77.6547
  2075.7000      7.9676      2.5224      0.0889      7.7341     18.4746     81.9936
  2075.8000      7.9671      2.5436      0.0556      6.4461     18.8083     90.0728
  2075.9000      7.9671      2.5616      0.0815      5.3588     19.1146     98.3039
  2076.0000      7.9673      2.5529      0.1463      5.8860     19.2837     99.4891
  2076.1000      7.9673      2.5100      0.0151      8.4824     19.2872     93.8775
  2076.2000      7.9673      2.4707      0.0157     10.8651     19.0021     90.1740
  2076.3000      7.9660      2.4692     -0.0228     10.9546     18.4182     90.6407
  2076.4000      7.9660      2.4895      0.0816      9.7265     17.9855     87.7496
  2076.5000      7.9648      2.4979      0.0233      9.2159     18.0453     82.1810
  2076.6000      7.9648      2.4915      0.0398      9.6053     18.4075     80.2955
  2076.7000      7.9648      2.4820      0.0292     10.1828     18.7647     80.7508
  2076.8000      7.9654      2.4738      0.0382     10.6798     19.1079     82.0857
  2076.9000      7.9654      2.4665      0.0230     11.1233     19.3114     85.5520
  2077.0000      7.9650      2.4562      0.0305     11.7440     18.9251     89.0362
  2077.1000      7.9650      2.4475      0.0048     12.2753     18.3365     89.4180
  2077.2000      7.9650      2.4521      0.0212     11.9951     18.3615     85.6686
  2077.3000      7.9651      2.4645      0.0929     11.2407     18.8610     81.2746
  2077.4000      7.9651      2.4713      0.0586     10.8318     19.3228     80.8453
  2077.5000      7.9678      2.4749      0.0836     10.6108     19.6663     82.3713
  2077.6000      7.9678      2.4812      0.0577     10.2329     20.3066     81.7213
  2077.7000      7.9678      2.4870      0.1066      9.8814     21.2749     78.2946
  2077.8000      7.9699      2.4857      0.0736      9.9555     21.7366     75.5951
  2077.9000      7.9699      2.4809      0.0768     10.2478     21.6103     75.4867
  2078.0000      7.9700      2.4813      0.0498     10.2256     21.6163     76.5782
  2078.1000      7.9700      2.4841      0.0779     10.0545     21.7310     80.1684
  2078.2000      7.9700      2.4800      0.0592     10.3057     21.5629     87.0382
  2078.3000      7.9695      2.4701      0.0404     10.9044     21.2477     91.8172
  2078.4000      7.9695      2.4578      0.0761     11.6478     21.0655     90.6174
  2078.5000      7.9690      2.4371      0.0711     12.9027     21.0159     88.5594
  2078.6000      7.9690      2.4083      0.0221     14.6471     20.9814     89.9729
  2078.7000      7.9690      2.3909     -0.0178     15.7048     20.9089     93.6610
  2078.8000      7.9688      2.4012      0.0170     15.0777     20.9585     95.9210
  2078.9000      7.9688      2.4247      0.0675     13.6530     21.3580     94.1453
  2079.0000      7.9695      2.4385      0.0490     12.8180     22.1786     89.7086
  2079.1000      7.9695      2.4438      0.0697     12.4944     23.0654     86.0319
  2079.2000      7.9695      2.4440      0.0879     12.4825     23.2709     84.4720
  2079.3000      7.9700      2.4293      0.0761     13.3765     22.9881     82.4136
  2079.4000      7.9700      2.4063      0.0311     14.7716     22.8698     76.6370
  2079.5000      7.9693      2.3994      0.0038     15.1889     22.6455     69.9964
  2079.6000      7.9693      2.4161      0.0048     14.1772     22.0620     69.7318
  2079.7000      7.9693      2.4381      0.0681     12.8425     21.8084     75.8842
  2079.8000      7.9670      2.4476      0.0098     12.2651     22.0864     80.9599
  2079.9000      7.9670      2.4436      0.0670     12.5105     22.3353     79.7160
  2080.0000      7.9657      2.4257      0.0367     13.5923     22.6479     72.8346
  2080.1000      7.9657      2.3989      0.0416     15.2174     22.9259     64.6824
  2080.2000      7.9657      2.3859     -0.0548     16.0087     22.6554     60.8111
  2080.3000      7.9663      2.3986      0.0419     15.2394     22.0480     63.3988
  2080.4000      7.9663      2.4236      0.0114     13.7201     21.3656     70.0116
  2080.5000      7.9674      2.4458      0.0933     12.3774     20.6295     77.1404
  2080.6000      7.9674      2.4476      0.0846     12.2652     20.1205     83.5531
  2080.7000      7.9674      2.4250      0.0517     13.6347     20.0747     90.1242
  2080.8000      7.9683      2.3957      0.0038     15.4127     20.6670     95.1947
  2080.9000      7.9683      2.3772      0.0038     16.5353     21.7881     95.1428
  2081.0000      7.9683      2.3763     -0.0135     16.5855     22.7271     91.2454
  2081.1000      7.9683      2.3899      0.0324     15.7612     22.9789     89.0964
  2081.2000      7.9683      2.4055      0.0590     14.8179     22.6144     90.7553
  2081.3000      7.9662      2.4127      0.0121     14.3800     21.9008     90.7984
  2081.4000      7.9662      2.4115      0.0075     14.4524     21.3530     85.6630
  2081.5000      7.9644      2.4097      0.0239     14.5622     21.2273     79.4111
  2081.6000      7.9644      2.4184      0.0293     14.0371     21.2302     75.7013
  2081.7000      7.9644      2.4420      0.0618     12.6037     21.1482     75.1880
  2081.8000      7.9645      2.4711      0.0818     10.8435     21.3104     77.3630
  2081.9000      7.9645      2.4901      0.0975      9.6890     21.6477     79.9588
  2082.0000      7.9658      2.4914      0.0994      9.6146     21.5760     82.3718
  2082.1000      7.9658      2.4773      0.1177     10.4681     21.2509     86.0908
  2082.2000      7.9658      2.4603      0.0495     11.4946     20.7232     87.3325
  2082.3000      7.9672      2.4552      0.0650     11.8088     19.7048     82.2353
  2082.4000      7.9672      2.4583      0.0696     11.6155     18.5592     76.8268
  2082.5000      7.9673      2.4597      0.0738     11.5337     17.8366     79.2105
  2082.6000      7.9673      2.4614      0.0390     11.4282     17.6513     86.3542
  2082.7000      7.9673      2.4617      0.0800     11.4132     17.7745     89.3972
  2082.8000      7.9657      2.4520      0.0409     11.9973     18.1041     87.3320
  2082.9000      7.9657      2.4440      0.0151     12.4832     18.5132     86.7523
  2083.0000      7.9631      2.4521      0.0148     11.9948     18.5892     89.0026
  2083.1000      7.9631      2.4649      0.0543     11.2211     18.1835     89.2653
  2083.2000      7.9631      2.4669      0.0625     11.0969     17.7541     88.7222
  2083.3000      7.9630      2.4622      0.0589     11.3806     17.9561     89.1836
  2083.4000      7.9630      2.4617      0.0451     11.4141     18.7925     89.7490
  2083.5000      7.9644      2.4675      0.0220     11.0593     19.4896     90.1871
