~Version Information
VERS.                      2.0: CWLS Log ASCII Standard - VERSION 2.0
WRAP.                       NO: One line per depth step
~Well Information Block
STRT.FT               780.0000: 
STOP.FT              2866.2000: 
STEP.FT                 0.1000: 
NULL.                -999.2500: 
COMP.          Pioneer Natural Resources: COMPANY
WELL.            Sebring 42-29: WELL
FLD.           Purgatoire River: FIELD
LOC.           1751' FNL & 584' FEL--: LOCATION
PROV.                 Colorado: PROVINCE
CNTY.               Las Animas: COUNTRY
SRVC.                Patterson: SERVICE COMPANY
DATE.          Mon Aug 15 07:11:37 2005: LOG DATE
UWI.           05 071 08293 00: UNIQUE WELL ID
~Curve Information Block
DEPT.FT            0 000 00 00: Depth
DCAL.in                       : CDL Caliper
RHOB.g/cc                     : CDL Bulk Density
RHOC.g/cc                     : CDL Density Correction
DPOR.pu                       : CDL Density Porosity
NPOR.pu                       : Neutron Porosity
GR.GAPI                       : Gamma Ray
~Parameter Information Block
~A  Depth       DCAL        RHOB        RHOC        DPOR        NPOR         GR     
# ...
  1605.6000      8.1854      2.1208     -0.0927     32.0732     32.3236     97.4008
  1605.7000      8.1854      2.0109     -0.0677     38.7344     32.1130     90.0380
  1605.8000      8.1937      1.9400     -0.1461     43.0283     32.0374     81.8561
  1605.9000      8.1937      1.9100     -0.1076     44.8484     32.2422     77.6030
  1606.0000      8.2000      1.9022     -0.1107     45.3197     32.1741     77.8315
  1606.1000      8.2000      1.9050     -0.0754     45.1499     31.2880     82.2789
  1606.2000      8.2000      1.9334     -0.0520     43.4312     29.9402     90.8577
  1606.3000      8.2003      2.0072      0.0783     38.9600     29.1965     97.9686
  1606.4000      8.2003      2.1235      0.1876     31.9068     29.0545     99.4474
  1606.5000      8.1969      2.2571      0.2521     23.8130     28.5088     99.5279
  1606.6000      8.1969      2.3733      0.2992     16.7676     27.4645    100.9717
  1606.7000      8.1969      2.4513      0.2321     12.0415     26.6136    100.5507
  1606.8000      8.1906      2.4952      0.1744      9.3834     26.1589     97.9866
  1606.9000      8.1906      2.5144      0.1345      8.2183     25.8539     98.9503
  1607.0000      8.1852      2.5187      0.0816      7.9599     25.5895    107.9898
  1607.1000      8.1852      2.5309      0.0248      7.2161     25.7058    119.4062
  1607.2000      8.1852      2.5631      0.0825      5.2643     26.0148    123.5639
  1607.3000      8.1837      2.5951      0.0988      3.3295     25.7236    121.5909
  1607.4000      8.1837      2.6068      0.1160      2.6158     25.0912    118.8251
  1607.5000      8.1839      2.5989      0.1001      3.0942     24.8789    114.5222
  1607.6000      8.1839      2.5849      0.0653      3.9449     25.0764    109.3366
  1607.7000      8.1839      2.5780      0.0751      4.3656     25.4138    107.6839
  1607.8000      8.1840      2.5755      0.0584      4.5129     25.5599    109.1653
  1607.9000      8.1840      2.5717      0.0535      4.7455     25.2497    109.6097
  1608.0000      8.1818      2.5709      0.0223      4.7925     24.7625    108.5912
  1608.1000      8.1818      2.5778      0.0260      4.3757     24.4095    107.4000
  1608.2000      8.1818      2.5883      0.0503      3.7416     23.9335    104.7531
  1608.3000      8.1814      2.5917      0.0725      3.5341     23.3429    100.5259
  1608.4000      8.1814      2.5816      0.0246      4.1475     23.2925     97.6534
  1608.5000      8.1841      2.5673      0.0338      5.0125     23.8034     96.6071
  1608.6000      8.1841      2.5645      0.0131      5.1806     24.1578     95.0526
  1608.7000      8.1841      2.5800      0.0352      4.2446     24.2074     94.4154
  1608.8000      8.1866      2.6035      0.0632      2.8209     24.3125     97.7170
  1608.9000      8.1866      2.6194      0.0610      1.8564     24.4367    101.8880
  1609.0000      8.1880      2.6246      0.0342      1.5365     24.0950    102.7853
  1609.1000      8.1880      2.6202      0.0811      1.8050     23.4164    101.3417
  1609.2000      8.1880      2.6124      0.0535      2.2779     23.1150    102.6491
  1609.3000      8.1905      2.6168      0.0369      2.0103     23.2793    109.2283
  1609.4000      8.1905      2.6329      0.0639      1.0354     23.4439    116.3605
  1609.5000      8.1947      2.6448      0.0692      0.3133     23.6252    118.9495
  1609.6000      8.1947      2.6397      0.0527      0.6245     24.3164    115.9316
  1609.7000      8.1947      2.6143      0.0488      2.1609     25.3113    110.5702
  1609.8000      8.1998      2.5809      0.0286      4.1858     25.8738    108.2768
  1609.9000      8.1998      2.5621     -0.0387      5.3245     26.0942    109.7669
  1610.0000      8.2055      2.5661      0.0019      5.0846     26.5218    113.6641
  1610.1000      8.2055      2.5616      0.0634      5.3577     27.4309    117.3672
  1610.2000      8.2055      2.5134      0.0119      8.2788     28.7297    117.3499
  1610.3000      8.2119      2.4255     -0.0356     13.6060     30.0785    114.8506
  1610.4000      8.2119      2.3109     -0.0241     20.5496     31.0347    115.8830
  1610.5000      8.2203      2.1665     -0.0881     29.3058     31.4125    120.8765
  1610.6000      8.2203      2.0084     -0.1728     38.8824     31.6775    124.7032
  1610.7000      8.2203      1.8805     -0.1770     46.6386     32.1605    123.2045
  1610.8000      8.2310      1.8139     -0.2079     50.6731     32.4764    114.5553
  1610.9000      8.2310      1.8055     -0.1369     51.1808     32.2724    101.6837
  1611.0000      8.2445      1.8275     -0.0782     49.8496     31.6575     90.1082
  1611.1000      8.2445      1.8642     -0.0422     47.6243     31.0665     83.9133
  1611.2000      8.2445      1.9214      0.0626     44.1552     31.0360     81.9850
  1611.3000      8.2677      1.9988      0.2197     39.4675     31.4980     83.8860
  1611.4000      8.2677      2.0869      0.2484     34.1252     31.6376     90.4236
  1611.5000      8.2679      2.1751      0.2848     28.7792     31.1009     99.2495
  1611.6000      8.2679      2.2460      0.2482     24.4852     30.5275    105.6507
  1611.7000      8.2679      2.2831      0.2047     22.2351     30.2130    110.2287
  1611.8000      8.2190      2.2785      0.1574     22.5123     30.0485    117.4040
  1611.9000      8.2190      2.2383      0.0613     24.9507     30.1864    123.5076
  1612.0000      8.1874      2.1868     -0.0109     28.0753     30.4415    122.8967
  1612.1000      8.1874      2.1492     -0.0323     30.3525     30.4629    118.7111
  1612.2000      8.1874      2.1400     -0.0371     30.9072     30.4297    117.3890
  1612.3000      8.1882      2.1644      0.0023     29.4290     30.5362    120.7866
  1612.4000      8.1882      2.2173      0.0487     26.2242     30.3765    124.9466
  1612.5000      8.1900      2.2881      0.0951     21.9314     29.9426    125.5578
  1612.6000      8.1900      2.3600      0.1694     17.5756     29.7469    123.1426
  1612.7000      8.1900      2.4153      0.1576     14.2236     29.5978    120.3471
  1612.8000      8.1922      2.4479      0.1414     12.2475     29.2876    119.4631
  1612.9000      8.1922      2.4551      0.1665     11.8100     29.2025    119.4826
  1613.0000      8.1941      2.4387      0.1316     12.8065     29.1469    119.1780
  1613.1000      8.1941      2.4179      0.1202     14.0673     28.6767    119.9090
  1613.2000      8.1941      2.4137      0.0799     14.3226     28.3328    121.0021
  1613.3000      8.1852      2.4294      0.0514     13.3671     28.5923    123.2261
  1613.4000      8.1852      2.4554      0.0653     11.7942     28.7810    127.2832
  1613.5000      8.1699      2.4837      0.0713     10.0804     28.3564    128.3938
  1613.6000      8.1699      2.5076      0.1182      8.6274     27.4638    124.3494
  1613.7000      8.1699      2.5218      0.0768      7.7676     26.5323    119.3203
  1613.8000      8.1611      2.5349      0.0703      6.9754     26.1237    120.2670
  1613.9000      8.1611      2.5573      0.0977      5.6159     26.0060    129.0940
  1614.0000      8.1582      2.5865      0.1163      3.8513     25.5527    136.1181
  1614.1000      8.1582      2.6135      0.1152      2.2136     25.0603    133.9612
  1614.2000      8.1582      2.6288      0.1092      1.2839     25.0725    128.5984
  1614.3000      8.1563      2.6293      0.0626      1.2544     25.4447    123.9308
  1614.4000      8.1563      2.6187      0.1244      1.8973     25.7395    117.1203
  1614.5000      8.1542      2.6028      0.0413      2.8599     25.6053    111.8276
  1614.6000      8.1542      2.5910      0.0858      3.5756     24.8212    113.5030
  1614.7000      8.1542      2.5885      0.0343      3.7273     23.7963    119.2799
  1614.8000      8.1537      2.5990      0.0628      3.0919     23.2466    122.3416
  1614.9000      8.1537      2.6191      0.0794      1.8747     23.3492    122.9398
  1615.0000      8.1544      2.6318      0.0986      1.1029     23.9179    127.3743
  1615.1000      8.1544      2.6257      0.0469      1.4745     24.7382    136.5926
