~Version Information
VERS.                      2.0: CWLS Log ASCII Standard - VERSION 2.0
WRAP.                       NO: One line per depth step
~Well Information Block
STRT.FT               -12.5000: 
STOP.FT              1647.5000: 
STEP.FT                 0.2500: 
NULL.                -999.2500: 
COMP.          Pioneer Natural Resources: COMPANY
WELL.            Harlee L 34-9: WELL
FLD.           Purgatorie River`: FIELD
LOC.           600' FSL & 2125' FEL----: LOCATION
PROV.                       CO: PROVINCE
CNTY.               Las Animas: COUNTRY
SRVC.                Patterson: SERVICE COMPANY
DATE.          Sat Feb 12 09:31:33 2005: LOG DATE
UWI.           05 071 08009 00: UNIQUE WELL ID
~Curve Information Block
DEPT.FT            0 000 00 00: Depth
CCL.                          : Casing Collar Locator
TT3.usec                      : CBL 3' Travel Time
AMP3.mV                       : CBL 3' Amplitude
AMP5.mV                       : CBL 5' Amplitude
GR.GAPI                       : Gamma Ray
~Parameter Information Block
~A  Depth       CCL         TT3         AMP3        AMP5         GR     
# ...
  1079.5000      0.0000    676.2025      6.6749      1.2357    146.6070
  1079.7500      0.0000    674.6379      6.5349      1.0448    144.9996
  1080.0000      0.0000    670.9188      6.4807      0.9302    137.2393
  1080.2500      0.0000    663.7095      6.4966      0.5865    124.6454
  1080.5000      0.0000    653.5837      6.5399      0.4720    110.9838
  1080.7500      0.0000    642.6895      6.5307      0.7011    100.2518
  1081.0000      0.0000    632.9030      6.4130      1.0448     93.7324
  1081.2500      0.0000    624.4244      6.2185      1.0066     89.7197
  1081.5000      0.0000    616.4416      6.0359      0.9302     86.1896
  1081.7500      0.0000    609.1042      5.9295      1.5030     82.9996
  1082.0000      0.0000    604.0870      5.9141      0.7775     81.3148
  1082.2500      0.0000    602.9070      5.9834      0.5102     81.6505
  1082.5000      0.0000    605.1993      6.1281      0.6247     83.1055
  1082.7500      0.0000    609.1154      6.3300      0.7011     84.6164
  1083.0000      0.0000    613.2186      6.5584      0.6247     86.8762
  1083.2500      0.0000    617.5253      6.7792      0.7393     92.4939
  1083.5000      0.0000    622.5959      6.9626      1.0830    103.4311
  1083.7500      0.0000    628.1099      7.0878      1.1211    118.0849
  1084.0000      0.0000    632.6198      7.1481      1.1211    131.5538
  1084.2500      0.0000    634.1476      7.1569      1.0448    139.2040
  1084.5000      0.0000    630.2096      7.1449      0.7011    139.6320
  1084.7500      0.0000    617.6938      7.1458      0.4338    134.3609
  1085.0000      0.0000    594.7397      7.1786      0.6247    125.8986
  1085.2500      0.0000    564.6807      7.2334      1.0830    116.6697
  1085.5000      0.0000    537.5315      7.2724      1.1593    108.6394
  1085.7500      0.0000    524.7719      7.2503      1.1593    102.5366
  1086.0000      0.0000    530.7800      7.1382      1.0448     97.4245
  1086.2500      0.0000    549.5121      6.9321      0.6629     91.8050
  1086.5000      0.0000    569.6996      6.6500      1.1211     85.2174
  1086.7500      0.0000    582.9918      6.3327      0.7011     78.4371
  1087.0000      0.0000    587.8430      6.0394      0.4338     72.5321
  1087.2500      0.0000    587.5545      5.8285      0.7011     68.3972
  1087.5000      0.0000    586.2015      5.7309      1.0448     66.9310
  1087.7500      0.0000    586.3026      5.7394      1.0066     68.7604
  1088.0000      0.0000    588.8167      5.8200      0.9684     73.5450
  1088.2500      0.0000    593.8210      5.9347      0.8538     80.0768
  1088.5000      0.0000    600.5990      6.0577      0.7011     87.2852
  1088.7500      0.0000    607.5368      6.1785      0.6247     94.8551
  1089.0000      0.0000    612.7265      6.2935      0.5865    102.7229
  1089.2500      0.0000    615.1741      6.3989      0.7775    110.2886
  1089.5000      0.0000    615.3572      6.4901      0.9684    116.3726
  1089.7500      0.0000    614.5530      6.5655      1.1211    119.9408
  1090.0000      0.0000    613.8302      6.6319      1.1211    120.8586
  1090.2500      0.0000    613.7219      6.7082      0.9302    119.9302
  1090.5000      0.0000    614.4342      6.8165      0.7393    118.1598
  1090.7500      0.0000    615.9161      6.9645      0.5484    116.1453
  1091.0000      0.0000    617.6856      7.1478      1.0448    114.3583
  1091.2500      0.0000    618.9733      7.3728      0.8157    113.5462
  1091.5000      0.0000    619.3750      7.6623      0.8538    114.1280
  1091.7500      0.0000    619.2951      8.0282      1.0830    115.3246
  1092.0000      0.0000    619.7455      8.4481      1.4648    115.9010
  1092.2500      0.0000    621.9183      8.8712      1.5794    116.0503
  1092.5000      0.0000    626.6174      9.2381      1.5794    117.4649
  1092.7500      0.0000    633.2783      9.4967      1.4266    120.8507
  1093.0000      0.0000    639.6369      9.6115      1.0066    124.3426
  1093.2500      0.0000    643.3218      9.5657      0.8538    125.4071
  1093.5000      0.0000    643.8849      9.3690      0.8920    123.8302
  1093.7500      0.0000    642.8989      9.0701      1.2357    121.8547
  1094.0000      0.0000    642.4541      8.7478      1.3885    121.4244
  1094.2500      0.0000    643.9203      8.4663      1.5030    122.2175
  1094.5000      0.0000    647.3386      8.2360      1.5030    122.7832
  1094.7500      0.0000    651.2404      8.0345      1.4648    122.8539
  1095.0000      0.0000    653.5273      7.8622      1.2357    123.8620
  1095.2500      0.0000    653.1420      7.7600      0.9684    127.5538
  1095.5000      0.0000    650.5698      7.7726      1.0830    134.4565
  1095.7500      0.0000    646.5516      7.9142      1.3885    143.2265
  1096.0000      0.0000    641.2245      8.1755      1.1211    151.2204
  1096.2500      0.0000    635.2007      8.5494      1.3885    156.1513
  1096.5000      0.0000    630.4752      9.0417      1.9231    157.4331
  1096.7500      0.0000    628.9201      9.6525      1.8849    155.6468
  1097.0000      0.0000    630.1213     10.3446      1.6939    151.1310
  1097.2500      0.0000    631.7570     11.0338      1.7321    144.1646
  1097.5000      0.0000    632.1002     11.6302      1.3885    136.5132
  1097.7500      0.0000    631.2852     12.0907      1.1211    131.3057
  1098.0000      0.0000    630.1002     12.4112      1.0830    130.3944
  1098.2500      0.0000    628.7659     12.5622      1.6558    132.3908
  1098.5000      0.0000    627.0621     12.4698      1.9231    133.9793
  1098.7500      0.0000    624.4236     12.0846      1.8085    132.8038
  1099.0000      0.0000    619.3815     11.4567      1.7321    128.6599
  1099.2500      0.0000    609.8876     10.7196      1.6176    122.5805
  1099.5000      0.0000    594.8868     10.0068      1.4266    115.8352
  1099.7500      0.0000    575.5241      9.3908      1.5412    109.8803
  1100.0000      0.0000    555.0366      8.8820      1.3503    106.3907
  1100.2500      0.0000    538.0435      8.4640      1.8467    106.6070
  1100.5000      0.0000    529.5546      8.1250      1.2357    110.5368
  1100.7500      0.0000    532.9646      7.8644      1.6176    116.8381
  1101.0000      0.0000    547.5189      7.6795      1.6939    123.3921
  1101.2500      0.0000    568.2671      7.5641      1.5030    128.1319
  1101.5000      0.0000    589.5370      7.5207      1.4266    129.9074
  1101.7500      0.0000    607.9700      7.5611      1.2357    129.0695
  1102.0000      0.0000    621.9866      7.6896      1.0830    127.2205
  1102.2500      0.0000    630.3002      7.8919      0.8920    126.1532
  1102.5000      0.0000    632.6436      8.1409      0.7775    126.9914
  1102.7500      0.0000    631.0890      8.4001      0.8157    130.1566
  1103.0000      0.0000    629.1110      8.6247      1.2739    135.4151
  1103.2500      0.0000    629.3850      8.7734      1.4266    141.5447
  1103.5000      0.0000    632.6571      8.8268      1.4648    146.6723
  1103.7500      0.0000    637.7900      8.8007      1.5794    149.6938
  1104.0000      0.0000    642.2549      8.7451      1.7321    151.2170
  1104.2500      0.0000    643.4233      8.7305      1.7703    152.8472
  1104.5000      0.0000    640.2403      8.8223      1.6939    155.7148
  1104.7500      0.0000    633.8047      9.0524      1.3885    159.6791
  1105.0000      0.0000    626.4417      9.4005      1.0448    163.4987
  1105.2500      0.0000    620.2975      9.7975      0.8920    165.5923
  1105.5000      0.0000    616.3940     10.1511      1.0830    164.9513
  1105.7500      0.0000    614.5302     10.3804      1.4266    161.8497
  1106.0000      0.0000    613.8801     10.4434      1.5794    158.0078
  1106.2500      0.0000    613.6879     10.3409      1.5794    155.8956
  1106.5000      0.0000    613.5567     10.1008      1.5412    157.2261
  1106.7500      0.0000    613.3650      9.7622      1.3885    161.4838
  1107.0000      0.0000    613.1208      9.3729      1.2357    166.0017
  1107.2500      0.0000    612.8814      8.9923      1.0066    168.2072
