~Version Information
VERS.                      2.0: CWLS Log ASCII Standard - VERSION 2.0
WRAP.                       NO: One line per depth step
~Well Information Block
STRT.FT               241.5000: 
STOP.FT              2340.7500: 
STEP.FT                 0.2500: 
NULL.                -999.2500: 
COMP.          Petrogulf Corporation: COMPANY
WELL.            Montoya 1-24V: WELL
FLD.           Purgatorie River: FIELD
LOC.           605' FSL & 2557' FWL: LOCATION
CNTY.               Las Animas: COUNTY
SRVC.                         : SERVICE COMPANY
DATE.          Tue Nov 30 10:28:39 2004: LOG DATE
UWI.           05 071 08194 00: UNIQUE WELL ID
STAT.                 Colorado: STATE
~Curve Information Block
DEPT.FT            0 000 00 00: Depth
GR.GAPI                       : Gamma Ray
CCL.                          : Casing Collar Locator
TT3.usec                      : CBL 3' Travel Time
AMP3.mV                       : CBL 3' Amplitude
~Parameter Information Block
~A  Depth        GR         CCL         TT3         AMP3    
# ...
   811.0000    122.7442      0.0000    765.2603     10.3670
   811.2500    135.3091      0.0000    762.2161     10.1420
   811.5000    142.7114      0.0000    754.4984      9.8927
   811.7500    144.6863      0.0000    742.1070      9.5754
   812.0000    143.2428      0.0000    729.6227      9.1599
   812.2500    140.5594      0.0000    725.1571      8.6573
   812.5000    137.4821      0.0000    736.7951      8.1233
   812.7500    133.9502      0.0000    767.5568      7.6505
   813.0000    129.9616      0.0000    811.2192      7.3366
   813.2500    125.6702      0.0000    853.7113      7.2209
   813.5000    121.4601      0.0000    881.4402      7.2570
   813.7500    118.6637     -3.0000    889.3849      7.3611
   814.0000    119.3557     -3.0000    880.5428      7.4675
   814.2500    124.3894      0.0000    859.6260      7.5368
   814.5000    131.8094      0.0000    831.1314      7.5493
   814.7500    137.8141      0.0000    802.3978      7.5270
   815.0000    139.2874      0.0000    783.1819      7.5596
   815.2500    135.4364      0.0000    779.9811      7.7865
   815.5000    127.6415      0.0000    792.1578      8.3195
   815.7500    118.3109      0.0000    813.6660      9.1394
   816.0000    109.4497      0.0000    836.7572     10.0568
   816.2500    101.6356      0.0000    853.8606     10.8142
   816.5000     94.3096      0.0000    858.5728     11.2634
   816.7500     87.1823      0.0000    848.3089     11.4432
   817.0000     81.2246      0.0000    827.3591     11.5008
   817.2500     78.0657      0.0000    806.2996     11.5698
   817.5000     78.2587      0.0000    796.0021     11.7064
   817.7500     80.2498      0.0000    800.4420     11.8927
   818.0000     81.4066      0.0000    814.7231     12.0803
   818.2500     80.2395      0.0000    829.7056     12.2368
   818.5000     77.5488      0.0000    837.7364     12.3561
   818.7500     75.5506      0.0000    834.6608     12.4361
   819.0000     76.1041      0.0000    819.6856     12.4584
   819.2500     79.5501      0.0000    796.1252     12.3995
   819.5000     84.6960      0.0000    771.3673     12.2563
   819.7500     89.6655      0.0000    753.0038     12.0590
   820.0000     92.8578      0.0000    743.3264     11.8675
   820.2500     93.4570      0.0000    737.9178     11.7564
   820.5000     91.6350      0.0000    730.5656     11.7868
   820.7500     88.7157      0.0000    719.5613     11.9542
   821.0000     86.7327      0.0000    708.5603     12.1534
   821.2500     86.9751      0.0000    702.0240     12.2341
   821.5000     88.7780      0.0000    701.4013     12.1282
   821.7500     90.1161      0.0000    705.3414     11.9066
   822.0000     89.4573      0.0000    711.6770     11.6950
   822.2500     86.8369      0.0000    718.9907     11.5630
   822.5000     83.4506      0.0000    727.3193     11.5083
   822.7500     80.8537      0.0000    736.8662     11.5050
   823.0000     80.3931      0.0000    745.4979     11.5285
   823.2500     82.6425      0.0000    749.2513     11.5490
   823.5000     86.9287      0.0000    746.5778     11.5384
   823.7500     91.4453      0.0000    740.6039     11.4980
   824.0000     94.1817      0.0000    735.8138     11.4669
   824.2500     94.1977      0.0000    733.3093     11.4907
   824.5000     92.0828      0.0000    730.5524     11.5777
   824.7500     89.1638      0.0000    725.5319     11.6906
   825.0000     86.5823      0.0000    720.0186     11.7825
   825.2500     85.0172      0.0000    718.2768     11.8329
   825.5000     84.6373      0.0000    723.1582     11.8475
   825.7500     85.3184      0.0000    733.9421     11.8417
   826.0000     87.4506      0.0000    747.9154     11.8393
   826.2500     92.2006      0.0000    763.5101     11.8710
   826.5000    100.3029      0.0000    780.6839     11.9513
   826.7500    110.7782      0.0000    797.5552     12.0540
   827.0000    121.2297      0.0000    808.5827     12.1148
   827.2500    129.3983      0.0000    808.4431     12.0659
   827.5000    134.3142      0.0000    797.3281     11.8862
   827.7500    136.1379      0.0000    780.9547     11.6332
   828.0000    135.3590      0.0000    766.2327     11.4123
   828.2500    132.4942      0.0000    758.2741     11.2910
   828.5000    128.2210      0.0000    759.5426     11.2481
   828.7500    123.2437      0.0000    768.8156     11.2229
   829.0000    117.9101      0.0000    781.2120     11.1983
   829.2500    112.1781      0.0000    790.9095     11.2073
   829.5000    106.0487      0.0000    794.3372     11.2668
   829.7500     99.9849      0.0000    791.3470     11.3405
   830.0000     94.9603      0.0000    784.4045     11.3726
   830.2500     92.0194      0.0000    776.7606     11.3452
   830.5000     91.5307      0.0000    770.6766     11.3029
   830.7500     92.7598      0.0000    766.6320     11.3261
   831.0000     94.4130      0.0000    763.5034     11.4624
   831.2500     95.6107      0.0000    759.3096     11.6656
   831.5000     95.9117      0.0000    752.7057     11.8075
   831.7500     94.6029      0.0000    744.0811     11.7791
   832.0000     90.8921      0.0000    734.4933     11.5815
   832.2500     85.1157      0.0000    724.2916     11.3076
   832.5000     79.1445      0.0000    714.3445     11.0525
   832.7500     75.1676      0.0000    707.5744     10.8664
   833.0000     74.2500      0.0000    706.7661     10.7649
   833.2500     76.1578      0.0000    710.5966     10.7374
   833.5000     80.1911      0.0000    713.5875     10.7512
   833.7500     86.0290      0.0000    710.9109     10.7784
   834.0000     94.0526      0.0000    702.6117     10.8221
   834.2500    104.9613      0.0000    692.7012     10.9075
   834.5000    118.8323      0.0000    685.1161     11.0578
   834.7500    134.3124      0.0000    681.3737     11.2735
   835.0000    148.7996      0.0000    681.1179     11.5144
   835.2500    159.6899      0.0000    683.3109     11.6987
   835.5000    165.7168      0.0000    686.6764     11.7503
   835.7500    167.3152      0.0000    690.0514     11.6715
   836.0000    166.0146      0.0000    693.0650     11.5576
   836.2500    163.6617      0.0000    696.2789     11.5392
   836.5000    161.8567      0.0000    700.4238     11.7194
   836.7500    161.3140      0.0000    705.6132     12.1541
   837.0000    161.4803      0.0000    711.2177     12.8378
   837.2500    161.2228      0.0000    716.2213     13.6846
   837.5000    160.1259      0.0000    719.7888     14.5625
   837.7500    158.8476      0.0000    721.7274     15.4000
   838.0000    158.1134      0.0000    722.4999     16.2537
   838.2500    157.7590      0.0000    722.8763     17.2281
   838.5000    156.8797      0.0000    723.6131     18.3391
   838.7500    154.4216      0.0000    725.2689     19.4830
   839.0000    149.6249      0.0000    727.9445     20.5025
   839.2500    142.6931      0.0000    731.0563     21.2220
   839.5000    135.3902      0.0000    733.6133     21.4540
   839.7500    130.5836      0.0000    734.9026     21.0774
   840.0000    130.6181      0.0000    734.7633     20.1579
   840.2500    135.6205      0.0000    733.2894     18.9538
   840.5000    143.0221      0.0000    730.7372     17.7780
   840.7500    148.7136      0.0000    727.6277     16.8438
   841.0000    149.1740      0.0000    724.2886     16.1929
   841.2500    143.4956      0.0000    720.2056     15.7097
   841.5000    134.0005      0.0000    714.3360     15.2084
   841.7500    124.6626      0.0000    706.3500     14.5577
   842.0000    118.3186      0.0000    697.4022     13.7649
   842.2500    115.1512      0.0000    689.4492     12.9579
   842.5000    113.6250      0.0000    683.8550     12.2848
   842.7500    112.2768      0.0000    680.7913     11.8215
   843.0000    110.4861      0.0000    679.8698     11.5465
   843.2500    108.4767      0.0000    681.2721     11.3760
   843.5000    107.2947      0.0000    686.5853     11.2191
   843.7500    108.2610      0.0000    698.5986     11.0279
   844.0000    111.6645      0.0000    719.2403     10.8206
   844.2500    116.1079      0.0000    746.0519     10.6583
