~Version Information
VERS.                      2.0: CWLS Log ASCII Standard - VERSION 2.0
WRAP.                       NO: One line per depth step
~Well Information Block
STRT.FT               823.7000: 
STOP.FT              2444.0000: 
STEP.FT                 0.1000: 
NULL.                -999.2500: 
COMP.          Petrogulf Corporation: COMPANY
WELL.            Kraft 17-23 V: WELL
FLD.           Purgatorie River: FIELD
LOC.           1500' FSL & 1773' FWL: LOCATION
CNTY.               Las Animas: COUNTY
SRVC.                         : SERVICE COMPANY
DATE.          Thu Nov 20 07:09:00 2003: LOG DATE
UWI.                          : UNIQUE WELL ID
STAT.                 Colorado: STATE
~Curve Information Block
DEPT.FT            0 000 00 00: Depth
DCAL.in                       : CDL Caliper
RHOB.g/cc                     : CDL Bulk Density
RHOC.g/cc                     : CDL Density Correction
DPOR.pu                       : CDL Density Porosity
GR.GAPI                       : Gamma Ray
NPOR.pu                       : Neutron Porosity
~Parameter Information Block
~A  Depth       DCAL        RHOB        RHOC        DPOR         GR         NPOR    
# ...
  1054.1000      8.2518      2.6105      0.0167      2.3910     91.9681     19.0214
  1054.2000      8.2518      2.6340      0.1227      0.9720     97.3551     19.2767
  1054.3000      8.1465      2.6431      0.0931      0.4212    103.0883     19.8553
  1054.4000      8.1465      2.6263     -0.0213      1.4363    104.0330     20.5072
  1054.5000      8.1018      2.6170      0.0800      2.0029    101.0747     20.9523
  1054.6000      8.1018      2.6184      0.1118      1.9175     98.0836     21.3250
  1054.7000      8.1018      2.6136     -0.0068      2.2082     95.6068     21.8215
  1054.8000      8.0814      2.6098      0.0099      2.4334     93.6541     22.3870
  1054.9000      8.0814      2.6107      0.0157      2.3805     93.4868     22.8338
  1055.0000      8.0904      2.6087     -0.0374      2.5010     95.2479     23.0266
  1055.1000      8.0904      2.6001     -0.0319      3.0218     99.4439     22.8582
  1055.2000      8.0904      2.5846     -0.0740      3.9665    107.3309     22.3062
  1055.3000      8.1060      2.5764     -0.0748      4.4576    114.7919     21.5372
  1055.4000      8.1060      2.5915      0.0431      3.5438    115.9825     20.8519
  1055.5000      8.1318      2.6271     -0.0118      1.3884    111.1568     20.5356
  1055.6000      8.1318      2.6639      0.0738     -0.8451    105.7356     20.7525
  1055.7000      8.1318      2.6711      0.0757     -1.2767    105.5512     21.2892
  1055.8000      8.1492      2.6383      0.0424      0.7102    109.3750     21.5984
  1055.9000      8.1492      2.5865      0.0398      3.8466    111.7427     21.5005
  1056.0000      8.1586      2.5430     -0.0105      6.4864    112.5664     21.4697
  1056.1000      8.1586      2.5255     -0.0269      7.5480    116.5201     21.5964
  1056.2000      8.1586      2.5229      0.0452      7.7010    123.7215     21.5300
  1056.3000      8.1731      2.5203     -0.0289      7.8600    128.6565     21.3665
  1056.4000      8.1731      2.5240      0.0522      7.6376    129.0270     21.2961
  1056.5000      8.1752      2.5421     -0.0154      6.5401    127.9015     21.1739
  1056.6000      8.1752      2.5908      0.0457      3.5877    125.9525     21.0752
  1056.7000      8.1752      2.6732      0.1174     -1.4072    122.2071     21.5071
  1056.8000      8.1710      2.7343      0.2859     -5.1111    119.7030     22.5966
  1056.9000      8.1710      2.7220      0.1385     -4.3651    119.5789     23.4023
  1057.0000      8.1658      2.6635      0.1380     -0.8155    119.5449     22.9773
  1057.1000      8.1658      2.6116      0.0436      2.3267    117.4879     21.7346
  1057.2000      8.1658      2.5959      0.0510      3.2779    112.5306     20.5702
  1057.3000      8.1552      2.6183      0.0781      1.9242    106.8086     19.6766
  1057.4000      8.1552      2.6519      0.0770     -0.1158    102.2050     18.7988
  1057.5000      8.1157      2.6579      0.0757     -0.4791     98.0449     18.2763
  1057.6000      8.1157      2.6212      0.0426      1.7436     95.9111     18.5505
  1057.7000      8.1157      2.5782     -0.0699      4.3514    100.7857     19.0824
  1057.8000      8.0468      2.5701      0.0006      4.8425    108.9967     19.3225
  1057.9000      8.0468      2.5865      0.0106      3.8473    110.4898     19.5262
  1058.0000      8.0372      2.5991      0.0490      3.0852    105.4564     19.8622
  1058.1000      8.0372      2.6014      0.0189      2.9433    103.2179     20.0123
  1058.2000      8.0372      2.5966      0.1263      3.2377    106.8555     20.0043
  1058.3000      8.1047      2.5823      0.0855      4.1023    110.3441     20.3106
  1058.4000      8.1047      2.5604      0.0691      5.4303    111.6622     20.9649
  1058.5000      8.1598      2.5400      0.0634      6.6650    113.8618     21.8539
  1058.6000      8.1598      2.5371      0.0228      6.8405    117.7738     23.1566
  1058.7000      8.1598      2.5601      0.0410      5.4493    123.1185     24.6160
  1058.8000      8.1880      2.6045      0.0987      2.7572    124.7376     25.3914
  1058.9000      8.1880      2.6670      0.0850     -1.0309    119.9944     25.0510
  1059.0000      8.2109      2.7404      0.1204     -5.4783    116.3827     24.3023
  1059.1000      8.2109      2.7990      0.2054     -9.0284    116.7600     23.9711
  1059.2000      8.2109      2.8206      0.1686    -10.3410    117.4976     24.0247
  1059.3000      8.2309      2.8137      0.1465     -9.9232    119.6581     24.4641
  1059.4000      8.2309      2.7912      0.1322     -8.5592    126.0428     25.2217
  1059.5000      8.2331      2.7496      0.1307     -6.0353    134.7967     25.8067
  1059.6000      8.2331      2.6851      0.0253     -2.1257    140.9991     25.9866
  1059.7000      8.2331      2.6042     -0.0241      2.7733    142.6121     25.8389
  1059.8000      8.2036      2.5292     -0.1320      7.3200    142.3345     25.6347
  1059.9000      8.2036      2.4946     -0.0991      9.4199    144.4539     25.7935
  1060.0000      8.1945      2.5015     -0.0002      8.9986    149.0398     26.2719
  1060.1000      8.1945      2.5228     -0.0057      7.7061    150.4706     26.5337
  1060.2000      8.1945      2.5402      0.0611      6.6544    150.1404     26.6554
  1060.3000      8.2414      2.5444      0.0211      6.3994    154.9742     27.1029
  1060.4000      8.2414      2.5343      0.0278      7.0126    159.2966     27.6188
  1060.5000      8.3137      2.5108      0.0483      8.4378    155.9537     27.8445
  1060.6000      8.3137      2.4793      0.0004     10.3447    150.5767     27.7518
  1060.7000      8.3137      2.4543     -0.0183     11.8635    150.1639     27.5283
  1060.8000      8.3612      2.4460     -0.0157     12.3620    154.2512     27.4376
  1060.9000      8.3612      2.4631     -0.0284     11.3290    157.1904     27.4854
  1061.0000      8.3725      2.5053     -0.0026      8.7696    156.4083     27.4413
  1061.1000      8.3725      2.5487      0.0475      6.1416    153.7622     27.2475
  1061.2000      8.3725      2.5638      0.0517      5.2220    153.2394     27.3242
  1061.3000      8.3768      2.5535      0.0182      5.8489    155.6957     27.8250
  1061.4000      8.3768      2.5407      0.0107      6.6270    156.8382     28.3411
  1061.5000      8.3408      2.5274      0.0757      7.4328    153.3331     28.7254
  1061.6000      8.3408      2.5081     -0.0518      8.5984    147.0659     29.1264
  1061.7000      8.3408      2.4951      0.0058      9.3869    145.3846     29.3682
  1061.8000      8.2904      2.4887      0.0513      9.7778    149.6530     29.3186
  1061.9000      8.2904      2.4815     -0.0045     10.2107    153.0495     28.9444
  1062.0000      8.2647      2.4836     -0.0266     10.0832    154.6342     28.3361
  1062.1000      8.2647      2.4946      0.0432      9.4196    156.8730     28.0539
  1062.2000      8.2647      2.5057     -0.0404      8.7469    156.6432     27.9761
  1062.3000      8.3029      2.5292     -0.0030      7.3212    150.2116     27.6158
  1062.4000      8.3029      2.5738      0.0617      4.6153    141.4913     27.3758
  1062.5000      8.3732      2.6244      0.0935      1.5526    138.9002     27.6196
  1062.6000      8.3732      2.6459      0.1495      0.2496    143.5591     28.0643
  1062.7000      8.3732      2.6214      0.0150      1.7324    148.3586     28.2338
  1062.8000      8.3440      2.5774      0.0060      4.4026    146.8551     27.8842
  1062.9000      8.3440      2.5477     -0.0731      6.1972    139.4431     27.3091
  1063.0000      8.2995      2.5496     -0.0374      6.0843    133.0622     27.1229
  1063.1000      8.2995      2.5599      0.0755      5.4607    131.5082     27.4646
  1063.2000      8.2995      2.5418      0.0314      6.5562    131.9261     27.9409
  1063.3000      8.2932      2.5014     -0.0121      9.0039    134.0003     28.1287
  1063.4000      8.2932      2.4622     -0.0312     11.3823    139.3337     27.9656
  1063.5000      8.2927      2.4402     -0.0854     12.7168    145.0060     27.7940
  1063.6000      8.2927      2.4488     -0.0728     12.1943    149.4725     27.9769
