~Version Information
VERS.                      2.0: CWLS Log ASCII Standard - VERSION 2.0
WRAP.                       NO: One line per depth step
~Well Information Block
STRT.FT               745.0000: 
STOP.FT              2945.7500: 
STEP.FT                 0.2500: 
NULL.                -999.2500: 
COMP.          Pioneer Natural Resources: COMPANY
WELL.          Old Yeller 31-32: WELL
FLD.           Purgatoire River: FIELD
LOC.           1832' FEL & 793' FNL--: LOCATION
STAT.                 Colorado: State
CNTY.               Las Animas: COUNTY
CTRY. USA : Country
SECT. 32 : Section
TOWN. 32S : Township
RANG. 67W : Range
SRVC.                Patterson: SERVICE COMPANY
DATE.          Sun Aug 28 20:20:00 2005: LOG DATE
API.           05 071 08356 00: UNIQUE WELL ID
~Curve Information Block
DEPT.FT            0 000 00 00: Depth
SN.Ohm-m                      : IEL Short Normal
SP.mV                         : IEL Spontaneous Potential
DIR.Ohm-m                     : IEL Induction Resistivity
GR.GAPI                       : Gamma Ray
~Parameter Information Block
~A  Depth        SN          SP         DIR          GR     
# ...
  1046.5000     29.1291     11.5353     23.1631    133.3658
  1046.7500     27.9491     12.8790     22.2183    133.0532
  1047.0000     26.9989     14.0032     21.5129    130.0421
  1047.2500     26.2233     14.8689     21.0151    127.7087
  1047.5000     25.5293     15.4675     20.6870    124.8786
  1047.7500     24.8267     15.8251     20.4917    123.1076
  1048.0000     24.0613     15.9984     20.3936    119.5053
  1048.2500     23.2354     16.0622     20.3601    116.3416
  1048.5000     22.4281     16.0928     20.3706    111.5415
  1048.7500     21.8104     16.1509     20.4279    109.2455
  1049.0000     21.6217     16.2720     20.5562    108.1654
  1049.2500     22.0853     16.4636     20.7861    108.9699
  1049.5000     23.2959     16.7111     21.1385    111.3698
  1049.7500     25.1490     16.9880     21.6154    112.8533
  1050.0000     27.3618     17.2669     22.1996    113.8511
  1050.2500     29.5783     17.5294     22.8581    113.7316
  1050.5000     31.5020     17.7694     23.5516    113.0327
  1050.7500     32.9876     17.9942     24.2488    112.3718
  1051.0000     34.0470     18.2194     24.9369    110.6677
  1051.2500     34.7881     18.4631     25.6192    108.7904
  1051.5000     35.3393     18.7393     26.3007    105.0137
  1051.7500     35.8006     19.0543     26.9741    102.2762
  1052.0000     36.2239     19.4060     27.6198     98.7363
  1052.2500     36.6111     19.7870     28.2132     97.2068
  1052.5000     36.9247     20.1884     28.7248     96.5439
  1052.7500     37.1100     20.6036     29.1077     97.0909
  1053.0000     37.1213     21.0295     29.2957     98.8409
  1053.2500     36.9353     21.4662     29.2334    100.2990
  1053.5000     36.5499     21.9148     28.9239    102.6943
  1053.7500     35.9865     22.3739     28.4465    104.5898
  1054.0000     35.2994     22.8373     27.9186    108.4758
  1054.2500     34.5725     23.2923     27.4400    111.9615
  1054.5000     33.8878     23.7208     27.0624    118.1460
  1054.7500     33.2879     24.1009     26.7929    122.3279
  1055.0000     32.7633     24.4108     26.6143    127.5151
  1055.2500     32.2756     24.6323     26.5016    129.5064
  1055.5000     31.7993     24.7546     26.4326    128.8581
  1055.7500     31.3523     24.7757     26.3911    125.3650
  1056.0000     30.9989     24.7028     26.3705    116.0725
  1056.2500     30.8229     24.5506     26.3747    108.7920
  1056.5000     30.8823     24.3385     26.4178     99.9530
  1056.7500     31.1655     24.0868     26.5166     96.8690
  1057.0000     31.5764     23.8140     26.6775     96.3971
  1057.2500     31.9658     23.5344     26.8819     97.8068
  1057.5000     32.1952     23.2579     27.0839    100.6196
  1057.7500     32.1968     22.9906     27.2239    102.3359
  1058.0000     31.9941     22.7354     27.2543    104.3599
  1058.2500     31.6718     22.4944     27.1624    105.4190
  1058.5000     31.3172     22.2694     26.9748    107.0280
  1058.7500     30.9724     22.0620     26.7408    108.4116
  1059.0000     30.6263     21.8737     26.5068    110.6885
  1059.2500     30.2487     21.7056     26.2995    111.5690
  1059.5000     29.8341     21.5581     26.1263    110.6924
  1059.7500     29.4228     21.4331     25.9885    108.8029
  1060.0000     29.0859     21.3349     25.8880    105.9540
  1060.2500     28.8827     21.2732     25.8202    105.3812
  1060.5000     28.8169     21.2642     25.7586    107.4480
  1060.7500     28.8246     21.3309     25.6528    110.2396
  1061.0000     28.8034     21.4991     25.4474    114.7166
  1061.2500     28.6665     21.7912     25.1125    117.0719
  1061.5000     28.3838     22.2172     24.6606    119.4051
  1061.7500     27.9954     22.7672     24.1382    120.6111
  1062.0000     27.5955     23.4072     23.6038    122.9869
  1062.2500     27.2899     24.0816     23.1112    125.2052
  1062.5000     27.1425     24.7235     22.7039    128.7256
  1062.7500     27.1438     25.2682     22.4141    130.4474
  1063.0000     27.2240     25.6679     22.2571    131.4830
  1063.2500     27.3005     25.9008     22.2245    131.2825
  1063.5000     27.3222     25.9737     22.2856    129.8635
  1063.7500     27.2922     25.9155     22.4074    128.0223
  1064.0000     27.2763     25.7667     22.5813    123.7795
  1064.2500     27.3945     25.5670     22.8387    120.3741
  1064.5000     27.7810     25.3455     23.2384    115.9089
  1064.7500     28.5213     25.1157     23.8360    114.3138
  1065.0000     29.6103     24.8748     24.6544    114.9668
  1065.2500     30.9646     24.6073     25.6688    117.2866
  1065.5000     32.4735     24.2910     26.8104    121.9576
  1065.7500     34.0465     23.9032     27.9866    124.4276
  1066.0000     35.6369     23.4272     29.1134    125.0293
  1066.2500     37.2456     22.8575     30.1466    122.8507
  1066.5000     38.9189     22.2021     31.0983    116.4084
  1066.7500     40.7382     21.4849     32.0307    110.9624
  1067.0000     42.7920     20.7437     33.0277    102.3433
  1067.2500     45.1214     20.0268     34.1584     96.4319
  1067.5000     47.6493     19.3881     35.4450     87.3055
  1067.7500     50.1423     18.8804     36.8469     81.5525
  1068.0000     52.2650     18.5491     38.2594     75.1604
  1068.2500     53.7133     18.4270     39.5196     73.3469
  1068.5000     54.3259     18.5313     40.4116     74.9157
  1068.7500     54.0858     18.8628     40.6917     78.4014
  1069.0000     53.0425     19.4074     40.1631     85.5651
  1069.2500     51.2593     20.1395     38.7898     90.5269
  1069.5000     48.8326     21.0257     36.7509     97.1301
  1069.7500     45.9299     22.0283     34.3631    100.9237
  1070.0000     42.7789     23.1092     31.9322    106.2135
  1070.2500     39.6030     24.2327     29.6535    109.7365
  1070.5000     36.5628     25.3675     27.6047    115.0130
  1070.7500     33.7419     26.4889     25.7903    118.3578
  1071.0000     31.1684     27.5793     24.1867    123.0043
  1071.2500     28.8417     28.6282     22.7691    125.9154
  1071.5000     26.7548     29.6314     21.5215    129.8080
  1071.7500     24.9087     30.5888     20.4376    131.5977
  1072.0000     23.3161     31.5020     19.5187    132.2259
  1072.2500     21.9909     32.3725     18.7682    131.4363
  1072.5000     20.9365     33.1998     18.1849    130.1435
  1072.7500     20.1443     33.9814     17.7569    130.3418
  1073.0000     19.5999     34.7137     17.4591    132.6141
  1073.2500     19.2905     35.3940     17.2574    134.5686
  1073.5000     19.2047     36.0219     17.1159    136.3789
  1073.7500     19.3218     36.6011     17.0056    136.6398
  1074.0000     19.5963     37.1395     16.9082    136.7159
  1074.2500     19.9565     37.6483     16.8159    137.2295
  1074.5000     20.3221     38.1407     16.7262    138.8309
  1074.7500     20.6264     38.6292     16.6381    140.0031
  1075.0000     20.8245     39.1236     16.5519    140.9262
  1075.2500     20.8913     39.6291     16.4699    140.6580
  1075.5000     20.8270     40.1457     16.3951    139.1983
  1075.7500     20.6696     40.6686     16.3300    138.0002
  1076.0000     20.4952     41.1892     16.2750    136.7061
  1076.2500     20.3871     41.6976     16.2284    136.5871
  1076.5000     20.3904     42.1838     16.1876    138.0872
  1076.7500     20.4883     42.6397     16.1481    140.3392
  1077.0000     20.6210     43.0590     16.1025    145.1671
  1077.2500     20.7273     43.4359     16.0417    148.6305
  1077.5000     20.7776     43.7631     15.9609    152.4080
  1077.7500     20.7824     44.0292     15.8677    153.0959
  1078.0000     20.7847     44.2167     15.7886    151.1859
  1078.2500     20.8508     44.3012     15.7668    148.7070
  1078.5000     21.0619     44.2528     15.8517    145.0809
  1078.7500     21.4996     44.0395     16.0855    143.5368
  1079.0000     22.2308     43.6322     16.4946    142.4518
  1079.2500     23.3092     43.0106     17.0884    141.4863
  1079.5000     24.8017     42.1688     17.8668    137.0214
  1079.7500     26.8239     41.1198     18.8328    131.0682
