~Version Information
VERS.                      2.0: CWLS Log ASCII Standard - VERSION 2.0
WRAP.                       NO: One line per depth step
~Well Information Block
STRT.FT               651.5000: 
STOP.FT              2190.5000: 
STEP.FT                 0.2500: 
NULL.                -999.2500: 
COMP.          Pioneer Natural Resources: COMPANY
WELL.               King 22-13: WELL
FLD.           Purgatoire River: FIELD
LOC.           2419' FNL & 1806' FWL----: LOCATION
PROV.                 Colorado: PROVINCE
CNTY.               Las Animas: COUNTRY
SRVC.                Patterson: SERVICE COMPANY
DATE.          Thu Mar 31 14:33:28 2005: LOG DATE
UWI.           05 071 08318 00: UNIQUE WELL ID
~Curve Information Block
DEPT.FT            0 000 00 00: Depth
SN.Ohm-m                      : IEL Short Normal
SP.mV                         : IEL Spontaneous Potential
DIR.Ohm-m                     : IEL Induction Resistivity
GR.GAPI                       : Gamma Ray
~Parameter Information Block
~A  Depth        SN          SP         DIR          GR     
# ...
  1355.0000     27.5956    -49.2289     24.6416    121.3869
  1355.2500     28.0010    -49.9857     24.9608    122.5769
  1355.5000     28.5201    -50.8971     25.3550    123.6471
  1355.7500     29.0540    -52.0157     25.8112    122.8582
  1356.0000     29.5104    -53.2934     26.3188    118.4979
  1356.2500     29.8675    -54.6003     26.8641    113.6292
  1356.5000     30.2351    -55.8133     27.4214    104.3005
  1356.7500     30.7761    -56.9121     27.9508     97.5913
  1357.0000     31.5396    -57.9920     28.4054     88.7579
  1357.2500     32.4432    -59.1748     28.7435     84.5104
  1357.5000     33.3626    -60.4908     28.9383     80.3583
  1357.7500     34.1758    -61.8304     28.9825     78.3200
  1358.0000     34.7872    -63.0099     28.8883     75.4842
  1358.2500     35.1495    -63.8977     28.6815     73.6427
  1358.5000     35.2848    -64.4985     28.3911     70.9239
  1358.7500     35.2665    -64.9361     28.0380     69.2815
  1359.0000     35.1102    -65.3568     27.6298     68.5708
  1359.2500     34.7135    -65.8292     27.1607     70.9239
  1359.5000     33.9434    -66.3090     26.6163     81.0556
  1359.7500     32.7677    -66.6950     25.9813     91.9319
  1360.0000     31.2954    -66.9228     25.2457    110.3509
  1360.2500     29.7157    -67.0209     24.4078    120.6400
  1360.5000     28.2058    -67.0976     23.4716    128.7271
  1360.7500     26.8537    -67.2814     22.4471    128.6846
  1361.0000     25.6634    -67.6519     21.3566    123.0523
  1361.2500     24.6246    -68.1956     20.2397    118.2843
  1361.5000     23.7171    -68.8168     19.1483    114.1478
  1361.7500     22.8569    -69.4027     18.1331    114.9817
  1362.0000     21.9136    -69.9004     17.2297    121.6283
  1362.2500     20.8046    -70.3489     16.4549    128.3996
  1362.5000     19.5571    -70.8371     15.8110    139.3330
  1362.7500     18.2623    -71.4142     15.2937    145.9093
  1363.0000     17.0137    -72.0241     14.8971    153.6719
  1363.2500     15.9310    -72.5304     14.6145    157.5804
  1363.5000     15.1537    -72.8143     14.4383    162.7611
  1363.7500     14.7129    -72.8593     14.3613    166.4041
  1364.0000     14.4979    -72.7557     14.3798    171.8290
  1364.2500     14.3948    -72.6324     14.4967    174.4963
  1364.5000     14.3653    -72.5660     14.7223    175.9666
  1364.7500     14.4728    -72.5275     15.0729    175.6855
  1365.0000     14.9473    -72.4082     15.5678    175.3396
  1365.2500     16.1616    -72.1120     16.2269    175.6997
  1365.5000     18.4978    -71.6311     17.0694    175.2812
  1365.7500     22.2449    -71.0277     18.1143    172.2707
  1366.0000     27.6414    -70.3412     19.3792    161.5258
  1366.2500     35.0732    -69.5163     20.8768    150.8129
  1366.5000     45.0462    -68.4193     22.6057    132.1335
  1366.7500     57.4048    -66.9241     24.5390    119.1558
  1367.0000     70.4628    -64.9929     26.6193     99.9865
  1367.2500     81.6795    -62.7048     28.7633     88.0947
  1367.5000     89.4528    -60.2231     30.8709     73.0491
  1367.7500     93.5823    -57.7230     32.8279     65.4011
  1368.0000     94.2003    -55.3170     34.5069     57.5693
  1368.2500     91.1996    -53.0272     35.7804     54.6899
  1368.5000     84.7580    -50.8211     36.5542     53.8869
  1368.7500     75.9372    -48.6739     36.8054     55.5208
  1369.0000     66.4546    -46.6062     36.5906     60.3000
  1369.2500     57.7996    -44.6812     36.0206     64.5133
  1369.5000     50.6925    -42.9845     35.2212     72.5467
  1369.7500     45.2314    -41.6026     34.3061     79.6081
  1370.0000     41.2214    -40.5942     33.3662     92.5902
  1370.2500     38.3993    -39.9571     32.4643    101.2618
  1370.5000     36.5552    -39.6142     31.6326    110.3195
  1370.7500     35.5003    -39.4434     30.8755    112.5267
  1371.0000     34.9585    -39.3357     30.1835    111.9725
  1371.2500     34.6311    -39.2397     29.5501    111.4423
  1371.5000     34.3560    -39.1660     28.9780    112.8229
  1371.7500     34.1108    -39.1549     28.4716    114.4722
  1372.0000     33.9134    -39.2295     28.0235    115.1368
  1372.2500     33.7522    -39.3645     27.6086    113.6619
  1372.5000     33.5824    -39.4997     27.1884    110.0637
  1372.7500     33.3588    -39.5882     26.7238    108.0191
  1373.0000     33.0304    -39.6280     26.1900    106.3117
  1373.2500     32.5303    -39.6497     25.5875    105.9041
  1373.5000     31.8180    -39.6789     24.9447    106.0711
  1373.7500     30.8991    -39.7166     24.3083    106.6160
  1374.0000     29.8131    -39.7516     23.7271    107.7836
  1374.2500     28.6294    -39.7823     23.2377    108.6175
  1374.5000     27.4130    -39.8185     22.8560    109.9906
  1374.7500     26.2104    -39.8647     22.5798    111.0608
  1375.0000     25.1212    -39.9095     22.3975    112.6395
  1375.2500     24.2905    -39.9341     22.2992    113.5511
  1375.5000     23.7783    -39.9271     22.2830    115.6175
  1375.7500     23.5671    -39.8883     22.3514    118.5263
  1376.0000     23.6575    -39.8241     22.5030    125.7376
  1376.2500     24.0327    -39.7416     22.7292    131.0723
  1376.5000     24.6144    -39.6492     23.0183    135.8254
  1376.7500     25.3450    -39.5630     23.3635    135.2568
  1377.0000     26.2632    -39.5137     23.7655    129.4316
  1377.2500     27.4645    -39.5407     24.2266    123.9190
  1377.5000     28.9812    -39.6692     24.7418    115.7893
  1377.7500     30.6790    -39.8924     25.2917    111.0150
  1378.0000     32.3134    -40.1841     25.8476    104.6958
  1378.2500     33.6876    -40.5293     26.3884    101.0477
  1378.5000     34.6948    -40.9399     26.9188     97.2753
  1378.7500     35.2761    -41.4421     27.4717     96.7393
  1379.0000     35.3952    -42.0444     28.0876     99.7506
  1379.2500     35.0283    -42.7149     28.7846    103.6666
  1379.5000     34.2315    -43.3940     29.5423    109.2071
  1379.7500     33.2339    -44.0361     30.3074    110.7390
  1380.0000     32.3865    -44.6404     31.0201    109.4044
  1380.2500     31.9765    -45.2429     31.6412    108.0658
  1380.5000     32.0659    -45.8844     32.1645    109.8462
  1380.7500     32.5370    -46.5839     32.6106    114.5782
  1381.0000     33.3456    -47.3302     33.0160    124.1277
  1381.2500     34.6504    -48.0908     33.4286    128.6979
  1381.5000     36.6380    -48.8329     33.9058    127.8491
  1381.7500     39.3059    -49.5448     34.5068    121.5514
  1382.0000     42.4323    -50.2376     35.2743    106.8302
  1382.2500     45.7340    -50.9305     36.2207     96.3991
  1382.5000     48.9989    -51.6408     37.3253     82.9209
  1382.7500     52.0044    -52.3899     38.5422     75.5769
  1383.0000     54.4007    -53.2109     39.8096     66.4652
  1383.2500     55.8409    -54.1405     41.0548     61.7776
  1383.5000     56.2738    -55.1893     42.1968     57.4411
  1383.7500     56.0271    -56.3139     43.1558     56.3667
  1384.0000     55.5519    -57.4209     43.8709     57.0918
  1384.2500     55.1099    -58.4103     44.3204     58.9928
  1384.5000     54.6877    -59.2309     44.5286     63.5164
  1384.7500     54.1429    -59.9031     44.5489     66.9366
  1385.0000     53.4140    -60.4908     44.4317     71.2970
  1385.2500     52.6067    -61.0487     44.1998     73.4270
  1385.5000     51.8944    -61.5915     43.8425     75.9474
  1385.7500     51.3877    -62.1069     43.3293     77.3730
  1386.0000     51.1086    -62.5860     42.6317     78.6651
  1386.2500     50.9989    -63.0318     41.7512     78.6410
  1386.5000     50.9691    -63.4422     40.7309     77.5484
  1386.7500     51.0051    -63.7989     39.6358     76.4758
  1387.0000     51.1337    -64.0786     38.5075     74.2346
  1387.2500     51.2530    -64.2677     37.3352     71.8471
  1387.5000     51.1389    -64.3644     36.0650     66.6202
  1387.7500     50.6534    -64.3771     34.6398     62.6197
  1388.0000     49.8118    -64.3293     33.0377     57.7461
  1388.2500     48.6104    -64.2587     31.2845     56.2225
