~Version Information
VERS.                      2.0: CWLS Log ASCII Standard - VERSION 2.0
WRAP.                       NO: One line per depth step
~Well Information Block
STRT.FT                -8.5000: 
STOP.FT              1597.7500: 
STEP.FT                 0.2500: 
NULL.                -999.2500: 
COMP.          Pioneer Natural Resources: COMPANY
WELL.          Dude Canyon 22-32 Tr: WELL
FLD.           Purgatorie River: FIELD
LOC.           1741' FnL & 2331' FWL--: LOCATION
PROV.                       CO: PROVINCE
CNTY.               Las Animas: COUNTRY
SRVC.          Patterson Wireline: SERVICE COMPANY
DATE.          Fri Jul 15 14:44:37 2005: LOG DATE
UWI.           05 071 08421 00: UNIQUE WELL ID
~Curve Information Block
DEPT.FT            0 000 00 00: Depth
CCL.                          : Casing Collar Locator
TT3.usec                      : CBL 3' Travel Time
AMP3.mV                       : CBL 3' Amplitude
GR.GAPI                       : Gamma Ray
~Parameter Information Block
~A  Depth       CCL         TT3         AMP3         GR     
# ...
   527.5000      0.0000    686.0161      9.3660    114.6501
   527.7500      0.0000    689.9590      9.2637    114.6046
   528.0000      0.0000    694.8734      9.1802    113.0551
   528.2500      0.0000    699.9041      9.1193    110.6051
   528.5000      0.0000    705.8937      9.0730    108.2150
   528.7500      0.0000    715.5736      9.0343    106.8006
   529.0000      0.0000    731.6655      9.0081    106.5094
   529.2500      0.0000    753.7600      9.0055    106.6354
   529.5000      0.0000    776.3989      9.0295    106.4859
   529.7500      0.0000    790.9525      9.0694    106.1528
   530.0000      0.0000    790.7368      9.1067    106.1805
   530.2500      0.0000    775.3703      9.1238    106.5096
   530.5000      0.0000    750.8652      9.1107    106.0081
   530.7500      0.0000    725.5287      9.0689    103.4838
   531.0000      0.0000    705.1127      9.0107     99.4616
   531.2500      0.0000    690.9333      8.9499     96.5718
   531.5000      0.0000    681.5054      8.8951     97.6116
   531.7500      0.0000    675.2678      8.8523    103.3305
   532.0000      0.0000    671.8821      8.8294    112.2860
   532.2500      0.0000    671.5334      8.8299    122.2027
   532.5000      0.0000    673.6192      8.8446    130.9851
   532.7500      0.0000    676.5066      8.8557    137.1689
   533.0000      0.0000    678.6126      8.8533    140.3390
   533.2500      0.0000    679.6024      8.8423    141.0619
   533.5000      0.0000    680.4229      8.8308    139.9290
   533.7500      0.0000    682.2105      8.8183    136.7009
   534.0000      0.0000    685.4795      8.8001    130.7477
   534.2500      0.0000    690.7140      8.7779    122.2317
   534.5000      0.0000    699.2628      8.7612    112.5453
   534.7500      0.0000    712.1973      8.7598    103.7459
   535.0000      0.0000    727.8503      8.7784     97.5834
   535.2500      0.0000    741.6386      8.8141     94.5648
   535.5000      0.0000    749.3296      8.8556     93.7722
   535.7500      0.0000    750.2343      8.8882     93.9374
   536.0000      0.0000    747.2993      8.9016     94.7971
   536.2500      0.0000    745.3578      8.8875     97.1765
   536.5000      0.0000    748.7349      8.8215    101.7492
   536.7500      0.0000    757.9716      8.6595    107.9422
   537.0000      0.0000    768.7975      8.3690    114.1236
   537.2500      0.0000    776.9281      7.9681    118.7559
   537.5000      0.0000    783.7031      7.5219    121.3375
   537.7500      0.0000    793.8769      7.1041    122.3510
   538.0000      0.0000    807.5367      6.7736    122.5536
   538.2500      0.0000    817.4583      6.5669    122.6284
   538.5000      0.0000    816.1706      6.4800    123.4103
   538.7500      0.0000    804.6859      6.4647    125.5841
   539.0000     -2.0000    793.5070      6.4628    128.7393
   539.2500      0.0000    794.3439      6.4466    131.4987
   539.5000      0.0000    809.5985      6.4306    132.9352
   539.7500      0.0000    829.7869      6.4629    133.1676
   540.0000      0.0000    842.5386      6.5991    132.4867
   540.2500      0.0000    843.9828      6.8561    130.7914
   540.5000      0.0000    839.6664      7.1899    128.1766
   540.7500      0.0000    835.8472      7.5404    125.3752
   541.0000      0.0000    833.9706      7.8823    123.1502
   541.2500      0.0000    833.5793      8.2066    121.5446
   541.5000      0.0000    835.7123      8.4859    120.0638
   541.7500      0.0000    840.9315      8.6943    118.4034
   542.0000      0.0000    846.4994      8.8403    116.5599
   542.2500      0.0000    848.0729      8.9525    114.4163
   542.5000      0.0000    843.8154      9.0459    111.9666
   542.7500      0.0000    835.5166      9.1139    110.0413
   543.0000      0.0000    825.5144      9.1445    110.0616
   543.2500      0.0000    813.4621      9.1351    112.7026
   543.5000      0.0000    797.1625      9.0981    117.2365
   543.7500      0.0000    776.2620      9.0560    122.3903
   544.0000      0.0000    754.5115      9.0290    127.4262
   544.2500      0.0000    738.7410      9.0243    132.2034
   544.5000      0.0000    735.0195      9.0363    136.7704
   544.7500      0.0000    743.9584      9.0565    141.2474
   545.0000      0.0000    759.4726      9.0789    145.6824
   545.2500      0.0000    773.2685      9.0994    149.6110
   545.5000      0.0000    780.4911      9.1162    152.1687
   545.7500      0.0000    780.8867      9.1304    153.1146
   546.0000      0.0000    776.2307      9.1411    153.3351
   546.2500      0.0000    768.3590      9.1402    153.6898
   546.5000      0.0000    759.0508      9.1203    153.6554
   546.7500      0.0000    750.0343      9.0888    152.1048
   547.0000      0.0000    742.4951      9.0707    149.4301
   547.2500      0.0000    736.8384      9.0926    147.5557
   547.5000      0.0000    732.6130      9.1608    147.4568
   547.7500      0.0000    727.7711      9.2552    147.9494
   548.0000      0.0000    717.4315      9.3433    147.4518
   548.2500      0.0000    693.7585      9.4040    145.7649
   548.5000      0.0000    649.3130      9.4370    143.5907
   548.7500      0.0000    583.9882      9.4526    141.2671
   549.0000      0.0000    509.5123      9.4566    138.6710
   549.2500      0.0000    444.0737      9.4485    135.8927
   549.5000      0.0000    400.1136      9.4331    133.4764
   549.7500      0.0000    377.5310      9.4279    131.9688
   550.0000      0.0000    367.8705      9.4579    131.3392
   550.2500      0.0000    362.8097      9.5399    130.8341
   550.5000      0.0000    358.5681      9.6694    129.5142
   550.7500      0.0000    354.8932      9.8196    127.0737
   551.0000      0.0000    352.3533      9.9561    124.0063
   551.2500      0.0000    350.9870     10.0585    120.8342
   551.5000      0.0000    350.4190     10.1303    117.5400
   551.7500      0.0000    350.3097     10.1905    114.0144
   552.0000      0.0000    350.4808     10.2555    110.5109
   552.2500      0.0000    350.8519     10.3256    107.1349
   552.5000      0.0000    351.3758     10.3867    103.3564
   552.7500      0.0000    352.0010     10.4252     98.7633
   553.0000      0.0000    352.6369     10.4427     94.1164
   553.2500      0.0000    353.1330     10.4585     90.9175
   553.5000      0.0000    353.3448     10.4948     89.7117
   553.7500      0.0000    353.2489     10.5594     89.2631
   554.0000      0.0000    352.9341     10.6442     87.7279
   554.2500      0.0000    352.4164     10.7399     84.3995
   554.5000      0.0000    351.4846     10.8486     80.0786
   554.7500      0.0000    349.8801     10.9750     76.0226
   555.0000      0.0000    348.0919     11.1077     72.9856
   555.2500      0.0000    348.5881     11.2139     71.1545
   555.5000      0.0000    356.7131     11.2533     70.4145
   555.7500      0.0000    379.8749     11.2001     70.3571
   556.0000      0.0000    423.7096     11.0586     70.3439
   556.2500      0.0000    486.2723     10.8649     70.1015
   556.5000      0.0000    555.7114     10.6690     70.3597
   556.7500      0.0000    615.7970     10.5091     72.7120
   557.0000      0.0000    654.9033     10.3991     78.6761
   557.2500      0.0000    669.7374     10.3353     88.6343
   557.5000      0.0000    663.5987     10.3085    101.2295
   557.7500      0.0000    645.0933     10.3062    113.7851
   558.0000      0.0000    627.4044     10.3063    123.9891
   558.2500      0.0000    623.2767     10.2787    131.6140
   558.5000      0.0000    636.9923     10.2015    138.2139
   558.7500      0.0000    661.9600     10.0760    144.8169
   559.0000      0.0000    687.4335      9.9215    150.4090
   559.2500      0.0000    706.6110      9.7603    153.1919
   559.5000      0.0000    718.4529      9.6098    153.1705
   559.7500      0.0000    724.8419      9.4818    152.9709
   560.0000      0.0000    727.9500      9.3819    155.7081
   560.2500      0.0000    729.0735      9.3146    161.9742
   560.5000      0.0000    728.6127      9.2902    169.1973
   560.7500      0.0000    727.1470      9.3211    174.1353
