~Version Information
VERS.                      2.0: CWLS Log ASCII Standard - VERSION 2.0
WRAP.                       NO: One line per depth step
~Well Information Block
STRT.FT                 8.7500: 
STOP.FT              2723.0000: 
STEP.FT                 0.2500: 
NULL.                -999.2500: 
COMP.          Pioneer Natural Resources: COMPANY
WELL.           Desoto 13-7 Tr: WELL
FLD.           Purgatoire River: FIELD
LOC.           1404' FSL & 1115' FWL: LOCATION
PROV.                 Colorado: PROVINCE
CNTY.               Las Animas: COUNTRY
SRVC.                Patterson: SERVICE COMPANY
DATE.          Wed Mar 16 18:00:51 2005: LOG DATE
UWI.           05 071 08216 00: UNIQUE WELL ID
~Curve Information Block
DEPT.FT            0 000 00 00: Depth
GR.GAPI                       : Gamma Ray
CCL.                          : Casing Collar Locator
TT3.usec                      : CBL 3' Travel Time
AMP3.mV                       : CBL 3' Amplitude
AMP5.mV                       : CBL 5' Amplitude
~Parameter Information Block
~A  Depth        GR         CCL         TT3         AMP3        AMP5    
     8.7500   -999.2500   -999.2500   -999.2500   -999.2500      0.1548
     9.0000   -999.2500   -999.2500   -999.2500   -999.2500      0.1693
     9.2500   -999.2500   -999.2500   -999.2500   -999.2500      0.1798
     9.5000   -999.2500   -999.2500   -999.2500   -999.2500      0.1825
     9.7500   -999.2500   -999.2500   1350.0000      0.7768      0.1794
    10.0000   -999.2500   -999.2500   1350.0000      0.7704      0.1758
    10.2500   -999.2500   -999.2500   1350.0000      0.7665      0.1746
    10.5000   -999.2500   -999.2500   1350.0000      0.7694      0.1743
    10.7500   -999.2500   -999.2500   1350.0000      0.7761      0.1722
    11.0000   -999.2500   -999.2500   1350.0000      0.7804      0.1684
    11.2500   -999.2500   -999.2500   1350.0000      0.7786      0.1648
    11.5000   -999.2500   -999.2500   1350.0000      0.7738      0.1630
    11.7500   -999.2500   -999.2500   1350.0000      0.7735      0.1631
    12.0000   -999.2500   -999.2500   1350.0000      0.7848      0.1636
    12.2500   -999.2500   -999.2500   1350.0000      0.8072      0.1621
    12.5000   -999.2500   -999.2500   1350.0000      0.8314      0.1564
    12.7500   -999.2500   -999.2500   1350.0000      0.8449      0.1477
    13.0000   -999.2500   -999.2500   1350.0000      0.8400      0.1405
    13.2500   -999.2500   -999.2500   1350.0000      0.8191      0.1406
    13.5000   -999.2500   -999.2500   1350.0000      0.7948      0.1503
    13.7500   -999.2500   -999.2500   1350.0000      0.7817      0.1659
    14.0000   -999.2500   -999.2500   1350.0000      0.7861      0.1792
    14.2500   -999.2500   -999.2500   1350.0000      0.7988      0.1828
    14.5000   -999.2500   -999.2500   1350.0000      0.8011      0.1755
    14.7500   -999.2500   -999.2500   1350.0000      0.7811      0.1633
    15.0000   -999.2500   -999.2500   1350.0000      0.7454      0.1549
    15.2500   -999.2500   -999.2500   1350.0000      0.7147      0.1549
    15.5000   -999.2500      0.0000   1350.0000      0.7061      0.1612
    15.7500   -999.2500      0.0000   1350.0000      0.7209      0.1678
    16.0000   -999.2500      0.0000   1350.0000      0.7460      0.1702
    16.2500   -999.2500      0.0000   1350.0000      0.7654      0.1695
    16.5000   -999.2500      0.0000   1350.0000      0.7724      0.1694
    16.7500   -999.2500      0.0000   1350.0000      0.7718      0.1709
    17.0000   -999.2500      0.0000   1350.0000      0.7728      0.1701
    17.2500   -999.2500      0.0000   1350.0000      0.7776      0.1632
    17.5000   -999.2500      0.0000   1350.0000      0.7800      0.1517
    17.7500   -999.2500      0.0000   1350.0000      0.7750      0.1421
    18.0000   -999.2500      0.0000   1350.0000      0.7665      0.1396
    18.2500   -999.2500      0.0000   1350.0000      0.7636      0.1434
    18.5000   -999.2500      0.0000   1350.0000      0.7702      0.1472
    18.7500   -999.2500      0.0000   1350.0000      0.7805      0.1455
    19.0000   -999.2500      0.0000   1350.0000      0.7853      0.1377
    19.2500   -999.2500      0.0000   1350.0000      0.7806      0.1284
    19.5000   -999.2500      0.0000   1350.0000      0.7703      0.1244
    19.7500   -999.2500      0.0000   1350.0000      0.7614      0.1306
    20.0000   -999.2500      0.0000   1350.0000      0.7574      0.1457
    20.2500   -999.2500      0.0000   1350.0000      0.7553      0.1622
    20.5000   -999.2500      0.0000   1350.0000      0.7495      0.1732
    20.7500   -999.2500      0.0000   1350.0000      0.7381      0.1781
    21.0000     56.5318      0.0000   1350.0000      0.7273      0.1814
    21.2500     57.0970      0.0000   1350.0000      0.7257      0.1850
    21.5000     57.3826      0.0000   1350.0000      0.7367      0.1847
    21.7500     56.9938      0.0000   1350.0000      0.7673      0.1752
    22.0000     55.5552      0.0000   1350.0000      0.8604      0.1576
    22.2500     53.4730      0.0000   1350.0000      1.1356      0.1433
    22.5000     52.1891      0.0000   1350.0000      1.7924      0.1525
    22.7500     53.2864      0.0000   1350.0000      3.0107      0.2124
    23.0000     57.0609      0.0000   1350.0000      4.7684      0.3549
    23.2500     61.9838      3.0000   1350.0000      6.7475      0.6024
    23.5000     65.7022      3.0000   1350.0000      8.4928      0.9396
    23.7500     66.6816      0.0000   1350.0000      9.7065      1.3010
    24.0000     65.0485      0.0000   1350.0000     10.3856      1.6020
    24.2500     62.2161      0.0000   1350.0000     10.7151      1.7939
    24.5000     59.9337      0.0000   1350.0000     10.8909      1.8860
    24.7500     59.3196      0.0000   1350.0000     11.0304      1.9205
    25.0000     60.2077      0.0000   1350.0000     11.1726      1.9352
    25.2500     61.3729      0.0000   1350.0000     11.3102      1.9457
    25.5000     61.7492      0.0000   1350.0000     11.4242      1.9489
    25.7500     61.3963      0.0000   1350.0000     11.5051      1.9366
    26.0000     61.0449      0.0000   1350.0000     11.5547      1.9078
    26.2500     61.0519      0.0000   1350.0000     11.5799      1.8733
    26.5000     61.2173      0.0000   1350.0000     11.5927      1.8483
    26.7500     61.3192      0.0000   1350.0000     11.6130      1.8415
    27.0000     61.3570      0.0000   1350.0000     11.6561      1.8504
    27.2500     61.3723      0.0000   1350.0000     11.7155      1.8651
    27.5000     61.2404      0.0000   1350.0000     11.7651      1.8769
    27.7500     60.6671      0.0000   1350.0000     11.7872      1.8826
    28.0000     59.4637      0.0000   1349.9702     11.7905      1.8829
    28.2500     57.9650      0.0000   1349.8060     11.8015      1.8790
    28.5000     56.9795      0.0000   1349.0153     11.8437      1.8717
    28.7500     57.0746      0.0000   1346.1052     11.9281      1.8621
    29.0000     57.9818      0.0000   1338.0033     12.0547      1.8522
    29.2500     58.9288      0.0000   1321.2213     12.2165      1.8433
    29.5000     59.4876      0.0000   1296.2343     12.4030      1.8368
    29.7500     59.8427      3.0000   1271.7415     12.6018      1.8344
    30.0000     60.2344      0.0000   1261.1602     12.7998      1.8391
    30.2500     60.4583      0.0000   1270.7803     12.9884      1.8522
    30.5000     60.1686      0.0000   1292.2557     13.1674      1.8716
    30.7500     59.4971      0.0000   1308.7091     13.3398      1.8927
    31.0000     59.1033      0.0000   1306.7332     13.4993      1.9104
    31.2500     59.5830      0.0000   1282.4640     13.6260      1.9211
    31.5000     60.7843      0.0000   1239.3176     13.6982      1.9253
    31.7500     61.6768      0.0000   1181.3306     13.7128      1.9264
    32.0000     61.1032      0.0000   1111.1929     13.6944      1.9269
    32.2500     58.8706      0.0000   1040.4861     13.6772      1.9243
    32.5000     56.0287      0.0000    998.1210     13.6762      1.9124
    32.7500     53.9917      0.0000   1012.7846     13.6749      1.8886
    33.0000     53.4899      0.0000   1081.8815     13.6396      1.8578
    33.2500     54.3557      0.0000   1169.7289     13.5474      1.8305
    33.5000     56.0199      0.0000   1240.4421     13.4065      1.8145
    33.7500     57.9336      0.0000   1283.7581     13.2525      1.8104
    34.0000     59.4845      0.0000   1308.9296     13.1264      1.8136
    34.2500     59.8291      0.0000   1325.8917     13.0513      1.8206
    34.5000     58.4089      0.0000   1337.8654     13.0267      1.8323
    34.7500     55.9068      0.0000   1345.0615     13.0394      1.8496
    35.0000     54.2309      0.0000   1348.4148     13.0784      1.8675
    35.2500     54.9250      0.0000   1349.5992     13.1437      1.8767
    35.5000     57.5736      0.0000   1349.9210     13.2434      1.8725
    35.7500     60.1808      0.0000   1349.9879     13.3800      1.8594
    36.0000     61.1915      0.0000   1350.0000     13.5399      1.8474
    36.2500     60.8354      0.0000   1350.0000     13.6998      1.8444
    36.5000     60.4533      0.0000   1350.0000     13.8460      1.8529
