~Version Information
 VERS.                                  2.0 : CWLS LAS VERSION
 WRAP.                                   NO : WRAPING MODE
 SWARE .                  MController 2.6.3 : SOFTWARE VERSION
~Well Information
 WELL.                        Chevron 13-13 : WELL
 COMP.    Pioneer Natural Resources USA Inc : COMPANY
 FLD.                      Purgatoire River : FIELD
 LOC.                NW/SW Sec 13 T32S R66W : LOCATION
 DATE.                         2/10-11/2007 : DATE(S) LOGGED
 SRVC.        Ismay Geological Services Ltd : SERVICE COMPANY
 STAT.                                   CO : STATE
 CNTY.                           Las Animas : COUNTY
 CTRY.                                  USA : COUNTRY
 API.                          05-071-08319 : API NUMBER
 STRT.FT                             985.00 : START DEPTH
 STOP.FT                            2410.00 : STOP DEPTH
 STEP.FT                               1.00 : DEPTH INCREMENT
 NULL.                                -9999 : NULL VALUE
~Curve information
 DEPTH.FT                                   :
 ROP.MIN/FT                                 :
 GAS.UNITS                                  :
~ASCII Log data
# ...
     2286.00         0.33        193.7 
     2287.00         0.33        212.7 
     2288.00         0.33        217.4 
     2289.00         0.35        222.2 
     2290.00         0.33        218.7 
     2291.00         0.37        216.2 
     2292.00         0.43        209.7 
     2293.00         0.43        204.8 
     2294.00         0.43        204.6 
     2295.00         0.37        200.6 
     2296.00         0.40        195.0 
     2297.00         0.37        142.8 
     2298.00         0.42         55.1 
     2299.00         0.37        218.4 
     2300.00         0.37        336.4 
     2301.00         7.57       1279.8 
     2302.00         0.57        136.3 
     2303.00         0.53        136.9 
     2304.00         0.52        131.8 
     2305.00         0.47        139.4 
     2306.00         0.47        154.7 
     2307.00         0.50        153.7 
     2308.00         0.53        121.8 
     2309.00         0.63         89.0 
     2310.00         0.85         67.9 
     2311.00         0.77         64.6 
     2312.00         0.77         64.2 
     2313.00         0.73         60.7 
     2314.00         1.88        115.0 
     2315.00         0.80         86.3 
     2316.00         1.43         86.5 
     2317.00         1.38        103.1 
     2318.00         0.80         85.5 
     2319.00         0.90        129.6 
     2320.00         1.38        154.5 
     2321.00         1.07         87.2 
     2322.00         0.77         63.0 
     2323.00         0.78        189.7 
     2324.00         0.70        200.4 
     2325.00         0.87        170.5 
     2326.00         0.67        168.4 
     2327.00         0.70        188.6 
     2328.00         0.68        168.1 
     2329.00         0.80         93.2 
     2330.00         1.10         76.5 
     2331.00        20.10        947.4 
     2332.00         0.82        116.6 
     2333.00         0.83         91.5 
     2334.00         1.00         73.3 
     2335.00         0.92         74.8 
     2336.00         0.80         84.5 
     2337.00         0.57         83.6 
     2338.00         0.63         81.6 
     2339.00         0.67         80.2 
     2340.00         0.65         76.3 
     2341.00         0.80         74.5 
     2342.00         0.80         74.8 
     2343.00         0.60         72.5 
     2344.00         0.97         73.5 
     2345.00         0.88         66.0 
     2346.00         3.22        108.3 
     2347.00         0.83        103.9 
     2348.00         1.50         84.6 
     2349.00         0.95         97.9 
     2350.00         1.10         97.7 
     2351.00         1.23         64.9 
     2352.00         1.50         81.9 
     2353.00         0.85         78.0 
     2354.00         0.93         84.6 
     2355.00         1.05         77.3 
     2356.00         0.37         58.9 
     2357.00         1.70         71.2 
     2358.00         0.75         71.4 
     2359.00         0.42         71.5 
     2360.00         3.82        236.7 
     2361.00        18.00        270.9 
     2362.00         0.67        107.7 
     2363.00         0.72         95.7 
     2364.00         0.60         84.5 
     2365.00         1.10         73.6 
     2366.00         0.70         69.4 
     2367.00         0.92         71.1 
     2368.00         1.30         70.9 
     2369.00         0.83         72.2 
     2370.00         0.53         72.4 
     2371.00         0.58         70.4 
     2372.00         0.47         65.4 
     2373.00         0.60         68.3 
     2374.00         0.47         74.4 
     2375.00         0.80         73.8 
     2376.00         0.83         71.5 
     2377.00         0.88         70.4 
     2378.00         0.90         69.3 
     2379.00         1.37         68.6 
     2380.00         0.85         71.4 
     2381.00         0.67         71.3 
     2382.00         0.90         70.9 
     2383.00         0.90         69.6 
     2384.00         1.02         74.7 
     2385.00         1.17         79.7 
     2386.00         0.80         78.8 
     2387.00         0.98         73.5 
     2388.00         1.10         63.7 
     2389.00         1.17         59.9 
     2390.00         0.98         62.9 
     2391.00        13.70        263.2 
     2392.00         0.70         96.3 
     2393.00         0.53         85.5 
     2394.00         0.57         78.6 
     2395.00         0.77         70.9 
     2396.00         0.75         68.5 
     2397.00         0.60         68.2 
     2398.00         0.70         68.3 
     2399.00         0.77         69.2 
     2400.00         1.05         65.4 
     2401.00         0.97         67.5 
     2402.00         1.17         67.7 
     2403.00         0.97         67.6 
     2404.00         0.85         68.3 
     2405.00         0.77         67.2 
     2406.00         0.77         67.5 
     2407.00         0.77         67.5 
     2408.00         0.75         63.6 
     2409.00         1.40         68.4 
     2410.00         1.52         69.2 
