~Version Information
 VERS.                                  2.0 : CWLS LAS VERSION
 WRAP.                                   NO : WRAPING MODE
 SWARE .                 MController 2.5.0E : SOFTWARE VERSION
~Well Information
 WELL.                         STATE 16-24V : WELL
 COMP.                      Petrogulf Corp. : COMPANY
 FLD.                      Purgatorie River : FIELD
 LOC.                NW/SE Sec 16 T33S R67W : LOCATION
 DATE.                      5/02/04-5/03/04 : DATE(S) LOGGED
 SRVC.       Blanco Geological Services LLC : SERVICE COMPANY
 STAT.                                   CO : STATE
 CNTY.                           Las Animas : COUNTY
 CTRY.                                  USA : COUNTRY
 API.                       05-071-08014-00 : API NUMBER
 STRT.FT                              40.00 : START DEPTH
 STOP.FT                            2380.00 : STOP DEPTH
 STEP.FT                               1.00 : DEPTH INCREMENT
 NULL.                                -9999 : NULL VALUE
~Curve information
 DEPTH.FT                                   :
 ROP.MIN/FT                                 :
 GAS.UNITS                                  :
~ASCII Log data
# ...
     1640.00        0.133         21.3 
     1641.00        0.133         22.3 
     1642.00        0.167         22.3 
     1643.00        0.200         21.5 
     1644.00        0.200         21.0 
     1645.00        0.233         20.1 
     1646.00        2.817         57.1 
     1647.00        0.167         51.1 
     1648.00        0.400         48.9 
     1649.00        0.333         46.8 
     1650.00        0.300         44.8 
     1651.00        0.267         38.3 
     1652.00        0.233         36.7 
     1653.00        0.267         35.5 
     1654.00        0.250         31.6 
     1655.00        0.233         30.5 
     1656.00        0.233         30.6 
     1657.00        0.167         29.0 
     1658.00        0.133         28.8 
     1659.00        0.200         27.5 
     1660.00        0.233         27.5 
     1661.00        0.133         26.1 
     1662.00        0.167         25.2 
     1663.00        0.200         25.2 
     1664.00        0.233         24.7 
     1665.00        0.233         23.9 
     1666.00        0.233         23.0 
     1667.00        0.167         23.4 
     1668.00        0.200         21.8 
     1669.00        0.267         22.4 
     1670.00        0.283         22.9 
     1671.00        0.300         22.4 
     1672.00        0.233         22.1 
     1673.00        0.233         22.5 
     1674.00        0.200         21.6 
     1675.00        0.267         21.2 
     1676.00        3.117        267.2 
     1677.00        0.400         81.2 
     1678.00        0.333         73.1 
     1679.00        0.267         60.3 
     1680.00        0.200         52.8 
     1681.00        0.233         46.7 
     1682.00        0.300         41.5 
     1683.00        0.233         32.4 
     1684.00        0.283         32.0 
     1685.00        0.200         28.2 
     1686.00        0.233         28.5 
     1687.00        0.133         27.5 
     1688.00        0.200         28.9 
     1689.00        0.167         29.5 
     1690.00        0.133         30.2 
     1691.00        0.100         30.2 
     1692.00        0.133         28.8 
     1693.00        0.200         28.6 
     1694.00        0.200         26.7 
     1695.00        0.167         26.7 
     1696.00        0.167         25.3 
     1697.00        0.167         26.4 
     1698.00        0.167         24.7 
     1699.00        0.133         24.6 
     1700.00        0.133         24.6 
     1701.00        0.133         23.2 
     1702.00        0.167         23.2 
     1703.00        0.167         22.3 
     1704.00        0.200         21.1 
     1705.00        0.217         20.0 
     1706.00        4.217         91.5 
     1707.00        0.300         71.8 
     1708.00        0.167         66.4 
     1709.00        0.200         65.2 
     1710.00        0.200         57.9 
     1711.00        0.233         50.4 
     1712.00        0.200         46.1 
     1713.00        0.200         44.5 
     1714.00        0.167         39.1 
     1715.00        0.100         37.6 
     1716.00        0.200         36.3 
     1717.00        0.167         34.3 
     1718.00        0.250         30.0 
     1719.00        0.200         29.7 
     1720.00        0.233         28.3 
     1721.00        0.200         26.7 
     1722.00        0.200         27.2 
     1723.00        0.233         27.3 
     1724.00        0.133         26.5 
     1725.00        0.167         26.5 
     1726.00        0.100         26.5 
     1727.00        0.167         26.1 
     1728.00        0.167         26.7 
     1729.00        0.200         26.7 
     1730.00        0.167         25.9 
     1731.00        0.167         24.2 
     1732.00        0.133         24.2 
     1733.00        0.167         24.8 
     1734.00        0.167         24.8 
     1735.00        0.200         23.8 
     1736.00        3.633         44.5 
     1737.00        0.433         38.6 
     1738.00        0.300         38.6 
     1739.00        0.267         37.8 
     1740.00        0.200         35.4 
     1741.00        0.200         34.0 
     1742.00        0.200         32.8 
     1743.00        0.200         30.7 
     1744.00        0.133         31.6 
     1745.00        0.267         30.1 
     1746.00        0.233         30.5 
     1747.00        0.200         30.5 
     1748.00        0.133         29.0 
     1749.00        0.200         28.5 
     1750.00        0.167         28.6 
     1751.00        0.133         28.1 
     1752.00        0.183         26.4 
     1753.00        0.167         25.8 
     1754.00        0.200         26.3 
     1755.00        0.200         24.3 
     1756.00        0.167         24.3 
     1757.00        0.300         24.1 
     1758.00        0.267         23.1 
     1759.00        0.167         23.4 
     1760.00        0.133         23.4 
     1761.00        0.167         22.8 
     1762.00        0.200         22.9 
     1763.00        0.167         22.9 
     1764.00        0.167         23.5 
     1765.00        0.167         22.6 
     1766.00        2.550         41.0 
     1767.00        0.333         42.4 
     1768.00        0.300         43.1 
     1769.00        0.233         41.8 
     1770.00        0.200         39.9 
     1771.00        0.233         39.3 
     1772.00        0.233         36.3 
     1773.00        0.217         35.1 
     1774.00        0.200         34.1 
     1775.00        0.233         32.0 
     1776.00        0.167         31.3 
     1777.00        0.200         30.7 
     1778.00        0.167         29.8 
     1779.00        0.200         28.9 
     1780.00        0.167         27.0 
     1781.00        0.167         27.3 
     1782.00        0.167         26.9 
     1783.00        0.167         25.6 
     1784.00        0.167         25.4 
     1785.00        0.167         25.4 
     1786.00        0.200         24.7 
     1787.00        0.200         26.9 
     1788.00        0.167         27.7 
     1789.00        0.133         27.7 
     1790.00        0.167         28.0 
     1791.00        0.183         28.0 
     1792.00        0.167         28.2 
     1793.00        0.167         27.9 
     1794.00        0.167         26.8 
     1795.00        0.167         25.2 
     1796.00        2.917         43.8 
     1797.00        0.267         44.6 
     1798.00        0.267         43.4 
     1799.00        0.233         42.5 
     1800.00        0.200         40.2 
     1801.00        0.233         38.7 
     1802.00        0.200         35.5 
     1803.00        0.200         32.8 
     1804.00        0.200         32.2 
     1805.00        0.233         30.8 
     1806.00        0.200         30.7 
     1807.00        0.167         28.8 
     1808.00        0.133         28.4 
     1809.00        0.200         26.9 
     1810.00        0.350         26.7 
     1811.00        0.233         24.8 
     1812.00        0.233         24.5 
     1813.00        0.267         24.5 
     1814.00        0.233         24.0 
     1815.00        0.167         24.6 
     1816.00        0.200         24.6 
     1817.00        0.233         24.4 
     1818.00        0.167         23.7 
     1819.00        0.233         22.8 
     1820.00        0.200         22.7 
     1821.00        0.167         22.2 
     1822.00        0.167         22.2 
     1823.00        0.167         21.9 
     1824.00        0.167         20.6 
     1825.00        0.267         20.2 
     1826.00        1.683         45.7 
     1827.00        0.200         53.4 
     1828.00        0.300         72.6 
     1829.00        0.333         75.0 
     1830.00        0.300         72.8 
     1831.00        0.267         64.8 
     1832.00        0.300         63.4 
     1833.00        0.317         57.8 
     1834.00        0.233         49.1 
     1835.00        0.200         47.5 
     1836.00        0.233         46.2 
     1837.00        0.200         43.7 
     1838.00        0.233         42.6 
     1839.00        0.233         41.5 
