~Version Information
VERS.                      2.0: CWLS Log ASCII Standard - VERSION 2.0
WRAP.                       NO: One line per depth step
~Well Information Block
STRT.FT                 0.5000: 
STOP.FT              2891.5000: 
STEP.FT                 0.2500: 
NULL.                -999.2500: 
COMP.          Petrogulf Corporation: COMPANY
WELL.            Montoya 1-41V: WELL
FLD.           Purgatoire River: FIELD
LOC.           610' FNL & 1205' FEL--: LOCATION
PROV.                 Colorado: PROVINCE
CNTY.               Las Animas: COUNTRY
SRVC.                Patterson: SERVICE COMPANY
DATE.          Mon Sep 12 11:42:30 2005: LOG DATE
UWI.           05 071 08144 00: UNIQUE WELL ID
~Curve Information Block
DEPT.FT            0 000 00 00: Depth
CCL.                          : Casing Collar Locator
TT3.usec                      : CBL 3' Travel Time
AMP3.mV                       : CBL 3' Amplitude
GR.GAPI                       : Gamma Ray
~Parameter Information Block
~A  Depth       CCL         TT3         AMP3         GR     
# ...
  1340.5000      0.0000    709.7919      5.4275    133.3669
  1340.7500      0.0000    712.9058      5.2741    132.6215
  1341.0000      0.0000    715.3826      5.1820    128.7073
  1341.2500      0.0000    715.1448      5.1191    121.8733
  1341.5000      0.0000    712.4406      5.0447    113.5444
  1341.7500      0.0000    710.1431      4.9485    105.8457
  1342.0000      0.0000    710.4554      4.8541    100.2133
  1342.2500      0.0000    710.7851      4.7896     96.2298
  1342.5000      0.0000    703.4583      4.7602     92.2581
  1342.7500      0.0000    681.5811      4.7482     87.2650
  1343.0000      0.0000    646.4824      4.7346     81.5184
  1343.2500      0.0000    608.2460      4.7157     75.6462
  1343.5000      0.0000    577.9766      4.6977     69.9891
  1343.7500      0.0000    560.5793      4.6795     65.1014
  1344.0000      0.0000    554.9158      4.6492     61.8664
  1344.2500      0.0000    558.4148      4.5987     60.4629
  1344.5000      0.0000    569.6472      4.5372     59.7652
  1344.7500      0.0000    587.0734      4.4891     58.3079
  1345.0000      0.0000    607.3728      4.4803     55.6069
  1345.2500      0.0000    626.8439      4.5235     52.4068
  1345.5000      0.0000    644.4915      4.6109     50.0283
  1345.7500      0.0000    662.2138      4.7211     49.6840
  1346.0000      0.0000    681.5865      4.8340     52.2598
  1346.2500      0.0000    701.8412      4.9420     58.4796
  1346.5000      0.0000    720.6934      5.0468     68.7413
  1346.7500      0.0000    735.0062      5.1492     82.3304
  1347.0000      0.0000    741.0029      5.2432     96.9330
  1347.2500      0.0000    736.8388      5.3260    109.2684
  1347.5000      0.0000    725.8344      5.4106    116.4157
  1347.7500      0.0000    715.6132      5.5219    117.1273
  1348.0000      0.0000    713.6432      5.6718    112.7253
  1348.2500      0.0000    723.4044      5.8398    106.8675
  1348.5000      0.0000    742.7025      5.9870    103.5750
  1348.7500      0.0000    763.8809      6.0967    104.7342
  1349.0000      0.0000    777.0641      6.2008    109.3569
  1349.2500      0.0000    776.1260      6.3648    115.1142
  1349.5000      0.0000    762.8343      6.6449    120.2608
  1349.7500      0.0000    744.8952      7.0551    124.2920
  1350.0000      0.0000    729.9232      7.5644    127.3940
  1350.2500      0.0000    721.2781      8.1238    129.5740
  1350.5000      0.0000    718.4901      8.6916    130.2777
  1350.7500      0.0000    719.8271      9.2326    128.9830
  1351.0000      0.0000    723.6667      9.7015    126.1445
  1351.2500      0.0000    727.9213     10.0459    123.2290
  1351.5000      0.0000    729.5906     10.2409    121.7210
  1351.7500      0.0000    726.4368     10.3180    122.2849
  1352.0000      0.0000    719.3027     10.3535    124.7515
  1352.2500      0.0000    711.7726     10.4294    128.4377
  1352.5000      0.0000    707.3321     10.5943    132.3635
  1352.7500      0.0000    707.1993     10.8369    135.5795
  1353.0000      0.0000    710.5535     11.0753    137.5500
  1353.2500      0.0000    716.3150     11.1756    138.2821
  1353.5000      0.0000    724.5103     11.0135    138.0662
  1353.7500      0.0000    735.4643     10.5468    136.9953
  1354.0000      0.0000    747.5056      9.8463    134.6944
  1354.2500      0.0000    756.7698      9.0576    130.7666
  1354.5000      0.0000    760.7775      8.3285    125.5479
  1354.7500      0.0000    761.9024      7.7549    120.2603
  1355.0000      0.0000    765.5809      7.3666    116.4065
  1355.2500      0.0000    773.7909      7.1320    115.0856
  1355.5000      0.0000    780.9514      6.9684    116.5432
  1355.7500      0.0000    778.3278      6.7828    119.7977
  1356.0000      0.0000    762.8846      6.5358    122.8097
  1356.2500      0.0000    740.2725      6.2723    123.8065
  1356.5000      0.0000    719.2935      6.0823    122.8089
  1356.7500      0.0000    705.4633      6.0316    121.5435
  1357.0000      0.0000    699.7062      6.1199    121.6570
  1357.2500      0.0000    700.4435      6.2927    123.1296
  1357.5000      0.0000    705.1442      6.4870    124.4277
  1357.7500      0.0000    710.5361      6.6701    124.0411
  1358.0000      0.0000    712.9210      6.8411    121.7225
  1358.2500      0.0000    709.7456      7.0120    118.2361
  1358.5000      0.0000    701.5693      7.2047    114.2308
  1358.7500      0.0000    692.1556      7.4732    109.8373
  1359.0000      0.0000    685.9546      7.9021    105.2380
  1359.2500      0.0000    684.9576      8.5447    101.0070
  1359.5000      0.0000    687.5826      9.3591     97.7560
  1359.7500      0.0000    690.7508     10.2225     95.7498
  1360.0000      0.0000    693.6476     11.0012     94.7778
  1360.2500      0.0000    699.1417     11.5944     94.1126
  1360.5000      0.0000    710.5638     11.9554     92.9358
  1360.7500      0.0000    727.3541     12.1230     91.3139
  1361.0000      0.0000    744.6531     12.1945     90.4308
  1361.2500      0.0000    756.6081     12.2216     91.1261
  1361.5000      0.0000    759.9146     12.1636     92.2931
  1361.7500     -2.0000    756.0602     11.9616     91.5943
  1362.0000      0.0000    751.5777     11.6092     88.0761
  1362.2500      0.0000    754.5497     11.1276     83.4897
  1362.5000      0.0000    768.7020     10.5191     80.6470
  1362.7500      0.0000    790.1116      9.7977     80.9896
  1363.0000      0.0000    809.9570      9.0521     84.0450
  1363.2500      0.0000    821.0831      8.4192     88.5576
  1363.5000      0.0000    822.7336      7.9703     93.6241
  1363.7500      0.0000    819.7556      7.6544     99.1083
  1364.0000      0.0000    818.0963      7.3664    105.3629
  1364.2500      0.0000    820.7800      7.0447    112.5792
  1364.5000      0.0000    826.8668      6.6953    120.4222
  1364.7500      0.0000    833.7538      6.3574    128.2544
  1365.0000      0.0000    840.3746      6.0714    135.5530
  1365.2500      0.0000    847.4125      5.8632    141.9795
  1365.5000      0.0000    854.3483      5.7328    146.8726
  1365.7500      0.0000    857.9001      5.6559    148.8905
  1366.0000      0.0000    853.8995      5.5984    146.8347
  1366.2500      0.0000    839.7946      5.5305    141.0292
  1366.5000      0.0000    816.1359      5.4346    133.3394
  1366.7500      0.0000    787.0421      5.3122    125.5670
  1367.0000      0.0000    758.6391      5.1823    118.0747
  1367.2500      0.0000    735.7999      5.0630    110.0951
  1367.5000      0.0000    720.3975      4.9562    101.1986
  1367.7500      0.0000    712.1250      4.8567     92.2982
  1368.0000      0.0000    709.7294      4.7716     85.2983
  1368.2500      0.0000    711.1854      4.7226     82.0964
  1368.5000      0.0000    713.8238      4.7298     83.9017
  1368.7500      0.0000    715.3568      4.7963     90.7729
  1369.0000      0.0000    715.0660      4.9062    101.1801
  1369.2500      0.0000    714.0312      5.0275    112.2597
  1369.5000      0.0000    713.8271      5.1151    121.0474
  1369.7500      0.0000    714.6168      5.1253    125.7810
  1370.0000      0.0000    714.8175      5.0486    126.4068
  1370.2500      0.0000    713.3083      4.9327    124.2469
  1370.5000      0.0000    711.3729      4.8623    121.1560
  1370.7500      0.0000    711.1693      4.8974    118.6182
  1371.0000      0.0000    712.5375      5.0243    117.1607
  1371.2500      0.0000    712.7660      5.1665    116.2500
  1371.5000      0.0000    709.4903      5.2435    114.8180
  1371.7500      0.0000    702.4454      5.2207    112.2987
  1372.0000      0.0000    692.4789      5.1159    109.2518
  1372.2500      0.0000    680.1812      4.9725    106.8107
  1372.5000      0.0000    665.7336      4.8298    105.4559
  1372.7500      0.0000    649.5575      4.7096    104.4374
  1373.0000      0.0000    633.2993      4.6217    102.5263
  1373.2500      0.0000    619.8520      4.5710     99.3729
  1373.5000      0.0000    610.3549      4.5605     96.0904
  1373.7500      0.0000    600.3293      4.5875     94.3032
