~Version Information
VERS.                      2.0: CWLS Log ASCII Standard - VERSION 2.0
WRAP.                       NO: One line per depth step
~Well Information Block
STRT.FT                 0.5000: 
STOP.FT              1575.0000: 
STEP.FT                 0.2500: 
NULL.                -999.2500: 
COMP.          Evergreen Operating Corporation: COMPANY
WELL.                Eric 42-9: WELL
FLD.           Purgatorie River: FIELD
LOC.           2050' FNL & 850' FEL: LOCATION
PROV.                 Colorado: PROVINCE
CNTY.               Las Animas: COUNTRY
SRVC.                         : SERVICE COMPANY
DATE.          Tue Nov 09 16:28:59 2004: LOG DATE
UWI.           05 071 07999 00: UNIQUE WELL ID
~Curve Information Block
DEPT.FT            0 000 00 00: Depth
LTEN.lb                       : Surface Line Tension
TT3.usec                      : CBL 3' Travel Time
AMP3.mV                       : CBL 3' Amplitude
ATT3.db/ft                    : CBL 3' Attenuation
GR.GAPI                       : Gamma Ray
CCL.                          : Casing Collar Locator
~Parameter Information Block
~A  Depth       LTEN        TT3         AMP3        ATT3         GR         CCL     
# ...
   720.5000    557.8679    751.5325      5.6213     -8.1801    136.5987      0.0000
   720.7500    557.5241    745.9913      5.7930     -8.0930    134.5718      0.0000
   721.0000    555.4553    742.7023      5.8962     -8.0419    130.9624      0.0000
   721.2500    551.8787    739.4448      5.9071     -8.0366    126.1276      0.0000
   721.5000    548.6559    731.5328      5.8745     -8.0526    120.9679      0.0000
   721.7500    547.3721    714.2361      5.8538     -8.0628    116.3964      0.0000
   722.0000    547.8875    688.2716      5.8461     -8.0666    112.6249      0.0000
   722.2500    549.0121    663.5277      5.8114     -8.0838    109.1508      0.0000
   722.5000    549.8849    654.3358      5.7282     -8.1256    105.7870      0.0000
   722.7500    550.3425    668.1234      5.6209     -8.1803    103.6798      3.0000
   723.0000    550.6232    698.8195      5.5341     -8.2254    104.6670     -3.0000
   723.2500    551.1756    732.2593      5.5053     -8.2405    109.1669      0.0000
   723.5000    552.2398    757.2945      5.5589     -8.2124    115.0127      0.0000
   723.7500    553.1952    771.3561      5.6882     -8.1459    118.7971      0.0000
   724.0000    552.7968    777.7241      5.8330     -8.0731    118.5165      0.0000
   724.2500    550.5714    780.3588      5.9095     -8.0354    115.0848      0.0000
   724.5000    547.6647    781.4186      5.8825     -8.0486    111.4843      0.0000
   724.7500    545.8576    781.3770      5.7869     -8.0961    110.4252      0.0000
   725.0000    545.9108    779.5177      5.6737     -8.1532    112.6846      0.0000
   725.2500    547.0375    773.6332      5.5657     -8.2089    117.3300      0.0000
   725.5000    547.7131    759.8492      5.4691     -8.2596    122.9391      0.0000
   725.7500    546.8715    734.4995      5.3930     -8.3002    128.4554      0.0000
   726.0000    544.6730    698.4227      5.3418     -8.3278    133.3868      0.0000
   726.2500    542.3783    660.1316      5.3061     -8.3472    137.5742      0.0000
   726.5000    541.3605    633.1777      5.2733     -8.3651    140.7010      0.0000
   726.7500    542.0306    628.0784      5.2451     -8.3807    142.1893      0.0000
   727.0000    543.6603    645.1989      5.2390     -8.3840    141.8721      0.0000
   727.2500    545.1471    674.5790      5.2709     -8.3665    140.4246      0.0000
   727.5000    545.8293    702.4474      5.3328     -8.3327    138.6794      0.0000
   727.7500    545.6992    718.2676      5.3926     -8.3004    136.8539      0.0000
   728.0000    545.1996    717.0389      5.4205     -8.2855    134.8298      0.0000
   728.2500    544.8552    698.1924      5.4152     -8.2883    132.7551      0.0000
   728.5000    544.7409    665.5676      5.4025     -8.2951    130.8642      0.0000
   728.7500    544.1777    628.2666      5.4074     -8.2925    129.1340      0.0000
   729.0000    542.3508    598.6058      5.4352     -8.2776    127.7133      0.0000
   729.2500    539.3572    587.0699      5.4808     -8.2534    127.3902      0.0000
   729.5000    536.2548    598.1615      5.5486     -8.2178    129.0459      0.0000
   729.7500    534.0344    628.9995      5.6535     -8.1636    132.8147      0.0000
   730.0000    532.9674    670.2186      5.7939     -8.0926    138.1758      0.0000
   730.2500    532.9052    709.3387      5.9306     -8.0251    144.3548      0.0000
   730.5000    533.7613    735.2971      6.0057     -7.9886    149.9103      0.0000
   730.7500    535.6041    741.1674      5.9913     -7.9955    152.5640      0.0000
   731.0000    538.5237    724.9313      5.9100     -8.0351    150.7415      0.0000
   731.2500    542.5651    690.5695      5.8034     -8.0878    145.4001      0.0000
   731.5000    547.6058    648.5318      5.6962     -8.1418    139.6715      0.0000
   731.7500    553.0647    612.2545      5.5934     -8.1945    136.5619      0.0000
   732.0000    557.8756    592.2972      5.4945     -8.2462    136.9988      0.0000
   732.2500    561.0391    593.4220      5.4007     -8.2960    139.7156      0.0000
   732.5000    562.2087    615.3079      5.3199     -8.3397    142.7418      0.0000
   732.7500    561.6576    652.9761      5.2675     -8.3683    145.1226      0.0000
   733.0000    559.9474    696.7664      5.2580     -8.3736    147.1180      0.0000
   733.2500    557.8989    735.5052      5.2891     -8.3565    148.5906      0.0000
   733.5000    556.5182    762.1863      5.3381     -8.3298    147.7411      0.0000
   733.7500    556.3185    776.5927      5.3702     -8.3124    142.3401      0.0000
   734.0000    556.6963    782.7021      5.3570     -8.3196    132.3633      0.0000
   734.2500    556.4465    784.5880      5.2980     -8.3517    120.8124      0.0000
   734.5000    555.0057    784.4003      5.2230     -8.3929    111.7163      0.0000
   734.7500    552.8159    782.6060      5.1683     -8.4234    107.5586      0.0000
   735.0000    550.5323    779.0504      5.1541     -8.4314    108.3280      0.0000
   735.2500    548.5394    773.8354      5.1889     -8.4119    112.0932      0.0000
   735.5000    547.2418    767.5870      5.2827     -8.3600    116.0032      0.0000
   735.7500    547.0120    761.0915      5.4370     -8.2767    117.4190      0.0000
   736.0000    547.6055    754.6113      5.6223     -8.1796    115.1282      0.0000
   736.2500    548.1574    746.8256      5.7863     -8.0963    109.9334      0.0000
   736.5000    548.0289    733.9884      5.8954     -8.0423    104.0436      0.0000
   736.7500    547.5483    711.4302      5.9575     -8.0119     99.7070      0.0000
   737.0000    547.8516    677.9803      5.9983     -7.9922     98.0167      0.0000
   737.2500    549.9230    639.0090      6.0278     -7.9780     98.5903      0.0000
   737.5000    553.5538    603.4061      6.0366     -7.9738    100.2757      0.0000
   737.7500    557.2376    576.9753      6.0098     -7.9866    102.3299      0.0000
   738.0000    559.2050    559.3973      5.9386     -8.0211    105.1016      0.0000
   738.2500    558.6333    547.1087      5.8331     -8.0730    109.4886      0.0000
   738.5000    556.1879    537.6145      5.7312     -8.1241    115.5092      0.0000
   738.7500    553.7090    530.8185      5.6817     -8.1492    121.4611      0.0000
   739.0000    552.9138    527.4467      5.7046     -8.1375    124.9911      0.0000
   739.2500    553.8193    527.1776      5.7696     -8.1048    125.3479      0.0000
   739.5000    554.5905    528.1902      5.8203     -8.0794    124.3487      0.0000
   739.7500    553.2638    528.2355      5.8202     -8.0795    124.7292      0.0000
   740.0000    549.5225    526.3090      5.7774     -8.1008    127.4813      0.0000
   740.2500    544.7828    523.4576      5.7353     -8.1220    131.0634      0.0000
   740.5000    540.9319    521.9768      5.7418     -8.1187    133.1936      0.0000
   740.7500    539.1108    523.7718      5.8161     -8.0815    132.8444      0.0000
   741.0000    539.3066    529.3101      5.9333     -8.0237    130.3609      0.0000
   741.2500    540.7924    537.9085      6.0383     -7.9729    126.4550      0.0000
   741.5000    542.8345    549.0256      6.0795     -7.9533    121.6706      0.0000
   741.7500    545.0371    562.7648      6.0374     -7.9734    116.4679      0.0000
   742.0000    547.3396    578.0602      5.9330     -8.0239    111.3467      0.0000
   742.2500    550.0562    590.7641      5.8118     -8.0836    106.9234      0.0000
   742.5000    553.7510    596.1115      5.7163     -8.1316    103.9564      0.0000
   742.7500    558.5629    594.9869      5.6700     -8.1552    103.0600      0.0000
   743.0000    563.3609    596.2296      5.6731     -8.1536    104.2608      0.0000
   743.2500    565.8190    609.9937      5.7015     -8.1391    107.0600      0.0000
   743.5000    563.9935    637.7816      5.7176     -8.1310    111.0113      0.0000
   743.7500    558.1891    669.8002      5.6977     -8.1411    115.9001      0.0000
   744.0000    550.9349    693.3879      5.6466     -8.1671    121.2802      0.0000
   744.2500    544.9667    704.2712      5.5814     -8.2007    126.3028      0.0000
