~Version Information
VERS.                      2.0: CWLS Log ASCII Standard - VERSION 2.0
WRAP.                       NO: One line per depth step
~Well Information Block
STRT.FT                -9.2500: 
STOP.FT              2353.7500: 
STEP.FT                 0.2500: 
NULL.                -999.2500: 
COMP.          Petrogulf Corporation: COMPANY
WELL.             Kraft 17-23V: WELL
FLD.           Purgatorie River: FIELD
LOC.           1500' FSL & 1773' FWL--: LOCATION
PROV.                       CO: PROVINCE
CNTY.               Las Animas: COUNTRY
SRVC.          Patterson Wireline: SERVICE COMPANY
DATE.          Wed Dec 10 19:09:59 2003: LOG DATE
UWI.                          : UNIQUE WELL ID
~Curve Information Block
DEPT.FT            0 000 00 00: Depth
CCL.                          : Casing Collar Locator
TT3.usec                      : CBL 3' Travel Time
AMP3.mV                       : CBL 3' Amplitude
GR.GAPI                       : Gamma Ray
~Parameter Information Block
~A  Depth       CCL         TT3         AMP3         GR     
# ...
  2335.7500      0.0000    654.3716      1.1683     62.1139
  2336.0000      0.0000    653.6859      1.1785     60.7085
  2336.2500      0.0000    653.1865      1.2060     59.1737
  2336.5000      0.0000    653.0616      1.2246     57.2684
  2336.7500      0.0000    653.3122      1.2154     55.0805
  2337.0000      0.0000    653.7825      1.1831     53.5954
  2337.2500      0.0000    654.2921      1.1494     53.9968
  2337.5000      0.0000    654.7574      1.1316     56.3567
  2337.7500      0.0000    655.2214      1.1310     59.4682
  2338.0000      0.0000    655.7858      1.1368     61.8844
  2338.2500      0.0000    656.4979      1.1382     62.4176
  2338.5000      0.0000    657.2768      1.1297     59.6922
  2338.7500      0.0000    657.9486      1.1124     52.3776
  2339.0000      0.0000    658.3608      1.0967     40.6552
  2339.2500      0.0000    658.4517      1.0940     27.0376
  2339.5000      0.0000    658.2133      1.1014     15.0325
  2339.7500      0.0000    657.6349      1.1018      6.8611
  2340.0000      0.0000    656.7241      1.0832      2.5361
  2340.2500      0.0000    655.5646      1.0520      0.7518
  2340.5000      0.0000    654.3158      1.0297      0.1770
  2340.7500      0.0000    653.1541      1.0410      0.0325
  2341.0000      0.0000    652.2188      1.0933      0.0043
  2341.2500      0.0000    651.5920      1.1652      0.0000
  2341.5000      0.0000    651.2902      1.2208   -999.2500
  2341.7500      0.0000    651.2609      1.2361   -999.2500
  2342.0000      0.0000    651.4123      1.2131   -999.2500
  2342.2500      0.0000    651.6824      1.1750   -999.2500
  2342.5000      0.0000    652.0980      1.1488   -999.2500
  2342.7500      0.0000    652.7175      1.1473   -999.2500
  2343.0000      0.0000    653.4422      1.1661   -999.2500
  2343.2500      0.0000    653.3635      1.1964   -999.2500
  2343.5000      0.0000    649.2441      1.2307   -999.2500
  2343.7500      0.0000    633.1680      1.2564   -999.2500
  2344.0000      0.0000    591.9420      1.2530   -999.2500
  2344.2500      0.0000    513.0757      1.2008   -999.2500
  2344.5000      0.0000    397.2119      1.0943   -999.2500
  2344.7500      0.0000    265.3497      0.9535   -999.2500
  2345.0000      0.0000    148.7383      0.8169   -999.2500
  2345.2500      0.0000     68.5079      0.7166   -999.2500
  2345.5000      0.0000     25.5400      0.6603   -999.2500
  2345.7500      0.0000      7.6230      0.6360   -999.2500
  2346.0000      0.0000      1.8052      0.6279   -999.2500
  2346.2500      0.0000      0.3341      0.6258   -999.2500
  2346.5000      0.0000      0.0444      0.6254   -999.2500
  2346.7500      0.0000   -999.2500   -999.2500   -999.2500
  2347.0000      0.0000   -999.2500   -999.2500   -999.2500
  2347.2500      0.0000   -999.2500   -999.2500   -999.2500
  2347.5000      0.0000   -999.2500   -999.2500   -999.2500
  2347.7500      0.0000   -999.2500   -999.2500   -999.2500
  2348.0000      0.0000   -999.2500   -999.2500   -999.2500
  2348.2500      0.0000   -999.2500   -999.2500   -999.2500
  2348.5000      0.0000   -999.2500   -999.2500   -999.2500
  2348.7500      0.0000   -999.2500   -999.2500   -999.2500
  2349.0000      0.0000   -999.2500   -999.2500   -999.2500
  2349.2500      0.0000   -999.2500   -999.2500   -999.2500
  2349.5000      0.0000   -999.2500   -999.2500   -999.2500
  2349.7500      0.0000   -999.2500   -999.2500   -999.2500
  2350.0000      0.0000   -999.2500   -999.2500   -999.2500
  2350.2500      0.0000   -999.2500   -999.2500   -999.2500
  2350.5000      0.0000   -999.2500   -999.2500   -999.2500
  2350.7500      0.0000   -999.2500   -999.2500   -999.2500
  2351.0000      0.0000   -999.2500   -999.2500   -999.2500
  2351.2500      0.0000   -999.2500   -999.2500   -999.2500
  2351.5000      2.0000   -999.2500   -999.2500   -999.2500
  2351.7500      0.0000   -999.2500   -999.2500   -999.2500
  2352.0000      0.0000   -999.2500   -999.2500   -999.2500
  2352.2500   -999.2500   -999.2500   -999.2500   -999.2500
  2352.5000   -999.2500   -999.2500   -999.2500   -999.2500
  2352.7500   -999.2500   -999.2500   -999.2500   -999.2500
  2353.0000   -999.2500   -999.2500   -999.2500   -999.2500
  2353.2500   -999.2500   -999.2500   -999.2500   -999.2500
  2353.5000   -999.2500   -999.2500   -999.2500   -999.2500
  2353.7500   -999.2500   -999.2500   -999.2500   -999.2500
