~Version Information
VERS.                      2.0: CWLS Log ASCII Standard - VERSION 2.0
WRAP.                       NO: One line per depth step
~Well Information Block
STRT.FT               523.0000: 
STOP.FT              1709.0000: 
STEP.FT                 0.1000: 
NULL.                -999.2500: 
COMP.          Evergreen Operating Corporation: COMPANY
WELL.            Rimrock 14-29: WELL
FLD.           Purgatorie River: FIELD
LOC.           945' FSL & 604' FWL: LOCATION
PROV.                 Colorado: PROVINCE
CNTY.               Las Animas: COUNTRY
SRVC.                         : SERVICE COMPANY
DATE.          Tue Sep 21 04:15:40 2004: LOG DATE
UWI.           05 071 08136 00: UNIQUE WELL ID
~Curve Information Block
DEPT.FT            0 000 00 00: Depth
DCAL.in                       : CDL Caliper
RHOB.g/cc                     : CDL Bulk Density
RHOC.g/cc                     : CDL Density Correction
DPOR.pu                       : CDL Density Porosity
GR.GAPI                       : Gamma Ray
NPOR.pu                       : Neutron Porosity
~Parameter Information Block
~A  Depth       DCAL        RHOB        RHOC        DPOR         GR         NPOR    
# ...
  1070.2000      7.8216      2.6258      0.0668      1.4653    117.9396     25.8245
  1070.3000      7.8469      2.6106      0.0434      2.3864    122.5312     25.6582
  1070.4000      7.8469      2.5922      0.0132      3.5019    124.2053     25.5657
  1070.5000      7.8609      2.5774     -0.0042      4.4019    119.8637     25.7874
  1070.6000      7.8609      2.5757     -0.0272      4.5013    113.5381     26.1650
  1070.7000      7.8609      2.5789      0.0331      4.3119    112.9824     26.3815
  1070.8000      7.8574      2.5663      0.0445      5.0751    117.9195     26.3816
  1070.9000      7.8574      2.5408      0.0132      6.6163    120.5946     26.3482
  1071.0000      7.8423      2.5317      0.0012      7.1695    116.2985     26.4711
  1071.1000      7.8423      2.5517      0.0505      5.9549    106.5106     26.4923
  1071.2000      7.8423      2.5811      0.0825      4.1741     96.4649     26.0772
  1071.3000      7.8393      2.6006      0.1023      2.9912     90.1259     25.5784
  1071.4000      7.8393      2.6106      0.1032      2.3882     86.8333     25.2400
  1071.5000      7.8557      2.6211      0.0808      1.7485     85.1916     24.6992
  1071.6000      7.8557      2.6379      0.1032      0.7348     85.4346     23.8901
  1071.7000      7.8557      2.6443      0.1521      0.3465     85.5238     23.3161
  1071.8000      7.8704      2.6240      0.0959      1.5788     83.6545     23.1717
  1071.9000      7.8704      2.5937      0.0433      3.4136     81.1723     22.9337
  1072.0000      7.8323      2.5732      0.0936      4.6574     78.5955     22.1337
  1072.1000      7.8323      2.5573      0.0207      5.6173     77.5961     21.1241
  1072.2000      7.8323      2.5398     -0.0086      6.6773     80.9616     20.4007
  1072.3000      7.8342      2.5234      0.0149      7.6706     84.7321     19.9257
  1072.4000      7.8342      2.5127      0.0080      8.3192     81.8098     19.4529
  1072.5000      7.8306      2.5088      0.0068      8.5572     73.1072     19.0173
  1072.6000      7.8306      2.5076      0.0345      8.6309     65.4907     18.8003
  1072.7000      7.8306      2.5090      0.0016      8.5468     64.5711     18.7690
  1072.8000      7.8514      2.5169      0.0188      8.0680     71.2184     18.9165
  1072.9000      7.8514      2.5264      0.0236      7.4932     81.0941     19.2714
  1073.0000      7.8502      2.5272      0.0591      7.4443     87.1314     19.5537
  1073.1000      7.8502      2.5202      0.0178      7.8658     84.5290     19.5400
  1073.2000      7.8502      2.5202      0.0350      7.8651     77.5875     19.4774
  1073.3000      7.8747      2.5325      0.0371      7.1186     73.4850     19.5707
  1073.4000      7.8747      2.5485      0.0508      6.1491     73.8764     19.5395
  1073.5000      7.8709      2.5609      0.0565      5.3990     77.2856     19.2662
  1073.6000      7.8709      2.5638      0.0678      5.2229     80.6074     19.0480
  1073.7000      7.8709      2.5548      0.0175      5.7705     79.8479     18.8831
  1073.8000      7.8562      2.5456      0.0225      6.3250     73.2512     18.6125
  1073.9000      7.8562      2.5475      0.0482      6.2139     64.8930     18.5705
  1074.0000      7.8452      2.5519      0.0369      5.9463     60.5391     18.9478
  1074.1000      7.8452      2.5459      0.0543      6.3104     60.4056     19.3608
  1074.2000      7.8452      2.5373      0.0204      6.8294     63.2235     19.5928
  1074.3000      7.8362      2.5458      0.0268      6.3163     67.7707     19.6098
  1074.4000      7.8362      2.5673      0.0739      5.0112     69.7998     19.4781
  1074.5000      7.8512      2.5783      0.0555      4.3430     68.0201     19.4799
  1074.6000      7.8512      2.5708      0.0268      4.8025     64.1224     19.6837
  1074.7000      7.8512      2.5532      0.0346      5.8667     60.3890     19.7869
  1074.8000      7.8529      2.5331      0.0244      7.0824     60.6602     19.6547
  1074.9000      7.8529      2.5171      0.0260      8.0543     63.8559     19.4345
  1075.0000      7.8582      2.5163     -0.0136      8.1034     65.9641     19.0742
  1075.1000      7.8582      2.5326      0.0135      7.1130     67.3915     18.6411
  1075.2000      7.8582      2.5529      0.0168      5.8848     69.0331     18.5503
  1075.3000      7.8466      2.5693      0.0113      4.8888     70.0524     18.9401
  1075.4000      7.8466      2.5784      0.0395      4.3377     70.9441     19.5375
  1075.5000      7.8403      2.5748      0.0255      4.5557     73.2110     19.8224
  1075.6000      7.8403      2.5629      0.0261      5.2817     76.6379     19.3928
  1075.7000      7.8403      2.5531      0.0005      5.8698     80.4902     18.7518
  1075.8000      7.8380      2.5528      0.0046      5.8904     84.9744     18.6065
  1075.9000      7.8380      2.5534      0.0261      5.8538     90.0157     19.0269
  1076.0000      7.8496      2.5390      0.0172      6.7290     97.4229     19.7321
  1076.1000      7.8496      2.5093      0.0130      8.5269    108.0098     20.2968
  1076.2000      7.8496      2.4798      0.0035     10.3156    117.0561     20.6920
  1076.3000      7.8307      2.4663     -0.0233     11.1326    121.9885     21.3370
  1076.4000      7.8307      2.4749     -0.0059     10.6145    127.2060     22.3397
  1076.5000      7.8383      2.4998      0.0227      9.1058    136.2341     23.4758
  1076.6000      7.8383      2.5294      0.0208      7.3087    146.1015     24.3548
  1076.7000      7.8383      2.5522      0.0630      5.9256    153.8164     24.6386
  1076.8000      7.8494      2.5634      0.0972      5.2459    161.3637     24.5867
  1076.9000      7.8494      2.5730      0.0941      4.6652    169.7821     24.7617
  1077.0000      7.8572      2.5944      0.1588      3.3681    175.7002     25.1842
  1077.1000      7.8572      2.6213      0.1880      1.7408    176.9688     25.4151
  1077.2000      7.8572      2.6361      0.1629      0.8453    178.7898     25.2338
  1077.3000      7.8386      2.6321      0.1655      1.0875    183.1212     24.8940
  1077.4000      7.8386      2.6128      0.1091      2.2527    183.2394     24.8339
  1077.5000      7.8419      2.5814      0.0367      4.1578    179.5376     25.1713
  1077.6000      7.8419      2.5423      0.0253      6.5251    178.1312     25.4659
  1077.7000      7.8419      2.5118      0.0104      8.3753    175.7193     25.5102
  1077.8000      7.8462      2.5058     -0.0133      8.7420    167.0953     25.4705
  1077.9000      7.8462      2.5127      0.0311      8.3220    158.3016     25.2565
  1078.0000      7.8499      2.5060      0.0108      8.7268    159.8270     25.0347
  1078.1000      7.8499      2.4813     -0.0115     10.2244    168.1661     25.2603
  1078.2000      7.8499      2.4488      0.0133     12.1955    170.3929     25.9569
  1078.3000      7.8642      2.4124      0.0074     14.4029    163.3271     26.8035
  1078.4000      7.8642      2.3755      0.0483     16.6336    156.5402     27.4577
  1078.5000      7.8567      2.3519     -0.0003     18.0656    158.4332     27.7124
  1078.6000      7.8567      2.3605      0.0074     17.5485    164.3980     27.6954
  1078.7000      7.8567      2.4027      0.0749     14.9901    164.9336     27.7086
  1078.8000      7.8532      2.4686      0.0826     10.9952    157.5914     27.8509
  1078.9000      7.8532      2.5591      0.1595      5.5093    149.3723     27.7526
  1079.0000      7.8400      2.6619      0.3084     -0.7225    146.0505     27.0901
  1079.1000      7.8400      2.7380      0.3526     -5.3335    140.7582     26.3715
  1079.2000      7.8400      2.7591      0.3445     -6.6115    128.6327     26.0802
  1079.3000      7.8304      2.7280      0.2492     -4.7252    116.8212     25.7793
  1079.4000      7.8304      2.6708      0.1416     -1.2635    111.8398     25.2648
  1079.5000      7.8654      2.6164      0.1407      2.0378    112.3810     24.8523
  1079.6000      7.8654      2.5845      0.0436      3.9679    114.8988     24.5309
  1079.7000      7.8654      2.5883      0.0141      3.7386    118.8723     24.1409
