~Version Information
VERS.                      2.0: CWLS Log ASCII Standard - VERSION 2.0
WRAP.                       NO: One line per depth step
~Well Information Block
STRT.FT               430.0000: 
STOP.FT              2826.2500: 
STEP.FT                 0.2500: 
NULL.                -999.2500: 
COMP.          Pioneer Natural Resources: COMPANY
WELL.           Ei-ei-oh 31-24: WELL
FLD.           Purgatoire River: FIELD
LOC.           235' FNL & 2001' FEL--: LOCATION
PROV.                 Colorado: PROVINCE
CNTY.               Las Animas: COUNTRY
SRVC.                Patterson: SERVICE COMPANY
DATE.          Thu Jun 16 06:46:37 2005: LOG DATE
UWI.           05 071 08403 00: UNIQUE WELL ID
~Curve Information Block
DEPT.FT            0 000 00 00: Depth
DIR.Ohm-m                     : IEL Induction Resistivity
SN.Ohm-m                      : IEL Short Normal
SP.mV                         : IEL Spontaneous Potential
GR.GAPI                       : Gamma Ray
~Parameter Information Block
~A  Depth       DIR          SN          SP          GR     
# ...
   731.5000     20.4179   2000.0000   2000.0000     78.8251
   731.7500     20.7244   2000.0000   2000.0000     75.4757
   732.0000     20.8137   2000.0000   2000.0000     72.2109
   732.2500     20.6475   2000.0000   2000.0000     72.0956
   732.5000     20.2366   2000.0000   2000.0000     76.4050
   732.7500     19.6385   2000.0000   2000.0000     82.4722
   733.0000     18.9356   2000.0000   2000.0000     95.2055
   733.2500     18.2087   2000.0000   2000.0000    104.7092
   733.5000     17.5188   2000.0000   2000.0000    117.7299
   733.7500     16.9005   2000.0000   2000.0000    124.4152
   734.0000     16.3646   2000.0000   2000.0000    130.8803
   734.2500     15.9060   2000.0000   2000.0000    133.1572
   734.5000     15.5134   2000.0000   2000.0000    134.5793
   734.7500     15.1781   2000.0000   2000.0000    134.8457
   735.0000     14.8995   2000.0000   2000.0000    134.9688
   735.2500     14.6835   2000.0000   2000.0000    134.8532
   735.5000     14.5376   2000.0000   2000.0000    133.8251
   735.7500     14.4641   2000.0000   2000.0000    132.4437
   736.0000     14.4563   2000.0000   2000.0000    130.0367
   736.2500     14.4991   2000.0000   2000.0000    128.8980
   736.5000     14.5737   2000.0000   2000.0000    128.5182
   736.7500     14.6647   2000.0000   2000.0000    128.8989
   737.0000     14.7652   2000.0000   2000.0000    129.3140
   737.2500     14.8766   2000.0000   2000.0000    128.8923
   737.5000     15.0052   2000.0000   2000.0000    126.7847
   737.7500     15.1545   2000.0000   2000.0000    124.4680
   738.0000     15.3226   2000.0000   2000.0000    120.0305
   738.2500     15.5030   2000.0000   2000.0000    116.7111
   738.5000     15.6898   2000.0000   2000.0000    111.6137
   738.7500     15.8818   2000.0000   2000.0000    108.4154
   739.0000     16.0819   2000.0000   2000.0000    104.7674
   739.2500     16.2925   2000.0000   2000.0000    103.7532
   739.5000     16.5105   2000.0000   2000.0000    104.9602
   739.7500     16.7222   2000.0000   2000.0000    107.3459
   740.0000     16.9023   2000.0000   2000.0000    112.1651
   740.2500     17.0161   2000.0000   2000.0000    115.4124
   740.5000     17.0299   2000.0000   2000.0000    119.1194
   740.7500     16.9280   2000.0000   2000.0000    120.4538
   741.0000     16.7248   2000.0000   2000.0000    121.1397
   741.2500     16.4627   2000.0000   2000.0000    121.3419
   741.5000     16.1953   2000.0000   2000.0000    122.0923
   741.7500     15.9684   2000.0000   2000.0000    122.9480
   742.0000     15.8077   2000.0000   2000.0000    124.2661
   742.2500     15.7159   2000.0000   2000.0000    124.7493
   742.5000     15.6750   2000.0000   2000.0000    124.3249
   742.7500     15.6533   2000.0000   2000.0000    123.2208
   743.0000     15.6159   2000.0000   2000.0000    120.9140
   743.2500     15.5381   2000.0000   2000.0000    119.5766
   743.5000     15.4146   2000.0000   2000.0000    118.9059
   743.7500     15.2596   2000.0000   2000.0000    119.6719
   744.0000     15.0969   2000.0000   2000.0000    122.6007
   744.2500     14.9487   2000.0000   2000.0000    125.3825
   744.5000     14.8272   2000.0000   2000.0000    129.6487
   744.7500     14.7327   2000.0000   2000.0000    131.7830
   745.0000     14.6565   2000.0000   2000.0000    133.1059
   745.2500     14.5852   2000.0000   2000.0000    132.6953
   745.5000     14.5073   2000.0000   2000.0000    130.3449
   745.7500     14.4200   2000.0000   2000.0000    127.6954
   746.0000     14.3323   2000.0000   2000.0000    122.5306
   746.2500     14.2617   2000.0000   2000.0000    118.9599
   746.5000     14.2267   2000.0000   2000.0000    114.8059
   746.7500     14.2387   2000.0000   2000.0000    113.3871
   747.0000     14.2993   2000.0000   2000.0000    113.5516
   747.2500     14.4018   2000.0000   2000.0000    114.9787
   747.5000     14.5362   2000.0000   2000.0000    118.0070
   747.7500     14.6939   2000.0000   2000.0000    119.7121
   748.0000     14.8723   2000.0000   2000.0000    120.6762
   748.2500     15.0756   2000.0000   2000.0000    120.1831
   748.5000     15.3132   2000.0000   2000.0000    118.2981
   748.7500     15.5945   2000.0000   2000.0000    116.6551
   749.0000     15.9249   2000.0000   2000.0000    114.0375
   749.2500     16.3044   2000.0000   2000.0000    112.1840
   749.5000     16.7272   2000.0000   2000.0000    108.5009
   749.7500     17.1781   2000.0000   2000.0000    104.8113
   750.0000     17.6282   2000.0000   2000.0000     97.3108
   750.2500     18.0360   2000.0000   2000.0000     91.9389
   750.5000     18.3575   2000.0000   2000.0000     85.7774
   750.7500     18.5604   2000.0000   2000.0000     83.9931
   751.0000     18.6343   2000.0000   2000.0000     85.2784
   751.2500     18.5899   2000.0000   2000.0000     88.3925
   751.5000     18.4523   2000.0000   2000.0000     95.0780
   751.7500     18.2519   2000.0000   2000.0000     99.9449
   752.0000     18.0171   2000.0000   2000.0000    106.7112
   752.2500     17.7713   2000.0000   2000.0000    110.6123
   752.5000     17.5342   2000.0000   2000.0000    115.3655
   752.7500     17.3234   2000.0000   2000.0000    117.4872
   753.0000     17.1555   2000.0000   2000.0000    118.3261
   753.2500     17.0431   2000.0000   2000.0000    117.2262
   753.5000     16.9910   2000.0000   2000.0000    114.0591
   753.7500     16.9923   2000.0000   2000.0000    111.8126
   754.0000     17.0273   2000.0000   2000.0000    109.2201
   754.2500     17.0678   2000.0000   2000.0000    108.1946
   754.5000     17.0846   2000.0000   2000.0000    108.0713
   754.7500     17.0548   2000.0000   2000.0000    109.2958
   755.0000     16.9665   2000.0000   2000.0000    113.2021
   755.2500     16.8216   2000.0000   2000.0000    116.6084
   755.5000     16.6379   2000.0000   2000.0000    121.4200
   755.7500     16.4500   2000.0000   2000.0000    123.8490
   756.0000     16.3025   2000.0000   2000.0000    126.0568
   756.2500     16.2379   2000.0000   2000.0000    126.5358
   756.5000     16.2849   2000.0000   2000.0000    125.6924
   756.7500     16.4532   2000.0000   2000.0000    124.1759
   757.0000     16.7330   2000.0000   2000.0000    120.6966
   757.2500     17.1001   2000.0000   2000.0000    117.5414
   757.5000     17.5219   2000.0000   2000.0000    111.4407
   757.7500     17.9624   2000.0000   2000.0000    106.7234
   758.0000     18.3833   2000.0000   2000.0000     99.8326
   758.2500     18.7441   2000.0000   2000.0000     96.1915
   758.5000     19.0036   2000.0000   2000.0000     93.3399
   758.7500     19.1273   2000.0000   2000.0000     93.5622
   759.0000     19.0934   2000.0000   2000.0000     97.0861
   759.2500     18.8974   2000.0000   2000.0000    101.1908
   759.5000     18.5520   2000.0000   2000.0000    108.7787
   759.7500     18.0870   2000.0000   2000.0000    113.9296
   760.0000     17.5467   2000.0000   2000.0000    120.6738
   760.2500     16.9814   2000.0000   2000.0000    124.3154
   760.5000     16.4374   2000.0000   2000.0000    128.6305
   760.7500     15.9483   2000.0000   2000.0000    130.7326
   761.0000     15.5334   2000.0000   2000.0000    132.3887
   761.2500     15.2012   2000.0000   2000.0000    132.4294
   761.5000     14.9548   2000.0000   2000.0000    131.5621
   761.7500     14.7945   2000.0000   2000.0000    131.0299
   762.0000     14.7178   2000.0000   2000.0000    130.8927
   762.2500     14.7170   2000.0000   2000.0000    130.9936
   762.5000     14.7780   2000.0000   2000.0000    130.6281
   762.7500     14.8807   2000.0000   2000.0000    129.9026
   763.0000     15.0022   2000.0000   2000.0000    128.6386
   763.2500     15.1218   2000.0000   2000.0000    128.1111
   763.5000     15.2263   2000.0000   2000.0000    128.1301
   763.7500     15.3135   2000.0000   2000.0000    128.6222
   764.0000     15.3898   2000.0000   2000.0000    129.8045
   764.2500     15.4643   2000.0000   2000.0000    130.7227
   764.5000     15.5453   2000.0000   2000.0000    131.9646
   764.7500     15.6399   2000.0000   2000.0000    132.4065
