~Version Information
VERS.                      2.0: CWLS Log ASCII Standard - VERSION 2.0
WRAP.                       NO: One line per depth step
~Well Information Block
STRT.FT               185.2500: 
STOP.FT              2109.7500: 
STEP.FT                 0.2500: 
NULL.                -999.2500: 
COMP.    Petrogulf Corporation: COMPANY
WELL.             State 16-44V: WELL
FLD.          Purgatorie River: FIELD
LOC.       320' FSL & 320' FEL: LOCATION
PROV.                 Colorado: PROVINCE
CNTY.               Las Animas: COUNTRY
SRVC.                Patterson: SERVICE COMPANY
DATE. Thu Aug 11 12:58:04 2005: LOG DATE
UWI.               071-08263  : UNIQUE WELL ID
~Curve Information Block
DEPT.FT            0 000 00 00: Depth
GR.GAPI                       : Gamma Ray
CCL.                          : Casing Collar Locator
TT3.usec                      : CBL 3' Travel Time
AMP3.mV                       : CBL 3' Amplitude
~Parameter Information Block
~A  Depth        GR         CCL         TT3         AMP3    
# ...
  1558.7500    172.5084      0.0000    603.2581      1.7050
  1559.0000    174.5605      0.0000    600.6206      1.6357
  1559.2500    173.3947      0.0000    602.7863      1.5585
  1559.5000    168.9479      0.0000    607.6898      1.4923
  1559.7500    162.5563      0.0000    611.8136      1.4432
  1560.0000    156.0560      0.0000    614.2626      1.4213
  1560.2500    150.6959      0.0000    617.2086      1.4384
  1560.5000    146.7357      0.0000    622.6391      1.4873
  1560.7500    143.6592      0.0000    629.2567      1.5467
  1561.0000    140.4796      0.0000    633.4392      1.6076
  1561.2500    136.1640      0.0000    633.9011      1.6817
  1561.5000    130.4800      0.0000    633.2023      1.7823
  1561.7500    124.6062      0.0000    632.8802      1.9081
  1562.0000    120.3594      0.0000    630.8453      2.0534
  1562.2500    118.6443      0.0000    626.2044      2.2196
  1562.5000    119.0477      0.0000    621.2623      2.4160
  1562.7500    120.7208      0.0000    617.0061      2.6432
  1563.0000    122.8256      0.0000    612.3342      2.8601
  1563.2500    124.2015      0.0000    608.2857      2.9943
  1563.5000    123.5291      0.0000    608.0954      3.0268
  1563.7500    120.1702      0.0000    612.6691      3.0138
  1564.0000    114.4861      0.0000    618.6221      3.0103
  1564.2500    107.3937      0.0000    620.5385      3.0464
  1564.5000    100.0346      0.0000    617.3090      3.1378
  1564.7500     93.7330      0.0000    615.4204      3.2442
  1565.0000     89.7980      0.0000    620.6475      3.2743
  1565.2500     89.1415      0.0000    630.2494      3.1734
  1565.5000     92.0731      0.0000    636.4099      2.9630
  1565.7500     98.3145      0.0000    635.3511      2.7006
  1566.0000    107.0621      0.0000    631.3185      2.4373
  1566.2500    117.1525      0.0000    628.5194      2.2081
  1566.5000    127.3999      0.0000    624.5494      2.0258
  1566.7500    136.8175      0.0000    617.4126      1.8828
  1567.0000    144.4207      0.0000    611.0473      1.7779
  1567.2500    149.1054      0.0000    609.3661      1.7184
  1567.5000    150.1977      0.0000    611.5318      1.6985
  1567.7500    148.1930      0.0000    615.0998      1.7034
  1568.0000    144.7192      0.0000    618.4077      1.7332
  1568.2500    141.7236      0.0000    619.5385      1.7948
  1568.5000    140.6042      0.0000    617.5677      1.8887
  1568.7500    141.6797      0.0000    614.4032      2.0189
  1569.0000    143.9425      0.0000    612.5540      2.1892
  1569.2500    145.3088      0.0000    612.8316      2.3848
  1569.5000    143.8944      0.0000    615.1597      2.5919
  1569.7500    139.6983      0.0000    619.3789      2.8327
  1570.0000    134.6479      0.0000    624.3528      3.1441
  1570.2500    130.3988      0.0000    627.5629      3.5270
  1570.5000    126.4915      0.0000    627.2004      3.9568
  1570.7500    121.2303      0.0000    623.6487      4.4349
  1571.0000    113.7976      0.0000    618.2741      4.9788
  1571.2500    104.7488      0.0000    613.7056      5.5648
  1571.5000     95.0022      0.0000    614.3991      6.1274
  1571.7500     85.3552      0.0000    622.8167      6.5995
  1572.0000     76.8108      0.0000    635.6302      6.9533
  1572.2500     70.5303      0.0000    646.7576      7.2435
  1572.5000     67.1226      0.0000    653.4421      7.5910
  1572.7500     66.0216      0.0000    656.6436      8.0646
  1573.0000     65.6339      0.0000    657.2682      8.5792
  1573.2500     64.4332      0.0000    654.7667      8.9696
  1573.5000     62.1811      0.0000    648.6160      9.1668
  1573.7500     59.9110      0.0000    639.5568      9.2516
  1574.0000     58.5764      0.0000    628.2823      9.3397
  1574.2500     58.0230      0.0000    614.5641      9.4384
  1574.5000     57.3983      0.0000    600.3298      9.4416
  1574.7500     56.1916      0.0000    590.7021      9.2755
  1575.0000     54.5911      0.0000    589.6262      8.9701
  1575.2500     52.9902      0.0000    596.6295      8.5883
  1575.5000     51.5173      0.0000    607.5408      8.1730
  1575.7500     50.1359      0.0000    617.7850      7.7437
  1576.0000     48.9077      0.0000    624.4608      7.3012
  1576.2500     47.9918      0.0000    625.6766      6.8858
  1576.5000     47.5150      0.0000    622.2308      6.6043
  1576.7500     47.3894      0.0000    617.2338      6.4893
  1577.0000     47.1411      0.0000    611.8199      6.3988
  1577.2500     46.1665      0.0000    608.1787      6.1477
  1577.5000     44.3602      0.0000    612.5366      5.6757
  1577.7500     42.1715      0.0000    626.4749      5.1009
  1578.0000     39.9055      0.0000    640.9156      4.6328
  1578.2500     37.4238      0.0000    644.6671      4.3584
  1578.5000     34.7424      0.0000    637.2998      4.1882
  1578.7500     32.5290     -2.0000    630.9223      4.0176
  1579.0000     31.6966     -2.0000    638.1660      3.8244
  1579.2500     32.6748      0.0000    656.2836      3.6427
  1579.5000     35.2934      0.0000    667.6552      3.5366
  1579.7500     39.3135      0.0000    662.5392      3.5764
  1580.0000     44.9034      0.0000    650.4928      3.7207
  1580.2500     52.6800      0.0000    643.3337      3.7644
  1580.5000     63.4346      0.0000    641.7107      3.5736
  1580.7500     77.6018      0.0000    640.8254      3.2524
  1581.0000     94.5431      0.0000    638.9169      2.9443
  1581.2500    112.3314      0.0000    637.6550      2.6917
  1581.5000    128.5049      0.0000    638.5043      2.4989
  1581.7500    141.1024      0.0000    641.1295      2.3582
  1582.0000    149.2186      0.0000    643.8151      2.2560
  1582.2500    153.2514      0.0000    645.1652      2.2037
  1582.5000    154.7869      0.0000    645.1920      2.2187
  1582.7500    155.4849      0.0000    644.3444      2.2843
  1583.0000    155.6972      0.0000    642.1301      2.3614
  1583.2500    154.6494      0.0000    636.6578      2.4318
  1583.5000    151.9882      0.0000    626.4632      2.5059
  1583.7500    148.4739      0.0000    613.8448      2.5910
  1584.0000    145.1075      0.0000    603.9726      2.6859
  1584.2500    142.2283      0.0000    599.9940      2.8001
  1584.5000    139.6556      0.0000    602.1141      2.9329
  1584.7500    137.2661      0.0000    609.6982      3.0533
  1585.0000    135.0639      0.0000    620.3757      3.1455
  1585.2500    132.9656      0.0000    629.4643      3.2439
  1585.5000    131.1113      0.0000    633.4835      3.3911
  1585.7500    130.3150      0.0000    632.3677      3.5607
  1586.0000    131.4192      0.0000    628.1924      3.6292
  1586.2500    134.1030      0.0000    623.7695      3.4818
  1586.5000    137.1195      0.0000    620.8917      3.1574
  1586.7500    139.8582      0.0000    619.5013      2.8053
  1587.0000    142.8845      0.0000    618.9384      2.5305
  1587.2500    146.6436      0.0000    618.7916      2.3671
  1587.5000    150.2866      0.0000    618.8822      2.3140
  1587.7500    152.2458      0.0000    619.2363      2.3346
  1588.0000    151.7079      0.0000    619.8218      2.3898
  1588.2500    149.1877      0.0000    620.3569      2.4679
  1588.5000    145.7796      0.0000    620.6229      2.5517
  1588.7500    142.0596      0.0000    620.7868      2.6043
  1589.0000    137.7398      0.0000    621.5930      2.6197
  1589.2500    132.3452      0.0000    624.5714      2.6486
  1589.5000    126.2287      0.0000    630.9189      2.7338
  1589.7500    120.8366      0.0000    639.2872      2.8603
  1590.0000    117.8379      0.0000    646.4782      2.9843
  1590.2500    117.9083      0.0000    650.7896      3.0682
  1590.5000    120.3167      0.0000    652.5665      3.0920
  1590.7500    123.5822      0.0000    651.9622      3.0582
  1591.0000    126.5132      0.0000    648.1503      2.9826
  1591.2500    128.6551      0.0000    641.6262      2.8825
  1591.5000    129.8331      0.0000    635.7881      2.7646
  1591.7500    129.7222      0.0000    632.9738      2.6264
  1592.0000    128.3015      0.0000    631.9666      2.4867
