~Version Information
 VERS.                                  2.0 : CWLS LAS VERSION
 WRAP.                                   NO : WRAPING MODE
 SWARE .                 MController 2.5.0E : SOFTWARE VERSION
~Well Information
 WELL.                         STATE 16-24V : WELL
 COMP.                      Petrogulf Corp. : COMPANY
 FLD.                      Purgatorie River : FIELD
 LOC.                NW/SE Sec 16 T33S R67W : LOCATION
 DATE.                      5/02/04-5/03/04 : DATE(S) LOGGED
 SRVC.       Blanco Geological Services LLC : SERVICE COMPANY
 STAT.                                   CO : STATE
 CNTY.                           Las Animas : COUNTY
 CTRY.                                  USA : COUNTRY
 API.                       05-071-08014-00 : API NUMBER
 STRT.FT                              40.00 : START DEPTH
 STOP.FT                            2380.00 : STOP DEPTH
 STEP.FT                               1.00 : DEPTH INCREMENT
 NULL.                                -9999 : NULL VALUE
~Curve information
 DEPTH.FT                                   :
 ROP.MIN/FT                                 :
 GAS.UNITS                                  :
~ASCII Log data
# ...
      840.00        0.200         54.9 
      841.00        0.167         49.8 
      842.00        0.100         47.4 
      843.00        0.133         47.4 
      844.00        0.133         47.4 
      845.00        0.133         46.3 
      846.00        0.100         46.3 
      847.00        0.167         45.5 
      848.00        0.267         44.4 
      849.00        0.233         43.8 
      850.00        0.233         43.0 
      851.00        0.233         40.9 
      852.00        2.117         75.3 
      853.00        0.200         94.4 
      854.00        0.400        159.4 
      855.00        0.333        202.4 
      856.00        0.200        219.2 
      857.00        0.200        210.1 
      858.00        0.100        210.1 
      859.00        0.200        206.3 
      860.00        0.217        179.4 
      861.00        0.233        166.9 
      862.00        0.233        147.8 
      863.00        0.333        110.4 
      864.00        0.200        107.6 
      865.00        0.267         89.3 
      866.00        0.200         73.4 
      867.00        0.200         61.4 
      868.00        0.233         57.2 
      869.00        0.267         52.1 
      870.00        0.233         48.6 
      871.00        0.233         43.1 
      872.00        0.233         42.2 
      873.00        0.233         40.3 
      874.00        0.283         37.8 
      875.00        0.267         35.2 
      876.00        0.200         35.2 
      877.00        0.133         34.6 
      878.00        0.133         32.9 
      879.00        0.300         31.8 
      880.00        0.267         31.5 
      881.00        3.183        121.7 
      882.00        0.233        170.3 
      883.00        0.333        208.8 
      884.00        0.367        210.7 
      885.00        0.233        192.2 
      886.00        0.267        190.0 
      887.00        0.333        168.7 
      888.00        0.267        148.2 
      889.00        0.317        112.1 
      890.00        0.300         99.9 
      891.00        0.267         81.2 
      892.00        0.300         71.6 
      893.00        0.200         55.5 
      894.00        0.167         53.1 
      895.00        0.300         48.7 
      896.00        0.200         43.6 
      897.00        0.133         43.5 
      898.00        0.167         39.1 
      899.00        0.267         37.6 
      900.00        0.200         34.6 
      901.00        0.200         33.5 
      902.00        0.200         31.3 
      903.00        0.217         31.3 
      904.00        0.267         34.3 
      905.00        0.200         33.6 
      906.00        0.200         33.6 
      907.00        0.200         34.0 
      908.00        0.233         33.1 
      909.00        0.233         31.1 
      910.00        0.200         30.8 
      911.00        0.233         30.6 
      912.00        3.083        103.6 
      913.00        0.467        190.1 
      914.00        0.367        218.8 
      915.00        0.300        222.9 
      916.00        0.300        210.5 
      917.00        0.383        192.7 
      918.00        0.333        143.8 
      919.00        0.300        117.4 
      920.00        0.233         98.3 
      921.00        0.267         83.9 
      922.00        0.233         72.3 
      923.00        0.300         63.1 
      924.00        0.267         56.2 
      925.00        0.200         49.8 
      926.00        0.233         45.6 
      927.00        0.233         43.7 
      928.00        0.267         38.3 
      929.00        0.267         33.6 
      930.00        0.350         30.2 
      931.00        0.533         27.2 
      932.00        0.367         23.2 
      933.00        0.367         22.5 
      934.00        0.233         23.4 
      935.00        0.233         25.0 
      936.00        0.233         27.2 
      937.00        0.233         28.9 
      938.00        0.300         30.3 
      939.00        0.200         30.3 
      940.00        0.267         29.7 
      941.00        0.283         28.7 
      942.00        3.033        181.2 
      943.00        0.067        181.2 
      944.00        0.183        188.8 
      945.00        0.133        185.7 
      946.00        0.033        185.7 
      947.00        0.333        174.7 
      948.00        0.267        161.7 
      949.00        0.233        145.1 
      950.00        0.400        133.8 
      951.00        0.200        119.8 
      952.00        0.200        104.5 
      953.00        0.300         76.3 
      954.00        0.167         76.3 
      955.00        0.367         65.3 
      956.00        0.133         56.2 
      957.00        0.133         49.2 
      958.00        0.283         44.6 
      959.00        0.267         43.2 
      960.00        0.267         38.1 
      961.00        0.267         37.0 
      962.00        0.267         36.3 
      963.00        0.333         36.7 
      964.00        0.267         36.9 
      965.00        0.400         38.0 
      966.00        0.267         39.0 
      967.00        0.267         39.0 
      968.00        0.267         38.1 
      969.00        0.267         36.5 
      970.00        0.283         34.3 
      971.00        0.267         32.3 
      972.00        0.800         38.5 
      973.00        0.267         43.5 
      974.00        0.267         46.4 
      975.00        0.267         50.2 
      976.00        0.267         49.4 
      977.00        0.167         49.4 
      978.00        0.267         46.4 
      979.00        0.367         53.6 
      980.00        0.267         63.8 
      981.00        0.283         80.1 
      982.00        0.267         96.9 
      983.00        0.267        124.0 
      984.00        0.233        186.9 
      985.00        0.267        257.9 
      986.00        0.267        297.7 
      987.00        0.267        303.4 
      988.00        0.267        285.8 
      989.00        0.267        266.2 
      990.00        0.267        234.3 
      991.00        0.267        200.9 
      992.00        0.267        171.2 
      993.00        0.283        145.4 
      994.00        0.200        125.0 
      995.00        0.267        109.1 
      996.00        0.267         96.4 
      997.00        0.267         84.6 
      998.00        0.267         75.6 
      999.00        0.267         70.2 
     1000.00        0.267         68.0 
     1001.00        0.267         64.1 
     1002.00        4.383         85.9 
     1003.00        0.283        110.8 
     1004.00        0.267        169.4 
     1005.00        0.233        236.0 
     1006.00        0.267        265.0 
     1007.00        0.267        260.1 
     1008.00        0.267        246.6 
     1009.00        0.267        243.7 
     1010.00        0.267        226.7 
     1011.00        0.267        224.5 
     1012.00        0.267        186.6 
     1013.00        0.333        159.8 
     1014.00       23.750        118.2 
     1015.00      728.800        122.0 
     1016.00        0.267         26.0 
     1017.00        0.283         18.0 
     1018.00        0.133         17.2 
     1019.00        0.267         20.2 
     1020.00        0.267         21.4 
     1021.00        0.267         22.6 
     1022.00        0.267         18.7 
     1023.00        0.267         21.3 
     1024.00        0.233         21.3 
     1025.00        0.267         22.5 
     1026.00        0.167         22.5 
     1027.00        0.267         21.0 
     1028.00        0.267         17.7 
     1029.00        0.267         16.4 
     1030.00        0.483         14.2 
     1031.00        0.267         13.6 
     1032.00        0.400         13.6 
     1033.00        0.400         16.4 
     1034.00        0.233         17.9 
     1035.00        0.233         17.0 
     1036.00        0.200         15.8 
     1037.00        0.167         15.1 
     1038.00        0.167         14.5 
     1039.00        0.233         13.2 
