~Version Information
VERS.                      2.0: CWLS Log ASCII Standard - VERSION 2.0
WRAP.                       NO: One line per depth step
~Well Information Block
STRT.FT               258.0000: 
STOP.FT              1001.0000: 
STEP.FT                 0.2500: 
NULL.                -999.2500: 
COMP.          Pioneer Natural Resources: COMPANY
WELL.          Piggyback 33-25: WELL
FLD.           Purgatoire River: FIELD
LOC.           1600' FSL & 1800' FEL: LOCATION
PROV.                 Colorado: PROVINCE
CNTY.               Las Animas: COUNTRY
SRVC.                Patterson: SERVICE COMPANY
DATE.          Fri Apr 29 14:22:38 2005: LOG DATE
UWI.           05 071 08233 00: UNIQUE WELL ID
~Curve Information Block
DEPT.FT            0 000 00 00: Depth
SN.Ohm-m                      : IEL Short Normal
SP.mV                         : IEL Spontaneous Potential
DIR.Ohm-m                     : IEL Induction Resistivity
GR.GAPI                       : Gamma Ray
~Parameter Information Block
~A  Depth        SN          SP         DIR          GR     
# ...
   928.0000     15.5520     61.3882     13.5556     80.0129
   928.2500     16.0148     61.1753     13.5566     77.4594
   928.5000     16.4536     60.9334     13.6489     75.6079
   928.7500     16.8944     60.6730     13.8323     76.1698
   929.0000     17.3661     60.4021     14.0993     79.1686
   929.2500     17.8203     60.1244     14.4398     81.5460
   929.5000     18.1635     59.8392     14.8406     83.7940
   929.7500     18.3449     59.5454     15.2804     84.0169
   930.0000     18.4096     59.2450     15.7259     83.1761
   930.2500     18.4823     58.9390     16.1342     82.4875
   930.5000     18.7184     58.6179     16.4641     81.6331
   930.7500     19.2014     58.2621     16.6924     80.9750
   931.0000     19.8451     57.8607     16.8258     79.6505
   931.2500     20.4927     57.4329     16.8984     78.8210
   931.5000     21.0562     57.0297     16.9555     78.5376
   931.7500     21.4857     56.7100     17.0338     79.3884
   932.0000     21.7353     56.5103     17.1475     82.2635
   932.2500     21.8014     56.4322     17.2885     84.8515
   932.5000     21.7278     56.4509     17.4357     88.5815
   932.7500     21.5662     56.5308     17.5697     90.2935
   933.0000     21.3260     56.6391     17.6829     91.1904
   933.2500     20.9749     56.7529     17.7782     90.9012
   933.5000     20.5238     56.8593     17.8611     90.0210
   933.7500     20.0608     56.9468     17.9343     89.5653
   934.0000     19.6763     56.9995     18.0002     89.2693
   934.2500     19.4134     56.9970     18.0667     89.1807
   934.5000     19.2769     56.9228     18.1472     88.7871
   934.7500     19.2349     56.7739     18.2539     88.0913
   935.0000     19.2547     56.5624     18.3896     86.1057
   935.2500     19.3860     56.3079     18.5440     84.2671
   935.5000     19.7505     56.0248     18.6985     81.5541
   935.7500     20.3916     55.7172     18.8332     80.2997
   936.0000     21.1885     55.3821     18.9325     79.3322
   936.2500     21.9500     55.0195     18.9872     78.8008
   936.5000     22.5459     54.6425     18.9982     77.2628
   936.7500     22.9541     54.2807     18.9821     75.6307
   937.0000     23.2481     53.9750     18.9731     72.7733
   937.2500     23.5301     53.7630     19.0121     71.0547
   937.5000     23.8317     53.6626     19.1233     69.6300
   937.7500     24.0744     53.6638     19.2966     69.9101
   938.0000     24.1287     53.7363     19.4892     72.4631
   938.2500     23.9075     53.8489     19.6462     75.3714
   938.5000     23.4353     53.9867     19.7267     80.8882
   938.7500     22.8467     54.1502     19.7163     84.9526
   939.0000     22.2864     54.3345     19.6249     90.8917
   939.2500     21.7940     54.5080     19.4761     94.3318
   939.5000     21.3118     54.6153     19.2975     98.5170
   939.7500     20.8020     54.6077     19.1108    100.8369
   940.0000     20.3275     54.4735     18.9273    103.6581
   940.2500     19.9947     54.2411     18.7472    104.7236
   940.5000     19.8459     53.9562     18.5653    104.3917
   940.7500     19.8455     53.6554     18.3818    102.9761
   941.0000     19.9406     53.3546     18.2133    100.2530
   941.2500     20.0916     53.0555     18.0935     98.8384
   941.5000     20.2933     52.7575     18.0614     97.9088
   941.7500     20.5816     52.4657     18.1429     97.9201
   942.0000     20.9815     52.1921     18.3388     98.1833
   942.2500     21.4658     51.9480     18.6249     98.0246
   942.5000     21.9866     51.7301     18.9627     96.5501
   942.7500     22.5113     51.5133     19.3130     94.6261
   943.0000     23.0021     51.2628     19.6439     90.7598
   943.2500     23.4019     50.9578     19.9290     87.8661
   943.5000     23.6939     50.6096     20.1438     83.4208
   943.7500     23.9654     50.2636     20.2745     80.6108
   944.0000     24.3432     49.9830     20.3393     77.1344
   944.2500     24.8521     49.8267     20.4017     75.4372
   944.5000     25.3615     49.8281     20.5496     73.5629
   944.7500     25.6696     49.9844     20.8473     72.6784
   945.0000     25.6635     50.2569     21.2954     72.4781
   945.2500     25.4327     50.5844     21.8230     73.5782
   945.5000     25.2122     50.9054     22.3166     76.9792
   945.7500     25.1665     51.1774     22.6705     79.5675
   946.0000     25.2352     51.3814     22.8263     81.9767
   946.2500     25.2230     51.5111     22.7812     81.9680
   946.5000     24.9973     51.5663     22.5654     80.2254
   946.7500     24.5783     51.5561     22.2194     79.0964
   947.0000     24.1001     51.5033     21.7858     79.1625
   947.2500     23.7039     51.4366     21.3142     80.4533
   947.5000     23.4277     51.3744     20.8575     83.1124
   947.7500     23.1992     51.3148     20.4577     84.7605
   948.0000     22.9294     51.2372     20.1296     87.0096
   948.2500     22.5814     51.1138     19.8589     88.7098
   948.5000     22.1669     50.9256     19.6156     91.8679
   948.7500     21.7249     50.6777     19.3703     94.1210
   949.0000     21.3014     50.4027     19.1068     96.7985
   949.2500     20.9173     50.1455     18.8275     97.7082
   949.5000     20.5606     49.9415     18.5549     97.7597
   949.7500     20.2132     49.8040     18.3255     97.1830
   950.0000     19.8748     49.7273     18.1731     95.7851
   950.2500     19.5740     49.6980     18.1097     94.6326
   950.5000     19.3680     49.7067     18.1192     92.8255
   950.7500     19.3208     49.7520     18.1679     91.7245
   951.0000     19.4652     49.8362     18.2218     90.3653
   951.2500     19.7611     49.9584     18.2548     89.6666
   951.5000     20.0957     50.1123     18.2447     89.0507
   951.7500     20.3521     50.2842     18.1684     89.1309
   952.0000     20.4742     50.4514     18.0067     90.3282
   952.2500     20.4589     50.5821     17.7543     91.7860
   952.5000     20.3215     50.6440     17.4255     94.3065
   952.7500     20.0927     50.6177     17.0477     95.7534
   953.0000     19.7985     50.5080     16.6506     97.2077
   953.2500     19.4307     50.3404     16.2557     97.7867
   953.5000     18.9669     50.1481     15.8734     98.4190
   953.7500     18.4033     49.9594     15.5067     98.7908
   954.0000     17.7638     49.7904     15.1593     99.1899
   954.2500     17.1013     49.6415     14.8399     99.2582
   954.5000     16.4809     49.5002     14.5606     99.1557
   954.7500     15.9506     49.3492     14.3307     99.1744
   955.0000     15.5261     49.1748     14.1519     99.5842
   955.2500     15.2003     48.9706     14.0184     99.9148
   955.5000     14.9651     48.7373     13.9213     99.7617
   955.7500     14.8163     48.4838     13.8518     99.0392
   956.0000     14.7470     48.2266     13.8055     97.6156
   956.2500     14.7646     47.9851     13.7856     97.0592
   956.5000     14.8984     47.7754     13.8022     97.4875
   956.7500     15.1663     47.6093     13.8683     98.5757
   957.0000     15.5353     47.4964     13.9939    100.7382
   957.2500     15.9157     47.4422     14.1805    101.9952
   957.5000     16.2034     47.4425     14.4167    102.9775
   957.7500     16.3480     47.4759     14.6785    103.0257
   958.0000     16.3773     47.5089     14.9340    102.5199
   958.2500     16.3737     47.5165     15.1559    101.9112
   958.5000     16.4327     47.5041     15.3328    100.5990
   958.7500     16.6039     47.5033     15.4725     99.5031
   959.0000     16.8520     47.5430     15.5940     97.7906
   959.2500     17.0963     47.6253     15.7161     96.8236
   959.5000     17.2833     47.7266     15.8489     96.0051
   959.7500     17.4219     47.8160     15.9925     95.9975
   960.0000     17.5711     47.8701     16.1394     96.6762
   960.2500     17.7750     47.8729     16.2798     97.3605
   960.5000     18.0082     47.8111     16.4038     98.3012
   960.7500     18.1993     47.6806     16.5015     98.7074
   961.0000     18.2844     47.4967     16.5598     98.9919
   961.2500     18.2414     47.2852     16.5612     99.1217
