~Version Information
VERS.                      2.0: CWLS Log ASCII Standard - VERSION 2.0
WRAP.                       NO: One line per depth step
~Well Information Block
STRT.FT               671.6000: 
STOP.FT              1890.7000: 
STEP.FT                 0.1000: 
NULL.                -999.2500: 
COMP.          Petrogulf Corporation: COMPANY
WELL.             State 16-14R: WELL
FLD.           Purgatorie River: FIELD
LOC.           598' FSL & 682' FWL: LOCATION
CNTY.               Las Animas: COUNTY
SRVC.                         : SERVICE COMPANY
DATE.          Fri Nov 05 07:21:30 2004: LOG DATE
UWI.           05 071 08034 00: UNIQUE WELL ID
STAT.                 Colorado: STATE
~Curve Information Block
DEPT.FT            0 000 00 00: Depth
DCAL.in                       : CDL Caliper
RHOB.g/cc                     : CDL Bulk Density
RHOC.g/cc                     : CDL Density Correction
DPOR.pu                       : CDL Density Porosity
GR.GAPI                       : Gamma Ray
NPOR.pu                       : Neutron Porosity
~Parameter Information Block
~A  Depth       DCAL        RHOB        RHOC        DPOR         GR         NPOR    
# ...
  1794.8000      7.8747      2.4285     -0.0140     13.4220     75.6855     14.3006
  1794.9000      7.8747      2.4353     -0.0023     13.0140     69.2496     13.7794
  1795.0000      7.8851      2.4490      0.0729     12.1839     61.7382     13.5229
  1795.1000      7.8851      2.4433      0.0601     12.5258     54.4347     13.1312
  1795.2000      7.8851      2.4198     -0.0039     13.9542     48.5813     12.4580
  1795.3000      7.8814      2.4075     -0.0233     14.6964     44.0108     11.7854
  1795.4000      7.8814      2.4177      0.0358     14.0813     41.8332     11.4648
  1795.5000      7.8903      2.4332      0.0574     13.1411     43.2607     11.5774
  1795.6000      7.8903      2.4379      0.0899     12.8567     46.4371     11.6859
  1795.7000      7.8903      2.4369      0.0304     12.9178     48.9551     11.5780
  1795.8000      7.8746      2.4443      0.0618     12.4652     50.9790     11.5622
  1795.9000      7.8746      2.4549      0.0636     11.8218     52.4390     11.7811
  1796.0000      7.8797      2.4542      0.0593     11.8692     51.9057     12.0914
  1796.1000      7.8797      2.4419      0.0301     12.6140     50.2309     12.3832
  1796.2000      7.8797      2.4281      0.0498     13.4492     49.3111     12.6014
  1796.3000      7.8630      2.4210     -0.0194     13.8817     49.9968     12.6528
  1796.4000      7.8630      2.4197      0.0555     13.9597     52.5485     12.3735
  1796.5000      7.8622      2.4162      0.0551     14.1694     55.3607     11.8424
  1796.6000      7.8622      2.4129      0.0735     14.3726     55.7721     11.5344
  1796.7000      7.8622      2.4173      0.0505     14.1056     53.6307     11.4459
  1796.8000      7.8658      2.4195      0.0888     13.9669     52.5119     11.0983
  1796.9000      7.8658      2.4084      0.0470     14.6428     54.5512     10.6749
  1797.0000      7.8763      2.3998      0.0288     15.1657     56.9247     10.5853
  1797.1000      7.8763      2.4083      0.0612     14.6493     55.5588     10.5917
  1797.2000      7.8763      2.4266      0.0003     13.5400     51.1483     10.4142
  1797.3000      7.8500      2.4497      0.0265     12.1372     48.5904     10.2632
  1797.4000      7.8500      2.4718      0.0921     10.8000     46.8647     10.2804
  1797.5000      7.8581      2.4801      0.0642     10.2972     41.8398     10.3279
  1797.6000      7.8581      2.4761      0.0728     10.5401     37.0106     10.3610
  1797.7000      7.8581      2.4731      0.0864     10.7212     36.7825     10.4385
  1797.8000      7.8657      2.4724      0.0638     10.7659     39.3180     10.6044
  1797.9000      7.8657      2.4625      0.0860     11.3628     41.7707     10.7932
  1798.0000      7.8569      2.4467      0.0233     12.3193     43.5598     10.7802
  1798.1000      7.8569      2.4395      0.0494     12.7564     45.7138     10.5388
  1798.2000      7.8569      2.4402      0.0441     12.7142     47.6017     10.2849
  1798.3000      7.8672      2.4398      0.0577     12.7392     47.4030     10.2624
  1798.4000      7.8672      2.4336      0.0465     13.1138     46.3523     10.5316
  1798.5000      7.8933      2.4219      0.0569     13.8231     46.2773     10.8171
  1798.6000      7.8933      2.4066      0.0491     14.7517     47.0606     10.9231
  1798.7000      7.8933      2.3911      0.0399     15.6924     47.5011     11.1214
  1798.8000      7.8838      2.3808      0.0574     16.3130     46.0698     11.5205
  1798.9000      7.8838      2.3832      0.0453     16.1703     42.6882     11.6262
  1799.0000      7.8833      2.4024      0.0322     15.0073     39.3531     11.3167
  1799.1000      7.8833      2.4262      0.0718     13.5657     37.8193     10.9848
  1799.2000      7.8833      2.4376      0.0612     12.8725     36.9579     10.5881
  1799.3000      7.8763      2.4346      0.0818     13.0566     34.0495     10.1752
  1799.4000      7.8763      2.4250      0.0800     13.6372     29.6317     10.0648
  1799.5000      7.8878      2.4189      0.0248     14.0086     27.2627     10.1025
  1799.6000      7.8878      2.4187      0.0672     14.0210     28.2939     10.0466
  1799.7000      7.8878      2.4199      0.0419     13.9428     30.6064      9.9440
  1799.8000      7.9070      2.4219      0.0294     13.8270     30.7710      9.9044
  1799.9000      7.9070      2.4191      0.0516     13.9936     28.1827      9.9187
  1800.0000      7.9022      2.4036      0.0608     14.9307     26.7646      9.9587
  1800.1000      7.9022      2.3793      0.0197     16.4041     29.7461     10.1268
  1800.2000      7.9022      2.3630      0.0271     17.3941     36.7446     10.3919
  1800.3000      7.8921      2.3637      0.0444     17.3493     42.3570     10.5556
  1800.4000      7.8921      2.3753      0.0496     16.6492     42.3305     10.6159
  1800.5000      7.9052      2.3952      0.0491     15.4449     40.2036     10.7930
  1800.6000      7.9052      2.4203      0.0635     13.9216     40.3185     11.2185
  1800.7000      7.9052      2.4382      0.1282     12.8359     43.4104     11.7305
  1800.8000      7.8711      2.4388      0.1413     12.7997     47.6113     12.3218
  1800.9000      7.8711      2.4280      0.1167     13.4533     49.5035     13.2610
  1801.0000      7.8653      2.4265      0.1271     13.5464     49.3946     14.2531
  1801.1000      7.8653      2.4412      0.1424     12.6537     49.7827     14.7460
  1801.2000      7.8653      2.4537      0.1275     11.8991     50.6009     14.9710
  1801.3000      7.8710      2.4492      0.0832     12.1711     51.4782     15.6245
  1801.4000      7.8710      2.4359      0.0744     12.9728     50.5984     16.7550
  1801.5000      7.8629      2.4285      0.0782     13.4270     47.3314     17.7959
  1801.6000      7.8629      2.4374      0.0555     12.8825     46.4799     18.5054
  1801.7000      7.8629      2.4663      0.1112     11.1324     49.9077     18.8437
  1801.8000      7.8769      2.4973      0.1773      9.2547     55.9264     18.7649
  1801.9000      7.8769      2.5119      0.1275      8.3670     62.8642     18.8227
  1802.0000      7.8145      2.5132      0.1233      8.2913     68.8434     19.4222
  1802.1000      7.8145      2.5028      0.2039      8.9182     73.5791     20.0539
  1802.2000      7.8145      2.4786      0.1247     10.3900     77.1125     20.2823
  1802.3000      7.7984      2.4562      0.1351     11.7473     79.4719     20.2143
  1802.4000      7.7984      2.4563      0.0855     11.7419     80.9816     20.2478
  1802.5000      7.7911      2.4857      0.0887      9.9590     81.6684     20.5437
  1802.6000      7.7911      2.5349      0.1538      6.9766     83.2354     20.7577
  1802.7000      7.7911      2.5838      0.1887      4.0120     87.7808     20.5583
  1802.8000      7.7854      2.6139      0.1899      2.1858     93.6441     20.0119
  1802.9000      7.7854      2.6196      0.1409      1.8422     94.9095     19.3799
  1803.0000      7.8352      2.6040      0.1335      2.7863     88.8354     18.7511
  1803.1000      7.8352      2.5710      0.1176      4.7875     80.0032     18.1729
  1803.2000      7.8352      2.5347      0.0367      6.9874     73.3702     17.7678
  1803.3000      7.8372      2.5144      0.0012      8.2182     68.6093     17.7192
  1803.4000      7.8372      2.5133      0.0039      8.2874     63.2355     18.0045
  1803.5000      7.8235      2.5178      0.0441      8.0099     58.8157     18.2272
  1803.6000      7.8235      2.5171      0.0278      8.0516     57.8514     18.2981
  1803.7000      7.8235      2.5150      0.0431      8.1809     59.2202     18.5323
  1803.8000      7.8423      2.5184      0.0883      7.9777     61.6651     18.8636
  1803.9000      7.8423      2.5262      0.0957      7.5046     65.2671     18.9486
  1804.0000      7.8341      2.5296      0.1504      7.2979     70.6944     18.8836
  1804.1000      7.8341      2.5230      0.0417      7.6964     78.7438     19.0648
  1804.2000      7.8341      2.5154      0.0778      8.1562     88.5212     19.4252
  1804.3000      7.8122      2.5110      0.1115      8.4268     96.9263     19.7457
