~Version Information
 VERS.                                  2.0 : CWLS LAS VERSION
 WRAP.                                   NO : WRAPING MODE
 SWARE .                  MController 2.5.1 : SOFTWARE VERSION
~Well Information
 WELL.                 Big Cat Federal 44-1 : WELL
 COMP.  Pioneer Natural Resources USA, Inc. : COMPANY
 FLD.                      Purgatoire River : FIELD
 LOC.               SE/SE Sec.1, T34S, R66W : LOCATION
 DATE.                04/23/2006-04/23/2006 : DATE(S) LOGGED
 SRVC.                  Entrada GeoSciences : SERVICE COMPANY
 STAT.                             Colorado : STATE
 CNTY.                           Las Animas : COUNTY
 CTRY.                        United States : COUNTRY
 API.                          071-08042-00 : API NUMBER
 STRT.FT                             266.00 : START DEPTH
 STOP.FT                            1570.00 : STOP DEPTH
 STEP.FT                               1.00 : DEPTH INCREMENT
 NULL.                                -9999 : NULL VALUE
~Curve information
 DEPTH.FT                                   :
 ROP.MIN/FT                                 :
 GAS.UNITS                                  :
~ASCII Log data
# ...
     1066.00         0.13         25.1 
     1067.00         0.13         24.2 
     1068.00         0.20         24.6 
     1069.00         0.18         24.4 
     1070.00         0.23         25.5 
     1071.00         0.20         25.6 
     1072.00         0.17         24.6 
     1073.00         0.17         24.4 
     1074.00         0.13         24.7 
     1075.00         0.13         25.5 
     1076.00         0.17         24.8 
     1077.00         0.17         25.5 
     1078.00         0.17         23.9 
     1079.00         0.13         25.3 
     1080.00         0.17         24.8 
     1081.00         0.17         24.1 
     1082.00         0.10         23.3 
     1083.00         0.27         14.2 
     1084.00         0.17         29.2 
     1085.00         0.13         29.5 
     1086.00         0.23         35.3 
     1087.00         0.20         41.1 
     1088.00         0.20         48.9 
     1089.00         0.20         54.8 
     1090.00         0.17         63.5 
     1091.00         0.20        100.6 
     1092.00         0.15        125.8 
     1093.00         0.17        130.2 
     1094.00         0.20        105.6 
     1095.00         0.17         83.2 
     1096.00         0.13         69.1 
     1097.00         0.20         53.9 
     1098.00         0.13         46.8 
     1099.00         0.23         37.7 
     1100.00         0.20         32.7 
     1101.00         0.17         29.3 
     1102.00         0.17         28.5 
     1103.00         0.13         26.0 
     1104.00         0.17         24.9 
     1105.00         0.17         23.3 
     1106.00         0.13         23.1 
     1107.00         0.17         22.8 
     1108.00         0.13         21.2 
     1109.00         0.13         20.8 
     1110.00         0.17         19.9 
     1111.00         0.13         20.4 
     1112.00         0.22         18.9 
     1113.00         0.30         15.5 
     1114.00         0.30         15.3 
     1115.00         0.20         15.4 
     1116.00         0.20         15.1 
     1117.00         0.17         15.6 
     1118.00         0.22         15.6 
     1119.00         0.17         16.4 
     1120.00         0.17         15.7 
     1121.00         0.10         17.0 
     1122.00         0.13         16.8 
     1123.00         0.13         15.8 
     1124.00         0.13         15.9 
     1125.00         0.20         17.6 
     1126.00         0.17         17.1 
     1127.00         0.17         17.8 
     1128.00         0.20         19.6 
     1129.00         0.17         20.3 
     1130.00         0.17         23.6 
     1131.00         0.20         24.1 
     1132.00         0.17         24.0 
     1133.00         0.20         25.8 
     1134.00         0.13         24.6 
     1135.00         0.17         23.8 
     1136.00         0.17         24.5 
     1137.00         0.13         23.8 
     1138.00         0.22         21.6 
     1139.00         0.17         22.1 
     1140.00         0.13         20.0 
     1141.00         0.20         19.4 
     1142.00         0.27         19.2 
     1143.00         0.40         15.1 
     1144.00         0.27         16.3 
     1145.00         0.30         15.0 
     1146.00         0.23         14.8 
     1147.00         0.22         14.9 
     1148.00         0.20         16.3 
     1149.00         0.17         15.1 
     1150.00         0.17         15.9 
     1151.00         0.17         16.6 
     1152.00         0.20         15.8 
     1153.00         0.20         15.9 
     1154.00         0.17         16.7 
     1155.00         0.20         17.2 
     1156.00         0.20         16.4 
     1157.00         0.17         16.9 
     1158.00         0.13         18.0 
     1159.00         0.13         19.4 
     1160.00         0.13         19.7 
     1161.00         0.10         20.5 
     1162.00         0.20         23.6 
     1163.00         0.27         27.7 
     1164.00         0.17         27.4 
     1165.00         0.13         25.6 
     1166.00         0.18         25.4 
     1167.00         0.17         24.4 
     1168.00         0.17         22.0 
     1169.00         0.23         21.3 
     1170.00         0.17         19.6 
     1171.00         0.17         18.8 
     1172.00         0.27         18.0 
     1173.00         0.37        -12.1 
     1174.00         0.20        207.1 
     1175.00         0.20        213.1 
     1176.00         0.17        210.8 
     1177.00         0.20        204.2 
     1178.00         0.22        194.1 
     1179.00         0.17        186.7 
     1180.00         0.20        177.7 
     1181.00         0.17        170.1 
     1182.00         0.20        163.5 
     1183.00         0.17        158.3 
     1184.00         0.20        151.5 
     1185.00         0.20        142.2 
     1186.00         0.17        136.5 
     1187.00         0.27        131.2 
     1188.00         0.27        127.7 
     1189.00         0.27        136.7 
     1190.00         0.27        122.7 
     1191.00         0.30        110.1 
     1192.00         0.27        103.8 
     1193.00         0.35        100.5 
     1194.00         0.27         99.3 
     1195.00         0.20         98.1 
     1196.00         0.17         97.3 
     1197.00         0.27         95.9 
     1198.00         0.17         95.4 
     1199.00         0.27         95.2 
     1200.00         0.23         94.5 
     1201.00         0.37         90.5 
     1202.00         0.27         87.1 
     1203.00         0.27         83.1 
     1204.00         0.27         78.7 
     1205.00         0.23         74.8 
     1206.00         0.20         73.2 
     1207.00         0.25         75.1 
     1208.00         0.23         81.1 
     1209.00         0.20         92.2 
     1210.00         0.20        119.9 
     1211.00         0.20        159.3 
     1212.00         0.23        209.8 
     1213.00         0.23        256.2 
     1214.00         0.20        290.6 
     1215.00         0.20        317.2 
     1216.00         0.17        326.9 
     1217.00         0.20        329.8 
     1218.00         0.17        326.7 
     1219.00         0.17        316.5 
     1220.00         0.23        294.8 
     1221.00         0.17        275.7 
     1222.00         0.20        251.3 
     1223.00         0.18        232.4 
     1224.00         0.20        211.6 
     1225.00         0.17        197.9 
     1226.00         0.17        186.2 
     1227.00         0.20        173.2 
     1228.00         0.23        161.7 
     1229.00         0.23        150.9 
     1230.00         0.27        157.0 
     1231.00         0.33        135.8 
     1232.00         0.40        115.0 
     1233.00         0.47        127.1 
     1234.00         0.43        113.7 
     1235.00         0.43        105.5 
     1236.00         0.37        101.5 
     1237.00         0.33         97.6 
     1238.00         0.38         94.6 
     1239.00         0.33         93.1 
     1240.00         0.37         92.0 
     1241.00         0.33         90.8 
     1242.00         0.33         90.8 
     1243.00         0.33         96.3 
     1244.00         0.33        107.3 
     1245.00         0.30        118.1 
     1246.00         0.37        128.3 
     1247.00         0.35        133.4 
     1248.00         0.33        135.6 
     1249.00         0.33        134.2 
     1250.00         0.33        130.8 
     1251.00         0.33        126.2 
     1252.00         0.37        120.3 
     1253.00         0.33        115.1 
     1254.00         0.40        109.9 
     1255.00         0.37        106.0 
     1256.00         0.40        103.3 
     1257.00         0.38        100.9 
     1258.00         0.40         97.7 
     1259.00         0.37         94.6 
     1260.00         0.43         91.2 
     1261.00         0.27         89.4 
     1262.00         0.27         92.6 
     1263.00         0.50         79.7 
     1264.00         0.47         77.7 
     1265.00         0.60         75.8 
