~Version Information
 VERS.                                  2.0 : CWLS LAS VERSION
 WRAP.                                   NO : WRAPING MODE
 SWARE .                 MController 2.5.0J : SOFTWARE VERSION
~Well Information
 WELL.                          GETEM 21-21 : WELL
 COMP.    PIONEER NATURAL RESOURCES USA INC : COMPANY
 FLD.                      PURGATOIRE RIVER : FIELD
 LOC.                NE/NW SEC 23 T32S R67W : LOCATION
 DATE.                             06/18/05 : DATE(S) LOGGED
 SRVC.       BLANCO GEOLOGICAL SERVICES LLC : SERVICE COMPANY
 STAT.                             COLORADO : STATE
 CNTY.                           LAS ANIMAS : COUNTY
 CTRY.                                  USA : COUNTRY
 API.                       05-071-08411-00 : API NUMBER
 STRT.FT                             321.00 : START DEPTH
 STOP.FT                            2815.00 : STOP DEPTH
 STEP.FT                               1.00 : DEPTH INCREMENT
 NULL.                                -9999 : NULL VALUE
~Curve information
 DEPTH.FT                                   :
 ROP.MIN/FT                                 :
 GAS.UNITS                                  :
~ASCII Log data
# ...
      2321.0         0.30        638.4 
      2322.0         0.27        643.0 
      2323.0         0.35        643.3 
      2324.0         0.27        639.1 
      2325.0         0.27        640.4 
      2326.0         0.20        641.7 
      2327.0         0.20        637.8 
      2328.0         0.20        635.5 
      2329.0         0.27        638.4 
      2330.0         0.20        636.8 
      2331.0         0.17        645.0 
      2332.0         0.17        641.4 
      2333.0         0.17        664.3 
      2334.0         0.17        677.0 
      2335.0         0.40        721.2 
      2336.0         4.67        961.3 
      2337.0         0.27       1046.4 
      2338.0         0.20       1122.9 
      2339.0         0.27       1203.1 
      2340.0         0.30       1122.6 
      2341.0         0.27        977.3 
      2342.0         0.30        984.9 
      2343.0         0.17        964.9 
      2344.0         0.23        985.2 
      2345.0         0.20        987.5 
      2346.0         0.48        931.9 
      2347.0         0.47        814.8 
      2348.0         0.53        794.8 
      2349.0         0.40        764.0 
      2350.0         0.40        761.1 
      2351.0         0.43        763.7 
      2352.0         0.40        756.2 
      2353.0         0.30        755.9 
      2354.0         0.30        737.9 
      2355.0         0.32        737.5 
      2356.0         0.30        717.6 
      2357.0         0.33        711.4 
      2358.0         0.33        693.7 
      2359.0         0.33        677.0 
      2360.0         0.33        671.5 
      2361.0         0.30        673.4 
      2362.0         0.23        665.9 
      2363.0         0.27        664.3 
      2364.0         0.27        663.6 
      2365.0         0.30        665.2 
      2366.0         5.77       1220.4 
      2367.0         0.37        992.7 
      2368.0         0.37        844.5 
      2369.0         0.45        765.0 
      2370.0         0.30        773.5 
      2371.0         0.30        795.8 
      2372.0         0.43        860.9 
      2373.0         0.47        849.1 
      2374.0         0.40        807.9 
      2375.0         0.40        771.2 
      2376.0         0.40        739.2 
      2377.0         0.33        702.2 
      2378.0         0.32        687.2 
      2379.0         0.37        671.5 
      2380.0         0.33        663.6 
      2381.0         0.30        635.8 
      2382.0         0.33        615.5 
      2383.0         0.37        610.9 
      2384.0         0.33        625.7 
      2385.0         0.33        629.6 
      2386.0         0.37        624.4 
      2387.0         0.48        644.6 
      2388.0         0.40        648.6 
      2389.0         0.37        701.2 
      2390.0         0.37        740.2 
      2391.0         0.43        723.5 
      2392.0         0.40        754.9 
      2393.0         0.40        754.6 
      2394.0         0.40        744.7 
      2395.0         0.40        743.1 
      2396.0         6.40       1473.3 
      2397.0         0.37       1171.3 
      2398.0         0.38        918.5 
      2399.0         0.33        800.0 
      2400.0         0.33        761.1 
      2401.0         0.27        771.2 
      2402.0         0.30        805.6 
      2403.0         0.33        832.1 
      2404.0         0.33        820.3 
      2405.0         0.33        813.1 
      2406.0         0.43        746.1 
      2407.0         0.38        716.9 
      2408.0         0.40        720.2 
      2409.0         0.40        734.0 
      2410.0         0.40        740.5 
      2411.0         0.43        719.6 
      2412.0         0.40        684.9 
      2413.0         0.37        661.3 
      2414.0         0.37        639.4 
      2415.0         0.30        635.8 
      2416.0         0.32        624.0 
      2417.0         0.37        624.4 
      2418.0         0.33        604.1 
      2419.0         0.30        580.8 
      2420.0         0.37        587.7 
      2421.0         0.33        600.8 
      2422.0         0.40        634.8 
      2423.0         0.33        658.4 
      2424.0         0.50        660.3 
      2425.0         0.38        626.6 
      2426.0         8.73       1505.0 
      2427.0         0.23       1287.8 
      2428.0         0.40       1039.5 
      2429.0         0.37        941.7 
      2430.0         0.55        904.4 
      2431.0         0.70        816.4 
      2432.0         0.57        743.4 
      2433.0         0.53        707.5 
      2434.0         0.33        658.7 
      2435.0         0.40        680.6 
      2436.0         0.58        706.8 
      2437.0         0.37        666.2 
      2438.0         0.47        655.4 
      2439.0         0.43        673.8 
      2440.0         0.40        660.7 
      2441.0         0.30        645.6 
      2442.0         0.37        644.6 
      2443.0         0.43        624.7 
      2444.0         0.42        618.5 
      2445.0         0.40        614.5 
      2446.0         0.47        608.0 
      2447.0         0.57        607.3 
      2448.0         0.50        594.3 
      2449.0         0.43        597.5 
      2450.0         0.40        594.6 
      2451.0         0.37        597.2 
      2452.0         0.42        592.3 
      2453.0         0.43        600.5 
      2454.0         0.37        591.0 
      2455.0         0.27        589.7 
      2456.0         5.67       1072.2 
      2457.0         0.63        897.2 
      2458.0         0.47        892.3 
      2459.0         0.57        829.5 
      2460.0         0.63        741.8 
      2461.0         0.60        687.5 
      2462.0         0.48        679.3 
      2463.0         0.47        691.1 
      2464.0         0.57        690.8 
      2465.0         0.53        668.8 
      2466.0         0.53        638.8 
      2467.0         0.60        604.1 
      2468.0         0.48        608.0 
      2469.0         0.27        600.1 
      2470.0         0.33        547.5 
      2471.0         0.37        589.7 
      2472.0         0.33        587.4 
      2473.0         0.30        595.2 
      2474.0         0.33        597.2 
      2475.0         0.50        594.6 
      2476.0         0.33        591.3 
      2477.0         0.37        594.6 
      2478.0         0.48        594.3 
      2479.0         0.57        596.9 
      2480.0         0.47        590.7 
      2481.0         0.50        594.9 
      2482.0         0.43        589.0 
      2483.0         0.40        584.4 
      2484.0         0.30        582.8 
      2485.0         0.25        583.5 
      2486.0         5.22       1078.8 
      2487.0         0.53       1019.2 
      2488.0         0.53        825.2 
      2489.0         0.52        796.1 
      2490.0         0.43        816.4 
      2491.0         0.53        776.5 
      2492.0         0.53        726.1 
      2493.0         0.47        693.7 
      2494.0         0.43        696.7 
      2495.0         0.37        698.0 
      2496.0         0.43        708.4 
      2497.0         0.38        700.3 
      2498.0         0.33        687.8 
      2499.0         0.33        672.1 
      2500.0         0.50        655.8 
      2501.0         0.53        625.3 
      2502.0         0.40        610.6 
      2503.0         0.60        607.3 
      2504.0         0.65        611.9 
      2505.0         0.77        557.6 
      2506.0         0.77        573.6 
      2507.0         0.53        561.9 
      2508.0         0.43        560.2 
      2509.0         0.47        551.7 
      2510.0         0.55        552.1 
      2511.0         0.40        550.1 
      2512.0         0.43        548.5 
      2513.0         0.43        565.1 
      2514.0         0.43        562.9 
      2515.0         0.37        561.5 
      2516.0         4.70        945.9 
      2517.0         0.23       1010.4 
      2518.0         0.30       1321.8 
      2519.0         0.33       1502.1 
      2520.0         0.33       1260.7 
