~Version Information
VERS.                      2.0: CWLS Log ASCII Standard - VERSION 2.0
WRAP.                       NO: One line per depth step
~Well Information Block
STRT.FT                -4.7500: 
STOP.FT              2809.5000: 
STEP.FT                 0.2500: 
NULL.                -999.2500: 
COMP.          Pioneer Natural Resources: COMPANY
WELL.              Lynch 43-30: WELL
FLD.           Purgatorie River: FIELD
LOC.           1438' FSL & 429' FEL--: LOCATION
PROV.                       CO: PROVINCE
CNTY.               Las Animas: COUNTRY
SRVC.                         : SERVICE COMPANY
DATE.          Sat Oct 30 09:52:34 2004: LOG DATE
UWI.          005 071 08170   : UNIQUE WELL ID
~Curve Information Block
DEPT.FT            0 000 00 00: Depth
GR.GAPI                       : Gamma Ray
CCL.                          : Casing Collar Locator
TT3.usec                      : CBL 3' Travel Time
AMP3.mV                       : CBL 3' Amplitude
~Parameter Information Block
~A  Depth        GR         CCL         TT3         AMP3    
# ...
   732.2500     43.0232      0.0000    853.4800      5.9447
   732.5000     45.0954      0.0000    866.9081      5.7666
   732.7500     49.9860      0.0000    871.0573      5.6038
   733.0000     56.5283      0.0000    862.5727      5.4468
   733.2500     62.3306      0.0000    845.8047      5.3553
   733.5000     65.2384      0.0000    830.4270      5.3721
   733.7500     64.6474      0.0000    824.9513      5.4565
   734.0000     61.6770      2.0000    831.4267      5.5272
   734.2500     58.1319      0.0000    844.9479      5.5344
   734.5000     55.1633      0.0000    857.6163      5.4780
   734.7500     52.7428      0.0000    863.8994      5.3935
   735.0000     50.3230      0.0000    863.5607      5.3421
   735.2500     47.9578      0.0000    860.3108      5.3850
   735.5000     46.7054      0.0000    858.3630      5.5479
   735.7500     47.9180      0.0000    859.9407      5.8205
   736.0000     52.3248      0.0000    864.3057      6.1797
   736.2500     59.9980      0.0000    867.8268      6.5837
   736.5000     70.9533      0.0000    865.4410      6.9580
   736.7500     85.0896      0.0000    853.7597      7.2328
   737.0000    101.2793      0.0000    834.1086      7.3960
   737.2500    116.9150      0.0000    812.2175      7.4890
   737.5000    129.0285      0.0000    794.1311      7.5596
   737.7500    136.2796      0.0000    782.4636      7.6280
   738.0000    139.9924      0.0000    776.3123      7.6907
   738.2500    143.2302      0.0000    773.5573      7.7417
   738.5000    148.5643      0.0000    772.5634      7.7855
   738.7500    156.1610      0.0000    772.4293      7.8328
   739.0000    163.3593      0.0000    772.6686      7.8912
   739.2500    166.1133      0.0000    772.9630      7.9668
   739.5000    161.8678      0.0000    773.0806      8.0669
   739.7500    151.8479      0.0000    772.8712      8.1978
   740.0000    140.3663      0.0000    772.2957      8.3618
   740.2500    131.8338      0.0000    771.4447      8.5560
   740.5000    128.6115      0.0000    770.5013      8.7653
   740.7500    130.7878      0.0000    769.6702      8.9554
   741.0000    136.5549      0.0000    769.1097      9.0818
   741.2500    142.7914      0.0000    768.8817      9.1161
   741.5000    146.5048      0.0000    768.9383      9.0678
   741.7500    146.3644      0.0000    769.1537      8.9832
   742.0000    142.8865      0.0000    769.3753      8.9207
   742.2500    137.4704      0.0000    769.4777      8.9206
   742.5000    131.5381      0.0000    769.4076      8.9899
   742.7500    126.1187      0.0000    769.1978      9.1067
   743.0000    121.5503      0.0000    768.9316      9.2353
   743.2500    117.6859      0.0000    768.6818      9.3390
   743.5000    114.7248      0.0000    768.4670      9.3882
   743.7500    113.6293      0.0000    768.2511      9.3713
   744.0000    115.4684      0.0000    767.9706      9.3098
   744.2500    120.4072      0.0000    767.5689      9.2590
   744.5000    127.1212      0.0000    767.0261      9.2760
   744.7500    133.0256      0.0000    766.3826      9.3763
   745.0000    135.6151      0.0000    765.7388      9.5233
   745.2500    134.2478      0.0000    765.2145      9.6614
   745.5000    130.6612      0.0000    764.8940      9.7544
   745.7500    127.5249      0.0000    764.8027      9.7929
   746.0000    126.4248      0.0000    764.9268      9.7781
   746.2500    127.2684      0.0000    765.2423      9.7063
   746.5000    129.1793      0.0000    765.7198      9.5729
   746.7500    131.3296      0.0000    766.3087      9.3887
   747.0000    133.0405      0.0000    766.9311      9.1899
   747.2500    133.9323      0.0000    767.5001      9.0310
   747.5000    134.2899      0.0000    767.9520      8.9577
   747.7500    134.9147      0.0000    768.2687      8.9798
   748.0000    136.4751      0.0000    768.4753      9.0704
   748.2500    139.0401      0.0000    768.6126      9.1928
   748.5000    142.0017      0.0000    768.7064      9.3229
   748.7500    144.4319      0.0000    768.7526      9.4485
   749.0000    145.8858      0.0000    768.7281      9.5626
   749.2500    147.0581      0.0000    768.6180      9.6660
   749.5000    149.4238      0.0000    768.4382      9.7708
   749.7500    153.7082      0.0000    768.2377      9.8942
   750.0000    158.5244      0.0000    768.0602     10.0494
   750.2500    160.9857      0.0000    767.8973     10.2369
   750.5000    158.9046      0.0000    767.7030     10.4380
   750.7500    152.1449      0.0000    767.4790     10.6161
   751.0000    142.1896      0.0000    767.2997     10.7314
   751.2500    131.4444      0.0000    767.2154     10.7633
   751.5000    122.9722      0.0000    767.1734     10.7237
   751.7500    119.5704      0.0000    767.0853     10.6491
   752.0000    122.0376      0.0000    766.9415     10.5765
   752.2500    128.3846      0.0000    766.8177     10.5199
   752.5000    135.2343      0.0000    766.7933     10.4661
   752.7500    140.2698      0.0000    766.8964     10.3921
   753.0000    143.2399      0.0000    767.1023     10.2877
   753.2500    144.7309      0.0000    767.3660     10.1619
   753.5000    144.5657      0.0000    767.6611     10.0261
   753.7500    141.8938      0.0000    767.9888      9.8739
   754.0000    136.6694      0.0000    768.3376      9.6821
   754.2500    130.4411      0.0000    768.6617      9.4378
   754.5000    125.5112      0.0000    768.9204      9.1615
   754.7500    123.3679      0.0000    769.1216      8.8975
   755.0000    123.7464      0.0000    769.2907      8.6813
   755.2500    125.0351      0.0000    769.3997      8.5184
   755.5000    125.6748      0.0000    769.3849      8.3966
   755.7500    125.3897      0.0000    769.3231      8.3097
   756.0000    125.1018      0.0000    769.6835      8.2621
   756.2500    125.5331      0.0000    771.3638      8.2579
   756.5000    126.1131      0.0000    775.1627      8.2968
   756.7500    125.7326      0.0000    780.7805      8.3774
   757.0000    124.3419      0.0000    786.2718      8.4859
   757.2500    123.0367      0.0000    788.9651      8.5781
   757.5000    122.5554      0.0000    787.4513      8.5937
   757.7500    122.3472      0.0000    782.7780      8.5061
   758.0000    121.2667      0.0000    777.6541      8.3549
   758.2500    118.8202      0.0000    774.4944      8.2211
   758.5000    115.5973      0.0000    773.9659      8.1716
   758.7500    112.6932      0.0000    774.8764      8.2208
   759.0000    111.0211      0.0000    775.2953      8.3314
   759.2500    111.1440      0.0000    774.1254      8.4436
   759.5000    113.2885      0.0000    771.8887      8.5115
   759.7500    117.1207      0.0000    770.1528      8.5305
   760.0000    121.5955      0.0000    770.5439      8.5297
   760.2500    125.4412      0.0000    774.2496      8.5353
   760.5000    127.9806      0.0000    781.5999      8.5437
   760.7500    129.4644      0.0000    791.3170      8.5289
   761.0000    130.7557      0.0000    800.4764      8.4650
   761.2500    132.7286      0.0000    806.0485      8.3439
   761.5000    135.7158      0.0000    806.7073      8.1878
   761.7500    139.4390      0.0000    803.1605      8.0473
   762.0000    143.6571      0.0000    797.2785      7.9685
   762.2500    148.5524      0.0000    791.0889      7.9523
   762.5000    153.9030      0.0000    785.8718      7.9506
   762.7500    158.1317      0.0000    781.7274      7.9073
   763.0000    158.9937      0.0000    778.1990      7.7995
   763.2500    155.3919      0.0000    775.2158      7.6483
   763.5000    148.3881      0.0000    773.1400      7.5015
   763.7500    140.7036      0.0000    772.2078      7.4045
   764.0000    135.3435      0.0000    772.3625      7.3721
   764.2500    134.0467      0.0000    773.5426      7.3805
   764.5000    136.3238      0.0000    775.8412      7.3937
   764.7500    139.9439      0.0000    779.2820      7.3961
   765.0000    142.4876      0.0000    783.4551      7.3947
   765.2500    142.6120      0.0000    787.5659      7.3962
   765.5000    140.5566      0.0000    791.0667      7.3943
