~Version Information
VERS.                      2.0: CWLS Log ASCII Standard - VERSION 2.0
WRAP.                       NO: One line per depth step
~Well Information Block
STRT.FT               260.0000: 
STOP.FT              2269.5000: 
STEP.FT                 0.1000: 
NULL.                -999.2500: 
COMP.          Pioneer Natural Resources: COMPANY
WELL.            Moo Moo 31-36: WELL
FLD.           Purgatoire River: FIELD
LOC.           612' FNL & 2326' FEL: LOCATION
PROV.                 Colorado: PROVINCE
CNTY.               Las Animas: COUNTRY
SRVC.                Patterson: SERVICE COMPANY
DATE.          Fri Jun 17 07:04:43 2005: LOG DATE
UWI.           05 071 08395 00: UNIQUE WELL ID
~Curve Information Block
DEPT.FT            0 000 00 00: Depth
DCAL.in                       : CDL Caliper
RHOB.g/cc                     : CDL Bulk Density
RHOC.g/cc                     : CDL Density Correction
DPOR.pu                       : CDL Density Porosity
GR.GAPI                       : Gamma Ray
NPOR.pu                       : Neutron Porosity
~Parameter Information Block
~A  Depth       DCAL        RHOB        RHOC        DPOR         GR         NPOR    
# ...
  1728.8000      8.5452      1.8618      0.1558     47.7690     98.3134     32.6056
  1728.9000      8.5452      2.0020      0.2047     39.2718    108.5494     32.8611
  1729.0000      8.6103      2.1284      0.2538     31.6131    115.7287     32.4191
  1729.1000      8.6103      2.2168      0.2303     26.2571    119.9434     31.6524
  1729.2000      8.6103      2.2831      0.1633     22.2347    124.2448     31.0383
  1729.3000      8.5547      2.3503      0.1637     18.1638    131.9808     30.6155
  1729.4000      8.5547      2.4133      0.1471     14.3453    139.2928     30.2347
  1729.5000      8.3013      2.4610      0.1398     11.4567    143.5384     29.7372
  1729.6000      8.3013      2.4977      0.0836      9.2283    150.2734     29.5096
  1729.7000      8.3013      2.5247      0.1231      7.5962    159.6710     29.8143
  1729.8000      8.2650      2.5325      0.1108      7.1182    164.2297     29.7884
  1729.9000      8.2650      2.5231      0.0707      7.6922    161.3599     28.8048
  1730.0000      8.2488      2.5070      0.0814      8.6670    155.9394     27.7570
  1730.1000      8.2488      2.4981      0.0326      9.2054    154.2910     27.6237
  1730.2000      8.2488      2.5148      0.0510      8.1954    155.7287     28.2851
  1730.3000      8.2484      2.5504      0.0733      6.0366    153.2558     28.8164
  1730.4000      8.2484      2.5673      0.1207      5.0135    147.6205     28.5191
  1730.5000      8.2642      2.5531      0.0815      5.8751    144.0899     27.8563
  1730.6000      8.2642      2.5294      0.0744      7.3111    143.7054     27.4990
  1730.7000      8.2642      2.5092      0.0525      8.5354    143.3037     27.4385
  1730.8000      8.2579      2.4991      0.0294      9.1482    140.4558     27.6186
  1730.9000      8.2579      2.5019      0.0732      8.9772    138.9162     27.8878
  1731.0000      8.2389      2.5062      0.1031      8.7167    140.6613     28.0016
  1731.1000      8.2389      2.5141      0.0553      8.2380    145.8154     27.9302
  1731.2000      8.2389      2.5447      0.0807      6.3841    154.0426     27.9030
  1731.3000      8.3376      2.5929      0.2085      3.4582    159.4907     27.8657
  1731.4000      8.3376      2.6328      0.2364      1.0432    158.8837     27.6568
  1731.5000      8.3935      2.6457      0.2165      0.2605    154.8807     27.5493
  1731.6000      8.3935      2.6238      0.1262      1.5887    150.8094     27.4180
  1731.7000      8.3935      2.5867      0.0273      3.8356    150.0210     26.5047
  1731.8000      8.3093      2.5708      0.0290      4.7985    150.2263     25.2498
  1731.9000      8.3093      2.5830      0.0133      4.0609    144.2942     24.7749
  1732.0000      8.1973      2.6038      0.0710      2.8005    132.7546     24.8683
  1732.1000      8.1973      2.6166      0.0581      2.0229    122.3890     24.7895
  1732.2000      8.1973      2.6168      0.0441      2.0128    116.5851     24.4535
  1732.3000      8.1983      2.5984      0.0949      3.1294    115.7592     24.2528
  1732.4000      8.1983      2.5545      0.0529      5.7855    119.1259     24.6256
  1732.5000      8.1943      2.5035     -0.0345      8.8787    123.6631     25.6218
  1732.6000      8.1943      2.4806     -0.1076     10.2692    127.5119     26.5174
  1732.7000      8.1943      2.4907      0.0136      9.6526    130.4326     26.4842
  1732.8000      8.1954      2.5057     -0.0110      8.7454    129.0857     26.0041
  1732.9000      8.1954      2.5164      0.0364      8.0942    122.1092     26.0871
  1733.0000      8.1896      2.5354      0.0311      6.9473    115.5013     26.5262
  1733.1000      8.1896      2.5647      0.0287      5.1713    115.0352     26.5460
  1733.2000      8.1896      2.6036      0.0133      2.8114    118.8150     25.9186
  1733.3000      8.1866      2.6306      0.0977      1.1755    120.8153     24.9203
  1733.4000      8.1866      2.6083      0.0658      2.5246    119.8264     24.2483
  1733.5000      8.2005      2.5567     -0.0021      5.6516    119.7135     24.5462
  1733.6000      8.2005      2.5244      0.0206      7.6146    118.4883     25.4267
  1733.7000      8.2005      2.5121      0.0142      8.3573    113.3155     26.1361
  1733.8000      8.2061      2.5000      0.0101      9.0917    111.4521     26.3484
  1733.9000      8.2061      2.4925     -0.0174      9.5452    115.4973     25.9507
  1734.0000      8.2057      2.4960      0.0552      9.3329    117.5244     25.0712
  1734.1000      8.2057      2.5031     -0.0087      8.9026    115.6703     24.2887
  1734.2000      8.2057      2.5046      0.0273      8.8117    112.9603     23.9732
  1734.3000      8.1762      2.4934      0.0350      9.4922    109.9979     23.8882
  1734.4000      8.1762      2.4837     -0.0105     10.0787    109.8525     23.8312
  1734.5000      8.1785      2.4929      0.0639      9.5215    113.2396     23.6686
  1734.6000      8.1785      2.5134      0.0247      8.2769    114.5010     23.5590
  1734.7000      8.1785      2.5284      0.0360      7.3713    113.8134     23.7578
  1734.8000      8.1711      2.5272      0.0851      7.4397    115.1321     23.8868
  1734.9000      8.1711      2.5214      0.0226      7.7960    115.7982     23.6766
  1735.0000      8.1637      2.5239      0.0667      7.6443    113.5583     23.2587
  1735.1000      8.1637      2.5169      0.0616      8.0679    114.5734     22.9368
  1735.2000      8.1637      2.4880      0.0083      9.8154    121.0575     23.2120
  1735.3000      8.1650      2.4529     -0.0446     11.9465    126.5512     24.2671
  1735.4000      8.1650      2.4242      0.0006     13.6820    129.8286     25.6221
  1735.5000      8.1664      2.4018     -0.0222     15.0422    134.9117     26.6152
  1735.6000      8.1664      2.3945     -0.0468     15.4873    141.0136     27.0324
  1735.7000      8.1664      2.4079      0.0353     14.6758    146.5817     27.0665
  1735.8000      8.1625      2.4243      0.0447     13.6784    154.1625     26.7628
  1735.9000      8.1625      2.4285      0.0670     13.4235    160.3015     26.1216
  1736.0000      8.1748      2.4240      0.0294     13.6970    159.5503     25.4467
  1736.1000      8.1748      2.4329      0.0566     13.1562    156.7152     24.7718
  1736.2000      8.1748      2.4667      0.1105     11.1110    155.6106     24.4379
  1736.3000      8.2095      2.5018      0.1543      8.9814    152.7047     24.8941
  1736.4000      8.2095      2.5165      0.1318      8.0891    147.9997     25.4592
  1736.5000      8.1713      2.5313      0.1250      7.1940    144.3296     25.2237
  1736.6000      8.1713      2.5800      0.1535      4.2435    144.1245     24.5262
  1736.7000      8.1713      2.6540      0.2775     -0.2402    144.0249     24.2871
  1736.8000      8.2054      2.7132      0.3224     -3.8320    141.2385     24.8233
  1736.9000      8.2054      2.7345      0.3399     -5.1218    141.3523     25.6764
  1737.0000      8.2172      2.7154      0.2967     -3.9656    142.9588     26.0608
  1737.1000      8.2172      2.6750      0.1472     -1.5180    138.3340     26.2331
  1737.2000      8.2172      2.6431      0.0562      0.4172    130.2551     26.7300
  1737.3000      8.2748      2.6262      0.0790      1.4423    126.6511     27.0781
  1737.4000      8.2748      2.6264      0.0361      1.4328    128.1777     27.2285
  1737.5000      8.1696      2.6465      0.0889      0.2131    128.6245     27.6317
  1737.6000      8.1696      2.6613      0.0836     -0.6842    124.3604     27.5828
  1737.7000      8.1696      2.6469      0.1084      0.1879    116.3920     26.1344
  1737.8000      8.1524      2.6130      0.0354      2.2401    107.9013     24.3139
  1737.9000      8.1524      2.5908      0.0436      3.5864    102.1494     23.5413
  1738.0000      8.1461      2.5953      0.0134      3.3144     98.0138     23.3365
  1738.1000      8.1461      2.6135      0.0082      2.2096     94.5731     23.2602
  1738.2000      8.1461      2.6253      0.0727      1.4951     95.8233     23.6903
  1738.3000      8.1162      2.6286      0.0034      1.2957     94.3942     24.3982
