~Version Information
 VERS.                                  2.0 : CWLS LAS VERSION
 WRAP.                                   NO : WRAPING MODE
 SWARE .                 MController 2.5.0I : SOFTWARE VERSION
~Well Information
 WELL.                        Montoya 7-21v : WELL
 COMP.                       Petrogulf Corp : COMPANY
 FLD.                      Purgatorie River : FIELD
 LOC.                 NE/NW Sec 7 T33S R67W : LOCATION
 DATE.                                  N/A : DATE(S) LOGGED
 SRVC.       Blanco Geological Services LLC : SERVICE COMPANY
 STAT.                                   CO : STATE
 CNTY.                           Las Animas : COUNTY
 CTRY.                                  USA : COUNTRY
 API.                       05-071-08018-00 : API NUMBER
 STRT.FT                             836.00 : START DEPTH
 STOP.FT                            2421.00 : STOP DEPTH
 STEP.FT                               1.00 : DEPTH INCREMENT
 NULL.                                -9999 : NULL VALUE
~Curve information
 DEPTH.FT                                   :
 ROP.MIN/FT                                 :
 GAS.UNITS                                  :
~ASCII Log data
# ...
      2036.0          0.2         43.7 
      2037.0          0.9         38.0 
      2038.0          0.6         28.7 
      2039.0          4.3         93.3 
      2040.0          0.6         28.5 
      2041.0          0.7         29.3 
      2042.0          0.7         29.5 
      2043.0          0.7         29.0 
      2044.0          0.6         28.2 
      2045.0          0.7         26.8 
      2046.0          0.6         25.1 
      2047.0          0.7         24.5 
      2048.0          0.6         24.4 
      2049.0          0.7         24.5 
      2050.0          0.5         24.6 
      2051.0          0.3         24.6 
      2052.0          0.6         24.4 
      2053.0          0.5         24.3 
      2054.0          0.6         24.8 
      2055.0          0.5         24.4 
      2056.0          0.6         23.4 
      2057.0          0.6         22.5 
      2058.0          0.7         22.4 
      2059.0          0.6         22.2 
      2060.0          0.4         21.1 
      2061.0          0.6         21.7 
      2062.0          0.9         21.8 
      2063.0          0.6         22.3 
      2064.0          0.8         22.9 
      2065.0          0.6         22.9 
      2066.0          0.5         23.6 
      2067.0          0.5         23.6 
      2068.0          0.4         22.9 
      2069.0          3.4         81.7 
      2070.0          0.5         53.2 
      2071.0          0.6         23.9 
      2072.0          0.6         21.6 
      2073.0          0.5         26.3 
      2074.0          0.7         30.2 
      2075.0          0.6         30.3 
      2076.0          0.8         29.5 
      2077.0          0.7         27.4 
      2078.0          0.7         25.5 
      2079.0          0.8         24.4 
      2080.0          1.2         23.8 
      2081.0          0.8         24.0 
      2082.0          0.6         24.0 
      2083.0          0.5         23.4 
      2084.0          0.6         23.7 
      2085.0          0.6         24.2 
      2086.0          0.6         24.5 
      2087.0          0.6         24.3 
      2088.0          0.5         24.2 
      2089.0          0.6         24.2 
      2090.0          0.6         23.6 
      2091.0          0.4         24.1 
      2092.0          0.2         24.5 
      2093.0          0.3         24.7 
      2094.0          0.6         25.4 
      2095.0          0.6         31.2 
      2096.0          0.6         31.9 
      2097.0          0.7         28.1 
      2098.0          0.3         26.8 
      2099.0          4.7        112.9 
      2100.0          0.6         72.4 
      2101.0          0.6         19.3 
      2102.0          0.6         24.5 
      2103.0          0.5         28.6 
      2104.0          0.6         30.8 
      2105.0          0.9         31.5 
      2106.0          1.1         31.5 
      2107.0          1.1         29.7 
      2108.0          0.7         27.6 
      2109.0          0.6         26.4 
      2110.0          0.6         25.6 
      2111.0          0.4         26.0 
      2112.0          0.4         25.9 
      2113.0          0.2         25.6 
      2114.0          0.2         25.7 
      2115.0          0.2         26.0 
      2116.0          0.2         26.3 
      2117.0          0.3         26.8 
      2118.0          0.4         27.5 
      2119.0          0.4         29.0 
      2120.0          0.4         35.1 
      2121.0          0.3         37.3 
      2122.0          0.4         36.7 
      2123.0          0.5         32.0 
      2124.0          0.5         28.8 
      2125.0          0.5         27.0 
      2126.0          0.4         26.0 
      2127.0          0.4         25.9 
      2128.0          0.3         25.7 
      2129.0          5.4         89.6 
      2130.0          0.4         71.9 
      2131.0          0.5         33.4 
      2132.0          0.4         19.3 
      2133.0          0.6         24.0 
      2134.0          0.7         27.4 
      2135.0          0.7         30.9 
      2136.0          0.8         31.4 
      2137.0          0.5         31.2 
      2138.0          0.5         30.0 
      2139.0          0.6         29.6 
      2140.0          0.5         28.1 
      2141.0          0.6         26.4 
      2142.0          0.5         25.6 
      2143.0          0.6         25.1 
      2144.0          0.6         25.1 
      2145.0          0.6         25.1 
      2146.0          0.6         24.8 
      2147.0          0.5         24.6 
      2148.0          0.5         24.4 
      2149.0          0.6         24.5 
      2150.0          0.6         24.2 
      2151.0          0.5         24.4 
      2152.0          0.6         24.6 
      2153.0          0.6         24.9 
      2154.0          0.5         24.9 
      2155.0          0.6         25.0 
      2156.0          0.6         24.5 
      2157.0          0.6         24.1 
      2158.0          0.3         24.1 
      2159.0          4.4         77.3 
      2160.0          0.5         79.1 
      2161.0          0.3         67.7 
      2162.0          0.3         38.4 
      2163.0          0.4         21.2 
      2164.0          0.4         19.5 
      2165.0          0.5         23.6 
      2166.0          0.4         26.0 
      2167.0          0.5         27.7 
      2168.0          0.5         29.0 
      2169.0          0.7         30.7 
      2170.0          0.5         31.4 
      2171.0          0.4         31.5 
      2172.0          0.4         31.2 
      2173.0          0.3         30.4 
      2174.0          0.3         28.7 
      2175.0          0.5         26.7 
      2176.0          0.4         24.8 
      2177.0          0.5         25.7 
      2178.0          0.4         26.9 
      2179.0          0.3         26.5 
      2180.0          0.4         26.2 
      2181.0          0.5         26.1 
      2182.0          0.6         25.9 
      2183.0          0.6         26.1 
      2184.0          0.6         25.9 
      2185.0          0.5         25.2 
      2186.0          0.6         24.4 
      2187.0          0.4         24.4 
      2188.0          0.4         23.8 
      2189.0          5.5         81.7 
      2190.0          0.3         61.2 
      2191.0          0.5         33.6 
      2192.0          0.5         18.0 
      2193.0          0.4         23.4 
      2194.0          0.3         25.7 
      2195.0          0.4         27.9 
      2196.0          0.4         29.4 
      2197.0          0.5         33.3 
      2198.0          0.7         37.1 
      2199.0          0.5         35.1 
      2200.0          0.4         34.1 
      2201.0          0.3         33.2 
      2202.0          0.4         32.3 
      2203.0          0.5         30.6 
      2204.0          0.4         29.0 
      2205.0          0.5         28.2 
      2206.0          0.4         27.3 
      2207.0          0.4         26.4 
      2208.0          0.3         26.3 
      2209.0          0.3         26.5 
      2210.0          0.4         26.4 
      2211.0          0.3         26.1 
      2212.0          0.2         25.8 
      2213.0          0.1         25.8 
      2214.0          0.3         26.0 
      2215.0          0.4         26.7 
      2216.0          0.4         27.0 
      2217.0          0.4         31.1 
      2218.0          0.4         42.0 
      2219.0          4.9         96.5 
      2220.0          0.4         88.1 
      2221.0          0.4         47.5 
      2222.0          0.4         21.8 
      2223.0          0.5         20.4 
      2224.0          0.5         24.5 
      2225.0          0.5         27.4 
      2226.0          0.6         30.9 
      2227.0          0.6         33.1 
      2228.0          0.7         33.4 
      2229.0          0.6         32.8 
      2230.0          0.4         31.6 
      2231.0          0.4         30.7 
      2232.0          0.4         29.8 
      2233.0          0.4         28.7 
      2234.0          0.4         27.5 
      2235.0          0.4         27.3 
