~Version Information
VERS.                      2.0: CWLS Log ASCII Standard - VERSION 2.0
WRAP.                       NO: One line per depth step
~Well Information Block
STRT.FT               664.0000: 
STOP.FT              1615.5000: 
STEP.FT                 0.2500: 
NULL.                -999.2500: 
COMP.          Petrogulf Corporation: COMPANY
WELL.          Great Plains 22-21R: WELL
FLD.           Purgatorie River: FIELD
LOC.           73' FNL & 1992' FWL: LOCATION
PROV.                 Colorado: PROVINCE
CNTY.               Las Animas: COUNTRY
SRVC.                Patterson: SERVICE COMPANY
DATE.          Thu Sep 08 08:05:26 2005: LOG DATE
UWI.                          : UNIQUE WELL ID
~Curve Information Block
DEPT.FT            0 000 00 00: Depth
SP.mV                         : DIL Spontaneous Potential
RILD.Ohm-m                    : DIL Deep Resistivity
RILM.Ohm-m                    : DIL Medium Resistivity
RLL3.Ohm-m                    : DIL Shallow Resistivity
GR.GAPI                       : Gamma Ray
~Parameter Information Block
~A  Depth        SP         RILD        RILM        RLL3         GR     
# ...
   776.0000    149.0205     25.9066     28.5975     34.8442    116.8044
   776.2500    150.3891     26.1614     27.7024     32.1411    111.4417
   776.5000    151.4467     25.5300     26.5458     32.6985    111.6487
   776.7500    152.3897     24.7684     25.4884     34.1432    122.9218
   777.0000    153.1420     24.7126     24.7796     29.9543    129.7158
   777.2500    153.9794     24.1338     23.6493     24.0610    135.6024
   777.5000    154.7034     23.3997     23.5451     23.0505    147.6546
   777.7500    155.1524     23.3587     23.0664     24.7402    132.7034
   778.0000    155.7334     23.0631     23.0495     25.3844    128.5338
   778.2500    156.2130     22.8880     22.8197     25.8739    133.2735
   778.5000    156.6181     22.3322     23.0975     26.9409    121.4026
   778.7500    156.9391     22.2911     22.5687     26.9500    125.0502
   779.0000    157.2496     21.8937     22.5163     26.6756    122.5273
   779.2500    157.5929     21.8259     21.9667     25.8314    132.0402
   779.5000    157.9388     21.8340     21.8277     25.5120    142.8043
   779.7500    158.2652     21.9749     21.4568     24.1814    146.2062
   780.0000    158.5833     22.3357     21.8526     23.6242    140.8222
   780.2500    159.1826     22.4225     21.4877     24.0249    148.4186
   780.5000    160.1969     22.6644     21.6223     24.1868    139.0503
   780.7500    161.2302     23.1538     21.9010     24.1377    140.6810
   781.0000    161.7974     22.9238     22.6316     24.2178    129.4853
   781.2500    162.1564     23.6554     22.6424     24.5918    134.7533
   781.5000    162.4038     23.5494     23.5120     26.6893    125.0839
   781.7500    162.3678     24.1831     23.9366     28.7650    123.2453
   782.0000    162.1902     24.5567     24.8318     30.5857    127.3797
   782.2500    162.0627     25.1923     26.0054     32.5160    120.0914
   782.5000    161.6832     25.5633     27.2446     33.7980    108.0411
   782.7500    161.1813     26.4303     28.0180     36.6118    107.2115
   783.0000    160.6143     27.3774     29.8241     42.3827    109.1307
   783.2500    159.9925     28.3905     30.5661     47.7201     97.6411
   783.5000    159.3386     29.7985     31.9089     49.1006     87.1671
   783.7500    158.7552     29.6674     32.4541     49.4056     84.7057
   784.0000    158.0774     30.1319     34.3179     50.2817     82.0653
   784.2500    157.4276     30.3595     36.0325     51.6650     83.4728
   784.5000    156.6776     31.9811     35.7315     50.8081     86.6281
   784.7500    156.1668     32.4102     37.1442     49.7763     80.0971
   785.0000    155.9175     32.8181     37.9549     51.5218     75.7848
   785.2500    155.6140     32.3810     38.5955     52.6783     81.1070
   785.5000    155.1569     33.7051     38.8420     52.8430     78.9388
   785.7500    154.6872     32.7636     37.9159     49.8129     80.6914
   786.0000    154.3221     32.6288     36.3594     48.1060     95.2670
   786.2500    154.1247     32.3073     34.8340     45.8794    101.1247
   786.5000    154.0477     32.9399     34.8657     40.3806    114.7906
   786.7500    153.7978     31.5653     34.5041     36.5261    115.1248
   787.0000    153.4076     32.6600     34.7301     36.2604    116.8462
   787.2500    153.0737     33.1406     35.0422     37.5700    116.1631
   787.5000    152.8907     32.6063     35.2926     40.5420    108.4394
   787.7500    152.9103     33.3367     36.7525     43.7995     97.1113
   788.0000    152.8262     33.0993     37.0810     46.7828     92.7196
   788.2500    152.8315     33.7046     37.4558     47.4752     85.1797
   788.5000    152.9977     34.2712     36.4131     48.3732     83.5339
   788.7500    153.3447     34.1647     37.4170     49.0240     85.1198
   789.0000    153.8973     33.6774     38.6682     53.3136     91.0724
   789.2500    154.5646     33.5052     38.8297     61.2636     77.9418
   789.5000    155.3840     33.7057     38.5937     68.7705     73.0209
   789.7500    156.0255     32.9772     38.6638     68.2051     78.3583
   790.0000    156.7669     33.4386     37.4080     60.6448     79.9049
   790.2500    157.4467     33.9180     37.1984     51.9493     75.6942
   790.5000    158.2726     34.2897     36.9818     48.0985     79.8266
   790.7500    158.9502     34.6255     36.9711     47.0591     78.9555
   791.0000    159.5141     34.1810     35.7968     44.8019     93.6279
   791.2500    159.9048     34.6984     37.4582     44.0640     99.2855
   791.5000    160.1162     33.8765     37.2818     45.5338     90.1936
   791.7500    160.1897     33.2447     37.7243     47.3653     81.0105
   792.0000    160.2222     33.3736     37.6564     48.0443     77.6593
   792.2500    160.2386     31.9238     36.7471     48.4979     79.3099
   792.5000    160.2544     32.5317     37.1327     46.5412     90.3582
   792.7500    160.4586     31.0011     35.5375     45.7165     95.4614
   793.0000    160.7663     30.9742     35.3118     45.6753     96.7850
   793.2500    161.1604     31.3197     35.1749     45.8137     92.2777
   793.5000    161.4926     31.3332     35.5990     44.5675     93.0138
   793.7500    161.7527     31.5636     34.1322     41.2641     98.3744
   794.0000    161.9135     32.0220     33.7847     38.3363     98.5306
   794.2500    162.1947     31.9012     34.1880     36.8133     98.1790
   794.5000    162.5329     31.7258     34.2801     38.2477     99.8035
   794.7500    162.8526     32.0220     34.5361     36.9857    104.2276
   795.0000    163.2000     32.4231     34.7385     36.6082    102.6287
   795.2500    163.5279     31.8102     34.8575     40.9550    104.7745
   795.5000    163.7616     32.1536     37.2087     46.5296     99.6447
   795.7500    163.8289     32.2660     37.6816     51.3738     93.1247
   796.0000    163.8146     32.2315     38.8549     52.9305     82.2935
   796.2500    163.7765     32.1943     39.9712     52.6746     80.8944
   796.5000    163.8092     31.7305     38.4235     51.9518     82.7704
   796.7500    163.7232     31.4869     38.4264     52.6311     85.0280
   797.0000    163.8300     29.7604     37.7447     55.6664     90.0035
   797.2500    164.0762     29.5326     36.1273     60.1928     96.9194
   797.5000    164.2061     28.3820     33.9550     62.9909     90.7687
   797.7500    164.2642     28.2994     31.7563     59.4440     88.1873
   798.0000    164.4012     28.0102     28.8718     50.0125     96.3853
   798.2500    164.5304     27.2140     26.4579     34.0190    115.1528
   798.5000    164.6819     26.7732     25.1364     23.9217    118.8748
   798.7500    164.8009     26.4133     24.8762     20.8829    119.7311
   799.0000    164.8223     25.7531     24.2361     21.9726    138.7991
   799.2500    164.8099     25.4955     25.1727     26.8471    129.4509
   799.5000    164.8238     24.1265     25.4593     36.7952    125.2044
   799.7500    164.9093     23.3787     25.7879     40.3212    114.8914
   800.0000    164.9437     22.0136     26.3329     31.9404    112.1539
   800.2500    164.9487     21.2880     25.4869     28.5396    114.8952
   800.5000    165.0072     19.9974     24.2276     29.8566    102.9813
   800.7500    165.1084     19.0633     23.7252     31.3571    109.3774
   801.0000    165.2624     18.1365     23.3487     35.0350    103.1521
   801.2500    165.6776     17.6930     22.1094     42.4097    103.5913
   801.5000    166.1701     17.2781     20.5881     45.9703     98.1446
   801.7500    166.4566     17.2875     18.8243     33.2041    110.8925
   802.0000    166.6621     17.2357     16.8650     19.2388    127.3108
   802.2500    166.7224     17.4928     15.5814     14.7685    127.5567
   802.5000    166.7608     17.6489     14.9611     13.2565    141.4855
   802.7500    166.8367     17.8193     14.8746     13.3946    156.7410
   803.0000    166.8369     17.7807     15.4671     13.3673    148.1716
   803.2500    166.7091     17.6359     16.2569     15.4775    140.2107
   803.5000    166.5007     17.1885     17.9361     22.6765    114.7319
   803.7500    166.2514     16.6015     19.1230     36.6285    109.2829
