~Version Information
VERS.                      2.0: CWLS Log ASCII Standard - VERSION 2.0
WRAP.                       NO: One line per depth step
~Well Information Block
STRT.FT               710.0000: 
STOP.FT              2304.5000: 
STEP.FT                 0.2500: 
NULL.                -999.2500: 
COMP.          Pioneer Natural Resources: COMPANY
WELL.           Ogallela 44-12: WELL
FLD.           Purgatoire River: FIELD
LOC.           610' FSL & 671' FEL: LOCATION
PROV.                 Colorado: PROVINCE
CNTY.               Las Animas: COUNTRY
SRVC.                Patterson: SERVICE COMPANY
DATE.          Wed Feb 23 00:14:59 2005: LOG DATE
UWI.           05 071 08283 00: UNIQUE WELL ID
~Curve Information Block
DEPT.FT            0 000 00 00: Depth
SN.Ohm-m                      : IEL Short Normal
SP.mV                         : IEL Spontaneous Potential
DIR.Ohm-m                     : IEL Induction Resistivity
GR.GAPI                       : Gamma Ray
~Parameter Information Block
~A  Depth        SN          SP         DIR          GR     
   710.0000   2000.0000   2040.0000     72.5794    101.5977
   710.2500   2000.0000   2040.0000     72.7019    101.6327
   710.5000   2000.0000   2040.0000     72.6551    100.8061
   710.7500   2000.0000   2040.0000     72.5595     99.3575
   711.0000   2000.0000   2040.0000     72.5411     95.5257
   711.2500   2000.0000   2040.0000     72.6685     92.2775
   711.5000   2000.0000   2040.0000     72.9270     87.9007
   711.7500   2000.0000   2040.0000     73.2299     86.0367
   712.0000   2000.0000   2040.0000     73.4654     84.8049
   712.2500   2000.0000   2040.0000     73.5330     84.3023
   712.5000   2000.0000   2040.0000     73.3576     82.3769
   712.7500   2000.0000   2040.0000     72.8574     79.6584
   713.0000   2000.0000   2040.0000     71.9052     73.4163
   713.2500   2000.0000   2040.0000     70.3659     68.3522
   713.5000   2000.0000   2040.0000     68.2525     60.6533
   713.7500   2000.0000   2040.0000     65.8787     56.0494
   714.0000   2000.0000   2040.0000     63.8124     50.3885
   714.2500   2000.0000   2040.0000     62.6043     47.3975
   714.5000   2000.0000   2040.0000     62.5272     43.9079
   714.7500   2000.0000   2040.0000     63.4856     42.3307
   715.0000   2000.0000   2040.0000     65.0797     41.4603
   715.2500   2000.0000   2040.0000     66.7954     41.8773
   715.5000   2000.0000   2040.0000     68.2839     43.2646
   715.7500   2000.0000   2040.0000     69.5690     44.1033
   716.0000   2000.0000   2040.0000     70.9755     44.6930
   716.2500   2000.0000   2040.0000     72.7066     44.6476
   716.5000   2000.0000   2040.0000     74.3254     44.0405
   716.7500   2000.0000   2040.0000     74.6734     43.2891
   717.0000   2000.0000   2040.0000     72.7359     41.7304
   717.2500   2000.0000   2040.0000     68.8005     40.6121
   717.5000   2000.0000   2040.0000     64.3009     39.4108
   717.7500   2000.0000   2040.0000     60.5657     39.2408
   718.0000   2000.0000   2040.0000     58.1278     40.0855
   718.2500   2000.0000   2040.0000     56.8568     41.2629
   718.5000   2000.0000   2040.0000     56.3413     43.6753
   718.7500   2000.0000   2040.0000     56.2018     45.6253
   719.0000   2000.0000   2040.0000     56.2349     48.9850
   719.2500   2000.0000   2040.0000     56.3699     51.4417
   719.5000   2000.0000   2040.0000     56.5600     55.2978
   719.7500   2000.0000   2040.0000     56.7413     57.9499
   720.0000   2000.0000   2040.0000     56.8896     62.1495
   720.2500   2000.0000   2040.0000     57.0724     65.2378
   720.5000   2000.0000   2040.0000     57.4039     70.5957
   720.7500   2000.0000   2040.0000     57.9239     74.7361
   721.0000   2000.0000   2040.0000     58.5067     81.5492
   721.2500   2000.0000   2040.0000     58.8775     86.0829
   721.5000   2000.0000   2040.0000     58.7966     91.9705
   721.7500   2000.0000   2040.0000     58.3077     94.8945
   722.0000   2000.0000   2040.0000     57.8001     97.6301
   722.2500   2000.0000   2040.0000     57.7657     98.4917
   722.5000   2000.0000   2040.0000     58.4428     98.7038
   722.7500   2000.0000   2040.0000     59.5920     98.4487
   723.0000   2000.0000   2040.0000     60.5093     98.3746
   723.2500   2000.0000   2040.0000     60.3161     99.0489
   723.5000   2000.0000   2040.0000     58.4469    101.1951
   723.7500   2000.0000   2040.0000     55.0847    102.8225
   724.0000   2000.0000   2040.0000     51.2469    104.4673
   724.2500   2000.0000   2040.0000     48.4566    104.7713
   724.5000   2000.0000   2040.0000     48.3961    104.0533
   724.7500   2000.0000   2040.0000     53.2234    102.8384
   725.0000   2000.0000   2040.0000     67.2581    100.2478
   725.2500   2000.0000   2040.0000    102.3687     98.4265
   725.5000   2000.0000   2040.0000    197.3827     96.1436
   725.7500   2000.0000   2040.0000    456.2970     94.9534
   726.0000   2000.0000   2040.0000    600.4997     93.3675
   726.2500   2000.0000   2040.0000    337.9596     92.2863
   726.5000   2000.0000   2040.0000    201.4181     90.7008
   726.7500   2000.0000   2040.0000    151.4895     89.9714
   727.0000   2000.0000   2040.0000    139.8079     90.0934
   727.2500   2000.0000   2040.0000    162.0831     91.2049
   727.5000   2000.0000   2040.0000    305.6964     93.9705
   727.7500   2000.0000   2040.0000 100000.0000     95.8742
   728.0000   2000.0000   2040.0000 100000.0000     97.7447
   728.2500   2000.0000   2040.0000 100000.0000     98.2159
   728.5000   2000.0000   2040.0000 100000.0000     98.5803
   728.7500   2000.0000   2040.0000 100000.0000     99.3224
   729.0000   2000.0000   2040.0000 100000.0000    102.1182
   729.2500   2000.0000   2040.0000    373.1862    105.2398
   729.5000   2000.0000   2040.0000    189.1551    111.0810
   729.7500   2000.0000   2040.0000 100000.0000    114.7831
   730.0000   2000.0000   2040.0000 100000.0000    118.2276
   730.2500   2000.0000   2040.0000 100000.0000    118.6517
   730.5000   2000.0000   2040.0000 100000.0000    117.2397
   730.7500   2000.0000   2040.0000 100000.0000    115.8156
   731.0000   2000.0000   2040.0000 100000.0000    113.9451
   731.2500   2000.0000   2040.0000 100000.0000    112.9482
   731.5000   2000.0000   2040.0000 100000.0000    111.4996
   731.7500   2000.0000   2040.0000     23.5449    110.3533
   732.0000   2000.0000   2040.0000      7.3636    108.4416
   732.2500   2000.0000   2040.0000      4.9415    107.6117
   732.5000   2000.0000   2040.0000      4.4692    108.4930
   732.7500   2000.0000   2040.0000      4.8878    110.8696
   733.0000   2000.0000   2040.0000      6.1495    116.1164
   733.2500   2000.0000   2040.0000      8.7686    119.6357
   733.5000   2000.0000   2040.0000     14.8994    123.6548
   733.7500   2000.0000   2040.0000     40.4168    125.3982
   734.0000   2000.0000   2040.0000 100000.0000    126.9148
   734.2500   2000.0000   2040.0000 100000.0000    127.1880
   734.5000   2000.0000   2040.0000 100000.0000    126.1037
   734.7500   2000.0000   2040.0000 100000.0000    124.2514
   735.0000   2000.0000   2040.0000 100000.0000    120.0607
   735.2500   2000.0000   2040.0000 100000.0000    116.6832
   735.5000   2000.0000   2040.0000     56.7004    111.4501
   735.7500   2000.0000   2040.0000     31.9800    108.3372
   736.0000   2000.0000   2040.0000     25.6319    105.1739
   736.2500   2000.0000   2040.0000     23.4176    104.4795
   736.5000   2000.0000   2040.0000     22.5596    105.7035
   736.7500   2000.0000   2040.0000     22.1280    107.9101
   737.0000   2000.0000   2040.0000     21.7765    113.2093
   737.2500   2000.0000   2040.0000     21.4452    118.1048
   737.5000   2000.0000   2040.0000     21.2720    127.3319
   737.7500   2000.0000   2040.0000     21.4816    134.3851
   738.0000   2000.0000   2040.0000     22.2352    145.4473
   738.2500   2000.0000   2040.0000     23.4455    152.6140
   738.5000   2000.0000   2040.0000     24.6449    162.2129
   738.7500   2000.0000   2040.0000     25.1358    167.5030
   739.0000   2000.0000   2040.0000     24.5530    173.5765
   739.2500   2000.0000   2040.0000     23.2076    176.3118
   739.5000   2000.0000   2040.0000     21.6886    178.0238
   739.7500   2000.0000   2040.0000     20.3692    154.1918
   740.0000   2000.0000   2040.0000     19.3355    151.0446
   740.2500   2000.0000   2040.0000     18.5429    147.8272
   740.5000   2000.0000   2040.0000     17.9573    141.6912
   740.7500   2000.0000   2040.0000     17.6076    136.7380
   741.0000   2000.0000   2040.0000     17.5585    128.6136
   741.2500   2000.0000   2040.0000     17.8548    123.7019
   741.5000   2000.0000   2040.0000     18.4803    118.7684
   741.7500   2000.0000   2040.0000     19.3442    117.3289
   742.0000   2000.0000   2040.0000     20.2944    116.8714
   742.2500   2000.0000   2040.0000     21.1474    116.7541
   742.5000   2000.0000   2040.0000     21.7334    116.0379
   742.7500   2000.0000   2040.0000     21.9520    115.6108
   743.0000   2000.0000   2040.0000     21.8208    116.6418
   743.2500   2000.0000   2040.0000     21.4679    119.0216
