~Version Information
 VERS.                      2.0: CWLS Log ASCII Standard - VERSION 2.0
 WRAP.                       NO: One line per depth step
 ~Well Information Block
 STRT.FT                -8.0000: 
 STOP.FT              2581.0000: 
 STEP.FT                 0.2500: 
 NULL.                -999.2500: 
 COMP.          Petrogulf Corporation: COMPANY
 WELL.               YWAM 7-23V: WELL
 FLD.           Purgatorie River: FIELD
 LOC.           230' FSL & 225' FWL: LOCATION
 CNTY.               Las Animas: COUNTY
 SRVC.                         : SERVICE COMPANY
 DATE.          Mon Nov 22 10:51:24 2004: LOG DATE
 UWI.           05-071-08227-00: UNIQUE WELL ID
 STAT.                 Colorado: STATE
 PROV.                         :Province
 ~Curve Information Block
 DEPT.FT            0 000 00 00: Depth
 TT3.usec                      : CBL 3' Travel Time
 AMP3.mV                       : CBL 3' Amplitude
 GR.GAPI                       : Gamma Ray
 CCL.                          : Casing Collar Locator
 ~Parameter Information Block
 ~A  Depth       TT3         AMP3         GR         CCL     
# ...
  1868.0000    757.5682      3.5978     65.4392      0.0000
  1868.2500    748.3417      3.5903     63.7790      0.0000
  1868.5000    738.0775      3.5388     65.2661      0.0000
  1868.7500    730.1903      3.4566     71.0528      0.0000
  1869.0000    725.8239      3.3657     80.4098      0.0000
  1869.2500    724.2164      3.2810     91.4880      0.0000
  1869.5000    723.8834      3.2057    103.1496      0.0000
  1869.7500    723.0522      3.1380    115.5921      0.0000
  1870.0000    719.3546      3.0806    129.1844      0.0000
  1870.2500    710.3667      3.0414    143.2651      0.0000
  1870.5000    696.1965      3.0297    156.1519      0.0000
  1870.7500    682.1234      3.0510    165.9239      0.0000
  1871.0000    676.5698      3.1040    171.3667      0.0000
  1871.2500    684.1973      3.1766    172.7602      0.0000
  1871.5000    701.7928      3.2473    171.8186      0.0000
  1871.7500    722.0671      3.2939    170.4224      0.0000
  1872.0000    739.8198      3.3041    169.3617      0.0000
  1872.2500    753.2681      3.2794    168.5715      0.0000
  1872.5000    761.5244      3.2301    168.2019      0.0000
  1872.7500    762.5640      3.1661    168.6521      0.0000
  1873.0000    753.6318      3.0903    169.5683      0.0000
  1873.2500    734.3824      2.9982    169.8853      0.0000
  1873.5000    710.5868      2.8847    169.3518      0.0000
  1873.7500    692.5255      2.7492    169.1124      0.0000
  1874.0000    686.2875      2.5970    169.9767      0.0000
  1874.2500    686.9142      2.4405    170.6912      0.0000
  1874.5000    682.1647      2.2965    168.8778      0.0000
  1874.7500    663.5665      2.1777    163.7898      0.0000
  1875.0000    634.2942      2.0854    157.4313      0.0000
  1875.2500    606.7435      2.0113    152.4485      0.0000
  1875.5000    590.8720      1.9443    149.3862      0.0000
  1875.7500    585.2148      1.8757    146.7487      0.0000
  1876.0000    581.9508      1.8007    143.3763      0.0000
  1876.2500    578.9727      1.7220    139.7763      0.0000
  1876.5000    581.6376      1.6485    137.0564      0.0000
  1876.7500    593.2918      1.5893    135.2089      0.0000
  1877.0000    610.1409      1.5461    132.7781      0.0000
  1877.2500    626.9333      1.5127    128.2184      0.0000
  1877.5000    644.1336      1.4818    121.5486      0.0000
  1877.7500    666.3608      1.4505    114.7184      0.0000
  1878.0000    693.8039      1.4214    110.3840      0.0000
  1878.2500    718.4375      1.3985    110.0609      0.0000
  1878.5000    731.0893      1.3833    112.9513      0.0000
  1878.7500    730.2275      1.3750    116.3162      0.0000
  1879.0000    721.7992      1.3739    117.3893      0.0000
  1879.2500    712.3708      1.3832    115.5199      0.0000
  1879.5000    704.0997      1.4062    112.4771      0.0000
  1879.7500    694.8145      1.4409    110.4393      2.7054
  1880.0000    680.5804      1.4786    109.6870      5.0000
  1880.2500    658.4077      1.5099    108.3662      0.0000
  1880.5000    628.9216      1.5328    104.4948      0.0000
  1880.7500    598.8310      1.5571     98.1628      0.0000
  1881.0000    580.1885      1.5966     91.7548      0.0000
  1881.2500    583.2096      1.6530     88.1415      0.0000
  1881.5000    607.2519      1.7065     88.9394      0.0000
  1881.7500    640.3521      1.7298     94.3702      0.0000
  1882.0000    669.0084      1.7136    103.8578      0.0000
  1882.2500    687.4439      1.6726    116.1310      0.0000
  1882.5000    697.8044      1.6284    129.3868      0.0000
  1882.7500    704.3579      1.5932    142.0425      0.0000
  1883.0000    709.2773      1.5685    152.8791      0.0000
  1883.2500    712.7505      1.5511    160.1975      0.0000
  1883.5000    714.8035      1.5370    161.8933      0.0000
  1883.7500    716.0649      1.5234    157.2031      0.0000
  1884.0000    717.2468      1.5105    147.8050      0.0000
  1884.2500    718.5607      1.5024    136.4641      0.0000
  1884.5000    719.7747      1.5038    124.9137      0.0000
  1884.7500    720.7672      1.5158    113.6004      0.0000
  1885.0000    722.1234      1.5352    102.9357      0.0000
  1885.2500    725.1907      1.5581     93.7555      0.0000
  1885.5000    730.9916      1.5809     86.2999      0.0000
  1885.7500    738.4236      1.5987     79.4619      0.0000
  1886.0000    743.8409      1.6060     71.8629      0.0000
  1886.2500    743.6064      1.6018     63.6968      0.0000
  1886.5000    737.4485      1.5919     56.8685      0.0000
  1886.7500    728.6519      1.5840     53.0534      0.0000
  1887.0000    720.9722      1.5831     52.0284      0.0000
  1887.2500    716.0865      1.5911     52.1408      0.0000
  1887.5000    713.7133      1.6079     51.9374      0.0000
  1887.7500    712.9644      1.6305     50.9304      0.0000
  1888.0000    713.1695      1.6551     49.2284      0.0000
  1888.2500    714.0580      1.6782     47.1629      0.0000
  1888.5000    715.7649      1.6967     45.4012      0.0000
  1888.7500    718.6177      1.7091     44.8302      0.0000
  1889.0000    722.4228      1.7163     45.7773      0.0000
  1889.2500    725.6093      1.7217     47.4184      0.0000
  1889.5000    725.4799      1.7289     48.3639      0.0000
  1889.7500    720.1990      1.7403     47.9378      0.0000
  1890.0000    710.7679      1.7566     46.7296      0.0000
  1890.2500    700.4904      1.7765     45.9154      0.0000
  1890.5000    692.3304      1.7973     46.2874      0.0000
  1890.7500    687.1243      1.8158     47.9675      0.0000
  1891.0000    684.0858      1.8285     50.8536      0.0000
  1891.2500    682.3168      1.8322     55.1419      0.0000
  1891.5000    681.8232      1.8241     61.2447      0.0000
  1891.7500    683.8588      1.8041     69.1762      0.0000
  1892.0000    690.6868      1.7746     78.2796      0.0000
  1892.2500    704.2215      1.7416     87.8108      0.0000
  1892.5000    723.6762      1.7115     97.8421      0.0000
  1892.7500    744.2651      1.6853    109.5286      0.0000
  1893.0000    759.1049      1.6553    124.1849      0.0000
  1893.2500    763.3451      1.6118    141.6169      0.0000
  1893.5000    757.0026      1.5527    159.2687      0.0000
  1893.7500    744.3268      1.4841    173.3650      0.0000
  1894.0000    730.7004      1.4137    181.3571      0.0000
  1894.2500    719.7754      1.3484    183.6471      0.0000
  1894.5000    712.7061      1.2968    183.1797      0.0000
  1894.7500    709.0748      1.2683    183.2489      0.0000
  1895.0000    707.9449      1.2689    185.3809      0.0000
  1895.2500    708.3815      1.2996    188.9243      0.0000
  1895.5000    709.7342      1.3579    192.3605      0.0000
  1895.7500    711.9275      1.4400    194.7196      0.0000
  1896.0000    715.4332      1.5395    195.6619      0.0000
  1896.2500    720.5200      1.6481    194.7259      0.0000
  1896.5000    726.3054      1.7587    191.1833      0.0000
  1896.7500    730.9744      1.8691    184.7393      0.0000
  1897.0000    733.3008      1.9806    176.0231      0.0000
  1897.2500    733.4321      2.0927    166.1823      0.0000
  1897.5000    731.8746      2.1991    156.0814      0.0000
  1897.7500    728.5850      2.2916    146.0564      0.0000
  1898.0000    723.6255      2.3633    136.3104      0.0000
  1898.2500    718.1592      2.4081    127.2131      0.0000
  1898.5000    714.2045      2.4203    119.2728      0.0000
  1898.7500    713.2451      2.3977    113.0290      0.0000
  1899.0000    714.9526      2.3452    108.8116      0.0000
  1899.2500    717.3831      2.2713    106.4631      0.0000
  1899.5000    718.2397      2.1836    105.5251      0.0000
  1899.7500    715.4764      2.0880    105.7039      0.0000
  1900.0000    707.7281      1.9896    106.9130      0.0000
  1900.2500    695.9989      1.8941    108.8210      0.0000
  1900.5000    684.4597      1.8084    110.6965      0.0000
  1900.7500    677.5552      1.7403    112.0253      0.0000
  1901.0000    676.8394      1.6932    113.1554      0.0000
  1901.2500    681.5801      1.6609    114.8795      0.0000
