~Version Information
VERS.                      2.0: CWLS Log ASCII Standard - VERSION 2.0
WRAP.                       NO: One line per depth step
~Well Information Block
STRT.FT               230.0000: 
STOP.FT              1527.0000: 
STEP.FT                 0.1000: 
NULL.                -999.2500: 
COMP.          Pioneer Natural Resources: COMPANY
WELL.              Border 21-3: WELL
FLD.           Purgatorie River: FIELD
LOC.           865' FNL & 1415' FWL: LOCATION
PROV.                 Colorado: PROVINCE
CNTY.               Las Animas: COUNTRY
SRVC.                         : SERVICE COMPANY
DATE.          Thu Dec 09 16:57:34 2004: LOG DATE
UWI.           05 071 08169 00: UNIQUE WELL ID
~Curve Information Block
DEPT.FT            0 000 00 00: Depth
LTEN.lb                       : Surface Line Tension
DCAL.in                       : CDL Caliper
RHOB.g/cc                     : CDL Bulk Density
RHOC.g/cc                     : CDL Density Correction
DPOR.pu                       : CDL Density Porosity
GR.GAPI                       : Gamma Ray
NPOR.pu                       : Neutron Porosity
~Parameter Information Block
~A  Depth       LTEN        DCAL        RHOB        RHOC        DPOR         GR         NPOR    
# ...
  1170.8000    950.9206      7.7788      2.5971      0.0659      3.2075     91.5328     22.9169
  1170.9000    950.9206      7.7788      2.6008      0.1311      2.9822     93.9301     21.8905
  1171.0000   1004.0853      7.7779      2.6069      0.1181      2.6137     90.1091     21.4752
  1171.1000   1004.0853      7.7779      2.6042      0.1233      2.7764     86.9351     22.3588
  1171.2000   1004.0853      7.7779      2.5938      0.1062      3.4042     88.8503     23.7967
  1171.3000    982.5620      7.7780      2.5852      0.0917      3.9265     94.1307     24.8870
  1171.4000    982.5620      7.7780      2.5805      0.1203      4.2123     99.4365     25.2819
  1171.5000    959.6209      7.7777      2.5779      0.0849      4.3708    100.7259     24.6721
  1171.6000    959.6209      7.7777      2.5817      0.0903      4.1417     97.9766     23.5480
  1171.7000    959.6209      7.7777      2.5916      0.1047      3.5417     96.3103     22.8810
  1171.8000   1007.6029      7.7778      2.5972      0.1250      3.1990     94.6786     22.2882
  1171.9000   1007.6029      7.7778      2.5887      0.1226      3.7168     88.9704     21.2858
  1172.0000    979.0010      7.7780      2.5701      0.0789      4.8440     83.3898     20.7704
  1172.1000    979.0010      7.7780      2.5505      0.1095      6.0323     83.9279     21.0606
  1172.2000    979.0010      7.7780      2.5316      0.0752      7.1748     88.6221     21.5085
  1172.3000    930.7620      7.7753      2.5212      0.0359      7.8033     91.5261     21.8184
  1172.4000    930.7620      7.7753      2.5276      0.0755      7.4170     90.0101     21.6378
  1172.5000    999.3004      7.7798      2.5468      0.0665      6.2569     86.1871     20.8928
  1172.6000    999.3004      7.7798      2.5663      0.0870      5.0749     83.5275     20.6108
  1172.7000    999.3004      7.7798      2.5777      0.0766      4.3831     82.9804     21.3006
  1172.8000    958.4924      7.7787      2.5891      0.0796      3.6926     84.5692     21.8272
  1172.9000    958.4924      7.7787      2.6009      0.1314      2.9732     87.2373     21.7430
  1173.0000    926.4178      7.7778      2.5967      0.0956      3.2276     87.9287     22.1420
  1173.1000    926.4178      7.7778      2.5816      0.0632      4.1467     86.8370     23.0457
  1173.2000    926.4178      7.7778      2.5763      0.0920      4.4682     85.0539     23.3515
  1173.3000   1002.6462      7.7777      2.5836      0.0853      4.0265     81.0180     23.1527
  1173.4000   1002.6462      7.7777      2.5929      0.0822      3.4620     76.5738     23.3325
  1173.5000    977.4073      7.7781      2.5949      0.0906      3.3375     76.1715     23.4952
  1173.6000    977.4073      7.7781      2.5883      0.0911      3.7405     78.3848     22.7653
  1173.7000    977.4073      7.7781      2.5819      0.0671      4.1258     79.9303     21.7434
  1173.8000    903.6716      7.7785      2.5847      0.0731      3.9581     82.2635     21.1633
  1173.9000    903.6716      7.7785      2.5878      0.1239      3.7684     84.3277     21.0110
  1174.0000    995.4719      7.7788      2.5838      0.0676      4.0097     83.2449     21.1574
  1174.1000    995.4719      7.7788      2.5842      0.0728      3.9863     80.2713     20.8969
  1174.2000    995.4719      7.7788      2.5944      0.0541      3.3677     74.6320     19.4792
  1174.3000    959.0599      7.7782      2.6064      0.1003      2.6430     66.4274     17.8207
  1174.4000    959.0599      7.7782      2.6116      0.1086      2.3303     59.2635     17.2700
  1174.5000    965.7773      7.7780      2.6109      0.0624      2.3709     53.7405     17.5221
  1174.6000    965.7773      7.7780      2.6075      0.0995      2.5748     49.9456     17.6972
  1174.7000    965.7773      7.7780      2.5972      0.0708      3.1970     49.3193     17.8409
  1174.8000    985.5804      7.7771      2.5824      0.0498      4.0983     50.8572     18.1598
  1174.9000    985.5804      7.7771      2.5666      0.0834      5.0563     52.3538     18.0173
  1175.0000    909.6403      7.7781      2.5480      0.0610      6.1842     54.2931     17.0546
  1175.1000    909.6403      7.7781      2.5321      0.0434      7.1465     56.1283     16.2336
  1175.2000    909.6403      7.7781      2.5247      0.0455      7.5933     55.3906     16.1898
  1175.3000    959.4122      7.7788      2.5245      0.0371      7.6065     52.0805     16.4947
  1175.4000    959.4122      7.7788      2.5282      0.0499      7.3830     48.9044     16.5804
  1175.5000   1000.2849      7.7787      2.5298      0.0548      7.2852     49.4962     16.3996
  1175.6000   1000.2849      7.7787      2.5280      0.0375      7.3940     51.9215     16.3161
  1175.7000   1000.2849      7.7787      2.5300      0.0456      7.2754     50.6799     16.3732
  1175.8000    926.8317      7.7791      2.5382      0.0671      6.7730     46.2263     16.2313
  1175.9000    926.8317      7.7791      2.5487      0.0817      6.1418     41.7318     15.8865
  1176.0000    977.1055      7.7779      2.5586      0.0731      5.5397     38.4923     15.6647
  1176.1000    977.1055      7.7779      2.5655      0.1117      5.1189     36.2868     15.5769
  1176.2000    977.1055      7.7779      2.5651      0.0842      5.1426     34.6316     15.4188
  1176.3000    999.1559      7.7785      2.5608      0.0842      5.4060     34.1316     15.3641
  1176.4000    999.1559      7.7785      2.5631      0.0625      5.2675     34.3037     15.5556
  1176.5000    935.2666      7.7788      2.5735      0.0984      4.6371     33.7506     15.8785
  1176.6000    935.2666      7.7788      2.5808      0.0989      4.1949     32.8358     16.1473
  1176.7000    935.2666      7.7788      2.5806      0.0534      4.2034     33.6592     16.3723
  1176.8000    944.8632      7.7773      2.5874      0.0209      3.7919     37.5937     16.6515
  1176.9000    944.8632      7.7773      2.6105      0.0897      2.3955     41.9541     16.6287
  1177.0000    965.1337      7.7766      2.6347      0.1014      0.9288     43.0555     16.3007
  1177.1000    965.1337      7.7766      2.6428      0.0827      0.4375     42.1749     16.2020
  1177.2000    965.1337      7.7766      2.6319      0.1028      1.0993     41.8190     16.2067
  1177.3000    946.8262      7.7773      2.6099      0.0774      2.4326     42.0827     15.9026
  1177.4000    946.8262      7.7773      2.5909      0.0769      3.5846     42.3761     15.3424
  1177.5000    981.5668      7.7763      2.5868      0.0521      3.8328     42.4409     14.6390
  1177.6000    981.5668      7.7763      2.5983      0.0861      3.1310     41.3150     14.0981
  1177.7000    981.5668      7.7763      2.6134      0.1106      2.2170     38.2204     14.0627
  1177.8000    960.8064      7.7772      2.6172      0.1081      1.9849     34.8846     13.9050
  1177.9000    960.8064      7.7772      2.6004      0.1080      3.0046     33.8514     12.9234
  1178.0000    955.9066      7.7758      2.5704      0.0146      4.8230     34.4236     12.1775
  1178.1000    955.9066      7.7758      2.5472      0.0621      6.2306     34.8885     12.7224
  1178.2000    955.9066      7.7758      2.5341      0.0623      7.0225     35.7076     13.5283
  1178.3000   1004.8981      7.7763      2.5225      0.0484      7.7277     36.4072     13.5171
  1178.4000   1004.8981      7.7763      2.5092      0.0425      8.5342     35.2007     13.5646
  1178.5000    965.2999      7.7767      2.4915      0.0510      9.6082     33.0713     14.2790
  1178.6000    965.2999      7.7767      2.4636      0.0540     11.2943     33.0733     15.0585
  1178.7000    965.2999      7.7767      2.4274     -0.0002     13.4920     35.7281     15.4870
  1178.8000    965.9352      7.7771      2.3842      0.0344     16.1094     39.4003     15.7901
  1178.9000    965.9352      7.7771      2.3143      0.0820     20.3465     42.6608     16.5637
  1179.0000    999.0675      7.7824      2.2101      0.0091     26.6625     44.1245     17.9537
  1179.1000    999.0675      7.7824      2.1112     -0.0534     32.6522     43.7493     19.6968
