~Version Information
VERS.                      2.0: CWLS Log ASCII Standard - VERSION 2.0
WRAP.                       NO: One line per depth step
~Well Information Block
STRT.FT               630.0000: 
STOP.FT              1156.0000: 
STEP.FT                 0.2500: 
NULL.                -999.2500: 
COMP.          Pioneer Natural Resources: COMPANY
WELL.          Drewmeister 34-34: WELL
FLD.           Purgatoire River: FIELD
LOC.           958' FSL & 1857' FEL: LOCATION
STAT.                 Colorado: State
CNTY.               Las Animas: COUNTY
CTRY. USA : Country
SECT. 34 : Section
TOWN. 32S : Township
RANG. 65W : Range
SRVC.                Patterson: SERVICE COMPANY
DATE.          Mon Oct 03 23:24:37 2005: LOG DATE
API.           05 071 08131 00: UNIQUE WELL ID
~Curve Information Block
DEPT.FT            0 000 00 00: Depth
SN.Ohm-m                      : IEL Short Normal
SP.mV                         : IEL Spontaneous Potential
DIR.Ohm-m                     : IEL Induction Resistivity
GR.GAPI                       : Gamma Ray
~Parameter Information Block
~A  Depth        SN          SP         DIR          GR     
# ...
  1065.5000     40.8049    799.9761     21.4166     82.9286
  1065.7500     51.7311    799.9761     21.0937     83.8801
  1066.0000     76.9944    799.9761     20.7454     83.9684
  1066.2500    120.2409    799.9761     20.3774     83.0957
  1066.5000    193.3296    799.9761     19.9946     81.3889
  1066.7500    306.2262    799.9761     19.6119     80.7579
  1067.0000    440.7197    799.9761     19.2610     81.3099
  1067.2500    552.3474    799.9761     18.9854     82.7186
  1067.5000    593.9207    799.9761     18.8268     86.2415
  1067.7500    536.1185    799.9761     18.8081     89.4079
  1068.0000    392.6322    799.9761     18.9226     95.1154
  1068.2500    226.0909    799.9761     19.1312     99.5324
  1068.5000    103.1197    799.9761     19.3752    107.4180
  1068.7500     42.7973    799.9761     19.6000    113.5960
  1069.0000     22.8264    799.9761     19.7773    123.2529
  1069.2500     18.1390    799.9761     19.9093    128.8273
  1069.5000     17.2200    799.9761     20.0137    134.6096
  1069.7500     17.1128    799.9761     20.1029    137.0035
  1070.0000     17.5277    799.9761     20.1743    139.6616
  1070.2500     18.7030    799.9761     20.2153    140.9346
  1070.5000     20.6669    799.9761     20.2166    140.6042
  1070.7500     22.8851    799.9761     20.1807    137.7912
  1071.0000     24.5508    799.9761     20.1194    129.1512
  1071.2500     25.2272    799.9761     20.0451    121.2110
  1071.5000     25.0725    799.9761     19.9666    108.5725
  1071.7500     24.4972    799.9761     19.8914    101.3371
  1072.0000     23.7396    799.9761     19.8281     94.4994
  1072.2500     22.7829    799.9761     19.7835     93.2167
  1072.5000     21.6187    799.9761     19.7562     96.2112
  1072.7500     20.5462    799.9761     19.7354    101.0627
  1073.0000     20.3415    799.9761     19.7068    110.6901
  1073.2500     22.5921    799.9761     19.6620    116.6888
  1073.5000     30.0010    799.9761     19.5979    121.6557
  1073.7500     44.3419    799.9761     19.5099    121.5500
  1074.0000     61.1553    799.9761     19.3901    117.7764
  1074.2500     69.3105    799.9761     19.2371    114.4270
  1074.5000     62.3659    799.9761     19.0690    109.9540
  1074.7500     47.1759    799.9761     18.9230    107.4376
  1075.0000     34.9462    799.9761     18.8392    103.5849
  1075.2500     29.2403    799.9761     18.8408    100.7120
  1075.5000     27.1269    799.9761     18.9250     96.6837
  1075.7500     26.0225    799.9761     19.0701     94.9295
  1076.0000     25.5274    799.9761     19.2491     93.9780
  1076.2500     25.6829    799.9761     19.4406     93.8664
  1076.5000     25.9564    799.9761     19.6276     93.5627
  1076.7500     25.5191    799.9761     19.7880     93.4497
  1077.0000     24.0631    799.9761     19.8935     94.3497
  1077.2500     22.2478    799.9761     19.9224     95.7670
  1077.5000     21.0575    799.9761     19.8756     98.1031
  1077.7500     20.7393    799.9761     19.7769     98.9865
  1078.0000     20.6809    799.9761     19.6548     98.4934
  1078.2500     20.3978    799.9761     19.5255     96.9644
  1078.5000     20.1096    799.9761     19.3935     93.6031
  1078.7500     20.1080    799.9761     19.2645     91.3566
  1079.0000     20.3167    799.9761     19.1548     89.0182
  1079.2500     20.6212    799.9761     19.0825     88.2832
  1079.5000     21.0224    799.9761     19.0487     88.0306
  1079.7500     21.4702    799.9761     19.0307     88.2884
  1080.0000     21.8279    799.9761     18.9994     89.4660
  1080.2500     21.9965    799.9761     18.9465     90.8107
  1080.5000     21.9830    799.9761     18.8885     93.3632
  1080.7500     21.8323    799.9761     18.8438     95.2570
  1081.0000     21.5956    799.9761     18.8089     98.3397
  1081.2500     21.3590    799.9761     18.7642    100.4533
  1081.5000     21.1266    799.9761     18.7015    103.1235
  1081.7500     20.7728    799.9761     18.6404    104.2211
  1082.0000     20.2476    799.9761     18.6118    104.7754
  1082.2500     19.6361    799.9761     18.6247    104.7389
  1082.5000     19.0254    799.9761     18.6494    104.9546
  1082.7500     18.5404    799.9761     18.6360    105.7581
  1083.0000     18.3629    799.9761     18.5522    108.3014
  1083.2500     18.4846    799.9761     18.4044    110.7236
  1083.5000     18.5614    799.9761     18.2221    114.9084
  1083.7500     18.2538    799.9761     18.0292    117.8995
  1084.0000     17.6552    799.9761     17.8309    122.4354
  1084.2500     17.1877    799.9761     17.6218    124.8933
  1084.5000     17.1351    799.9761     17.3972    126.0343
  1084.7500     17.4135    799.9761     17.1575    124.6330
  1085.0000     17.7200    799.9761     16.9078    120.5792
  1085.2500     17.8323    799.9761     16.6605    117.9736
  1085.5000     17.8328    799.9761     16.4394    115.7962
  1085.7500     18.0230    799.9761     16.2782    115.6842
  1086.0000     18.7471    799.9761     16.2082    117.3394
  1086.2500     20.7411    799.9761     16.2395    119.4198
  1086.5000     25.7035    799.9761     16.3474    122.9069
  1086.7500     35.6332    799.9761     16.4767    124.3448
  1087.0000     50.4872    799.9761     16.5678    123.2816
  1087.2500     68.8400    799.9761     16.5885    120.0805
  1087.5000     95.5112    799.9761     16.5477    112.8997
  1087.7500    144.8694    799.9761     16.4809    108.1512
  1088.0000    229.0511    799.9761     16.4264    103.9385
  1088.2500    344.9832    799.9761     16.4109    104.0623
  1088.5000    466.9865    799.9761     16.4506    108.6028
  1088.7500    538.8915    799.9761     16.5552    113.7106
  1089.0000    502.4232    799.9761     16.7305    122.6080
  1089.2500    370.4801    799.9761     16.9765    128.3500
  1089.5000    239.7833    799.9760     17.2846    135.4804
  1089.7500    206.7008    799.9705     17.6336    139.0353
  1090.0000    299.9695    799.9330     17.9898    143.0045
  1090.2500    474.7539    799.7449     18.3127    145.1455
  1090.5000    640.2601    799.0004     18.5723    147.8005
  1090.7500    718.1764    796.6741     18.7683    148.8598
  1091.0000    688.8429    790.9501     18.9362    148.5163
  1091.2500    591.7619    779.9229     19.1320    146.8873
  1091.5000    501.2564    763.5192     19.4083    143.3417
  1091.7500    484.7595    745.3508     19.7980    141.1366
  1092.0000    557.5333    732.0604     20.3093    139.1216
  1092.2500    674.0657    729.5335     20.9252    138.8340
  1092.5000    772.5372    738.8437     21.6029    139.8552
  1092.7500    825.9980    755.5908     22.2777    141.1068
  1093.0000    844.5494    773.0994     22.8829    142.4593
  1093.2500    842.6240    786.4785     23.3807    142.2234
  1093.5000    813.9483    794.3941     23.7790    140.2570
  1093.7500    730.6600    798.0897     24.1185    138.9215
  1094.0000    579.3317    799.4596     24.4436    138.7383
  1094.2500    406.0031    799.8630     24.7849    139.8946
  1094.5000    282.9993    799.9570     25.1534    141.8471
  1094.7500    224.8808    799.9741     25.5405    142.1657
  1095.0000    189.9551    799.9761     25.9177    140.5274
  1095.2500    153.2780    799.9745     26.2511    138.4238
  1095.5000    135.5886    799.9614     26.5258    134.8517
  1095.7500    169.4653    799.8875     26.7538    132.7332
  1096.0000    253.5023    799.5654     26.9555    130.7802
  1096.2500    340.9499    798.4436     27.1372    130.8150
  1096.5000    385.1295    795.2898     27.2962    133.2427
  1096.7500    391.0566    788.0575     27.4464    135.8462
  1097.0000    404.9335    774.3806     27.6259    138.9734
  1097.2500    459.4977    752.7956     27.8687    139.3401
  1097.5000    540.9606    724.0134     28.1700    136.8385
  1097.7500    616.2264    691.1984     28.4821    133.8380
  1098.0000    664.8186    658.9512     28.7409    129.3335
  1098.2500    670.2845    631.8932     28.8960    127.2803
  1098.5000    637.0786    613.9712     28.9151    125.8170
  1098.7500    615.2141    608.4314     28.7770    125.1160
