~Version Information
 VERS.                      2.0: CWLS Log ASCII Standard - VERSION 2.0
 WRAP.                       NO: One line per depth step
 ~Well Information Block
 STRT.FT               115.0000: 
 STOP.FT              1768.2500: 
 STEP.FT                 0.2500: 
 NULL.                -999.2500: 
 COMP.          Petrogulf Corporation: COMPANY
 WELL.           Parsons 23-15V: WELL
 FLD.           Purgatorie River: FIELD
 LOC.           2095' FSL & 1817' FWL--API 05 071 07556 00----: LOCATION
 CNTY.               Las Animas: COUNTY
 SRVC.                         : SERVICE COMPANY
 DATE.          Fri Apr 19 16:58:41 2002: LOG DATE
 UWI.                          : UNIQUE WELL ID
 STAT.                       CO: STATE
 PROV.                         :Province
 ~Curve Information Block
 DEPT.FT            0 000 00 00: Depth
 SP.mV                         : DIL Spontaneous Potential
 RILD.Ohm-m                    : DIL Deep Resistivity
 RILM.Ohm-m                    : DIL Medium Resistivity
 RLL3.Ohm-m                    : DIL Shallow Resistivity
 GR.GAPI                       : Gamma Ray
 ~Parameter Information Block
 ~A  Depth        SP         RILD        RILM        RLL3         GR     
# ...
   563.0000   -257.3277     14.2172     14.8959     16.5907    167.8432
   563.2500   -257.3820     13.4732     14.2449     16.6502    165.8289
   563.5000   -257.4144     12.8124     13.5923     16.4763    164.4693
   563.7500   -257.4048     12.2478     12.9477     16.1770    163.9953
   564.0000   -257.3376     11.7770     12.3214     15.8335    164.0662
   564.2500   -257.2061     11.3898     11.7248     15.4081    164.7206
   564.5000   -257.0141     11.0729     11.1706     14.7889    166.0498
   564.7500   -256.7740     10.8137     10.6718     13.9414    167.3477
   565.0000   -256.5035     10.6018     10.2387     13.0047    167.3606
   565.2500   -256.2222     10.4295      9.8773     12.2145    165.3492
   565.5000   -255.9492     10.2922      9.5884     11.7284    161.3716
   565.7500   -255.7000     10.1873      9.3687     11.5270    155.6877
   566.0000   -255.4834     10.1134      9.2137     11.4694    148.6805
   566.2500   -255.3024     10.0684      9.1192     11.4300    141.5789
   566.5000   -255.1570     10.0495      9.0844     11.3900    136.4652
   566.7500   -255.0517     10.0546      9.1111     11.4315    134.7833
   567.0000   -254.9984     10.0833      9.2019     11.6744    135.8869
   567.2500   -255.0117     10.1387      9.3567     12.2226    137.4242
   567.5000   -255.0973     10.2272      9.5691     13.1308    137.3630
   567.7500   -255.2441     10.3568      9.8265     14.3502    135.7078
   568.0000   -255.4268     10.5343     10.1131     15.6608    134.1775
   568.2500   -255.6149     10.7638     10.4153     16.7097    134.2630
   568.5000   -255.7808     11.0468     10.7281     17.2364    135.8100
   568.7500   -255.9038     11.3830     11.0556     17.3006    137.2653
   569.0000   -255.9730     11.7704     11.4099     17.2169    136.9359
   569.2500   -255.9876     12.2035     11.8056     17.2307    134.1653
   569.5000   -255.9550     12.6706     12.2574     17.3413    129.6676
   569.7500   -255.8886     13.1524     12.7760     17.5049    124.8194
   570.0000   -255.8080     13.6250     13.3655     17.9250    120.5774
   570.2500   -255.7338     14.0651     14.0174     19.0404    116.9531
   570.5000   -255.6805     14.4570     14.7055     21.2400    113.4211
   570.7500   -255.6519     14.7966     15.3850     24.5559    109.9947
   571.0000   -255.6479     15.0921     15.9979     28.4087    108.0360
   571.2500   -255.6735     15.3601     16.4887     31.5483    109.7075
   571.5000   -255.7365     15.6193     16.8233     32.5991    116.3245
   571.7500   -255.8335     15.8849     17.0020     31.0996    127.1581
   572.0000   -255.9416     16.1650     17.0592     27.9824    139.7528
   572.2500   -256.0258     16.4592     17.0491     24.8226    151.3852
   572.5000   -256.0555     16.7606     17.0263     22.6662    160.5368
   572.7500   -256.0127     17.0581     17.0315     21.6250    167.2480
   573.0000   -255.8907     17.3414     17.0863     21.3129    172.1220
   573.2500   -255.6925     17.6068     17.1969     21.3859    175.2911
   573.5000   -255.4328     17.8611     17.3617     21.7124    176.6916
   573.7500   -255.1358     18.1217     17.5785     22.2534    176.8466
   574.0000   -254.8279     18.4107     17.8491     22.9106    176.5868
   574.2500   -254.5279     18.7500     18.1816     23.5071    176.2088
   574.5000   -254.2448     19.1584     18.5921     23.9061    175.5520
   574.7500   -253.9825     19.6514     19.1067     24.1480    174.6604
   575.0000   -253.7436     20.2399     19.7617     24.4857    173.6476
   575.2500   -253.5323     20.9238     20.5998     25.3445    171.8918
   575.5000   -253.3559     21.6879     21.6624     27.3321    167.8820
   575.7500   -253.2256     22.5033     22.9773     31.2936    159.9719
   576.0000   -253.1531     23.3357     24.5447     38.1811    147.3330
   576.2500   -253.1423     24.1541     26.3218     48.5494    130.6376
   576.5000   -253.1826     24.9338     28.2078     61.8507    112.2054
   576.7500   -253.2510     25.6536     30.0393     76.0362     95.3367
   577.0000   -253.3209     26.2935     31.6118     87.9397     83.2212
   577.2500   -253.3706     26.8368     32.7318     94.4648     78.1498
   577.5000   -253.3898     27.2737     33.2817     93.9638     81.0957
   577.7500   -253.3799     27.6001     33.2544     86.9078     91.2780
   578.0000   -253.3483     27.8125     32.7397     75.4787    105.8394
   578.2500   -253.2990     27.9052     31.8834     62.5486    120.4606
   578.5000   -253.2302     27.8753     30.8425     50.7012    131.1320
   578.7500   -253.1390     27.7312     29.7519     41.5585    135.9823
   579.0000   -253.0263     27.4959     28.7051     35.5177    135.9418
   579.2500   -252.8939     27.2027     27.7515     32.0171    134.0040
   579.5000   -252.7418     26.8852     26.9087     30.1490    133.5109
   579.7500   -252.5712     26.5708     26.1814     29.1604    136.2298
   580.0000   -252.3926     26.2805     25.5746     28.5949    141.4266
   580.2500   -252.2272     26.0309     25.0981     28.2177    146.7346
   580.5000   -252.0947     25.8389     24.7646     27.9502    150.0433
   580.7500   -251.9972     25.7236     24.5881     27.8443    150.7154
   581.0000   -251.9147     25.7048     24.5827     28.0233    149.4354
   581.2500   -251.8155     25.7986     24.7613     28.6232    147.2308
   581.5000   -251.6729     26.0114     25.1322     29.8373    144.5597
   581.7500   -251.4750     26.3358     25.6937     31.9873    141.1192
   582.0000   -251.2232     26.7532     26.4282     35.3936    136.4150
   582.2500   -250.9261     27.2404     27.3001     40.0231    130.4876
   582.5000   -250.5954     27.7776     28.2602     45.2578    124.0962
   582.7500   -250.2446     28.3542     29.2571     50.0781    118.2375
   583.0000   -249.8880     28.9680     30.2495     53.5222    113.3432
   583.2500   -249.5377     29.6226     31.2094     55.0495    108.7316
   583.5000   -249.2040     30.3232     32.1133     54.6744    102.9897
   583.7500   -248.8983     31.0719     32.9330     52.9663     95.2719
   584.0000   -248.6351     31.8591     33.6369     50.9103     86.2668
   584.2500   -248.4312     32.6578     34.2088     49.5520     77.6861
   584.5000   -248.3012     33.4265     34.6689     49.5656     70.9470
   584.7500   -248.2518     34.1229     35.0773     51.0446     66.5458
   585.0000   -248.2757     34.7175     35.5116     53.6157     64.2983
   585.2500   -248.3493     35.1987     36.0323     56.6778     63.6349
   585.5000   -248.4401     35.5698     36.6562     59.5305     63.8715
   585.7500   -248.5203     35.8477     37.3497     61.3979     64.6683
   586.0000   -248.5755     36.0612     38.0378     61.5772     66.1513
   586.2500   -248.6020     36.2428     38.6234     59.8217     68.2892
   586.5000   -248.5998     36.4141     39.0158     56.6703     70.2235
   586.7500   -248.5695     36.5761     39.1580     53.2810     70.5639
   587.0000   -248.5119     36.7110     39.0412     50.7661     68.5224
   587.2500   -248.4283     36.7939     38.7008     49.5745     64.6602
   587.5000   -248.3211     36.8059     38.2019     49.4332     60.3765
   587.7500   -248.1964     36.7441     37.6267     49.7940     56.8397
   588.0000   -248.0619     36.6250     37.0589     50.2976     54.6157
   588.2500   -247.9226     36.4801     36.5654     50.8653     53.9760
   588.5000   -247.7800     36.3444     36.1815     51.4561     54.9528
   588.7500   -247.6373     36.2421     35.9126     51.8609     56.9640
   589.0000   -247.5041     36.1780     35.7489     51.8122     58.7418
   589.2500   -247.3935     36.1395     35.6815     51.2801     58.9982
   589.5000   -247.3134     36.1067     35.7058     50.5785     57.4339
   589.7500   -247.2583     36.0627     35.8134     50.1391     55.1508
   590.0000   -247.2084     35.9957     35.9809     50.1849     53.8342
   590.2500   -247.1399     35.8972     36.1669     50.6033     54.3607
   590.5000   -247.0364     35.7633     36.3187     51.0903     56.3314
   590.7500   -246.8954     35.5983     36.3838     51.4178     59.0178
