~Version Information
VERS.                      2.0: CWLS Log ASCII Standard - VERSION 2.0
WRAP.                       NO: One line per depth step
~Well Information Block
STRT.FT               451.7500: 
STOP.FT              1387.0000: 
STEP.FT                 0.2500: 
NULL.                -999.2500: 
COMP.          Petrogulf Corporation: COMPANY
WELL.          Great Plains 22-22R: WELL
FLD.           Purgatoire River: FIELD
LOC.           2042' FNL & 1657' FWL--: LOCATION
PROV.                 Colorado: PROVINCE
CNTY.               Las Animas: COUNTRY
SRVC.                Patterson: SERVICE COMPANY
DATE.          Fri Sep 09 10:42:01 2005: LOG DATE
UWI.           05 071 08028 00: UNIQUE WELL ID
~Curve Information Block
DEPT.FT            0 000 00 00: Depth
SP.mV                         : DIL Spontaneous Potential
RILD.Ohm-m                    : DIL Deep Resistivity
RILM.Ohm-m                    : DIL Medium Resistivity
RLL3.Ohm-m                    : DIL Shallow Resistivity
GR.GAPI                       : Gamma Ray
~Parameter Information Block
~A  Depth        SP         RILD        RILM        RLL3         GR     
# ...
   563.7500   1892.0000      7.3596      8.6343   2000.0000    120.6821
   564.0000   1892.0000      7.2777      8.5302   2000.0000    123.9771
   564.2500   1892.0000      7.1730      8.3662   2000.0000    126.4722
   564.5000   1892.0000      7.0478      8.1490   2000.0000    129.7508
   564.7500   1892.0000      6.9096      7.8841   2000.0000    131.2152
   565.0000   1892.0000      6.7691      7.5822   2000.0000    132.0675
   565.2500   1892.0000      6.6368      7.2641   2000.0000    131.8580
   565.5000   1892.0000      6.5200      6.9574   2000.0000    130.9795
   565.7500   1892.0000      6.4217      6.6884   2000.0000    130.5652
   566.0000   1892.0000      6.3419      6.4732   2000.0000    131.1686
   566.2500   1892.0000      6.2787      6.3159   2000.0000    132.6393
   566.5000   1892.0000      6.2303      6.2134   2000.0000    135.7746
   566.7500   1892.0000      6.1958      6.1614   2000.0000    137.5160
   567.0000   1892.0000      6.1756      6.1583   2000.0000    138.0273
   567.2500   1892.0000      6.1708      6.2025   2000.0000    136.7936
   567.5000   1892.0000      6.1830      6.2885   2000.0000    133.8401
   567.7500   1892.0000      6.2137      6.4057   2000.0000    132.2232
   568.0000   1892.0000      6.2646      6.5410   2000.0000    131.5180
   568.2500   1892.0000      6.3375      6.6839   2000.0000    132.2394
   568.5000   1892.0000      6.4343      6.8297   2000.0000    134.4175
   568.7500   1892.0000      6.5554      6.9782   2000.0000    136.1088
   569.0000   1892.0000      6.6983      7.1307   2000.0000    138.5820
   569.2500   1892.0000      6.8584      7.2874   2000.0000    140.2181
   569.5000   1892.0000      7.0302      7.4464   2000.0000    142.6326
   569.7500   1892.0000      7.2093      7.6053   2000.0000    143.8543
   570.0000   1892.0000      7.3915      7.7643   2000.0000    144.1859
   570.2500   1892.0000      7.5724      7.9276   2000.0000    143.1885
   570.5000   1892.0000      7.7470      8.1027   2000.0000    140.4233
   570.7500   1892.0000      7.9111      8.2977   2000.0000    138.2978
   571.0000   1892.0000      8.0626      8.5169   2000.0000    135.3599
   571.2500   1892.0000      8.2036      8.7583   2000.0000    133.7221
   571.5000   1892.0000      8.3405      9.0139   2000.0000    131.7413
   571.7500   1892.0000      8.4830      9.2727   2000.0000    130.5747
   572.0000   1892.0000      8.6422      9.5258   2000.0000    128.5934
   572.2500   1892.0000      8.8276      9.7697   2000.0000    126.9902
   572.5000   1892.0000      9.0460     10.0075   2000.0000    124.5312
   572.7500   1892.0000      9.3008     10.2488   2000.0000    123.2866
   573.0000   1892.0000      9.5914     10.5096   2000.0000    122.7013
   573.2500   1892.0000      9.9137     10.8128   2000.0000    123.4058
   573.5000   1892.0000     10.2597     11.1845   2000.0000    125.8731
   573.7500   1892.0000     10.6176     11.6467   2000.0000    127.8021
   574.0000   1892.0000     10.9733     12.2086   2000.0000    129.6655
   574.2500   1892.0000     11.3129     12.8607   2000.0000    129.7143
   574.5000   1892.0000     11.6256     13.5752   2000.0000    127.9209
   574.7500   1892.0000     11.9056     14.3107   2000.0000    125.6504
   575.0000   1892.0000     12.1527     15.0193   2000.0000    121.2194
   575.2500    -60.3061     12.3704     15.6505   2000.0000    118.2313
   575.5000    -65.2638     12.5646     16.1537   2000.0000    114.9781
   575.7500    -67.6187     12.7408     16.4870   2000.0000    113.9796
   576.0000    -67.6766     12.9028     16.6319   2000.0000    113.8410
   576.2500    -65.7546     13.0518     16.6047   2000.0000    114.2446
   576.5000    -62.0729     13.1846     16.4502   2000.0000    115.4212
   576.7500    -56.8270     13.2923     16.2236   2000.0000    116.7587
   577.0000    -50.2838     13.3617     15.9719   2000.0000    119.7116
   577.2500    -42.8064     13.3795     15.7251   2000.0000    122.1093
   577.5000    -34.8417     13.3397     15.4954   2000.0000    125.6905
   577.7500    -26.9364     13.2488     15.2817   2000.0000    127.6130
   578.0000    -19.7776     13.1247     15.0756   2000.0000    129.1482
   578.2500    -14.1645     12.9901     14.8691   2000.0000    129.2225
   578.5000    -10.8114     12.8630     14.6608   2000.0000    128.6876
   578.7500     -9.9856     12.7516     14.4594   2000.0000    128.6671
   579.0000    -11.1691     12.6569     14.2826   2000.0000    130.0503
   579.2500    -13.0392     12.5778     14.1512   2000.0000    131.7640
   579.5000    -13.9179     12.5147     14.0814   2000.0000    134.1381
   579.7500    -12.4765     12.4666     14.0778   2000.0000    134.6608
   580.0000     -8.2505     12.4270     14.1287   2000.0000    133.1557
   580.2500     -1.6845     12.3843     14.2060   2000.0000    130.9087
   580.5000      6.1953     12.3269     14.2696   2000.0000    126.7777
   580.7500     14.1952     12.2512     14.2783   2000.0000    124.2038
   581.0000     21.2699     12.1632     14.2039   2000.0000    121.6504
   581.2500     26.7119     12.0754     14.0429   2000.0000    121.1972
   581.5000     30.2260     11.9979     13.8163   2000.0000    122.1654
   581.7500     31.8781     11.9332     13.5582   2000.0000    123.2514
   582.0000     31.9399     11.8759     13.3003   2000.0000    124.2874
   582.2500     30.7033     11.8162     13.0615   2000.0000    124.2051
   582.5000     28.3427     11.7452     12.8474   2000.0000    122.9331
   582.7500     24.8544     11.6588     12.6558   2000.0000    121.4604
   583.0000     20.0656     11.5593     12.4848   2000.0000    118.6445
   583.2500     13.7096     11.4550     12.3363   2000.0000    116.7577
   583.5000      5.5656     11.3595     12.2150   2000.0000    114.8878
   583.7500     -4.3535     11.2880     12.1256   2000.0000    114.6414
   584.0000    -15.6506     11.2531     12.0712   2000.0000    115.3797
   584.2500    -27.5536     11.2612     12.0539   2000.0000    115.9243
   584.5000    -39.1082     11.3107     12.0774   2000.0000    115.7269
   584.7500    -49.3715     11.3941     12.1477   2000.0000    114.6857
   585.0000    -57.4057     11.5020     12.2722   2000.0000    112.0925
   585.2500    -62.1926     11.6276     12.4553   2000.0000    110.1325
   585.5000    -62.8011     11.7703     12.6957   2000.0000    107.7397
   585.7500    -58.8368     11.9343     12.9879   2000.0000    106.9132
   586.0000    -50.7686     12.1260     13.3265   2000.0000    106.8740
   586.2500    -39.8321     12.3485     13.7101   2000.0000    107.2037
   586.5000    -27.6624     12.5988     14.1421   2000.0000    107.1929
   586.7500    -15.9517     12.8671     14.6263   2000.0000    106.5353
   587.0000     -6.1459     13.1370     15.1616   2000.0000    104.7181
   587.2500      0.9778     13.3882     15.7352   2000.0000    103.2138
   587.5000      5.7408     13.6009     16.3179   2000.0000    101.0940
   587.7500      9.5268     13.7628     16.8613   2000.0000    100.1573
   588.0000     13.9917     13.8735     17.3027   2000.0000     99.6555
   588.2500     19.9799     13.9423     17.5786   2000.0000     99.4684
   588.5000     27.0439     13.9815     17.6473   2000.0000     98.1679
   588.7500     33.9328     13.9996     17.5066   2000.0000     96.2950
   589.0000     39.5099     13.9995     17.1961   2000.0000     92.6195
   589.2500     43.3270     13.9809     16.7807   2000.0000     90.2480
   589.5000     45.5981     13.9423     16.3265   2000.0000     87.4880
   589.7500     46.8386     13.8826     15.8832   2000.0000     86.3813
   590.0000     47.5303     13.8010     15.4786   2000.0000     86.5087
   590.2500     47.9746     13.6982     15.1243   2000.0000     88.2654
   590.5000     48.3068     13.5784     14.8249   2000.0000     93.2471
   590.7500     48.5683     13.4494     14.5837   2000.0000     97.2301
   591.0000     48.7673     13.3235     14.4029   2000.0000    102.3222
   591.2500     48.9059     13.2160     14.2818   2000.0000    104.5198
   591.5000     48.9854     13.1430     14.2183   2000.0000    105.8902
