~Version Information
VERS.                      2.0: CWLS Log ASCII Standard - VERSION 2.0
WRAP.                       NO: One line per depth step
~Well Information Block
STRT.FT                -2.5000: 
STOP.FT              2329.5000: 
STEP.FT                 0.2500: 
NULL.                -999.2500: 
COMP.          Pioneer Natural Resources: COMPANY
WELL.              Whinny 42-2: WELL
FLD.           Purgatorie River: FIELD
LOC.           1836' FNL & 466' FEL--: LOCATION
PROV.                       CO: PROVINCE
CNTY.               Las Animas: COUNTRY
SRVC.          Patterson Wireline: SERVICE COMPANY
DATE.          Mon Aug 29 13:18:04 2005: LOG DATE
UWI.           05 071 08406 00: UNIQUE WELL ID
~Curve Information Block
DEPT.FT            0 000 00 00: Depth
CCL.                          : Casing Collar Locator
TT3.usec                      : CBL 3' Travel Time
AMP3.mV                       : CBL 3' Amplitude
GR.GAPI                       : Gamma Ray
~Parameter Information Block
~A  Depth       CCL         TT3         AMP3         GR     
# ...
  2007.5000      0.0000    518.9809      5.8562     98.1372
  2007.7500      0.0000    486.9883      5.9203     97.6921
  2008.0000      0.0000    463.7941      5.9810     96.4571
  2008.2500      0.0000    450.1518      6.0256     94.0242
  2008.5000      0.0000    443.0167      6.0468     90.1519
  2008.7500      0.0000    439.0097      6.0487     85.8319
  2009.0000      0.0000    436.0993      6.0430     82.7891
  2009.2500      0.0000    433.5192      6.0413     81.6689
  2009.5000      0.0000    431.1462      6.0504     81.3315
  2009.7500      0.0000    429.0831      6.0703     80.2979
  2010.0000      0.0000    427.4399      6.0964     78.5973
  2010.2500      0.0000    426.2533      6.1231     77.8549
  2010.5000      0.0000    425.4728      6.1447     79.7474
  2010.7500      0.0000    425.2420      6.1565     84.6462
  2011.0000      0.0000    426.4044      6.1529     91.4928
  2011.2500      0.0000    431.0963      6.1237     98.3187
  2011.5000      0.0000    442.4901      6.0536    102.7791
  2011.7500      0.0000    462.9568      5.9385    102.9497
  2012.0000      0.0000    491.7292      5.8088     98.4297
  2012.2500      0.0000    524.8519      5.7225     90.8283
  2012.5000      0.0000    557.5645      5.7073     82.8457
  2012.7500      0.0000    585.7128      5.7023     76.5788
  2013.0000      0.0000    604.6120      5.5865     72.6002
  2013.2500      0.0000    608.0402      5.2976     70.4322
  2013.5000      0.0000    590.6232      4.9123     69.4745
  2013.7500      0.0000    553.5481      4.5766     69.3512
  2014.0000      0.0000    508.5871      4.3609     69.7193
  2014.2500      0.0000    473.7143      4.2090     70.0996
  2014.5000      0.0000    461.4771      4.0131     69.9876
  2014.7500      0.0000    471.2971      3.7105     69.1429
  2015.0000      0.0000    494.1537      3.3216     67.7812
  2015.2500      0.0000    524.0798      2.9288     66.3832
  2015.5000      0.0000    562.1165      2.6227     65.4218
  2015.7500      0.0000    608.7615      2.4560     65.5424
  2016.0000      0.0000    656.6056      2.4304     67.7857
  2016.2500      0.0000    693.8371      2.5139     72.7673
  2016.5000      0.0000    714.1284      2.6580     79.2701
  2016.7500      0.0000    721.2135      2.8093     84.3603
  2017.0000      0.0000    723.4724      2.9253     85.7317
  2017.2500      0.0000    725.2442      2.9900     83.8252
  2017.5000      0.0000    724.4884      3.0165     81.2708
  2017.7500      0.0000    717.6945      3.0336     80.4325
  2018.0000      0.0000    704.1853      3.0718     81.7211
  2018.2500      0.0000    685.3730      3.1570     83.7944
  2018.5000      0.0000    663.2208      3.3053     84.7087
  2018.7500      0.0000    641.4695      3.5143     83.0134
  2019.0000      0.0000    625.8564      3.7595     78.5280
  2019.2500      0.0000    620.1569      4.0059     72.5004
  2019.5000      0.0000    622.6995      4.2304     66.8786
  2019.7500      0.0000    628.5295      4.4314     63.0932
  2020.0000      0.0000    634.0961      4.6187     61.2417
  2020.2500      0.0000    638.7894      4.7953     60.3082
  2020.5000      0.0000    643.2429      4.9524     59.2364
  2020.7500      0.0000    647.7516      5.0771     57.8684
  2021.0000      0.0000    652.1171      5.1617     56.8389
  2021.2500      0.0000    656.0057      5.2047     56.6622
  2021.5000      0.0000    659.0887      5.2090     57.2194
  2021.7500      0.0000    661.1473      5.1823     58.1205
  2022.0000      0.0000    662.1312      5.1407     59.2246
  2022.2500      0.0000    661.9867      5.1087     60.6922
  2022.5000      0.0000    660.2703      5.1115     62.6173
  2022.7500      0.0000    656.1066      5.1614     64.5598
  2023.0000      0.0000    649.0959      5.2496     65.5311
  2023.2500      0.0000    640.8045      5.3514     64.7329
  2023.5000      0.0000    634.9756      5.4417     62.3070
  2023.7500      0.0000    635.1234      5.5053     59.2559
  2024.0000      0.0000    641.4909      5.5395     56.9182
  2024.2500      0.0000    650.8602      5.5489     56.6836
  2024.5000      0.0000    659.1481      5.5408     59.7245
  2024.7500      0.0000    663.6552      5.5220     66.3365
  2025.0000      0.0000    663.6510      5.5017     75.3635
  2025.2500      0.0000    660.2678      5.4939     84.6073
  2025.5000      0.0000    655.6396      5.5143     92.1667
  2025.7500      0.0000    651.0327      5.5706     97.3660
  2026.0000      0.0000    645.9507      5.6571    100.4973
  2026.2500      0.0000    639.4891      5.7599    102.2786
  2026.5000      0.0000    631.6001      5.8669    103.8325
  2026.7500      0.0000    621.9254      5.9736    106.2817
  2027.0000      0.0000    608.1827      6.0802    109.6247
  2027.2500      0.0000    587.7787      6.1856    112.4733
  2027.5000      0.0000    562.2010      6.2827    113.2169
  2027.7500      0.0000    538.6669      6.3612    110.9624
  2028.0000      0.0000    524.5828      6.4129    105.5320
  2028.2500      0.0000    519.3943      6.4334     97.4447
  2028.5000      0.0000    514.5986      6.4215     87.9784
  2028.7500      0.0000    503.8476      6.3944     78.6638
  2029.0000      0.0000    490.1956      6.4285     70.5731
  2029.2500      0.0000    479.7549      6.6904     64.0728
  2029.5000      0.0000    470.7227      7.3677     58.9375
  2029.7500      0.0000    454.8935      8.4828     54.5868
  2030.0000      0.0000    430.4411      9.7470     50.5775
  2030.2500      0.0000    407.0994     10.6523     47.0183
  2030.5000      0.0000    396.1024     10.7804     44.4143
  2030.7500      0.0000    398.8021     10.0806     43.1752
  2031.0000      0.0000    408.5918      8.8928     43.4653
  2031.2500      0.0000    422.4496      7.7063     45.3699
  2031.5000      0.0000    446.1228      6.8560     49.0006
  2031.7500      0.0000    485.8116      6.3939     54.4484
  2032.0000      0.0000    537.5103      6.1855     61.6888
  2032.2500      0.0000    587.8929      6.0775     70.4329
  2032.5000      0.0000    624.7350      5.9840     79.9095
  2032.7500      0.0000    644.2449      5.8809     88.8408
  2033.0000      0.0000    649.8984      5.7729     96.0296
  2033.2500      0.0000    647.9187      5.6711    101.2500
  2033.5000      0.0000    644.3906      5.5860    105.2666
  2033.7500      0.0000    643.6197      5.5244    108.6476
  2034.0000      0.0000    646.5214      5.4883    110.8466
  2034.2500      0.0000    650.1338      5.4745    110.8688
  2034.5000      0.0000    648.9738      5.4730    108.6441
  2034.7500      0.0000    637.1646      5.4706    105.3196
  2035.0000      0.0000    611.2857      5.4563    102.4375
  2035.2500      0.0000    574.3467      5.4286    101.1545
  2035.5000      0.0000    537.3454      5.3958    101.7587
  2035.7500      0.0000    513.2073      5.3672    103.2549
  2036.0000      0.0000    506.1872      5.3415    103.6490
  2036.2500      0.0000    508.5659      5.3064    101.3545
  2036.5000      0.0000    510.3770      5.2517     96.5959
  2036.7500      0.0000    511.4975      5.1827     91.3791
  2037.0000      0.0000    521.2726      5.1183     88.0348
  2037.2500      0.0000    546.3905      5.0740     87.6287
  2037.5000      0.0000    582.1729      5.0486     89.2720
  2037.7500      0.0000    616.6033      5.0275     90.6802
  2038.0000      0.0000    640.3427      4.9980     89.7949
  2038.2500      0.0000    651.6558      4.9625     86.4379
  2038.5000      0.0000    654.2267      4.9373     82.3711
  2038.7500      0.0000    653.1223      4.9354     79.6054
  2039.0000      0.0000    652.2799      4.9504     78.9780
  2039.2500      0.0000    653.3762      4.9559     80.3677
  2039.5000      0.0000    655.8492      4.9282     83.5988
  2039.7500      0.0000    658.2653      4.8700     88.6385
  2040.0000      0.0000    659.9320      4.8119     94.9686
  2040.2500      0.0000    661.1301      4.7872    101.0269
  2040.5000      0.0000    662.0675      4.8047    104.6438
  2040.7500      0.0000    662.2459      4.8444    104.4069
