~Version Information
 VERS.                                  2.0 : CWLS LAS VERSION
 WRAP.                                   NO : WRAPING MODE
 SWARE .                 MController 2.5.0E : SOFTWARE VERSION
~Well Information
 WELL.                         STATE 16-24V : WELL
 COMP.                      Petrogulf Corp. : COMPANY
 FLD.                      Purgatorie River : FIELD
 LOC.                NW/SE Sec 16 T33S R67W : LOCATION
 DATE.                      5/02/04-5/03/04 : DATE(S) LOGGED
 SRVC.       Blanco Geological Services LLC : SERVICE COMPANY
 STAT.                                   CO : STATE
 CNTY.                           Las Animas : COUNTY
 CTRY.                                  USA : COUNTRY
 API.                       05-071-08014-00 : API NUMBER
 STRT.FT                              40.00 : START DEPTH
 STOP.FT                            2380.00 : STOP DEPTH
 STEP.FT                               1.00 : DEPTH INCREMENT
 NULL.                                -9999 : NULL VALUE
~Curve information
 DEPTH.FT                                   :
 ROP.MIN/FT                                 :
 GAS.UNITS                                  :
~ASCII Log data
# ...
     1440.00        0.233         31.1 
     1441.00        0.200         28.6 
     1442.00        0.233         27.5 
     1443.00        0.233         25.0 
     1444.00        0.200         24.4 
     1445.00        0.233         24.6 
     1446.00        0.167         23.5 
     1447.00        0.167         23.5 
     1448.00        0.167         23.3 
     1449.00        0.133         23.3 
     1450.00        0.200         23.4 
     1451.00        0.133         23.1 
     1452.00        0.183         23.0 
     1453.00        0.167         23.6 
     1454.00        0.167         23.6 
     1455.00        0.100         23.4 
     1456.00        0.133         25.6 
     1457.00        0.133         25.6 
     1458.00        0.133         25.8 
     1459.00        0.133         25.2 
     1460.00        0.200         25.3 
     1461.00        0.167         25.3 
     1462.00        0.167         24.2 
     1463.00        0.267         23.3 
     1464.00        0.367         22.9 
     1465.00        0.400         21.5 
     1466.00        2.883         48.9 
     1467.00        0.300         41.6 
     1468.00        0.333         38.3 
     1469.00        0.233         35.1 
     1470.00        0.200         34.0 
     1471.00        0.417         31.8 
     1472.00        0.200         26.9 
     1473.00        0.233         27.2 
     1474.00        0.233         26.3 
     1475.00        0.233         23.8 
     1476.00        0.200         23.9 
     1477.00        0.167         23.8 
     1478.00        0.167         23.8 
     1479.00        0.200         22.3 
     1480.00        0.167         22.4 
     1481.00        0.167         21.3 
     1482.00        0.167         21.4 
     1483.00        0.167         21.4 
     1484.00        0.167         21.8 
     1485.00        0.233         21.3 
     1486.00        0.233         21.7 
     1487.00        0.183         21.1 
     1488.00        0.200         21.1 
     1489.00        0.200         21.1 
     1490.00        0.233         21.3 
     1491.00        0.233         21.2 
     1492.00        0.200         22.4 
     1493.00        0.167         22.4 
     1494.00        0.200         25.2 
     1495.00        0.167         25.2 
     1496.00        2.217         53.0 
     1497.00        0.767         62.0 
     1498.00        0.333         61.6 
     1499.00        0.233         57.1 
     1500.00        0.233         54.3 
     1501.00        0.233         52.5 
     1502.00        0.267         47.0 
     1503.00        0.267         45.5 
     1504.00        0.333         42.7 
     1505.00        0.283         41.9 
     1506.00        0.167         39.2 
     1507.00        0.200         37.7 
     1508.00        0.167         37.8 
     1509.00        0.167         34.8 
     1510.00        0.200         34.2 
     1511.00        0.167         33.8 
     1512.00        0.167         33.8 
     1513.00        0.200         33.0 
     1514.00        0.167         33.2 
     1515.00        0.167         33.4 
     1516.00        0.167         33.1 
     1517.00        0.200         32.5 
     1518.00        0.200         32.5 
     1519.00        0.233         31.7 
     1520.00        0.200         31.8 
     1521.00        0.200         31.5 
     1522.00        0.217         31.4 
     1523.00        0.200         31.4 
     1524.00        0.200         30.3 
     1525.00        0.200         28.4 
     1526.00        2.950         47.3 
     1527.00        0.533         37.0 
     1528.00        0.367         31.9 
     1529.00        0.333         31.4 
     1530.00        0.300         28.6 
     1531.00        0.233         25.9 
     1532.00        0.200         25.6 
     1533.00        0.233         23.1 
     1534.00        0.200         22.6 
     1535.00        0.233         22.8 
     1536.00        0.233         21.3 
     1537.00        0.233         21.3 
     1538.00        0.217         21.6 
     1539.00        0.267         22.4 
     1540.00        0.233         21.1 
     1541.00        0.267         20.9 
     1542.00        0.267         20.5 
     1543.00        0.233         20.2 
     1544.00        0.300         21.6 
     1545.00        0.367         22.5 
     1546.00        0.333         21.8 
     1547.00        0.433         22.7 
     1548.00        0.333         22.8 
     1549.00        0.250         22.3 
     1550.00        0.267         23.1 
     1551.00        0.300         22.4 
     1552.00        0.300         20.9 
     1553.00        0.300         20.3 
     1554.00        0.333         20.1 
     1555.00        0.267         20.6 
     1556.00        2.250         54.6 
     1557.00        0.300         56.0 
     1558.00        0.433         52.3 
     1559.00        0.400         48.5 
     1560.00        0.333         40.8 
     1561.00        0.267         37.7 
     1562.00        0.233         31.6 
     1563.00        0.233         29.0 
     1564.00        0.267         27.9 
     1565.00        0.183         25.5 
     1566.00        0.200         25.4 
     1567.00        0.233         24.5 
     1568.00        0.200         24.3 
     1569.00        0.233         23.9 
     1570.00        0.200         22.4 
     1571.00        0.267         22.6 
     1572.00        0.233         22.6 
     1573.00        0.267         21.3 
     1574.00        0.200         21.5 
     1575.00        0.167         21.4 
     1576.00        0.200         22.0 
     1577.00        0.167         21.8 
     1578.00        0.167         22.9 
     1579.00        0.200         22.6 
     1580.00        0.167         24.3 
     1581.00        0.217         25.7 
     1582.00        0.167         25.9 
     1583.00        0.167         25.9 
     1584.00        0.167         24.6 
     1585.00        0.167         24.6 
     1586.00        3.050         65.7 
     1587.00        0.400         60.5 
     1588.00        0.367         55.2 
     1589.00        0.300         48.7 
     1590.00        0.233         43.5 
     1591.00        0.233         39.6 
     1592.00        0.200         35.4 
     1593.00        0.200         34.4 
     1594.00        0.200         32.1 
     1595.00        0.200         30.7 
     1596.00        0.167         29.9 
     1597.00        0.200         29.0 
     1598.00        0.200         27.2 
     1599.00        0.183         27.2 
     1600.00        0.167         26.6 
     1601.00        0.167         25.6 
     1602.00        0.167         25.2 
     1603.00        0.167         25.7 
     1604.00        0.200         24.5 
     1605.00        0.200         23.7 
     1606.00        0.167         23.7 
     1607.00        0.167         22.7 
     1608.00        0.167         22.3 
     1609.00        0.167         22.3 
     1610.00        0.167         22.8 
     1611.00        0.167         22.8 
     1612.00        0.133         21.5 
     1613.00        0.133         21.5 
     1614.00        0.167         21.4 
     1615.00        0.133         20.7 
     1616.00        3.183         73.0 
     1617.00        0.267         68.7 
     1618.00        0.300         58.9 
     1619.00        0.317         55.8 
     1620.00        0.167         51.7 
     1621.00        0.133         50.1 
     1622.00        0.133         48.6 
     1623.00        0.233         44.1 
     1624.00        0.467         40.9 
     1625.00        0.367         34.4 
     1626.00        0.167         29.5 
     1627.00        0.200         27.8 
     1628.00        0.200         27.7 
     1629.00        0.133         26.9 
     1630.00        0.133         26.6 
     1631.00        0.167         25.6 
     1632.00        0.200         24.7 
     1633.00        0.200         23.9 
     1634.00        0.167         24.7 
     1635.00        0.217         23.0 
     1636.00        0.133         23.3 
     1637.00        0.167         23.3 
     1638.00        0.133         22.9 
     1639.00        0.167         21.3 
