~Version Information
VERS.                      2.0: CWLS Log ASCII Standard - VERSION 2.0
WRAP.                       NO: One line per depth step
~Well Information Block
STRT.FT                15.0000: 
STOP.FT              2556.5000: 
STEP.FT                 0.2500: 
NULL.                -999.2500: 
COMP.          Pioneer Natural Resources: COMPANY
WELL.              Quack 22-24: WELL
FLD.           Purgatoire River: FIELD
LOC.           2492' FNL & 2459' FWL: LOCATION
PROV.                 Colorado: PROVINCE
CNTY.               Las Animas: COUNTRY
SRVC.                Patterson: SERVICE COMPANY
DATE.          Tue Jul 26 07:02:30 2005: LOG DATE
UWI.           05 071 08402 00: UNIQUE WELL ID
~Curve Information Block
DEPT.FT            0 000 00 00: Depth
GR.GAPI                       : Gamma Ray
CCL.                          : Casing Collar Locator
TT3.usec                      : CBL 3' Travel Time
AMP3.mV                       : CBL 3' Amplitude
~Parameter Information Block
~A  Depth        GR         CCL         TT3         AMP3    
# ...
  1020.0000    117.7908      0.0000    632.6965      6.3355
  1020.2500    113.9875      0.0000    631.6548      6.1170
  1020.5000    110.8658      0.0000    634.4695      6.0942
  1020.7500    106.8536      0.6853    634.5746      6.1829
  1021.0000    101.1436      2.9704    625.6239      6.2989
  1021.2500     94.8395      0.6606    607.6164      6.4053
  1021.5000     90.3521      0.0000    589.1035      6.5057
  1021.7500     89.7606      0.0000    582.5700      6.6311
  1022.0000     93.7193      0.0000    595.2573      6.8224
  1022.2500    101.4470      0.0000    622.8983      7.1035
  1022.5000    111.3093      0.0000    653.1436      7.4642
  1022.7500    121.5754      0.0000    675.4927      7.8620
  1023.0000    130.9998      0.0000    687.3188      8.2334
  1023.2500    138.7370      0.0000    691.8090      8.5238
  1023.5000    143.7750      0.0000    693.0389      8.7219
  1023.7500    144.9885      0.0000    693.4563      8.8569
  1024.0000    142.1738      0.0000    694.0502      8.9617
  1024.2500    136.8759      0.0000    695.3204      9.0478
  1024.5000    131.7816      0.0000    697.7336      9.1118
  1024.7500    129.0526      0.0000    701.2738      9.1502
  1025.0000    129.2956      0.0000    704.7366      9.1632
  1025.2500    131.9353      0.0000    706.1983      9.1540
  1025.5000    135.9201      0.0000    704.7366      9.1298
  1025.7500    139.8708      0.0000    701.4255      9.1011
  1026.0000    142.2467      0.0000    698.2498      9.0760
  1026.2500    142.1237      0.0000    696.3641      9.0556
  1026.5000    139.9247      0.0000    695.6606      9.0375
  1026.7500    137.1982      0.0000    695.5359      9.0293
  1027.0000    135.5415      0.0000    695.6033      9.0612
  1027.2500    135.4939      0.0000    695.8181      9.1857
  1027.5000    136.3665      0.0000    696.2854      9.4669
  1027.7500    137.1933      0.0000    697.0178      9.9702
  1028.0000    137.6551      0.0000    697.6299     10.7400
  1028.2500    137.9580      0.0000    697.1468     11.7521
  1028.5000    138.3222      0.0000    694.4057     12.8720
  1028.7500    139.0072      0.0000    689.1017     13.8803
  1029.0000    140.4799      0.0000    682.4171     14.5819
  1029.2500    143.1205      0.0000    676.2910     14.9120
  1029.5000    146.8029      0.0000    672.0284     14.9466
  1029.7500    150.6789      0.0000    669.7177     14.8257
  1030.0000    153.3295      0.0000    668.7924     14.6725
  1030.2500    153.5880      0.0000    668.9227     14.5559
  1030.5000    151.5700      0.0000    670.5380     14.4882
  1030.7500    148.6768      0.0000    674.7063     14.4418
  1031.0000    146.3103      0.0000    682.1007     14.3667
  1031.2500    144.6855      0.0000    691.4707     14.2043
  1031.5000    143.1590      0.0000    699.3657     13.9081
  1031.7500    141.6228      0.0000    702.2911     13.4799
  1032.0000    141.0654      0.0000    699.4619     12.9906
  1032.2500    142.3838      0.0000    693.1648     12.5475
  1032.5000    144.9338      0.0000    686.6429     12.2254
  1032.7500    146.8396      0.0000    681.9899     12.0273
  1033.0000    146.7950      0.0000    679.6585     11.9072
  1033.2500    145.0934      0.0000    679.2375     11.8180
  1033.5000    142.7921      0.0000    680.3077     11.7352
  1033.7500    140.4887      0.0000    682.6199     11.6459
  1034.0000    138.3781      0.0000    685.8317     11.5270
  1034.2500    136.9123      0.0000    689.3574     11.3414
  1034.5000    136.5915      0.0000    692.4851     11.0629
  1034.7500    137.2818      0.0000    694.6872     10.7068
  1035.0000    138.4418      0.0000    695.8680     10.3368
  1035.2500    140.0336      0.0000    696.4050     10.0307
  1035.5000    142.6584      0.0000    696.9538      9.8295
  1035.7500    146.5229      0.0000    697.9523      9.7181
  1036.0000    150.5786      0.0000    698.8483      9.6535
  1036.2500    153.1384      0.0000    698.0104      9.6048
  1036.5000    153.4090      0.0000    694.3046      9.5629
  1036.7500    152.2406      0.0000    688.9398      9.5239
  1037.0000    151.3425      0.0000    684.7137      9.4781
  1037.2500    151.7995      0.0000    682.8165      9.4229
  1037.5000    153.1554      0.0000    681.0525      9.3733
  1037.7500    153.7096      0.0000    676.1562      9.3518
  1038.0000    151.8982      0.0000    668.0164      9.3693
  1038.2500    147.6985      0.0000    661.1238      9.4196
  1038.5000    142.6884      0.0000    661.1250      9.4883
  1038.7500    138.7115      0.0000    669.8588      9.5594
  1039.0000    136.6438      0.0000    684.0928      9.6151
  1039.2500    136.3607      0.0000    698.3986      9.6368
  1039.5000    137.4740      0.0000    708.0092      9.6170
  1039.7500    139.7417      0.0000    710.0328      9.5698
  1040.0000    142.6918      0.0000    704.6695      9.5255
  1040.2500    145.0820      0.0000    695.9700      9.5070
  1040.5000    145.2337      0.0000    689.7369      9.5136
  1040.7500    142.3784      0.0000    689.6705      9.5262
  1041.0000    137.6464      0.0000    695.6331      9.5222
  1041.2500    133.4316      0.0000    705.0103      9.4862
  1041.5000    131.6108      0.0000    714.7842      9.4141
  1041.7500    132.2503      0.0000    722.8583      9.3215
  1042.0000    133.9284      0.0000    728.5440      9.2511
  1042.2500    135.3842      0.0000    731.6369      9.2706
  1042.5000    136.9522      0.0000    730.8291      9.4507
  1042.7500    140.1496      0.0000    724.2454      9.8253
  1043.0000    145.6875      0.0000    712.0150     10.3528
  1043.2500    152.2196      0.0000    697.2197     10.9153
  1043.5000    157.4391      0.0000    683.8098     11.3783
  1043.7500    160.2583      0.0000    674.1643     11.6695
  1044.0000    161.3700      0.0000    668.5358     11.8136
  1044.2500    161.7198      0.0000    666.0415     11.9054
  1044.5000    161.2890      0.0000    665.8995     12.0542
  1044.7500    159.8720      0.0000    668.1692     12.3268
  1045.0000    158.3206      0.0000    673.6171     12.7156
  1045.2500    158.1196      0.0000    682.4733     13.1444
  1045.5000    159.7794      0.0000    692.7444     13.5042
  1045.7500    162.1469      0.0000    700.2203     13.6938
  1046.0000    163.3891      0.0000    701.3666     13.6560
  1046.2500    162.4059      0.0000    696.3904     13.4059
  1046.5000    159.1997      0.0000    688.6786     13.0303
  1046.7500    154.0808      0.0000    681.4794     12.6458
  1047.0000    146.9308      0.0000    676.0081     12.3378
  1047.2500    137.5238      0.0000    672.2375     12.1312
  1047.5000    126.4761      0.0000    670.1761     12.0010
  1047.7500    115.4665      0.0000    670.1624     11.9000
  1048.0000    106.1482      0.0000    672.4971     11.7848
  1048.2500     98.8839      0.0000    676.9371     11.6289
  1048.5000     92.8382      0.0000    682.4248     11.4206
  1048.7500     87.2989      0.0000    687.4801     11.1538
  1049.0000     82.6081      0.0000    691.0420     10.8302
  1049.2500     79.7623      0.0000    692.9407     10.4691
  1049.5000     79.2705      0.0000    693.6465     10.1054
  1049.7500     80.5085      0.0000    693.7437      9.7717
  1050.0000     82.2490      0.0000    693.6260      9.4867
  1050.2500     83.6799      0.0000    693.4706      9.2551
  1050.5000     84.5818      0.0000    693.3011      9.0733
  1050.7500     84.6432      0.0000    692.9846      8.9348
  1051.0000     83.2170      0.0000    692.1077      8.8362
  1051.2500     79.9454      0.0000    689.7775      8.7789
  1051.5000     75.2876      0.0000    684.7324      8.7622
  1051.7500     70.3576      0.0000    676.4045      8.7765
  1052.0000     66.3615      0.0000    666.6187      8.8075
  1052.2500     63.9076      0.0000    659.7598      8.8474
  1052.5000     62.6296      0.0000    659.8107      8.9000
  1052.7500     61.7994      0.0000    666.7292      8.9729
  1053.0000     61.4817      0.0000    676.4760      9.0651
  1053.2500     62.7007      0.0000    684.6691      9.1609
