~Version Information
VERS.                      2.0: CWLS Log ASCII Standard - VERSION 2.0
WRAP.                       NO: One line per depth step
~Well Information Block
STRT.FT               292.0000: 
STOP.FT               801.0000: 
STEP.FT                 0.1000: 
NULL.                -999.2500: 
COMP.          Pioneer Natural Resources: COMPANY
WELL.          HG Duran 34-27 Tr: WELL
FLD.           Purgatoire River: FIELD
LOC.           1076' FSL & 1465' FEL: LOCATION
PROV.                 Colorado: PROVINCE
CNTY.               Las Animas: COUNTRY
SRVC.                Patterson: SERVICE COMPANY
DATE.          Wed Apr 13 08:36:06 2005: LOG DATE
UWI.           05 071 08218 00: UNIQUE WELL ID
~Curve Information Block
DEPT.FT            0 000 00 00: Depth
DCAL.in                       : CDL Caliper
RHOB.g/cc                     : CDL Bulk Density
RHOC.g/cc                     : CDL Density Correction
DPOR.pu                       : CDL Density Porosity
GR.GAPI                       : Gamma Ray
NPOR.pu                       : Neutron Porosity
~Parameter Information Block
~A  Depth       DCAL        RHOB        RHOC        DPOR         GR         NPOR    
# ...
   388.0000      7.8520      2.5238      0.0391      7.6508    116.6039     21.1277
   388.1000      7.8520      2.5312      0.0404      7.2014    125.7750     20.1807
   388.2000      7.8520      2.5438      0.0884      6.4350    130.1835     20.2072
   388.3000      7.8506      2.5392      0.0845      6.7154    128.1975     21.2325
   388.4000      7.8506      2.5140      0.0716      8.2450    124.9022     22.1585
   388.5000      7.8493      2.4877     -0.0094      9.8353    122.7354     22.5032
   388.6000      7.8493      2.4806     -0.0679     10.2689    120.8961     22.5976
   388.7000      7.8493      2.4863      0.0462      9.9185    116.5692     22.5125
   388.8000      7.8485      2.4899      0.0034      9.7058    108.6671     22.2335
   388.9000      7.8485      2.5030     -0.0023      8.9067    102.1835     21.8944
   389.0000      7.8509      2.5286      0.0754      7.3571    100.8338     21.4910
   389.1000      7.8509      2.5344      0.0603      7.0038    102.8475     21.1540
   389.2000      7.8509      2.5049      0.0746      8.7942    104.6819     21.4793
   389.3000      7.8511      2.4637      0.0065     11.2902    106.1967     22.4959
   389.4000      7.8511      2.4494      0.0166     12.1586    109.2904     23.0171
   389.5000      7.8462      2.4710      0.0051     10.8507    113.3020     22.6089
   389.6000      7.8462      2.4914      0.0857      9.6111    115.8117     22.3020
   389.7000      7.8462      2.4867      0.0469      9.8955    116.9521     22.4835
   389.8000      7.8415      2.4923      0.0239      9.5597    118.5166     22.6093
   389.9000      7.8415      2.5411      0.0599      6.5993    120.4699     22.3719
   390.0000      7.8416      2.5982      0.0813      3.1381    120.1742     22.2129
   390.1000      7.8416      2.6089      0.1064      2.4913    116.5323     22.6468
   390.2000      7.8416      2.5713      0.0894      4.7670    111.8958     23.1385
   390.3000      7.8346      2.5169      0.0737      8.0668    109.0334     22.9537
   390.4000      7.8346      2.4755      0.0142     10.5771    110.1500     22.6539
   390.5000      7.8446      2.4709      0.0012     10.8521    116.7892     22.7390
   390.6000      7.8446      2.5070      0.0468      8.6672    125.3296     23.0583
   390.7000      7.8446      2.5625      0.0512      5.3026    127.5842     23.6885
   390.8000      7.8461      2.6060      0.1002      2.6661    122.1572     24.4734
   390.9000      7.8461      2.6154      0.0667      2.0948    115.7301     24.6520
   391.0000      7.8493      2.5930      0.0593      3.4572    113.3221     24.0327
   391.1000      7.8493      2.5593      0.0051      5.4989    115.2365     23.3171
   391.2000      7.8493      2.5301      0.0683      7.2685    119.0060     22.9095
   391.3000      7.8465      2.4990      0.0624      9.1521    121.6973     22.8445
   391.4000      7.8465      2.4627      0.0405     11.3537    122.0736     23.0610
   391.5000      7.8335      2.4412     -0.0127     12.6554    119.8328     23.2727
   391.6000      7.8335      2.4393      0.0525     12.7681    114.3370     23.4566
   391.7000      7.8335      2.4336      0.0471     13.1146    107.1288     23.8096
   391.8000      7.8344      2.4248     -0.0798     13.6504    100.4859     24.2778
   391.9000      7.8344      2.4260      0.0556     13.5779     97.3058     24.3970
   392.0000      7.8343      2.4312     -0.0184     13.2613    100.1773     24.0776
   392.1000      7.8343      2.4456     -0.0142     12.3884    103.4720     24.0677
   392.2000      7.8343      2.4812      0.0468     10.2274     99.8706     24.5698
   392.3000      7.8391      2.5294      0.0838      7.3062     91.2792     24.6457
   392.4000      7.8391      2.5620      0.1092      5.3321     84.3660     24.0707
   392.5000      7.8259      2.5607      0.0540      5.4104     82.4165     23.5071
   392.6000      7.8259      2.5410      0.0667      6.6044     81.9082     23.2768
   392.7000      7.8259      2.5348      0.0205      6.9795     78.1716     23.1010
   392.8000      7.8176      2.5588      0.0764      5.5267     72.6021     22.5328
   392.9000      7.8176      2.6041      0.1618      2.7844     70.5378     21.6754
   393.0000      7.7931      2.6374      0.1793      0.7657     74.4900     21.0263
   393.1000      7.7931      2.6302      0.1175      1.2003     80.3752     20.9272
   393.2000      7.7931      2.5971      0.1307      3.2074     82.8562     21.2231
   393.3000      7.7729      2.5804      0.1148      4.2208     84.7682     21.2885
   393.4000      7.7729      2.5945      0.1529      3.3607     89.9714     21.0070
   393.5000      7.7524      2.6116      0.1857      2.3302     94.7834     20.7611
   393.6000      7.7524      2.6162      0.1503      2.0463     97.7868     20.8225
   393.7000      7.7524      2.6195      0.1726      1.8511    100.3198     21.1655
   393.8000      7.7311      2.6206      0.1281      1.7824     99.7933     21.3701
   393.9000      7.7311      2.6069      0.1600      2.6118     95.1193     21.2582
   394.0000      7.7419      2.5785      0.0730      4.3321     90.0670     21.2585
   394.1000      7.7419      2.5625      0.0093      5.3044     88.4060     21.4779
   394.2000      7.7419      2.5708      0.1288      4.8023     90.4783     21.7055
   394.3000      7.7445      2.5784      0.0896      4.3412     94.1348     22.0373
   394.4000      7.7445      2.5709      0.1064      4.7913     95.8912     22.4104
   394.5000      7.7588      2.5565      0.1247      5.6637     94.5962     22.6875
   394.6000      7.7588      2.5468      0.0622      6.2551     93.0745     22.9250
   394.7000      7.7588      2.5428      0.1049      6.4960     95.6205     23.1312
   394.8000      7.7964      2.5306      0.0527      7.2347    105.2250     23.3187
   394.9000      7.7964      2.5105      0.0531      8.4534    118.0630     23.4702
   395.0000      7.8216      2.4962      0.0174      9.3199    123.0684     23.3768
   395.1000      7.8216      2.4957     -0.0299      9.3536    117.9210     23.0621
   395.2000      7.8216      2.5008      0.0708      9.0428    112.5990     22.7054
   395.3000      7.8372      2.4809      0.0512     10.2486    111.3731     22.1766
   395.4000      7.8372      2.4221      0.0403     13.8095    111.8150     21.3309
   395.5000      7.8503      2.3467      0.0098     18.3832    112.5141     20.5350
   395.6000      7.8503      2.2832     -0.0468     22.2322    110.8351     20.2329
   395.7000      7.8503      2.2351     -0.0663     25.1452    108.1040     20.0352
   395.8000      7.8648      2.1965     -0.0882     27.4824    109.7320     19.5295
   395.9000      7.8648      2.1761     -0.1125     28.7216    116.4988     19.2110
   396.0000      7.8746      2.1805     -0.0579     28.4571    123.7017     19.5532
   396.1000      7.8746      2.1963     -0.0132     27.4988    126.7961     20.1455
   396.2000      7.8746      2.2095      0.0303     26.6967    127.6236     20.3863
   396.3000      7.8767      2.2308      0.0485     25.4043    130.9141     20.6129
   396.4000      7.8767      2.2791      0.0628     22.4810    134.5450     21.4073
   396.5000      7.8704      2.3448      0.1956     18.4947    135.0703     22.5029
   396.6000      7.8704      2.4041      0.2025     14.9006    133.2732     23.2234
   396.7000      7.8704      2.4486      0.2375     12.2044    128.8403     23.5874
   396.8000      7.8723      2.4756      0.1833     10.5695    123.0822     23.9899
   396.9000      7.8723      2.4902      0.2049      9.6849    120.3616     24.4264
   397.0000      7.8755      2.5025      0.1257      8.9420    122.0395     24.5394
   397.1000      7.8755      2.5153      0.1004      8.1666    124.3263     24.2034
   397.2000      7.8755      2.5278      0.1171      7.4063    123.3488     23.8789
   397.3000      7.8762      2.5314      0.0930      7.1882    122.8435     23.9081
   397.4000      7.8762      2.5037      0.0931      8.8662    126.7713     24.0771
   397.5000      7.8531      2.4267      0.0639     13.5352    129.7066     24.1147
