~Version Information
VERS.                      2.0: CWLS Log ASCII Standard - VERSION 2.0
WRAP.                       NO: One line per depth step
~Well Information Block
STRT.FT               294.0000: 
STOP.FT              1958.0000: 
STEP.FT                 0.1000: 
NULL.                -999.2500: 
COMP.          Pioneer Natural Resources: COMPANY
WELL.          Commander 43-26 Tr: WELL
FLD.           Purgatoire River: FIELD
LOC.           2439' FSL & 446' FEL: LOCATION
PROV.                 Colorado: PROVINCE
CNTY.               Las Animas: COUNTRY
SRVC.                Patterson: SERVICE COMPANY
DATE.          Fri Apr 15 07:31:08 2005: LOG DATE
UWI.           05 071 08341 00: UNIQUE WELL ID
~Curve Information Block
DEPT.FT            0 000 00 00: Depth
DCAL.in                       : CDL Caliper
RHOB.g/cc                     : CDL Bulk Density
RHOC.g/cc                     : CDL Density Correction
DPOR.pu                       : CDL Density Porosity
GR.GAPI                       : Gamma Ray
NPOR.pu                       : Neutron Porosity
~Parameter Information Block
~A  Depth       DCAL        RHOB        RHOC        DPOR         GR         NPOR    
# ...
   399.6000      8.4305      2.4739     -0.0072     10.6753     64.7106     24.1124
   399.7000      8.4305      2.4874      0.0502      9.8526     59.1817     23.7674
   399.8000      8.4325      2.4929      0.0637      9.5197     58.2682     23.2348
   399.9000      8.4325      2.4753     -0.0125     10.5903     57.3158     22.6100
   400.0000      8.4282      2.4501      0.0036     12.1168     53.8733     21.9662
   400.1000      8.4282      2.4326      0.0146     13.1752     52.2985     21.2698
   400.2000      8.4282      2.4252     -0.0127     13.6216     55.7793     20.6364
   400.3000      8.3923      2.4260      0.0035     13.5756     60.7480     20.2769
   400.4000      8.3923      2.4332      0.0520     13.1387     63.3080     20.1657
   400.5000      8.4031      2.4523     -0.0358     11.9830     61.9790     20.0040
   400.6000      8.4031      2.4749      0.0963     10.6139     58.0381     19.6385
   400.7000      8.4031      2.4743      0.0821     10.6456     55.4304     19.3363
   400.8000      8.4077      2.4578      0.0305     11.6513     55.4554     19.2283
   400.9000      8.4077      2.4564      0.0486     11.7314     57.4310     19.0458
   401.0000      8.4038      2.4685      0.0525     10.9988     60.8482     18.7487
   401.1000      8.4038      2.4695      0.0532     10.9399     62.8799     18.8165
   401.2000      8.4038      2.4528      0.0724     11.9542     61.4643     19.3487
   401.3000      8.4124      2.4270      0.0447     13.5148     59.9813     19.7249
   401.4000      8.4124      2.4024      0.0061     15.0083     61.0400     19.5076
   401.5000      8.4197      2.3945     -0.0049     15.4843     60.9281     18.9784
   401.6000      8.4197      2.4123      0.0486     14.4047     57.8196     18.6150
   401.7000      8.4197      2.4343      0.0629     13.0708     55.3979     18.5757
   401.8000      8.4371      2.4359      0.0350     12.9749     55.2240     18.7826
   401.9000      8.4371      2.4315     -0.0230     13.2421     55.8181     18.9318
   402.0000      8.4087      2.4412      0.0465     12.6529     55.8642     18.9508
   402.1000      8.4087      2.4534      0.0278     11.9160     54.7394     19.0826
   402.2000      8.4087      2.4555      0.0423     11.7879     52.6240     19.4123
   402.3000      8.3955      2.4527      0.0478     11.9582     50.3869     19.8922
   402.4000      8.3955      2.4528      0.0347     11.9509     50.3294     20.2779
   402.5000      8.3681      2.4509      0.0440     12.0645     52.6192     20.2507
   402.6000      8.3681      2.4366      0.0038     12.9355     56.0662     19.9936
   402.7000      8.3681      2.4184      0.0249     14.0354     59.8086     19.8154
   402.8000      8.3583      2.4086      0.0764     14.6330     62.0221     19.6403
   402.9000      8.3583      2.4063      0.0437     14.7711     62.9509     19.4632
   403.0000      8.3558      2.4167      0.0326     14.1388     63.7753     19.4168
   403.1000      8.3558      2.4342      0.0663     13.0785     63.9923     19.5040
   403.2000      8.3558      2.4397      0.0087     12.7448     61.7449     19.5747
   403.3000      8.3535      2.4295      0.0514     13.3634     58.6769     19.4020
   403.4000      8.3535      2.4040      0.0160     14.9078     59.4029     18.8627
   403.5000      8.3492      2.3636      0.0235     17.3600     63.0055     18.3104
   403.6000      8.3492      2.3343     -0.1340     19.1350     62.6794     18.1735
   403.7000      8.3492      2.3472     -0.0326     18.3512     57.4403     18.3067
   403.8000      8.3318      2.3844      0.0575     16.0978     52.9859     18.3631
   403.9000      8.3318      2.4086      0.0295     14.6308     52.6338     18.3182
   404.0000      8.3172      2.4131      0.0675     14.3562     56.3002     18.3135
   404.1000      8.3172      2.4200     -0.0164     13.9374     61.3136     18.5368
   404.2000      8.3172      2.4427      0.0889     12.5624     65.3121     18.8739
   404.3000      8.3100      2.4526      0.1331     11.9661     67.8842     19.1232
   404.4000      8.3100      2.4307      0.0486     13.2910     69.4554     19.3785
   404.5000      8.2826      2.4062      0.0134     14.7752     69.7081     19.6926
   404.6000      8.2826      2.4044      0.0239     14.8839     67.7008     20.0327
   404.7000      8.2826      2.4223      0.0296     13.8011     63.5210     20.4098
   404.8000      8.2525      2.4440      0.0757     12.4857     58.1837     20.8598
   404.9000      8.2525      2.4520      0.0922     12.0022     54.2327     21.2420
   405.0000      8.2478      2.4446      0.0333     12.4472     54.2430     21.4194
   405.1000      8.2478      2.4316      0.0476     13.2387     57.1608     21.5294
   405.2000      8.2478      2.4130      0.0406     14.3627     59.9697     21.5971
   405.3000      8.2540      2.3901     -0.0481     15.7521     60.0456     21.5779
   405.4000      8.2540      2.3780     -0.0550     16.4859     57.7322     21.4676
   405.5000      8.2887      2.3861     -0.0276     15.9946     56.1403     21.2579
   405.6000      8.2887      2.3964      0.0548     15.3711     55.8649     20.9766
   405.7000      8.2887      2.3981     -0.0043     15.2680     55.3626     20.6487
   405.8000      8.2959      2.4176      0.0116     14.0876     53.5153     20.2950
   405.9000      8.2959      2.4624      0.1052     11.3707     51.0054     20.0516
   406.0000      8.2862      2.4918      0.1549      9.5896     50.7167     20.1525
   406.1000      8.2862      2.4804      0.0338     10.2759     51.3778     20.6184
   406.2000      8.2862      2.4532      0.0380     11.9273     50.2188     20.9281
   406.3000      8.3206      2.4366     -0.0145     12.9344     50.4598     20.6781
   406.4000      8.3206      2.4291      0.0341     13.3883     56.4157     20.2331
   406.5000      8.3452      2.4176     -0.0200     14.0823     65.2593     20.0880
   406.6000      8.3452      2.4017     -0.0316     15.0455     71.7907     20.1432
   406.7000      8.3452      2.3923     -0.0165     15.6168     77.2096     20.1333
   406.8000      8.3802      2.3947      0.0292     15.4746     84.6366     20.1999
   406.9000      8.3802      2.4087     -0.0017     14.6255     90.7808     20.7482
   407.0000      8.4334      2.4352     -0.0204     13.0179     90.4426     21.9156
   407.1000      8.4334      2.4692      0.0757     10.9560     86.0045     23.2780
   407.2000      8.4334      2.4952     -0.0040      9.3842     84.0717     24.1950
   407.3000      8.4254      2.5034      0.0557      8.8842     84.3956     24.3041
   407.4000      8.4254      2.5122     -0.0376      8.3507     81.9578     23.9714
   407.5000      8.3790      2.5499      0.0670      6.0640     77.3620     24.0463
   407.6000      8.3790      2.5986      0.1248      3.1142     76.1199     24.6270
   407.7000      8.3790      2.6212      0.0961      1.7482     77.7736     25.0422
   407.8000      8.2881      2.6229     -0.0005      1.6426     79.2677     25.0861
   407.9000      8.2881      2.6212      0.0443      1.7453     81.0729     25.0277
   408.0000      8.2526      2.6044      0.0485      2.7627     81.9523     24.9536
   408.1000      8.2526      2.5623      0.0200      5.3167     81.0241     24.7903
   408.2000      8.2526      2.5056      0.0014      8.7541     79.0570     24.5690
   408.3000      8.2512      2.4530     -0.0525     11.9399     77.3789     24.5139
   408.4000      8.2512      2.4245     -0.0482     13.6638     76.6584     24.5579
   408.5000      8.2593      2.4269     -0.0320     13.5202     74.9235     24.4226
   408.6000      8.2593      2.4514     -0.0784     12.0336     72.1706     24.1274
   408.7000      8.2593      2.4850     -0.0003     10.0014     72.9440     23.8114
   408.8000      8.2606      2.5031      0.0308      8.9054     79.0426     23.5086
   408.9000      8.2606      2.4931      0.0472      9.5111     86.3652     23.1825
   409.0000      8.2633      2.4807      0.0130     10.2595     88.6429     22.8683
   409.1000      8.2633      2.4975      0.1158      9.2453     85.1660     22.7790
