~Version Information
VERS.                      2.0: CWLS Log ASCII Standard - VERSION 2.0
WRAP.                       NO: One line per depth step
~Well Information Block
STRT.FT                -7.0000: 
STOP.FT              1863.5000: 
STEP.FT                 0.2500: 
NULL.                -999.2500: 
COMP.          Pioneer Natural Resources: COMPANY
WELL.            Formula 23-11: WELL
FLD.           Purgatorie River: FIELD
LOC.           1976' FSL & 1935' FWL--: LOCATION
PROV.                       CO: PROVINCE
CNTY.               Las Animas: COUNTRY
SRVC.          Patterson Wireline: SERVICE COMPANY
DATE.          Wed Jun 15 14:44:40 2005: LOG DATE
UWI.           05 071 08399 00: UNIQUE WELL ID
~Curve Information Block
DEPT.FT            0 000 00 00: Depth
CCL.                          : Casing Collar Locator
TT3.usec                      : CBL 3' Travel Time
AMP3.mV                       : CBL 3' Amplitude
GR.GAPI                       : Gamma Ray
~Parameter Information Block
~A  Depth       CCL         TT3         AMP3         GR     
# ...
  1601.0000      0.0000    756.7955      4.5904     72.7774
  1601.2500      0.0000    756.8189      4.4976     74.0943
  1601.5000      0.0000    757.1434      4.4153     76.3709
  1601.7500      0.0000    757.6038      4.3321     78.0593
  1602.0000      0.0000    758.0134      4.2527     78.9503
  1602.2500      0.0000    758.2706      4.1952     80.3165
  1602.5000      0.0000    758.3888      4.1703     82.9840
  1602.7500      0.0000    758.4370      4.1765     85.9652
  1603.0000      0.0000    758.4576      4.2106     87.6074
  1603.2500      0.0000    758.4437      4.2687     87.5333
  1603.5000      0.0000    758.3824      4.3350     86.6857
  1603.7500      0.0000    758.2952      4.3821     85.7745
  1604.0000      0.0000    758.2313      4.3908     84.5720
  1604.2500      0.0000    758.2365      4.3716     82.9114
  1604.5000      0.0000    758.3604      4.3604     81.6997
  1604.7500      0.0000    758.7318      4.3880     82.2235
  1605.0000      0.0000    759.6854      4.4569     84.5388
  1605.2500      0.0000    761.7630      4.5424     87.0961
  1605.5000      0.0000    765.4203      4.6048     88.0099
  1605.7500      0.0000    770.6164      4.6084     86.4728
  1606.0000      0.0000    776.7639      4.5464     83.0543
  1606.2500      0.0000    783.0980      4.4534     79.0137
  1606.5000      0.0000    788.9540      4.3834     75.4118
  1606.7500      0.0000    793.7664      4.3663     72.6432
  1607.0000      0.0000    797.1568      4.3840     70.5979
  1607.2500      0.0000    799.1469      4.3928     69.1240
  1607.5000      0.0000    800.1259      4.3712     68.1724
  1607.7500      0.0000    800.5463      4.3442     67.4907
  1608.0000      0.0000    800.6074      4.3539     66.5485
  1608.2500      0.0000    800.0620      4.4090     65.1036
  1608.5000      0.0000    798.0850      4.4733     63.7811
  1608.7500      0.0000    793.5337      4.5061     63.7304
  1609.0000      0.0000    786.0240      4.5026     65.5938
  1609.2500      0.0000    777.2287      4.4832     68.9202
  1609.5000      0.0000    770.6741      4.4600     72.6148
  1609.7500      0.0000    769.4623      4.4299     75.7910
  1610.0000      0.0000    773.9925      4.3952     78.0089
  1610.2500      0.0000    781.8939      4.3759     78.9090
  1610.5000      0.0000    789.8346      4.3941     78.1844
  1610.7500      0.0000    795.3578      4.4483     76.1299
  1611.0000      0.0000    797.4804      4.5091     73.7814
  1611.2500      0.0000    796.3102      4.5430     72.1182
  1611.5000      0.0000    792.8251      4.5424     71.3327
  1611.7500      0.0000    789.0596      4.5276     71.1856
  1612.0000      0.0000    787.4919      4.5184     71.6769
  1612.2500      0.0000    789.3004      4.5169     72.8199
  1612.5000      0.0000    793.3630      4.5206     73.9546
  1612.7500      0.0000    797.4550      4.5367     73.9589
  1613.0000      0.0000    800.1144      4.5730     72.4184
  1613.2500      0.0000    801.0857      4.6258     70.2726
  1613.5000      0.0000    800.4287      4.6888     69.0417
  1613.7500      0.0000    797.7485      4.7566     69.5190
  1614.0000      0.0000    792.4656      4.8139     71.4092
  1614.2500      0.0000    785.0049      4.8412     74.2299
  1614.5000      0.0000    777.6138      4.8412     78.0687
  1614.7500      0.0000    773.3278      4.8466     82.8897
  1615.0000      0.0000    773.5726      4.8948     87.3997
  1615.2500      0.0000    777.1110      4.9923     89.5849
  1615.5000      0.0000    781.6180      5.1022     88.6983
  1615.7500      0.0000    785.8112      5.1697     86.2299
  1616.0000      0.0000    789.7558      5.1690     84.5765
  1616.2500      0.0000    793.6887      5.1288     85.0435
  1616.5000      0.0000    797.1677      5.0995     87.2000
  1616.7500      0.0000    799.2261      5.0964     89.5974
  1617.0000      0.0000    798.7451      5.0930     90.6704
  1617.2500      0.0000    794.4969      5.0799     89.5125
  1617.5000      0.0000    785.4791      5.0962     86.6796
  1617.7500      0.0000    772.0306      5.1691     84.1727
  1618.0000      0.0000    756.6302      5.2530     83.9002
  1618.2500      0.0000    742.8795      5.2703     85.9452
  1618.5000      0.0000    733.2668      5.1925     88.5896
  1618.7500      0.0000    727.9937      5.0554     89.9952
  1619.0000      0.0000    725.7174      4.9152     89.6349
  1619.2500      0.0000    724.9407      4.8059     88.2069
  1619.5000      0.0000    724.7623      4.7231     86.5620
  1619.7500      0.0000    724.9502      4.6510     84.9314
  1620.0000      0.0000    725.8326      4.6077     82.9527
  1620.2500      0.0000    728.1255      4.6356     80.1138
  1620.5000      0.0000    732.4130      4.7434     76.2648
  1620.7500      0.0000    738.2368      4.8879     72.0071
  1621.0000      0.0000    743.5938      5.0139     68.4596
  1621.2500      0.0000    745.8976      5.0869     66.3476
  1621.5000      0.0000    743.9980      5.1047     65.3021
  1621.7500      0.0000    739.3076      5.0968     64.2293
  1622.0000      0.0000    734.7178      5.0964     62.4988
  1622.2500      0.0000    732.2457      5.1000     60.7077
  1622.5000      0.0000    731.5800      5.0736     60.1220
  1622.7500      0.0000    730.5375      4.9975     61.4109
  1623.0000      0.0000    726.3306      4.8891     64.1198
  1623.2500      0.0000    715.6332      4.7857     67.2198
  1623.5000      0.0000    693.7039      4.7183     69.7924
  1623.7500      0.0000    655.8330      4.6943     71.2860
  1624.0000      0.0000    602.4396      4.6882     71.6839
  1624.2500      0.0000    542.6132      4.6609     71.5934
  1624.5000      0.0000    489.9363      4.6040     71.7116
  1624.7500      0.0000    453.4388      4.5532     71.9721
  1625.0000      0.0000    433.0402      4.5403     71.5698
  1625.2500      0.0000    422.8578      4.5508     69.9986
  1625.5000      0.0000    417.2141      4.5418     67.8246
  1625.7500      0.0000    414.2208      4.4843     66.4123
  1626.0000      0.0000    416.5530      4.3841     67.0852
  1626.2500      0.0000    430.4812      4.2777     70.5435
  1626.5000      0.0000    462.6194      4.2204     76.9745
  1626.7500      0.0000    514.4118      4.2712     86.3743
  1627.0000      0.0000    578.5683      4.4718     98.3337
  1627.2500      0.0000    642.1349      4.8217    111.6241
  1627.5000      0.0000    694.0078      5.2517    124.5604
  1627.7500      0.0000    729.6791      5.6276    135.9291
  1628.0000      0.0000    750.9091      5.8336    145.4338
  1628.2500      0.0000    763.2794      5.8760    153.2568
  1628.5000      0.0000    773.3128      5.8748    159.1201
  1628.7500      0.0000    784.8488      5.9488    161.8160
  1629.0000      0.0000    796.3925      6.1373    160.2551
  1629.2500      0.0000    802.9855      6.4038    155.4498
  1629.5000      0.0000    801.8673      6.6631    150.9618
  1629.7500      0.0000    795.3841      6.8300    150.3881
  1630.0000     -2.0000    788.0771      6.8908    154.0647
  1630.2500      0.0000    783.3470      6.9059    158.7285
  1630.5000      0.0000    783.6591      6.9207    160.5462
  1630.7500      0.0000    790.3757      6.9095    157.9198
  1631.0000      0.0000    801.2404      6.8243    151.5626
  1631.2500      0.0000    810.5650      6.6513    142.9473
  1631.5000      0.0000    814.1272      6.3991    133.1589
  1631.7500      0.0000    812.8072      6.0799    122.8272
  1632.0000      0.0000    810.2031      5.7213    112.6750
  1632.2500      0.0000    807.6865      5.3642    103.9191
  1632.5000      0.0000    803.5466      5.0477     98.2125
  1632.7500      0.0000    796.8313      4.8108     97.2258
  1633.0000      0.0000    789.7822      4.6787    101.8172
  1633.2500      0.0000    784.8516      4.6285    111.1393
  1633.5000      0.0000    780.3099      4.6025    122.5804
  1633.7500      0.0000    770.9133      4.5713    132.9384
  1634.0000      0.0000    753.5287      4.5511    140.0816
  1634.2500      0.0000    731.5463      4.5548    143.8250
