~Version Information
VERS.                      2.0: CWLS Log ASCII Standard - VERSION 2.0
WRAP.                       NO: One line per depth step
~Well Information Block
STRT.FT               870.0000: 
STOP.FT              2517.5000: 
STEP.FT                 0.1000: 
NULL.                -999.2500: 
COMP.          Pioneer Natural Resources: COMPANY
WELL.              Tiaga 23-14: WELL
FLD.           Purgatoire River: FIELD
LOC.           2168' FSL & 2030' FWL: LOCATION
PROV.                 Colorado: PROVINCE
CNTY.               Las Animas: COUNTRY
SRVC.                         : SERVICE COMPANY
DATE.          Sat May 07 09:09:05 2005: LOG DATE
UWI.           05 071 08329 00: UNIQUE WELL ID
~Curve Information Block
DEPT.FT            0 000 00 00: Depth
LTEN.lb                       : Surface Line Tension
DCAL.in                       : CDL Caliper
RHOC.g/cc                     : CDL Density Correction
DPOR.pu                       : CDL Density Porosity
GR.GAPI                       : Gamma Ray
NPOR.pu                       : Neutron Porosity
~Parameter Information Block
~A  Depth       LTEN        DCAL        RHOC        DPOR         GR         NPOR    
# ...
  1090.8000    870.0269      8.2727      0.0760     15.4371    186.7870     27.0024
  1090.9000    870.0269      8.2727      0.1062     14.7233    189.0663     27.1872
  1091.0000    888.1727      8.2512      0.1221     14.0375    185.5663     27.1128
  1091.1000    888.1727      8.2512      0.1587     14.8046    179.1545     26.8636
  1091.2000    888.1727      8.2512      0.0854     17.2568    171.0063     26.5562
  1091.3000    912.9315      8.2859      0.0588     19.2026    162.1550     26.2638
  1091.4000    912.9315      8.2859      0.1280     19.4021    158.5136     26.0978
  1091.5000    926.2737      8.2973      0.0989     18.9319    160.8072     26.2516
  1091.6000    926.2737      8.2973      0.0979     18.8637    160.3166     26.4518
  1091.7000    926.2737      8.2973      0.0582     19.4757    154.4620     26.1571
  1091.8000    895.6094      8.3337      0.1155     20.8688    151.4819     25.4328
  1091.9000    895.6094      8.3337      0.0960     22.9837    153.3828     24.5769
  1092.0000    876.6827      8.3422      0.0697     24.9227    155.5572     23.7877
  1092.1000    876.6827      8.3422      0.0668     25.9724    156.0957     23.4694
  1092.2000    876.6827      8.3422      0.0316     26.4317    155.9784     23.7883
  1092.3000    872.1479      8.3672      0.0149     26.7755    155.9522     24.2174
  1092.4000    872.1479      8.3672     -0.0010     26.6864    157.0363     24.2391
  1092.5000    882.0809      8.3816      0.0289     25.1976    161.1883     24.1120
  1092.6000    882.0809      8.3816      0.1242     22.3978    164.9690     24.1824
  1092.7000    882.0809      8.3816      0.1587     19.6596    164.9448     24.2715
  1092.8000    884.0229      8.3619      0.2266     17.8299    163.0523     24.3068
  1092.9000    884.0229      8.3619      0.2633     16.8019    160.6022     24.3806
  1093.0000    877.3369      8.3491      0.1933     16.4065    160.7708     24.4497
  1093.1000    877.3369      8.3491      0.2517     17.1307    165.5418     24.7605
  1093.2000    877.3369      8.3491      0.1325     18.9704    170.0514     25.5067
  1093.3000    888.9033      8.3139      0.0623     20.0827    170.2392     26.3034
  1093.4000    888.9033      8.3139      0.1608     19.4363    167.9116     26.8426
  1093.5000    893.8298      8.2485      0.1214     18.3486    167.0491     27.1973
  1093.6000    893.8298      8.2485      0.1017     17.6285    167.3072     27.5152
  1093.7000    893.8298      8.2485      0.0682     16.6496    166.5475     27.7074
  1093.8000    879.4251      8.2419      0.1414     15.4249    164.8777     27.6826
  1093.9000    879.4251      8.2419      0.1404     15.0680    165.8548     27.4979
  1094.0000    897.5629      8.2335      0.1438     15.5632    171.5083     27.0670
  1094.1000    897.5629      8.2335      0.0957     15.8220    174.4712     26.5055
  1094.2000    897.5629      8.2335      0.1829     16.0783    170.4300     26.3397
  1094.3000    914.1793      8.2578      0.1290     17.0608    163.9715     26.5936
  1094.4000    914.1793      8.2578      0.0654     17.5760    158.5208     26.5372
  1094.5000    896.0948      8.3736      0.0928     16.5389    156.2204     25.7908
  1094.6000    896.0948      8.3736      0.1117     15.3893    155.6298     24.9819
  1094.7000    896.0948      8.3736      0.0701     15.8313    153.8117     24.7884
  1094.8000    902.8108      8.4259      0.0330     17.3945    152.8176     25.1187
  1094.9000    902.8108      8.4259      0.0488     18.7917    156.0432     25.4993
  1095.0000    903.5526      8.4880      0.0589     20.0331    161.0317     25.4643
  1095.1000    903.5526      8.4880      0.0272     21.4524    162.9859     25.0595
  1095.2000    903.5526      8.4880      0.0265     23.1146    163.2125     24.8129
  1095.3000    871.0043      8.4946      0.0857     26.4357    165.1230     24.7216
  1095.4000    871.0043      8.4946      0.0003     32.8775    166.2740     24.1755
  1095.5000    870.2146      8.4605     -0.0494     41.4805    161.8113     23.0347
  1095.6000    870.2146      8.4605     -0.0925     50.4959    154.0195     21.6748
  1095.7000    870.2146      8.4605     -0.0587     59.1413    149.4810     20.2669
  1095.8000    905.2776      8.4482     -0.0914     66.2417    148.0172     18.9261
  1095.9000    905.2776      8.4482     -0.1024     69.4168    147.0544     17.7822
  1096.0000    930.8043      8.4643      0.0202     67.2060    146.0733     16.9962
  1096.1000    930.8043      8.4643      0.1380     59.8891    143.8895     16.6267
  1096.2000    930.8043      8.4643      0.2442     48.1700    140.4459     16.3480
  1096.3000    876.0303      8.4926      0.5254     34.3744    136.5379     15.9290
  1096.4000    876.0303      8.4926      0.6419     23.6057    133.4512     15.5780
  1096.5000    833.8459      8.5958      0.6363     19.8754    133.7352     15.7743
  1096.6000    833.8459      8.5958      0.4932     22.3633    136.6364     16.7857
  1096.7000    833.8459      8.5958      0.2806     26.5598    139.5156     18.2720
  1096.8000    887.5116      8.6918      0.2349     29.0026    142.2068     19.8253
  1096.9000    887.5116      8.6918      0.1938     30.0899    141.6238     21.4135
  1097.0000    942.4594      8.4509      0.1301     30.9137    136.7542     23.1166
  1097.1000    942.4594      8.4509      0.1151     30.5033    133.5360     24.8976
  1097.2000    942.4594      8.4509      0.1155     27.7702    133.1962     26.5534
  1097.3000    915.8967      8.3315      0.2096     23.5701    129.4823     27.6826
  1097.4000    915.8967      8.3315      0.1554     19.6952    121.2188     28.0792
  1097.5000    875.3116      8.2470      0.2330     16.8624    115.5400     27.9719
  1097.6000    875.3116      8.2470      0.1369     15.0927    116.1795     27.6147
  1097.7000    875.3116      8.2470      0.0612     14.2627    116.3145     27.0385
  1097.8000    849.3729      8.1596      0.0416     14.3462    113.4511     26.1944
  1097.9000    849.3729      8.1596     -0.0082     15.1202    116.5058     25.2163
  1098.0000    858.8520      8.1236      0.0342     16.1165    127.7685     24.6436
  1098.1000    858.8520      8.1236      0.0248     17.7216    136.7870     24.6300
  1098.2000    858.8520      8.1236     -0.0464     20.1822    138.7351     24.4807
  1098.3000    882.1588      8.1530     -0.0472     22.3888    141.8892     23.8360
  1098.4000    882.1588      8.1530     -0.0496     23.1376    149.5321     23.0470
  1098.5000    916.7867      8.1372      0.0010     22.5556    156.0671     22.4860
  1098.6000    916.7867      8.1372     -0.0021     21.7651    158.9935     22.2238
  1098.7000    916.7867      8.1372      0.0261     21.4215    159.0992     22.0041
  1098.8000    889.9225      8.1959      0.0385     21.4937    156.6563     21.7813
  1098.9000    889.9225      8.1959      0.0791     22.1395    154.0948     21.8757
  1099.0000    851.5645      8.2182      0.0489     23.3674    153.1389     22.3381
  1099.1000    851.5645      8.2182      0.0499     24.0628    154.1828     22.8033
  1099.2000    851.5645      8.2182      0.0870     23.2770    155.7617     22.9889
  1099.3000    893.7797      8.2341      0.0697     21.4844    155.3074     23.0273
  1099.4000    893.7797      8.2341      0.1751     20.1697    155.3422     22.9622
  1099.5000    911.1241      8.2171      0.1154     20.3101    157.9986     22.7569
  1099.6000    911.1241      8.2171      0.0649     20.9488    161.1985     22.5808
  1099.7000    911.1241      8.2171      0.1063     21.1744    163.0073     22.3782
  1099.8000    873.4807      8.2424      0.1537     21.8294    163.2437     21.9847
  1099.9000    873.4807      8.2424      0.0933     23.4658    161.6556     21.6233
  1100.0000    867.8627      8.2545      0.0741     25.0753    157.6060     21.6811
  1100.1000    867.8627      8.2545      0.0993     26.0194    153.7090     22.2546
  1100.2000    867.8627      8.2545      0.0885     26.6510    153.2293     23.2561
  1100.3000    902.7123      8.2217      0.0497     26.7814    155.2139     24.5654
