~Version Information
VERS.                      2.0: CWLS Log ASCII Standard - VERSION 2.0
WRAP.                       NO: One line per depth step
~Well Information Block
STRT.FT                -0.2500: 
STOP.FT              2376.7500: 
STEP.FT                 0.2500: 
NULL.                -999.2500: 
COMP.          Petrogulf Corporation: COMPANY
WELL.             State 16-23V: WELL
FLD.           Purgatorie River: FIELD
LOC.           2414' FSL & 2215' FWL: LOCATION
PROV.                 Colorado: PROVINCE
CNTY.               Las Animas: COUNTRY
SRVC.          Patterson Wireline: SERVICE COMPANY
DATE.          Wed Jun 25 14:56:54 2003: LOG DATE
UWI.           05 071 07865 00: UNIQUE WELL ID
~Curve Information Block
DEPT.FT            0 000 00 00: Depth
CCL.                          : Casing Collar Locator
TT3.usec                      : CBL 3' Travel Time
AMP3.mV                       : CBL 3' Amplitude
GR.GAPI                       : Gamma Ray
~Parameter Information Block
~A  Depth       CCL         TT3         AMP3         GR     
# ...
  1875.7500      0.0000    293.8170     31.2303     28.6163
  1876.0000      0.0000    280.5820     34.5167     31.7589
  1876.2500      0.0000    271.0937     37.4649     34.5867
  1876.5000      0.0000    264.7105     40.4774     36.5430
  1876.7500      0.0000    260.7044     43.5047     37.9238
  1877.0000      0.0000    258.5089     46.1197     39.9595
  1877.2500      0.0000    257.5282     47.9363     44.1187
  1877.5000      0.0000    257.2028     48.8671     51.4281
  1877.7500      0.0000    257.1608     49.0910     62.3572
  1878.0000      0.0000    257.2114     48.9027     76.8049
  1878.2500      0.0000    257.2762     48.5704     93.7666
  1878.5000      0.0000    257.3355     48.2433    111.2843
  1878.7500      0.0000    257.3998     47.9438    127.2965
  1879.0000      0.0000    257.4858     47.6337    140.7243
  1879.2500      0.0000    257.5924     47.2635    151.4961
  1879.5000      0.0000    257.6942     46.7727    159.4885
  1879.7500      0.0000    257.7537     46.1178    163.9032
  1880.0000      0.0000    257.7494     45.3317    164.0189
  1880.2500      0.0000    257.7092     44.5039    160.2537
  1880.5000      0.0000    257.7074     43.6810    154.2386
  1880.7500      0.0000    257.8102     42.8374    148.0081
  1881.0000      0.0000    258.0088     41.9560    143.0807
  1881.2500      0.0000    258.2190     41.0876    139.8971
  1881.5000      0.0000    258.3578     40.3145    137.7803
  1881.7500      0.0000    258.4120     39.6823    135.4679
  1882.0000      0.0000    258.4298     39.1776    132.1290
  1882.2500      0.0000    258.4688     38.7472    128.2339
  1882.5000      0.0000    258.6026     38.3140    125.3573
  1882.7500      0.0000    259.0292     37.7768    124.9036
  1883.0000      0.0000    260.2330     37.0219    126.9376
  1883.2500      0.0000    263.0204     35.9770    130.1422
  1883.5000      0.0000    268.1509     34.6701    132.8802
  1883.7500      0.0000    275.5817     33.2153    134.3396
  1884.0000      0.0000    284.0285     31.7251    134.6430
  1884.2500      0.0000    291.5772     30.2518    134.1067
  1884.5000      0.0000    296.9266     28.8165    132.8434
  1884.7500      0.0000    300.0090     27.4599    130.9772
  1885.0000      0.0000    301.5562     26.2402    128.7041
  1885.2500      0.0000    302.3754     25.1975    126.0956
  1885.5000      0.0000    303.0592     24.3463    123.1036
  1885.7500      0.0000    304.1269     23.6882    119.6299
  1886.0000      0.0000    306.1977     23.2080    115.4771
  1886.2500      0.0000    309.8261     22.8668    110.5489
  1886.5000      0.0000    314.9641     22.6192    105.1733
  1886.7500      0.0000    320.5624     22.4377     99.7994
  1887.0000      0.0000    324.9067     22.3273     94.3366
  1887.2500      0.0000    326.5022     22.3392     88.1882
  1887.5000      0.0000    324.7938     22.5525     81.0665
  1887.7500      0.0000    320.3865     22.9999     73.5823
  1888.0000      0.0000    314.7971     23.6092     66.9536
  1888.2500      0.0000    309.7590     24.2425     62.2425
  1888.5000      0.0000    306.4170     24.7942     59.9115
  1888.7500      0.0000    305.0641     25.2401     59.8799
  1889.0000      0.0000    305.4393     25.6024     61.5845
  1889.2500      0.0000    306.9405     25.8971     63.9861
  1889.5000      0.0000    308.5720     26.1371     66.0483
  1889.7500      0.0000    309.2118     26.3727     67.6106
  1890.0000      0.0000    308.3654     26.6857     69.4943
  1890.2500      0.0000    306.5673     27.1207     72.4029
  1890.5000      0.0000    304.8581     27.6406     75.9143
  1890.7500      0.0000    303.9864     28.1511     78.8204
  1891.0000      0.0000    304.1820     28.5431     80.1922
  1891.2500      0.0000    305.3977     28.7201     79.8679
  1891.5000      0.0000    307.4365     28.6394     78.1506
  1891.7500      0.0000    309.9146     28.3685     75.2733
  1892.0000      0.0000    312.4523     28.0724     71.1258
  1892.2500      0.0000    315.0115     27.8993     65.6334
  1892.5000      0.0000    317.6893     27.8758     59.5270
  1892.7500      0.0000    320.0346     27.9338     54.3827
  1893.0000      0.0000    321.0847     28.0192     51.4417
  1893.2500      0.0000    320.5149     28.1379     50.4403
  1893.5000      0.0000    319.3287     28.2913     49.8160
  1893.7500      0.0000    318.9735     28.4007     48.0787
  1894.0000      0.0000    320.1053     28.3190     45.0590
  1894.2500      0.0000    322.8065     27.8850     42.0120
  1894.5000      0.0000    327.5398     26.9408     40.4807
  1894.7500      0.0000    334.5924     25.3937     40.9390
  1895.0000      0.0000    342.2985     23.3810     42.4307
  1895.2500      0.0000    347.2109     21.3229     43.3694
  1895.5000      0.0000    347.2360     19.6617     42.6375
  1895.7500      0.0000    343.9039     18.5524     40.1643
  1896.0000      0.0000    340.5702     17.8851     36.6911
  1896.2500      0.0000    339.1171     17.4961     33.0427
  1896.5000      2.0000    339.1903     17.2309     29.6590
  1896.7500      2.0000    339.6888     16.9325     26.8025
  1897.0000      2.0000    339.8400     16.5432     24.9193
  1897.2500     -2.0000    339.0510     16.1931     24.5033
  1897.5000      0.0000    336.5288     16.1390     25.6102
  1897.7500      0.0000    331.6221     16.6386     27.6145
  1898.0000      0.0000    324.7910     17.8335     29.4667
  1898.2500      0.0000    318.0309     19.6239     30.3645
  1898.5000      0.0000    313.5215     21.6496     30.5007
  1898.7500      0.0000    311.5516     23.4905     31.2656
  1899.0000      0.0000    310.4039     24.8947     34.4789
  1899.2500      0.0000    308.4994     25.8047     41.2510
  1899.5000      0.0000    305.9311     26.2663     51.4847
  1899.7500      0.0000    303.7459     26.3748     64.1620
  1900.0000      0.0000    302.5506     26.2550     77.7767
  1900.2500      0.0000    302.1701     26.0308     90.7162
  1900.5000      0.0000    302.1429     25.7938    101.8782
  1900.7500      0.0000    302.1617     25.5871    111.2139
  1901.0000      0.0000    302.1590     25.4074    119.3942
  1901.2500      0.0000    302.1879     25.2059    126.7986
  1901.5000      0.0000    302.2747     24.9033    132.9832
  1901.7500      0.0000    302.3782     24.4480    136.9900
  1902.0000      0.0000    302.4531     23.8938    138.0399
  1902.2500      0.0000    302.5391     23.3875    136.3152
  1902.5000      0.0000    302.8239     23.0427    133.3431
  1902.7500      0.0000    303.6765     22.8449    131.1323
  1903.0000      0.0000    305.5943     22.6970    130.5192
  1903.2500      0.0000    308.8898     22.5318    130.6100
  1903.5000      0.0000    313.2290     22.3623    129.9596
  1903.7500      0.0000    317.6330     22.2439    127.9125
  1904.0000      0.0000    321.2330     22.1932    124.7570
  1904.2500      0.0000    323.8945     22.1306    121.2163
  1904.5000      0.0000    325.7816     21.9280    118.2130
  1904.7500      0.0000    326.5482     21.5595    116.6671
  1905.0000      0.0000    325.5505     21.1863    116.7840
  1905.2500      0.0000    322.8930     21.0344    117.5589
  1905.5000      0.0000    319.7885     21.1823    117.4359
  1905.7500      0.0000    317.5945     21.5007    115.5338
  1906.0000      0.0000    316.6724     21.7875    112.2406
  1906.2500      0.0000    316.4663     21.9293    108.7929
  1906.5000      0.0000    316.5920     21.9420    106.2637
  1906.7500      0.0000    317.4953     21.8903    104.7824
  1907.0000      0.0000    319.8628     21.7759    103.7897
  1907.2500      0.0000    323.5612     21.5115    102.9573
  1907.5000      0.0000    327.4948     21.0266    102.4344
  1907.7500      0.0000    330.5281     20.3953    102.2190
  1908.0000      0.0000    332.2957     19.8047    101.8563
  1908.2500      0.0000    333.1349     19.3820    100.8529
  1908.5000      0.0000    333.5537     19.0993     98.9633
  1908.7500      0.0000    333.8758     18.8559     95.9998
  1909.0000      0.0000    334.2010     18.6092     91.7537
