~Version Information
VERS.                      2.0: CWLS Log ASCII Standard - VERSION 2.0
WRAP.                       NO: One line per depth step
~Well Information Block
STRT.FT               595.0000: 
STOP.FT              1508.7500: 
STEP.FT                 0.2500: 
NULL.                -999.2500: 
COMP.          Pioneer Natural Resources: COMPANY
WELL.          Sumatra 34-22 Tr: WELL
FLD.           Purgatoire River: FIELD
LOC.           443' FSL & 2424' FEL--: LOCATION
PROV.                 Colorado: PROVINCE
CNTY.               Las Animas: COUNTRY
SRVC.                Patterson: SERVICE COMPANY
DATE.          Wed Jun 08 23:53:01 2005: LOG DATE
UWI.           05 071 08383 00: UNIQUE WELL ID
~Curve Information Block
DEPT.FT            0 000 00 00: Depth
SN.Ohm-m                      : IEL Short Normal
SP.mV                         : IEL Spontaneous Potential
DIR.Ohm-m                     : IEL Induction Resistivity
GR.GAPI                       : Gamma Ray
~Parameter Information Block
~A  Depth        SN          SP         DIR          GR     
   595.0000    682.8896   -529.5078 100000.0000    108.5532
   595.2500    682.8896   -529.5060 100000.0000    117.9727
   595.5000    682.8896   -529.5040 100000.0000    138.9942
   595.7500    682.8896   -529.5020 100000.0000    155.2598
   596.0000    682.8896   -529.5000 100000.0000    175.2575
   596.2500    682.8896   -529.4981 100000.0000    181.3840
   596.5000    682.8896   -529.4965 100000.0000    178.4971
   596.7500    682.8896   -529.4951 100000.0000    171.7425
   597.0000    682.8896   -529.4941 100000.0000    161.7202
   597.2500    682.8896   -529.4935     14.4688    157.6781
   597.5000    682.8896   -529.4932      3.9011    156.1321
   597.7500    682.8896   -529.4932      2.0925    157.4223
   598.0000    682.8896   -529.4934      1.5019    161.7749
   598.2500    682.8896   -529.4939      1.3333    165.7866
   598.5000    682.8896   -529.4946      1.4206    172.2679
   598.7500    682.8896   -529.4955      1.7881    176.0143
   599.0000    682.8896   -529.4966      2.6501    179.6161
   599.2500    682.8896   -529.4977      4.7032    180.3527
   599.5000    682.8896   -529.4986     10.4689    178.6909
   599.7500    682.8896   -529.4991     30.8534    175.5858
   600.0000    682.8896   -529.4989     71.7791    167.8197
   600.2500    682.8896   -529.4979     39.7682    160.7160
   600.5000    682.8896   -529.4962     19.4316    147.8103
   600.7500    682.8896   -529.4937     12.4913    138.2600
   601.0000    682.8896   -529.4908      9.8047    123.7633
   601.2500    682.8896   -529.4877      8.8239    114.8582
   601.5000    682.8896   -529.4846      8.7541    103.9593
   601.7500    682.8896   -529.4819      9.3295     98.6415
   602.0000    682.8896   -529.4794     10.4769     93.1418
   602.2500    682.8896   -529.4775     12.1727     90.6127
   602.5000    682.8896   -529.4759     14.3152     87.9530
   602.7500    682.8896   -529.4749     16.6250     86.9404
   603.0000    682.8896   -529.4744     18.7728     86.7542
   603.2500    682.8896   -529.4747     20.8086     87.3108
   603.5000    682.8896   -529.4758     23.4930     87.9012
   603.7500    682.8896   -529.4777     28.4228     87.2061
   604.0000    682.8896   -529.4803     38.8424     83.7938
   604.2500    682.8896   -529.4835     63.1889     80.3287
   604.5000    682.8896   -529.4870    126.9309     74.8275
   604.7500    682.8896   -529.4904    260.1218     71.6446
   605.0000    682.8896   -529.4933    235.3377     67.8198
   605.2500    682.8896   -529.4957    121.5323     65.6151
   605.5000    682.8896   -529.4974     71.0232     62.2334
   605.7500    682.8896   -529.4983     50.1204     59.8033
   606.0000    682.8896   -529.4984     40.9306     56.2843
   606.2500    682.8896   -529.4977     37.2119     54.4456
   606.5000    682.8896   -529.4965     36.4759     52.8665
   606.7500    682.8896   -529.4948     37.4229     52.4801
   607.0000    682.8896   -529.4927     39.0910     52.3483
   607.2500    682.8896   -529.4908     40.6664     52.3406
   607.5000    682.8896   -529.4893     41.6024     52.6153
   607.7500    682.8896   -529.4886     41.7369     53.3175
   608.0000    682.8896   -529.4894     41.2170     55.5573
   608.2500    682.8896   -529.4918     40.2998     57.7969
   608.5000    682.8896   -529.4958     39.1877     61.9751
   608.7500    682.8896   -529.5017     37.9602     65.2813
   609.0000    682.8896   -529.5090     36.5900     71.2749
   609.2500    682.8896   -529.5171     35.0110     76.0087
   609.5000    682.8896   -529.5255     33.1881     83.7789
   609.7500    682.8896   -529.5336     31.1483     89.0375
   610.0000    682.8896   -529.5405     28.9694     96.8494
   610.2500    682.8896   -529.5460     26.7535    102.1528
   610.5000    682.8896   -529.5495     24.6057    110.1795
   610.7500    682.8896   -529.5508     22.6164    115.0622
   611.0000    682.8896   -529.5494     20.8425    120.5824
   611.2500    682.8896   -529.5454     19.2986    122.8712
   611.5000    682.8896   -529.5385     17.9666    124.9151
   611.7500    682.8896   -529.5286     16.8188    126.0192
   612.0000    682.8896   -529.5162     15.8386    128.1970
   612.2500    682.8896   -529.5021     15.0287    130.1242
   612.5000    682.8896   -529.4872     14.4048    133.0575
   612.7500    682.8896   -529.4728     13.9860    134.3981
   613.0000    682.8896   -529.4599     13.7872    134.9091
   613.2500    682.8896   -529.4495     13.8161    134.3361
   613.5000    682.8896   -529.4421     14.0730    132.1273
   613.7500    682.8896   -529.4377     14.5499    129.3589
   614.0000    682.8896   -529.4362     15.2292    122.4636
   614.2500    682.8896   -529.4370     16.0852    116.0183
   614.5000    682.8896   -529.4396     17.0894    104.5732
   614.7500    682.8896   -529.4432     18.2224     96.8410
   615.0000    682.8896   -529.4474     19.4859     87.5673
   615.2500    682.8896   -529.4516     20.9021     84.3022
   615.5000    682.8896   -529.4553     22.4919     84.5743
   615.7500    682.8896   -529.4581     24.2398     87.3538
   616.0000    682.8896   -529.4598     26.0650     92.6268
   616.2500    682.8896   -529.4604     27.8306     95.4356
   616.5000    682.8896   -529.4598     29.3980     97.5674
   616.7500    682.8896   -529.4581     30.6926     97.7981
   617.0000    682.8896   -529.4555     31.7261     97.2904
   617.2500    682.8896   -529.4520     32.5628     96.9178
   617.5000    682.8896   -529.4478     33.2679     96.9206
   617.7500    682.8896   -529.4431     33.8745     97.3820
   618.0000    682.8896   -529.4379     34.3733     98.3486
   618.2500    682.8896   -529.4326     34.7176     98.7921
   618.5000    682.8896   -529.4276     34.8425     98.9287
   618.7500    682.8896   -529.4229     34.6968     98.9034
   619.0000    682.8896   -529.4188     34.2720     99.2769
   619.2500    682.8896   -529.4153     33.6108    100.0753
   619.5000    682.8896   -529.4122     32.7916    102.6377
   619.7500    682.8896   -529.4091     31.9037    105.6388
   620.0000    682.8896   -529.4056     31.0274    112.1187
   620.2500    682.8896   -529.4015     30.2213    116.9060
   620.5000    682.8896   -529.3965     29.5155    121.9014
   620.7500    682.8896   -529.3909     28.9081    122.0722
   621.0000    682.8896   -529.3849     28.3717    116.4311
   621.2500    682.8896   -529.3791     27.8708    109.5026
   621.5000    682.8896   -529.3741     27.3866     97.5331
   621.7500    682.8896   -529.3707     26.9364     90.6464
   622.0000    682.8896   -529.3693     26.5717     84.5040
   622.2500    682.8896   -529.3704     26.3536     83.5468
   622.5000    682.8896   -529.3742     26.3217     85.6652
   622.7500    682.8896   -529.3804     26.4702     88.2581
   623.0000    682.8896   -529.3888     26.7380     92.0303
   623.2500    682.8896   -529.3986     27.0092     93.7799
   623.5000    682.8896   -529.4091     27.1279     94.6932
   623.7500    682.8896   -529.4194     26.9349     93.9831
   624.0000    682.8896   -529.4290     26.3250     91.0398
   624.2500    682.8896   -529.4372     25.2927     88.5121
   624.5000    682.8896   -529.4438     23.9327     86.4049
   624.7500    682.8896   -529.4487     22.3945     87.8222
   625.0000    682.8896   -529.4523     20.8260     95.5917
   625.2500    682.8896   -529.4545     19.3375    103.9061
   625.5000    682.8896   -529.4559     17.9910    118.3299
   625.7500    682.8896   -529.4566     16.8083    127.6121
   626.0000    682.8896   -529.4567     15.7862    139.2163
   626.2500    682.8896   -529.4565     14.9105    144.9064
   626.5000    682.8896   -529.4561     14.1643    150.1689
   626.7500    682.8896   -529.4554     13.5317    151.5859
   627.0000    682.8896   -529.4547     12.9988    150.7614
   627.2500    682.8896   -529.4536     12.5564    148.4106
   627.5000    682.8896   -529.4523     12.2026    143.0603
   627.7500    682.8896   -529.4506     11.9440    139.2203
   628.0000    682.8896   -529.4485     11.7943    134.8233
   628.2500    682.8896   -529.4459     11.7707    133.4832
