~Version Information
VERS.                      2.0: CWLS Log ASCII Standard - VERSION 2.0
WRAP.                       NO: One line per depth step
~Well Information Block
STRT.FT                -7.5000: 
STOP.FT               872.5000: 
STEP.FT                 0.5000: 
NULL.                -999.2500: 
COMP.          Pioneer Natural Resources: COMPANY
WELL.          New Mexico 21-5: WELL
FLD.           Purgatorie River: FIELD
LOC.           175' FNL & 1700' FWL: LOCATION
PROV.                 Colorado: PROVINCE
CNTY.               Las Animas: COUNTRY
SRVC.          Patterson Wireline: SERVICE COMPANY
DATE.          Fri Dec 17 09:32:01 2004: LOG DATE
UWI.           05-071-08234-00: UNIQUE WELL ID
~Curve Information Block
DEPT.FT            0 000 00 00: Depth
CCL.                          : Casing Collar Locator
TT3.usec                      : CBL 3' Travel Time
AMP3.mV                       : CBL 3' Amplitude
GR.GAPI                       : Gamma Ray
~Parameter Information Block
~A  Depth       CCL         TT3         AMP3         GR     
# ...
   528.5000      0.0000    677.8718      6.1519    140.4738
   529.0000      0.0000    676.0767      6.0848    153.2945
   529.5000      0.0000    691.1683      6.0531    142.5665
   530.0000      0.0000    708.4702      6.1286    132.2681
   530.5000      0.0000    719.2639      6.2872    131.0818
   531.0000      0.0000    724.6944      6.4788    129.1136
   531.5000      0.0000    727.5692      6.7417    121.6408
   532.0000      0.0000    732.3802      7.0240    116.2907
   532.5000      0.0000    731.6752      7.2083    113.8808
   533.0000      0.0000    723.8085      7.3557    102.8073
   533.5000      0.0000    704.7699      7.4817     89.6723
   534.0000      0.0000    654.4298      7.4788     89.7327
   534.5000      0.0000    561.1519      7.3884     99.5145
   535.0000      0.0000    498.4864      7.2217    108.6864
   535.5000      0.0000    533.1749      7.1137    122.7439
   536.0000      0.0000    630.0111      7.1849    139.6802
   536.5000      0.0000    711.5010      7.2608    150.3420
   537.0000      0.0000    730.0499      7.2144    152.5285
   537.5000      0.0000    719.5535      7.1743    154.4555
   538.0000      0.0000    728.3156      7.2264    154.6909
   538.5000      0.0000    741.4196      7.4423    140.3762
   539.0000      0.0000    712.2213      7.8875    124.3060
   539.5000      0.0000    641.6694      8.5035    120.2741
   540.0000      0.0000    610.9824      9.2980    122.2985
   540.5000      0.0000    562.6109     10.3310    119.3654
   541.0000      0.0000    456.5061     11.5674    114.0010
   541.5000      0.0000    379.3918     12.7468    115.8718
   542.0000      0.0000    343.1835     13.4776    114.6257
   542.5000      0.0000    335.5218     13.5830    115.2691
   543.0000      0.0000    362.2363     13.0599    126.8879
   543.5000      0.0000    452.0194     12.0647    133.3074
   544.0000      0.0000    607.8772     10.9181    130.2654
   544.5000      0.0000    732.8820      9.8965    124.2172
   545.0000      0.0000    781.4428      9.0734    117.3222
   545.5000      0.0000    762.2543      8.4910    114.1404
   546.0000      0.0000    640.0502      8.2746    111.4009
   546.5000      0.0000    471.6998      8.2714    107.6424
   547.0000      0.0000    393.7648      8.2311    105.7184
   547.5000      0.0000    387.8349      8.1545    110.3009
   548.0000      0.0000    395.8422      8.0618    118.2688
   548.5000      0.0000    409.5017      7.9330    130.9007
   549.0000      0.0000    427.0311      7.8256    141.2207
   549.5000      0.0000    422.7311      7.8333    138.2720
   550.0000      0.0000    399.8387      7.8826    135.0770
   550.5000      0.0000    408.0390      7.7720    138.4725
   551.0000      0.0000    470.6102      7.4841    143.1505
   551.5000      0.0000    576.0219      7.2073    143.2429
   552.0000      0.0000    674.8885      7.0356    142.3971
   552.5000      0.0000    725.2400      6.9264    146.6035
   553.0000      0.0000    736.7152      6.7268    145.6853
   553.5000      0.0000    731.4232      6.4698    139.9672
   554.0000      0.0000    730.9014      6.3616    141.2712
   554.5000      0.0000    736.0078      6.3592    154.3176
   555.0000      0.0000    742.8774      6.2385    165.7797
   555.5000      0.0000    747.9033      6.0280    164.1244
   556.0000      0.0000    749.6461      5.8779    156.1943
   556.5000      0.0000    750.8782      5.8437    150.9250
   557.0000      0.0000    748.0688      5.8982    152.4686
   557.5000      0.0000    725.1934      5.9896    162.8699
   558.0000      0.0000    694.0680      6.0752    166.1490
   558.5000      0.0000    688.4830      6.0963    161.6231
   559.0000      0.0000    693.5581      6.0212    163.3835
   559.5000      0.0000    677.4196      5.8865    168.1332
   560.0000      0.0000    653.6874      5.6098    171.4535
   560.5000      0.0000    650.0040      5.0545    175.5695
   561.0000      0.0000    676.3861      4.3528    172.3199
   561.5000      0.0000    721.5755      3.9121    164.7421
   562.0000      0.0000    764.4363      3.9735    161.1789
   562.5000      0.0000    775.8870      4.2338    153.0458
   563.0000      0.0000    776.4557      4.2973    149.8300
   563.5000      0.0000    777.8417      4.3588    159.2456
   564.0000      0.0000    776.5282      4.7437    163.3268
   564.5000      0.0000    780.9388      5.5567    151.6714
   565.0000      0.0000    779.7191      6.8625    137.5324
   565.5000      0.0000    764.9131      8.4369    133.8850
   566.0000      0.0000    699.0084      9.6437    145.1232
   566.5000      0.0000    601.3990     10.4725    154.8680
   567.0000      0.0000    555.5735     11.1203    141.7345
   567.5000      0.0000    489.6968     11.6282    122.2957
   568.0000      0.0000    443.0311     11.5707    125.2442
   568.5000      0.0000    542.8076     10.5968    143.1476
   569.0000      0.0000    692.8065      9.3091    153.4208
   569.5000      0.0000    745.9534      8.4898    157.0220
   570.0000      0.0000    771.6997      8.0719    164.1037
   570.5000      0.0000    813.9069      7.7793    161.1619
   571.0000      0.0000    830.7683      7.5196    140.4246
   571.5000      0.0000    824.7871      7.3401    115.2535
   572.0000      0.0000    809.5869      7.3113    108.2435
   572.5000      0.0000    789.5634      7.2611    123.0286
   573.0000      0.0000    775.2183      7.0624    139.8328
   573.5000      0.0000    783.8220      6.8368    141.6546
   574.0000      0.0000    787.3432      6.6120    128.7744
   574.5000      0.0000    760.0565      6.4041    108.1878
   575.0000      0.0000    709.3682      6.2673     96.2058
   575.5000      0.0000    683.1002      6.1988    107.6585
   576.0000      0.0000    691.9489      6.2845    130.9600
   576.5000      0.0000    714.1571      6.4229    149.6544
   577.0000      0.0000    746.0232      6.4868    159.8944
   577.5000      0.0000    768.4825      6.5812    165.8822
   578.0000      0.0000    779.7133      6.7537    161.0326
   578.5000      0.0000    796.9182      6.8922    136.5853
   579.0000      0.0000    802.0217      7.0123    118.3541
   579.5000      0.0000    796.8651      7.1589    127.3985
   580.0000      0.0000    784.5779      7.2591    136.2845
   580.5000      0.0000    798.1575      7.2748    122.8241
   581.0000      0.0000    825.2749      7.2375    103.0088
   581.5000      0.0000    833.8080      7.2181     95.1354
   582.0000      0.0000    832.7228      7.1631    103.4185
   582.5000      0.0000    830.9124      6.8078    117.3013
   583.0000      0.0000    817.4702      6.0230    125.3299
   583.5000      0.0000    794.0106      5.6114    122.7103
   584.0000      0.0000    785.3481      5.8307    119.0377
   584.5000      0.0000    797.7826      6.0752    131.6506
   585.0000      0.0000    812.4178      6.3869    154.1666
   585.5000      0.0000    814.7292      6.9190    169.4298
   586.0000      0.0000    802.7649      7.4225    169.7891
   586.5000      0.0000    801.4566      8.0476    161.4394
   587.0000      0.0000    819.5392      8.3286    150.5850
   587.5000      0.0000    827.8420      8.1603    144.3790
   588.0000      0.0000    804.8885      8.1844    138.5873
   588.5000      0.0000    770.2177      8.4103    122.5282
   589.0000      0.0000    778.2493      8.4652    106.3067
   589.5000      0.0000    812.5342      8.3270    104.6901
   590.0000      0.0000    831.3704      8.0705    112.0722
   590.5000      0.0000    836.4729      7.9158    114.9662
   591.0000      0.0000    833.1135      7.9527    115.9763
   591.5000      0.0000    809.9536      7.9615    119.5267
   592.0000      0.0000    770.1127      7.8826    123.0836
   592.5000      0.0000    755.7081      7.7853    129.3419
   593.0000      0.0000    766.1310      7.8000    136.8142
   593.5000      0.0000    771.2661      8.1810    137.0301
   594.0000      0.0000    778.3372      8.7524    138.2764
   594.5000      0.0000    782.1387      9.1539    141.0876
   595.0000      0.0000    775.3444      9.3621    134.7604
