~Version Information
VERS.                      2.0: CWLS Log ASCII Standard - VERSION 2.0
WRAP.                       NO: One line per depth step
~Well Information Block
STRT.FT               450.0000: 
STOP.FT              2756.0000: 
STEP.FT                 0.2500: 
NULL.                -999.2500: 
COMP.          Pioneer Natural Resources: COMPANY
WELL.             Squeal 11-26: WELL
FLD.           Purgatoire River: FIELD
LOC.           1186' FNL & 152' FWL: LOCATION
PROV.                 Colorado: PROVINCE
CNTY.               Las Animas: COUNTRY
SRVC.                Patterson: SERVICE COMPANY
DATE.          Wed Jun 15 02:22:08 2005: LOG DATE
UWI.           05 071 08404 00: UNIQUE WELL ID
~Curve Information Block
DEPT.FT            0 000 00 00: Depth
SN.Ohm-m                      : IEL Short Normal
SP.mV                         : IEL Spontaneous Potential
DIR.Ohm-m                     : IEL Induction Resistivity
GR.GAPI                       : Gamma Ray
~Parameter Information Block
~A  Depth        SN          SP         DIR          GR     
# ...
   751.5000   2000.0000   2000.0000     56.2497     46.7145
   751.7500   2000.0000   2000.0000     55.3155     45.6643
   752.0000   2000.0000   2000.0000     53.7173     44.3868
   752.2500   2000.0000   2000.0000     51.5579     43.7990
   752.5000   2000.0000   2000.0000     48.9662     43.5003
   752.7500   2000.0000   2000.0000     46.0712     43.9336
   753.0000   2000.0000   2000.0000     43.0206     46.2071
   753.2500   2000.0000   2000.0000     39.9802     49.2461
   753.5000   2000.0000   2000.0000     37.0881     56.6248
   753.7500   2000.0000   2000.0000     34.4127     63.5807
   754.0000   2000.0000   2000.0000     31.9603     77.2951
   754.2500   2000.0000   2000.0000     29.7248     88.7022
   754.5000   2000.0000   2000.0000     27.7271    108.5092
   754.7500   2000.0000   2000.0000     26.0077    122.1757
   755.0000   2000.0000   2000.0000     24.5869    139.8232
   755.2500   2000.0000   2000.0000     23.4330    147.8277
   755.5000   2000.0000   2000.0000     22.4660    153.1812
   755.7500   2000.0000   2000.0000     21.5946    153.2050
   756.0000   2000.0000   2000.0000     20.7581    150.8248
   756.2500   2000.0000   2000.0000     19.9436    149.2274
   756.5000   2000.0000   2000.0000     19.1724    148.3257
   756.7500   2000.0000   2000.0000     18.4746    148.7999
   757.0000   2000.0000   2000.0000     17.8734    150.4902
   757.2500   2000.0000   2000.0000     17.3841    151.8681
   757.5000   2000.0000   2000.0000     17.0135    153.8165
   757.7500   2000.0000   2000.0000     16.7562    154.6722
   758.0000   2000.0000   2000.0000     16.5887    154.3831
   758.2500   2000.0000   2000.0000     16.4694    152.7792
   758.5000   2000.0000   2000.0000     16.3500    148.7509
   758.7500   2000.0000   2000.0000     16.1920    145.9263
   759.0000   2000.0000   2000.0000     15.9785    143.2613
   759.2500   2000.0000   2000.0000     15.7170    143.1072
   759.5000   2000.0000   2000.0000     15.4338    145.1788
   759.7500   2000.0000   2000.0000     15.1661    147.5282
   760.0000   2000.0000   2000.0000     14.9528    151.1943
   760.2500   2000.0000   2000.0000     14.8222    153.1169
   760.5000   2000.0000   2000.0000     14.7815    154.9049
   760.7500   2000.0000   2000.0000     14.8141    155.4868
   761.0000   2000.0000   2000.0000     14.8852    155.4110
   761.2500   2000.0000   2000.0000     14.9560    154.4990
   761.5000   2000.0000   2000.0000     14.9982    151.9161
   761.7500   2000.0000   2000.0000     15.0023    149.9612
   762.0000   2000.0000   2000.0000     14.9765    147.7056
   762.2500   2000.0000   2000.0000     14.9363    146.6689
   762.5000   2000.0000   2000.0000     14.8974    145.1589
   762.7500   2000.0000   2000.0000     14.8754    144.1208
   763.0000   2000.0000   2000.0000     14.8880    143.3015
   763.2500   2000.0000   2000.0000     14.9529    143.6106
   763.5000   2000.0000   2000.0000     15.0765    144.7932
   763.7500   2000.0000   2000.0000     15.2394    145.2401
   764.0000   2000.0000   2000.0000     15.3887    144.5760
   764.2500   2000.0000   2000.0000     15.4517    143.6782
   764.5000   2000.0000   2000.0000     15.3753    143.4242
   764.7500   2000.0000   2000.0000     15.1684    144.6308
   765.0000   2000.0000   2000.0000     14.9059    147.8488
   765.2500   2000.0000   2000.0000     14.6859    149.9935
   765.5000   2000.0000   2000.0000     14.5792    152.3371
   765.7500   2000.0000   2000.0000     14.6089    153.5055
   766.0000   2000.0000   2000.0000     14.7616    155.2607
   766.2500   2000.0000   2000.0000     15.0112    156.4897
   766.5000   2000.0000   2000.0000     15.3375    158.0907
   766.7500   2000.0000   2000.0000     15.7322    158.6515
   767.0000   2000.0000   2000.0000     16.1956    157.8461
   767.2500   2000.0000   2000.0000     16.7279    155.6977
   767.5000   2000.0000   2000.0000     17.3184    149.7482
   767.7500   2000.0000   2000.0000     17.9349    144.1066
   768.0000   2000.0000   2000.0000     18.5258    133.4378
   768.2500   2000.0000   2000.0000     19.0392    125.0597
   768.5000   2000.0000   2000.0000     19.4494    111.5587
   768.7500   2000.0000   2000.0000     19.7664    103.0614
   769.0000   2000.0000   2000.0000     20.0193     93.4630
   769.2500   2000.0000   2000.0000     20.2294     90.2613
   769.5000   2000.0000   2000.0000     20.3992     90.9385
   769.7500   2000.0000   2000.0000     20.5231     94.7285
   770.0000   2000.0000   2000.0000     20.6049    103.9270
   770.2500   2000.0000   2000.0000     20.6600    111.1911
   770.5000   2000.0000   2000.0000     20.7025    121.7700
   770.7500   2000.0000   2000.0000     20.7284    127.7898
   771.0000   2000.0000   2000.0000     20.7052    134.5083
   771.2500   2000.0000   2000.0000     20.5760    137.1809
   771.5000   2000.0000   2000.0000     20.2841    138.2652
   771.7500   2000.0000   2000.0000     19.8132    137.2926
   772.0000   2000.0000   2000.0000     19.2122    134.7065
   772.2500   2000.0000   2000.0000     18.5763    133.3502
   772.5000   2000.0000   2000.0000     18.0001    133.1020
   772.7500   2000.0000   2000.0000     17.5432    133.9667
   773.0000   2000.0000   2000.0000     17.2245    135.3859
   773.2500   2000.0000   2000.0000     17.0319    135.6577
   773.5000   2000.0000   2000.0000     16.9326    135.0526
   773.7500   2000.0000   2000.0000     16.8824    134.6174
   774.0000   2000.0000   2000.0000     16.8405    134.8327
   774.2500   2000.0000   2000.0000     16.7829    135.3981
   774.5000   2000.0000   2000.0000     16.7052    135.8210
   774.7500   2000.0000   2000.0000     16.6114    135.5815
   775.0000   2000.0000   2000.0000     16.5036    135.6475
   775.2500   2000.0000   2000.0000     16.3863    137.1394
   775.5000   2000.0000   2000.0000     16.2760    142.4739
   775.7500   2000.0000   2000.0000     16.1986    147.6035
   776.0000   2000.0000   2000.0000     16.1700    155.9279
   776.2500   2000.0000   2000.0000     16.1759    160.9760
   776.5000   2000.0000   2000.0000     16.1690    166.6062
   776.7500   2000.0000   2000.0000     16.0936    168.5539
   777.0000   2000.0000   2000.0000     15.9236    168.5233
   777.2500   2000.0000   2000.0000     15.6819    166.9366
   777.5000   2000.0000   2000.0000     15.4270    163.5138
   777.7500   2000.0000   2000.0000     15.2213    161.2469
   778.0000   2000.0000   2000.0000     15.1071    158.4886
   778.2500   2000.0000   2000.0000     15.0961    157.1337
   778.5000   2000.0000   2000.0000     15.1720    155.7300
   778.7500   2000.0000   2000.0000     15.3017    155.1561
   779.0000   2000.0000   2000.0000     15.4515    154.7526
   779.2500   2000.0000   2000.0000     15.6005    154.6970
   779.5000   2000.0000   2000.0000     15.7412    154.6880
   779.7500   2000.0000   2000.0000     15.8732    154.6153
   780.0000   2000.0000   2000.0000     15.9938    154.4835
   780.2500   2000.0000   2000.0000     16.0997    154.5887
   780.5000   2000.0000   2000.0000     16.1921    155.3873
   780.7500   2000.0000   2000.0000     16.2814    156.3162
   781.0000   2000.0000   2000.0000     16.3790    157.6232
   781.2500   2000.0000   2000.0000     16.4812    157.8401
   781.5000   2000.0000   2000.0000     16.5594    156.6588
   781.7500   2000.0000   2000.0000     16.5747    155.1635
   782.0000   2000.0000   2000.0000     16.5110    152.9470
   782.2500   2000.0000   2000.0000     16.3980    151.8996
   782.5000   2000.0000   2000.0000     16.3013    150.8964
   782.7500   2000.0000   2000.0000     16.2874    150.4132
   783.0000   2000.0000   2000.0000     16.3921    149.9176
   783.2500   2000.0000   2000.0000     16.6095    149.7979
   783.5000   2000.0000   2000.0000     16.8990    149.8599
   783.7500   2000.0000   2000.0000     17.2016    149.9774
   784.0000   2000.0000   2000.0000     17.4604    150.2290
   784.2500   2000.0000   2000.0000     17.6367    150.4233
   784.5000   2000.0000   2000.0000     17.7204    150.6110
   784.7500   2000.0000   2000.0000     17.7317    150.6037
