~Version Information
VERS.                      2.0: CWLS Log ASCII Standard - VERSION 2.0
WRAP.                       NO: One line per depth step
~Well Information Block
STRT.FT                 6.5000: 
STOP.FT              1054.0000: 
STEP.FT                 0.2500: 
NULL.                -999.2500: 
COMP.          Pioneer Natural Resources: COMPANY
WELL.            Galileo 21-11: WELL
FLD.           Purgatoire River: FIELD
LOC.           407' FNL & 2394' FWL: LOCATION
PROV.                 Colorado: PROVINCE
CNTY.               Las Animas: COUNTRY
SRVC.                Patterson: SERVICE COMPANY
DATE.          Sat Apr 16 10:31:00 2005: LOG DATE
UWI.           05 071 08353 00: UNIQUE WELL ID
~Curve Information Block
DEPT.FT            0 000 00 00: Depth
GR.GAPI                       : Gamma Ray
CCL.                          : Casing Collar Locator
TT3.usec                      : CBL 3' Travel Time
AMP3.mV                       : CBL 3' Amplitude
~Parameter Information Block
~A  Depth        GR         CCL         TT3         AMP3    
# ...
   542.5000    101.9696      0.0000   1199.6044      6.3821
   542.7500    101.6538      0.0000   1123.9406      6.2738
   543.0000    100.7724      0.0000   1047.0612      6.1616
   543.2500     99.5454      0.0000    978.5478      6.0361
   543.5000     98.3581      0.0000    926.4412      5.8866
   543.7500     97.7024      0.0000    895.6580      5.7008
   544.0000     97.6584      0.0000    885.3697      5.4592
   544.2500     97.8934      0.0000    888.0605      5.1473
   544.5000     98.4427      0.0000    891.7584      4.7923
   544.7500    100.0971      0.0000    886.7592      4.4818
   545.0000    103.8344      0.0000    873.5225      4.3199
   545.2500    110.1416      0.0000    862.9264      4.3427
   545.5000    118.7066      0.0000    866.2277      4.4758
   545.7500    127.9387      0.0000    883.3927      4.5870
   546.0000    134.7183      0.0000    901.0015      4.5921
   546.2500    135.9067      0.0000    902.6896      4.5086
   546.5000    131.2001      0.0000    883.3985      4.4067
   546.7500    123.9793      0.0000    853.0639      4.3219
   547.0000    118.5109      0.0000    826.5750      4.2285
   547.2500    116.5255      0.0000    812.9680      4.0961
   547.5000    116.7795      0.0000    815.4998      3.9513
   547.7500    117.0404      0.0000    838.4778      3.8647
   548.0000    115.8292      0.0000    888.2952      3.8799
   548.2500    112.9858      0.0000    964.5858      3.9683
   548.5000    109.3770      0.0000   1052.9495      4.0564
   548.7500    106.0095      0.0000   1132.5007      4.0863
   549.0000    103.2674      0.0000   1192.2031      4.0529
   549.2500    100.9423      0.0000   1235.4458      3.9997
   549.5000     98.5918      0.0000   1267.5881      3.9910
   549.7500     95.6990      0.0000   1283.4868      4.0764
   550.0000     92.0827      0.0000   1269.2335      4.2641
   550.2500     88.4383      0.0000   1215.0066      4.5163
   550.5000     85.9652      0.0000   1128.9520      4.7677
   550.7500     85.2824      0.0000   1040.5808      4.9573
   551.0000     86.1383      0.0000    985.5612      5.0584
   551.2500     88.0269      0.0000    981.6099      5.0857
   551.5000     90.4479      0.0000   1018.4823      5.0679
   551.7500     92.5608      0.0000   1069.3988      5.0160
   552.0000     93.2405      0.0000   1108.3517      4.9254
   552.2500     91.8581      0.0000   1120.6094      4.8061
   552.5000     88.9097      0.0000   1107.4323      4.6940
   552.7500     85.6288      0.0000   1085.9792      4.6240
   553.0000     82.9171      0.0000   1081.4347      4.5948
   553.2500     80.7548      0.0000   1111.5023      4.5643
   553.5000     78.8045      0.0000   1172.6306      4.4823
   553.7500     77.5112      0.0000   1242.2922      4.3369
   554.0000     78.2204      0.0000   1297.4303      4.1805
   554.2500     82.0268      0.0000   1329.5713      4.1048
   554.5000     88.7187      0.0000   1343.7192      4.1707
   554.7500     96.8277      0.0000   1348.4823      4.3551
   555.0000    104.4183      0.0000   1349.6801      4.5704
   555.2500    109.9733      0.0000   1349.7307      4.7388
   555.5000    112.9488      0.0000   1348.7880      4.8470
   555.7500    113.6624      0.0000   1344.9822      4.9364
   556.0000    112.7660      0.0000   1333.6224      5.0528
   556.2500    111.0115      0.0000   1307.7997      5.2015
   556.5000    109.2154      0.0000   1263.6838      5.3434
   556.7500    107.8092      0.0000   1208.2603      5.4347
   557.0000    106.2926      0.0000   1158.5577      5.4706
   557.2500    103.5313      0.0000   1126.2920      5.4867
   557.5000     98.9277      0.0000   1104.3733      5.5238
   557.7500     93.3880      0.0000   1075.9755      5.5979
   558.0000     89.0404      0.0000   1035.7926      5.6980
   558.2500     87.6306      0.0000    994.7822      5.7995
   558.5000     88.9831      0.0000    967.7468      5.8759
   558.7500     91.5731      0.0000    965.8693      5.9029
   559.0000     94.8658      0.0000    996.4161      5.8572
   559.2500    100.0986      0.0000   1056.7247      5.7269
   559.5000    107.9431      0.0000   1128.9343      5.5384
   559.7500    116.3123      0.0000   1190.6875      5.3503
   560.0000    121.7136      0.0000   1232.9594      5.1810
   560.2500    122.4170      0.0000   1262.6781      4.9675
   560.5000    119.4521      0.0000   1289.1051      4.6542
   560.7500    114.8837      0.0000   1313.5411      4.2975
   561.0000    110.0779      0.0000   1332.1671      4.0202
   561.2500    105.6235     -2.6868   1343.0048      3.8842
   561.5000    102.1268     -2.0215   1347.6400      3.8588
   561.7500    100.6089      0.0000   1348.3448      3.8854
   562.0000    101.9814      0.0000   1345.1301      3.9411
   562.2500    105.9593      0.0000   1334.0238      4.0561
   562.5000    110.5141      0.0000   1307.0984      4.2737
   562.7500    112.9371      0.0000   1256.2286      4.5684
   563.0000    112.0545      0.0000   1180.4623      4.8277
   563.2500    109.3398      0.0000   1090.7618      4.9613
   563.5000    107.3528      0.0000   1005.2618      4.9981
   563.7500    107.3347      0.0000    937.6112      5.0341
   564.0000    108.8326      0.0000    889.0215      5.1268
   564.2500    111.0052      0.0000    851.0662      5.2782
   564.5000    113.2565      0.0000    815.9588      5.4748
   564.7500    114.9739      0.0000    783.9099      5.7039
   565.0000    115.7719      0.0000    760.7198      5.9469
   565.2500    115.9613      0.0000    750.0823      6.1769
   565.5000    116.1666      0.0000    749.8660      6.3675
   565.7500    116.6335      0.0000    754.5735      6.5081
   566.0000    117.2277      0.0000    759.2886      6.6149
   566.2500    117.8219      0.0000    761.3824      6.7194
   566.5000    118.3537      0.0000    760.6457      6.8469
   566.7500    118.7662      0.0000    759.0685      7.0040
   567.0000    119.1956      0.0000    759.5216      7.1785
   567.2500    119.9612      0.0000    763.0817      7.3411
   567.5000    121.0277      0.0000    767.3414      7.4570
   567.7500    121.6598      0.0000    768.1578      7.5096
   568.0000    120.9163      0.0000    763.5072      7.5179
   568.2500    118.3299      0.0000    755.8854      7.5274
   568.5000    113.9188      0.0000    751.9583      7.5897
   568.7500    107.8768      0.0000    761.6426      7.7467
   569.0000    100.5134      0.0000    797.3265      8.0184
   569.2500     92.3356      0.0000    869.4214      8.3879
   569.5000     84.1450      0.0000    976.0085      8.8034
   569.7500     77.1073      0.0000   1095.5547      9.2039
   570.0000     72.4672      0.0000   1194.9768      9.5458
   570.2500     70.7819      0.0000   1249.8481      9.8106
   570.5000     71.3701      0.0000   1259.4998      9.9971
   570.7500     72.7444      0.0000   1245.4071     10.1114
   571.0000     73.7173      0.0000   1234.4983     10.1637
   571.2500     74.0384      0.0000   1238.4905     10.1728
   571.5000     74.0583      0.0000   1246.9789     10.1698
   571.7500     74.0580      0.0000   1242.2418     10.1844
   572.0000     73.9566      0.0000   1218.2587     10.2217
   572.2500     73.5180      0.0000   1181.1864     10.2543
   572.5000     72.8584      0.0000   1136.0269     10.2453
   572.7500     72.7342      0.0000   1084.5708     10.1857
   573.0000     74.0729      0.0000   1037.7278     10.1088
   573.2500     77.2360      0.0000   1015.9153     10.0639
   573.5000     82.1083      0.0000   1027.8958     10.0712
   573.7500     88.7291      0.0000   1057.9650     10.1059
   574.0000     97.1084      0.0000   1084.5857     10.1244
   574.2500    106.3680      0.0000   1106.7588     10.1044
   574.5000    114.8223      0.0000   1140.9745     10.0549
   574.7500    121.1610      0.0000   1194.8424      9.9953
   575.0000    125.0403      0.0000   1255.3873      9.9418
   575.2500    126.4445      0.0000   1303.7229      9.9124
   575.5000    125.2178      0.0000   1332.0352      9.9293
   575.7500    121.4787      0.0000   1344.4951     10.0074
