~Version Information
VERS.                      2.0: CWLS Log ASCII Standard - VERSION 2.0
WRAP.                       NO: One line per depth step
~Well Information Block
STRT.FT                -7.0000: 
STOP.FT              2736.0000: 
STEP.FT                 0.2500: 
NULL.                -999.2500: 
COMP.          Pioneer Natural Resources: COMPANY
WELL.              Getem 21-23: WELL
FLD.           Purgatorie River: FIELD
LOC.           2623' FWL & 790' FNL----: LOCATION
PROV.                       CO: PROVINCE
CNTY.               Las Animas: COUNTRY
SRVC.          Patterson Wireline: SERVICE COMPANY
DATE.          Mon Jun 27 09:57:55 2005: LOG DATE
UWI.           05 071 08411 00: UNIQUE WELL ID
~Curve Information Block
DEPT.FT            0 000 00 00: Depth
CCL.                          : Casing Collar Locator
TT3.usec                      : CBL 3' Travel Time
AMP3.mV                       : CBL 3' Amplitude
GR.GAPI                       : Gamma Ray
~Parameter Information Block
~A  Depth       CCL         TT3         AMP3         GR     
# ...
  1802.0000      0.0000    711.9610      4.1367    132.5868
  1802.2500      0.0000    710.8476      4.1403    136.1223
  1802.5000      0.0000    709.4582      4.1662    141.9114
  1802.7500      0.0000    708.9442      4.2090    147.6083
  1803.0000      0.0000    711.3188      4.2572    150.7926
  1803.2500      0.0000    718.4356      4.2921    150.3851
  1803.5000      0.0000    730.5002      4.2942    147.0470
  1803.7500      0.0000    745.2723      4.2598    142.1287
  1804.0000      0.0000    759.0034      4.2023    136.7589
  1804.2500      0.0000    768.8762      4.1403    132.1093
  1804.5000      0.0000    774.9261      4.0907    129.6020
  1804.7500      0.0000    779.3851      4.0611    130.0287
  1805.0000      0.0000    783.7727      4.0412    132.5107
  1805.2500      0.0000    786.7518      4.0152    134.6293
  1805.5000      0.0000    785.3858      3.9877    133.7638
  1805.7500      0.0000    778.5601      3.9918    128.5040
  1806.0000      0.0000    768.4445      4.0579    119.1394
  1806.2500      0.0000    758.4671      4.1675    107.3460
  1806.5000      0.0000    750.6408      4.2578     95.7713
  1806.7500      0.0000    745.1410      4.2835     87.4571
  1807.0000      0.0000    741.7651      4.2600     84.5897
  1807.2500      0.0000    741.0641      4.2337     87.1986
  1807.5000      0.0000    743.9803      4.2252     93.1593
  1807.7500      0.0000    750.7649      4.2219     99.6233
  1808.0000      0.0000    760.6585      4.2212    104.6282
  1808.2500      0.0000    772.3975      4.2478    107.7632
  1808.5000      0.0000    784.8431      4.3172    109.7700
  1808.7500      0.0000    797.3738      4.4019    111.8583
  1809.0000      0.0000    809.6638      4.4541    115.2308
  1809.2500      0.0000    820.9970      4.4605    120.4671
  1809.5000      0.0000    830.1782      4.4541    126.6746
  1809.7500      0.0000    836.3931      4.4690    131.4564
  1810.0000      0.0000    839.8593      4.5004    132.4172
  1810.2500      0.0000    841.4963      4.5079    129.0247
  1810.5000      0.0000    842.1992      4.4500    122.9458
  1810.7500      0.0000    842.4556      4.3254    116.7391
  1811.0000      0.0000    842.2891      4.1813    112.4002
  1811.2500      0.0000    841.2632      4.0754    110.7583
  1811.5000      0.0000    838.5715      4.0292    111.4175
  1811.7500      0.0000    833.5701      4.0260    112.9247
  1812.0000      0.0000    826.6989      4.0503    113.3512
  1812.2500      0.0000    819.8199      4.1102    111.1770
  1812.5000      0.0000    814.8820      4.2148    106.0458
  1812.7500      0.0000    811.7527      4.3445     99.1921
  1813.0000      0.0000    807.7953      4.4540     93.1933
  1813.2500      0.0000    799.8619      4.4971     90.6741
  1813.5000      0.0000    786.2784      4.4426     92.6983
  1813.7500      0.0000    767.4485      4.2894     98.2403
  1814.0000      0.0000    746.2495      4.0844    104.9805
  1814.2500      0.0000    727.4236      3.9054    110.4251
  1814.5000      0.0000    714.1080      3.7993    112.6870
  1814.7500      0.0000    705.0341      3.7506    111.0889
  1815.0000      0.0000    697.1024      3.7213    106.4605
  1815.2500      0.0000    689.9186      3.6994    100.6519
  1815.5000      0.0000    685.8494      3.6947     95.5340
  1815.7500      0.0000    686.2767      3.7139     92.3708
  1816.0000      2.0000    689.5197      3.7596     91.7059
  1816.2500      0.0000    692.6270      3.8352     93.2734
  1816.5000      0.0000    694.4227      3.9435     96.0217
  1816.7500      0.0000    695.9006      4.0847     98.9505
  1817.0000      0.0000    696.8095      4.2514    102.1959
  1817.2500      0.0000    692.3411      4.4070    106.6291
  1817.5000      0.0000    675.7518      4.4876    112.0745
  1817.7500      0.0000    646.1570      4.4647    116.6074
  1818.0000      0.0000    612.5598      4.3962    118.0363
  1818.2500      0.0000    588.1812      4.3822    115.7527
  1818.5000      0.0000    581.1249      4.4714    111.0966
  1818.7500      0.0000    591.4269      4.6344    106.2188
  1819.0000      0.0000    615.4836      4.8089    102.4939
  1819.2500      0.0000    650.2299      4.9448     99.7048
  1819.5000      0.0000    692.0447      5.0141     96.5336
  1819.7500      0.0000    734.1115      5.0116     91.7365
  1820.0000      0.0000    768.1515      4.9574     85.0433
  1820.2500      0.0000    789.2283      4.8821     77.3307
  1820.5000      0.0000    797.7011      4.7996     70.0285
  1820.7500      0.0000    796.9938      4.7063     64.3242
  1821.0000      0.0000    790.9235      4.6056     60.8688
  1821.2500      0.0000    782.7207      4.5184     59.8822
  1821.5000      0.0000    774.5945      4.4663     61.1948
  1821.7500      0.0000    766.8940      4.4540     64.3135
  1822.0000      0.0000    757.9042      4.4680     68.6530
  1822.2500      0.0000    745.3569      4.4858     73.7048
  1822.5000      0.0000    729.1313      4.4906     79.1212
  1822.7500      0.0000    712.8296      4.4870     84.8210
  1823.0000      0.0000    702.2580      4.4992     90.9006
  1823.2500      0.0000    701.7773      4.5458     97.2558
  1823.5000      0.0000    711.3882      4.6182    103.3994
  1823.7500      0.0000    726.0168      4.6898    108.7451
  1824.0000      0.0000    737.1248      4.7342    112.8965
  1824.2500      0.0000    736.5320      4.7253    115.7693
  1824.5000      0.0000    720.4425      4.6392    117.7784
  1824.7500      0.0000    690.4379      4.4765    119.8389
  1825.0000      0.0000    651.8630      4.2787    122.6697
  1825.2500      0.0000    612.6589      4.1078    125.8973
  1825.5000      0.0000    582.8419      4.0071    128.1194
  1825.7500      0.0000    571.9466      3.9838    127.9405
  1826.0000      0.0000    583.5954      4.0217    124.8216
  1826.2500      0.0000    610.7274      4.1016    119.2843
  1826.5000      0.0000    637.5800      4.2067    112.8396
  1826.7500      0.0000    649.7566      4.3202    107.4535
  1827.0000      0.0000    644.2610      4.4280    104.3781
  1827.2500      0.0000    630.5729      4.5226    103.3790
  1827.5000      0.0000    622.9432      4.5979    103.3456
  1827.7500      0.0000    630.1486      4.6436    103.5917
  1828.0000      0.0000    649.4443      4.6495    104.3542
  1828.2500      0.0000    669.9362      4.6132    105.9500
  1828.5000      0.0000    683.1669      4.5488    107.6925
  1828.7500      0.0000    690.1174      4.4900    108.1114
  1829.0000      0.0000    697.4677      4.4723    106.5059
  1829.2500      0.0000    708.6846      4.4999    104.2553
  1829.5000      0.0000    720.4897      4.5418    104.3560
  1829.7500      0.0000    727.4697      4.5716    109.2213
  1830.0000      0.0000    727.6863      4.5947    118.5992
  1830.2500      0.0000    722.5432      4.6205    129.6536
  1830.5000      0.0000    713.5889      4.6248    139.1364
  1830.7500      0.0000    702.0606      4.5659    145.4288
  1831.0000      0.0000    690.2509      4.4342    148.8539
  1831.2500      0.0000    680.9376      4.2707    150.7304
  1831.5000      0.0000    675.4308      4.1290    152.1651
  1831.7500      0.0000    673.0018      4.0320    153.1618
  1832.0000      0.0000    672.0214      3.9695    152.7991
  1832.2500      0.0000    671.2513      3.9297    150.5839
  1832.5000      0.0000    670.3196      3.9178    147.4646
  1832.7500      0.0000    669.5093      3.9427    145.1700
  1833.0000      0.0000    669.3226      3.9962    144.7543
  1833.2500      0.0000    670.2900      4.0554    146.1134
  1833.5000      0.0000    672.9507      4.1047    148.7960
  1833.7500      0.0000    677.6219      4.1484    152.8878
  1834.0000      0.0000    683.7493      4.2025    158.6853
  1834.2500      0.0000    689.5806      4.2766    165.5273
  1834.5000      0.0000    693.0856      4.3597    171.4487
  1834.7500      0.0000    693.6219      4.4194    174.2240
  1835.0000      0.0000    692.5621      4.4260    172.6741
  1835.2500      0.0000    692.1355      4.3879    167.2223
