~Version Information
VERS.                      2.0: CWLS Log ASCII Standard - VERSION 2.0
WRAP.                       NO: One line per depth step
~Well Information Block
STRT.FT               395.0000: 
STOP.FT              1998.0000: 
STEP.FT                 0.2500: 
NULL.                -999.2500: 
COMP.          Pioneer Natural Resources: COMPANY
WELL.          Easton 12-30 Tr: WELL
FLD.           Purgatoire River: FIELD
LOC.           549' FWL & 2416' FNL--: LOCATION
PROV.                 Colorado: PROVINCE
CNTY.               Las Animas: COUNTRY
SRVC.                Patterson: SERVICE COMPANY
DATE.          Wed Jun 01 17:36:02 2005: LOG DATE
UWI.           05 071 08379 00: UNIQUE WELL ID
~Curve Information Block
DEPT.FT            0 000 00 00: Depth
SN.Ohm-m                      : IEL Short Normal
SP.mV                         : IEL Spontaneous Potential
DIR.Ohm-m                     : IEL Induction Resistivity
GR.GAPI                       : Gamma Ray
~Parameter Information Block
~A  Depth        SN          SP         DIR          GR     
# ...
  1768.5000   2000.0000   -999.2500     12.3855    126.0136
  1768.7500   2000.0000   -999.2500     12.1084    127.5670
  1769.0000   2000.0000   -999.2500     11.8365    127.7085
  1769.2500   2000.0000   -999.2500     11.5610    126.0257
  1769.5000   2000.0000   -999.2500     11.2823    122.1224
  1769.7500   2000.0000   -999.2500     11.0108    119.8249
  1770.0000   2000.0000   -999.2500     10.7622    118.4517
  1770.2500   2000.0000   -999.2500     10.5517    119.2461
  1770.5000   2000.0000   -999.2500     10.3900    122.6306
  1770.7500   2000.0000   -999.2500     10.2814    125.8373
  1771.0000   2000.0000   -999.2500     10.2218    131.2379
  1771.2500   2000.0000   -999.2500     10.1968    134.9761
  1771.5000   2000.0000   -999.2500     10.1832    140.6718
  1771.7500   2000.0000   -999.2500     10.1551    144.2595
  1772.0000   2000.0000   -999.2500     10.0947    147.8392
  1772.2500   2000.0000   -999.2500     10.0009    147.7557
  1772.5000   2000.0000   -999.2500      9.8899    142.6837
  1772.7500   2000.0000   -999.2500      9.7877    136.6954
  1773.0000   2000.0000   -999.2500      9.7190    127.3392
  1773.2500   2000.0000   -999.2500      9.7008    123.2230
  1773.5000   2000.0000   -999.2500      9.7410    122.5341
  1773.7500   2000.0000   -999.2500      9.8394    125.5646
  1774.0000   2000.0000   -999.2500      9.9895    133.2485
  1774.2500   2000.0000   -999.2500     10.1794    138.9929
  1774.5000   2000.0000   -999.2500     10.3918    146.6745
  1774.7500   2000.0000   -999.2500     10.6066    150.6234
  1775.0000   2000.0000   -999.2500     10.8064    154.4834
  1775.2500   2000.0000   -999.2500     10.9833    155.6173
  1775.5000   2000.0000   -999.2500     11.1428    154.8771
  1775.7500   2000.0000   -999.2500     11.3006    152.5296
  1776.0000   2000.0000   -999.2500     11.4762    146.1900
  1776.2500   2000.0000   -999.2500     11.6866    140.4561
  1776.5000   2000.0000   -999.2500     11.9457    130.7222
  1776.7500   2000.0000   -999.2500     12.2669    124.1367
  1777.0000   2000.0000   -999.2500     12.6650    114.9588
  1777.2500   2000.0000   -999.2500     13.1556    109.7025
  1777.5000   2000.0000   -999.2500     13.7498    103.7092
  1777.7500   2000.0000   -999.2500     14.4478    101.1162
  1778.0000   2000.0000   -999.2500     15.2347     98.9393
  1778.2500   2000.0000   -999.2500     16.0822     98.1686
  1778.5000   2000.0000   -999.2500     16.9581     97.4412
  1778.7500   2000.0000   -999.2500     17.8346     97.1772
  1779.0000   2000.0000   -999.2500     18.6912     97.2231
  1779.2500   2000.0000   -999.2500     19.5105     97.4713
  1779.5000   2000.0000   -999.2500     20.2754     97.6029
  1779.7500   2000.0000   -999.2500     20.9708     97.1486
  1780.0000   2000.0000   -999.2500     21.5875     95.5056
  1780.2500   2000.0000   -999.2500     22.1229     94.0926
  1780.5000   2000.0000   -999.2500     22.5805     92.3929
  1780.7500   2000.0000   -999.2500     22.9680     91.9418
  1781.0000   2000.0000   -999.2500     23.2927     92.3978
  1781.2500   2000.0000   -999.2500     23.5555     93.1698
  1781.5000   2000.0000   -999.2500     23.7499     94.2046
  1781.7500   2000.0000   -999.2500     23.8693     94.3383
  1782.0000   2000.0000   -999.2500     23.9178     93.3033
  1782.2500   2000.0000   -999.2500     23.9136     91.9967
  1782.5000   2000.0000   -999.2500     23.8791     90.2576
  1782.7500   2000.0000   -999.2500     23.8263     90.0233
  1783.0000   2000.0000   -999.2500     23.7461     91.7152
  1783.2500   2000.0000   -999.2500     23.6105     93.9793
  1783.5000   2000.0000   -999.2500     23.3823     97.8359
  1783.7500   2000.0000   -999.2500     23.0282     99.7759
  1784.0000   2000.0000   -999.2500     22.5291    100.6401
  1784.2500   2000.0000   -999.2500     21.8856     99.9137
  1784.5000   2000.0000   -999.2500     21.1178     98.0738
  1784.7500   2000.0000   -999.2500     20.2628     97.1883
  1785.0000   2000.0000   -999.2500     19.3698     97.1749
  1785.2500   2000.0000   -999.2500     18.4934     98.0462
  1785.5000   2000.0000   -999.2500     17.6823    100.4085
  1785.7500   2000.0000   -999.2500     16.9690    102.6902
  1786.0000   2000.0000   -999.2500     16.3631    107.3578
  1786.2500   2000.0000   -999.2500     15.8528    111.1531
  1786.5000   2000.0000   -999.2500     15.4119    116.9530
  1786.7500   2000.0000   -999.2500     15.0091    120.3106
  1787.0000   2000.0000   -999.2500     14.6173    124.1733
  1787.2500   2000.0000   -999.2500     14.2194    126.0104
  1787.5000   2000.0000   -999.2500     13.8120    127.7030
  1787.7500   2000.0000   -999.2500     13.4042    128.1093
  1788.0000   2000.0000   -999.2500     13.0142    127.9408
  1788.2500   2000.0000   -999.2500     12.6619    127.7268
  1788.5000   2000.0000   -999.2500     12.3621    128.0032
  1788.7500   2000.0000   -999.2500     12.1185    128.9113
  1789.0000   2000.0000   -999.2500     11.9232    131.7102
  1789.2500   2000.0000   -999.2500     11.7601    134.4680
  1789.5000   2000.0000   -999.2500     11.6107    138.9546
  1789.7500   2000.0000   -999.2500     11.4604    141.2199
  1790.0000   2000.0000   -999.2500     11.3032    142.1698
  1790.2500   2000.0000   -999.2500     11.1441    141.0480
  1790.5000   2000.0000   -999.2500     10.9977    137.8680
  1790.7500   2000.0000   -999.2500     10.8852    135.8306
  1791.0000   2000.0000   -999.2500     10.8282    134.3602
  1791.2500   2000.0000   -999.2500     10.8440    134.6981
  1791.5000   2000.0000   -999.2500     10.9413    136.8710
  1791.7500   2000.0000   -999.2500     11.1188    139.1340
  1792.0000   2000.0000   -999.2500     11.3657    143.1369
  1792.2500   2000.0000   -999.2500     11.6651    145.5440
  1792.5000   2000.0000   -999.2500     11.9984    147.0013
  1792.7500   2000.0000   -999.2500     12.3507    145.5564
  1793.0000   2000.0000   -999.2500     12.7158    139.1228
  1793.2500   2000.0000   -999.2500     13.0976    132.3238
  1793.5000   2000.0000   -999.2500     13.5092    119.6902
  1793.7500   2000.0000   -999.2500     13.9702    110.6763
  1794.0000   2000.0000   -999.2500     14.5024     98.3140
  1794.2500   2000.0000   -999.2500     15.1261     91.8935
  1794.5000   2000.0000   -999.2500     15.8534     85.7872
  1794.7500   2000.0000   -999.2500     16.6838     83.8405
  1795.0000   2000.0000   -999.2500     17.5974     83.0205
  1795.2500   2000.0000   -999.2500     18.5505     83.1581
  1795.5000   2000.0000   2000.0000     19.4734     83.4619
  1795.7500   2000.0000   2000.0000     20.2748     83.4952
  1796.0000   2000.0000   2000.0000     20.8547     83.4367
  1796.2500   2000.0000   2000.0000     21.1284     83.5622
  1796.5000   2000.0000   2000.0000     21.0552     84.1276
  1796.7500   2000.0000   2000.0000     20.6541     84.5025
  1797.0000   2000.0000   2000.0000     19.9930     84.3763
  1797.2500   2000.0000   2000.0000     19.1599     83.7003
  1797.5000   2000.0000   2000.0000     18.2370     82.4389
  1797.7500   2000.0000   2000.0000     17.2899     82.1573
  1798.0000   2000.0000   2000.0000     16.3663     83.8711
  1798.2500   2000.0000   2000.0000     15.4953     86.9813
  1798.5000   2000.0000   2000.0000     14.6856     94.7845
  1798.7500   2000.0000   2000.0000     13.9284    101.6553
  1799.0000   2000.0000   2000.0000     13.2070    113.0975
  1799.2500   2000.0000   2000.0000     12.5095    120.5890
  1799.5000   2000.0000   2000.0000     11.8369    130.2905
  1799.7500   2000.0000   2000.0000     11.2008    135.1898
  1800.0000   2000.0000   2000.0000     10.6148    139.8321
  1800.2500   2000.0000   2000.0000     10.0883    141.2946
  1800.5000   2000.0000   2000.0000      9.6255    141.9813
  1800.7500   2000.0000   2000.0000      9.2269    142.2686
  1801.0000   2000.0000   2000.0000      8.8916    143.7450
  1801.2500   2000.0000   2000.0000      8.6155    145.6589
  1801.5000   2000.0000   2000.0000      8.3897    149.3048
  1801.7500   2000.0000   2000.0000      8.2009    151.7218
