~Version Information
 VERS.                                  2.0 : CWLS LAS VERSION
 WRAP.                                   NO : WRAPING MODE
 SWARE .                 MController 2.5.0J : SOFTWARE VERSION
~Well Information
 WELL.                       Beacon 11-18TR : WELL
 COMP.        Pioneer Natural Resources Inc : COMPANY
 FLD.                      Purgatoire River : FIELD
 LOC.                NW/NW Sec 18 T32S R66W : LOCATION
 DATE.                           1/15-16/05 : DATE(S) LOGGED
 SRVC.       Blanco Geological Services LLC : SERVICE COMPANY
 STAT.                                   CO : STATE
 CNTY.                           Las Animas : COUNTY
 CTRY.                                  USA : COUNTRY
 API.                          05-071-08251 : API NUMBER
 STRT.FT                             283.00 : START DEPTH
 STOP.FT                            2753.00 : STOP DEPTH
 STEP.FT                               1.00 : DEPTH INCREMENT
 NULL.                                -9999 : NULL VALUE
~Curve information
 DEPTH.FT                                   :
 ROP.MIN/FT                                 :
 GAS.UNITS                                  :
~ASCII Log data
       283.0     -9999.00          2.3 
       284.0         0.10          2.6 
       285.0         0.10          2.8 
       286.0         0.17          3.0 
       287.0         0.07          2.5 
       288.0         0.10          3.0 
       289.0         0.15          2.9 
       290.0         0.13          3.1 
       291.0         0.17          3.0 
       292.0         0.10          3.0 
       293.0         0.10          3.1 
       294.0         0.10          3.0 
       295.0         0.10          3.3 
       296.0         0.17          2.8 
       297.0         1.80          3.9 
       298.0         0.17          3.5 
       299.0         0.10          3.5 
       300.0         0.13          4.0 
       301.0         0.15          3.8 
       302.0         0.17          4.0 
       303.0         0.10          0.9 
       304.0         0.13          1.3 
       305.0         0.10          1.1 
       306.0         0.10          1.0 
       307.0         0.13          1.2 
       308.0         0.10          1.0 
       309.0         0.10          0.6 
       310.0         0.13          1.0 
       311.0         0.13          1.3 
       312.0         0.10          0.8 
       313.0         0.10          1.4 
       314.0         0.13          0.7 
       315.0         0.10          1.2 
       316.0         0.10          1.3 
       317.0         0.13          1.3 
       318.0         0.10          1.0 
       319.0         0.10          1.5 
       320.0         0.13          0.8 
       321.0         0.10          1.1 
       322.0         0.10          1.2 
       323.0         0.10          1.3 
       324.0         0.10          0.8 
       325.0         0.13          1.0 
       326.0         0.13          1.2 
       327.0         2.38          1.4 
       328.0         0.17          1.3 
       329.0         0.27          1.4 
       330.0         0.23          1.2 
       331.0         0.23          1.2 
       332.0         0.22          1.4 
       333.0         0.20          1.0 
       334.0         0.20          1.1 
       335.0         0.17          1.3 
       336.0         0.20          1.2 
       337.0         0.17          1.3 
       338.0         0.17          1.3 
       339.0         0.20          1.3 
       340.0         0.17          1.2 
       341.0         0.17          1.2 
       342.0         0.20          1.0 
       343.0         0.20          1.3 
       344.0         0.20          1.2 
       345.0         0.17          1.1 
       346.0         0.20          1.1 
       347.0         0.20          1.0 
       348.0         0.23          1.0 
       349.0         0.22          1.0 
       350.0         0.27          1.2 
       351.0         0.23          1.0 
       352.0         0.23          0.7 
       353.0         0.23          0.7 
       354.0         0.23          0.8 
       355.0         0.23          0.7 
       356.0         0.30          0.8 
       357.0         2.52          1.3 
       358.0         0.33          0.3 
       359.0         0.23         -0.1 
       360.0         0.23         -0.3 
       361.0         0.20         -0.2 
       362.0         0.20         -0.2 
       363.0         0.20         -0.1 
       364.0         0.23         -0.2 
       365.0         0.17         -0.3 
       366.0         0.22         -0.2 
       367.0         0.20         -0.1 
       368.0         0.20          0.3 
       369.0         0.20          1.0 
       370.0         0.17          1.1 
       371.0         0.20          1.0 
       372.0         0.20          1.0 
       373.0         0.17          1.0 
       374.0         0.17          0.5 
       375.0         0.17          1.0 
       376.0         0.20          0.9 
       377.0         0.17          0.5 
       378.0         0.20         -0.1 
       379.0         0.17          0.6 
       380.0         0.20          1.3 
       381.0         0.17          1.3 
       382.0         0.22          1.5 
       383.0         0.17          1.5 
       384.0         0.20          1.3 
       385.0         0.20          1.6 
       386.0         0.10          1.1 
       387.0         1.80         52.5 
       388.0         0.30         55.6 
       389.0         0.28         38.0 
       390.0         0.17         16.8 
       391.0         0.23         10.9 
       392.0         0.20          5.5 
       393.0         0.20          3.4 
       394.0         0.20          2.9 
       395.0         0.17          2.8 
       396.0         0.20          2.4 
       397.0         0.23          1.9 
       398.0         0.30          2.7 
       399.0         0.20          2.3 
       400.0         0.17          2.5 
       401.0         0.17          2.3 
       402.0         0.20          2.5 
       403.0         0.17          2.3 
       404.0         0.13          1.8 
       405.0         0.17          1.8 
       406.0         0.25          2.0 
       407.0         0.23          2.0 
       408.0         0.23          2.2 
       409.0         0.27          2.2 
       410.0         0.20          1.9 
       411.0         0.17          2.1 
       412.0         0.20          2.2 
       413.0         0.20          2.3 
       414.0         0.23          2.4 
       415.0         0.20          2.6 
       416.0         0.17          2.7 
       417.0         1.75          9.3 
       418.0         0.13          5.4 
       419.0         0.17          4.8 
       420.0         0.27          4.3 
       421.0         0.27          3.7 
       422.0         0.23          3.5 
       423.0         0.20          3.4 
       424.0         0.17          3.2 
       425.0         0.13          2.7 
       426.0         0.13          3.3 
       427.0         0.17          3.1 
       428.0         0.13          3.0 
       429.0         0.17          3.0 
       430.0         0.22          2.8 
       431.0         0.20          2.8 
       432.0         0.20          3.0 
       433.0         0.17          3.0 
       434.0         0.20          3.1 
       435.0         0.17          2.9 
       436.0         0.17          3.0 
       437.0         0.13          2.3 
       438.0         0.17          1.6 
       439.0         0.13          1.6 
       440.0         0.17          1.4 
       441.0         0.20          1.5 
       442.0         0.17          1.5 
       443.0         0.17          1.3 
       444.0         0.17          1.3 
       445.0         0.17          2.0 
       446.0         0.13          2.1 
       447.0         2.38          5.3 
       448.0         0.13          2.2 
       449.0         0.17          2.7 
       450.0         0.13          2.4 
       451.0         0.17          2.3 
       452.0         0.13          2.6 
       453.0         0.10          2.7 
       454.0         0.13          2.7 
       455.0         0.10          2.2 
       456.0         0.15          2.5 
       457.0         0.10          2.5 
       458.0         0.13          3.0 
       459.0         0.10          3.1 
       460.0         0.13          3.1 
       461.0         0.10          4.3 
       462.0         0.13          4.9 
       463.0         0.10          6.4 
       464.0         0.13          6.2 
       465.0         0.13          5.9 
       466.0         0.13          5.4 
       467.0         0.13          4.7 
       468.0         0.13          4.7 
       469.0         0.17          4.6 
       470.0         0.17          3.7 
       471.0         0.13          3.7 
       472.0         0.13          3.3 
       473.0         0.13          3.5 
       474.0         0.17          3.5 
       475.0         0.07          3.5 
       476.0         0.10          4.0 
       477.0         2.15         25.5 
       478.0         0.27          8.3 
       479.0         0.23          8.1 
       480.0         0.23          7.4 
       481.0         0.20          6.8 
       482.0         0.17          6.8 
