~Version Information
VERS.                      2.0: CWLS Log ASCII Standard - VERSION 2.0
WRAP.                       NO: One line per depth step
~Well Information Block
STRT.FT               647.0000: 
STOP.FT              1166.0000: 
STEP.FT                 0.1000: 
NULL.                -999.2500: 
COMP.          Pioneer Natural Resources: COMPANY
WELL.             Linda T 32-3: WELL
FLD.           Purgatoire River: FIELD
LOC.           1350' FNL & 2290' FEL: LOCATION
PROV.                 Colorado: PROVINCE
CNTY.               Las Animas: COUNTRY
SRVC.                Patterson: SERVICE COMPANY
DATE.          Sat Feb 05 08:06:50 2005: LOG DATE
UWI.           05 071 08215 00: UNIQUE WELL ID
~Curve Information Block
DEPT.FT            0 000 00 00: Depth
DCAL.in                       : CDL Caliper
RHOB.g/cc                     : CDL Bulk Density
RHOC.g/cc                     : CDL Density Correction
DPOR.pu                       : CDL Density Porosity
GR.GAPI                       : Gamma Ray
NPOR.pu                       : Neutron Porosity
~Parameter Information Block
~A  Depth       DCAL        RHOB        RHOC        DPOR         GR         NPOR    
# ...
   685.4000      8.1540      2.5262      0.0279      7.5020    113.1681     23.3548
   685.5000      8.1549      2.5339      0.0497      7.0387    119.2253     23.5230
   685.6000      8.1549      2.5389      0.0526      6.7345    122.8397     24.3820
   685.7000      8.1549      2.5338      0.0487      7.0449    121.9919     25.2677
   685.8000      8.1557      2.5223      0.0336      7.7394    116.8466     25.4175
   685.9000      8.1557      2.5146      0.0504      8.2040    110.2810     24.6976
   686.0000      8.1555      2.5196      0.0453      7.9022    109.5339     23.8840
   686.1000      8.1555      2.5441      0.0279      6.4179    114.2717     23.4628
   686.2000      8.1555      2.5832      0.0850      4.0462    119.8413     23.2920
   686.3000      8.1456      2.6125      0.1239      2.2710    122.1585     23.3815
   686.4000      8.1456      2.6172      0.0491      1.9859    118.1455     23.9354
   686.5000      8.1532      2.6100      0.0837      2.4266    116.6359     24.9146
   686.6000      8.1532      2.5990      0.1103      3.0919    125.3264     25.7467
   686.7000      8.1532      2.5771      0.0996      4.4202    133.3796     25.7477
   686.8000      8.1393      2.5475      0.0265      6.2128    134.2305     25.0118
   686.9000      8.1393      2.5255      0.0225      7.5466    137.9328     24.2272
   687.0000      8.1343      2.5097      0.0562      8.5005    147.8241     24.0110
   687.1000      8.1343      2.4849      0.0082     10.0069    154.3927     24.5288
   687.2000      8.1343      2.4459     -0.0048     12.3717    149.9639     25.5380
   687.3000      8.1317      2.3982     -0.0027     15.2602    140.1288     26.8421
   687.4000      8.1317      2.3468      0.0020     18.3779    135.5983     28.1823
   687.5000      8.1883      2.2978     -0.0041     21.3480    136.4866     29.0651
   687.6000      8.1883      2.2663     -0.0163     23.2562    138.7113     29.1264
   687.7000      8.1883      2.2616      0.0182     23.5389    138.8446     28.6000
   687.8000      8.2117      2.2766      0.0254     22.6314    135.0298     28.1589
   687.9000      8.2117      2.3017      0.0921     21.1118    131.4578     28.3979
   688.0000      8.2186      2.3278      0.1343     19.5258    129.9489     29.3143
   688.1000      8.2186      2.3464      0.1270     18.3973    127.8928     30.2778
   688.2000      8.2186      2.3607      0.1191     17.5336    125.3905     30.9223
   688.3000      8.2539      2.3832      0.1173     16.1698    127.5068     31.3309
   688.4000      8.2539      2.4140      0.1529     14.3005    135.5353     31.2912
   688.5000      8.2357      2.4412      0.1163     12.6524    140.6815     30.5130
   688.6000      8.2357      2.4652      0.0979     11.1995    137.5467     29.2636
   688.7000      8.2357      2.4920      0.1524      9.5740    130.5762     28.3236
   688.8000      8.2038      2.5164      0.1308      8.0948    126.1967     28.4796
   688.9000      8.2038      2.5302      0.1495      7.2627    126.7534     29.6387
   689.0000      8.1992      2.5299      0.1409      7.2818    129.4217     30.4666
   689.1000      8.1992      2.5270      0.0802      7.4526    131.2970     30.2966
   689.2000      8.1992      2.5350      0.0929      6.9703    134.3276     29.9693
   689.3000      8.2320      2.5433      0.0847      6.4680    139.6199     30.1205
   689.4000      8.2320      2.5405      0.0923      6.6337    144.0346     30.5089
   689.5000      8.2817      2.5366      0.0785      6.8707    145.2288     30.5470
   689.6000      8.2817      2.5392      0.1006      6.7138    145.5692     30.3032
   689.7000      8.2817      2.5403      0.0929      6.6467    148.3385     30.3605
   689.8000      8.2646      2.5371      0.0696      6.8446    149.6203     30.7766
   689.9000      8.2646      2.5368      0.0878      6.8595    146.9857     31.0976
   690.0000      8.2577      2.5382      0.0847      6.7775    146.0436     30.8548
   690.1000      8.2577      2.5341      0.1093      7.0215    147.7528     30.1518
   690.2000      8.2577      2.5278      0.0635      7.4089    147.6777     29.4588
   690.3000      8.2670      2.5268      0.0792      7.4680    145.0397     28.9117
   690.4000      8.2670      2.5311      0.0619      7.2084    143.7924     28.6090
   690.5000      8.2744      2.5384      0.0648      6.7648    146.4667     28.6520
   690.6000      8.2744      2.5470      0.0948      6.2407    153.5102     28.8067
   690.7000      8.2744      2.5506      0.0965      6.0233    163.6613     28.8849
   690.8000      8.2502      2.5410      0.0985      6.6042    171.5332     29.1206
   690.9000      8.2502      2.5196      0.0576      7.9051    174.1014     29.6736
   691.0000      8.2726      2.5027      0.0196      8.9262    171.7129     30.6888
   691.1000      8.2726      2.5014      0.0541      9.0071    164.3154     31.9008
   691.2000      8.2726      2.5051      0.0716      8.7841    155.5718     32.0699
   691.3000      8.2597      2.4995      0.0755      9.1184    150.3005     30.7806
   691.4000      8.2597      2.4825      0.0477     10.1524    149.5942     29.5302
   691.5000      8.2478      2.4607      0.0567     11.4735    150.6241     29.2864
   691.6000      8.2478      2.4447      0.0299     12.4397    148.6195     29.1478
   691.7000      8.2478      2.4411      0.0386     12.6634    145.8017     28.4185
   691.8000      8.2591      2.4401      0.0388     12.7201    149.3597     27.4451
   691.9000      8.2591      2.4291      0.0329     13.3866    157.6058     26.8265
   692.0000      8.2568      2.4114      0.0457     14.4596    162.6230     26.8775
   692.1000      8.2568      2.4022      0.0120     15.0172    159.7353     27.4754
   692.2000      8.2568      2.4119      0.0625     14.4284    151.0461     28.3490
   692.3000      8.2246      2.4359      0.0388     12.9779    144.7954     28.9736
   692.4000      8.2246      2.4617      0.0930     11.4148    143.9765     29.1231
   692.5000      8.1845      2.4772      0.0947     10.4718    143.5571     29.1439
   692.6000      8.1845      2.4833      0.0432     10.1013    141.9258     29.1833
   692.7000      8.1845      2.4911      0.0424      9.6306    141.4005     29.0855
   692.8000      8.1699      2.5033      0.0670      8.8892    141.6921     28.9430
   692.9000      8.1699      2.5081      0.0939      8.5973    141.9746     28.9083
   693.0000      8.1721      2.4923      0.0770      9.5582    143.0485     28.8062
   693.1000      8.1721      2.4628      0.0148     11.3444    141.6353     28.6199
   693.2000      8.1721      2.4418      0.0023     12.6158    133.7856     28.4134
   693.3000      8.1789      2.4405      0.0356     12.6977    124.6788     28.1232
   693.4000      8.1789      2.4525      0.0082     11.9696    120.9692     27.8048
   693.5000      8.1909      2.4655      0.0578     11.1800    122.3286     27.4921
   693.6000      8.1909      2.4757      0.0203     10.5640    125.7675     27.2507
   693.7000      8.1909      2.4909      0.0683      9.6419    131.5148     27.2145
   693.8000      8.1787      2.5108      0.0965      8.4378    138.0700     27.3205
   693.9000      8.1787      2.5273      0.0856      7.4343    140.1505     27.4141
   694.0000      8.1692      2.5366      0.1206      6.8712    141.7178     27.5896
   694.1000      8.1692      2.5401      0.0583      6.6581    151.9190     27.9644
   694.2000      8.1692      2.5454      0.0935      6.3414    168.2690     28.2639
   694.3000      8.1357      2.5518      0.1525      5.9511    175.8296     28.2058
   694.4000      8.1357      2.5525      0.1128      5.9114    167.4794     28.2000
   694.5000      8.1322      2.5485      0.1008      6.1523    154.7926     28.6059
   694.6000      8.1322      2.5394      0.1045      6.7004    150.7215     28.7661
   694.7000      8.1322      2.5249      0.0614      7.5815    154.1591     28.6069
   694.8000      8.1611      2.5142      0.0832      8.2307    156.2139     28.8465
   694.9000      8.1611      2.5082      0.1086      8.5944    155.7411     29.1672
