~Version Information
VERS.                      2.0: CWLS Log ASCII Standard - VERSION 2.0
WRAP.                       NO: One line per depth step
~Well Information Block
STRT.FT               318.1000: 
STOP.FT              2688.0000: 
STEP.FT                 0.1000: 
NULL.                -999.2500: 
COMP.          Petrogulf Corporation: COMPANY
WELL.            Montoya 1-24V: WELL
FLD.           Purgatorie River: FIELD
LOC.           605' FSL & 2557' FWL: LOCATION
CNTY.               Las Animas: COUNTY
SRVC.                         : SERVICE COMPANY
DATE.          Wed Oct 20 14:56:37 2004: LOG DATE
UWI.           05 071 08194 00: UNIQUE WELL ID
STAT.                 Colorado: STATE
~Curve Information Block
DEPT.FT            0 000 00 00: Depth
DCAL.in                       : CDL Caliper
RHOB.g/cc                     : CDL Bulk Density
RHOC.g/cc                     : CDL Density Correction
DPOR.pu                       : CDL Density Porosity
GR.GAPI                       : Gamma Ray
NPOR.pu                       : Neutron Porosity
~Parameter Information Block
~A  Depth       DCAL        RHOB        RHOC        DPOR         GR         NPOR    
# ...
  1738.9000      8.6932      2.4841      0.2655     10.0566    167.0294     29.2238
  1739.0000      8.8355      2.4844      0.2694     10.0389    167.8938     29.5366
  1739.1000      8.8355      2.5205      0.2233      7.8477    165.7355     29.6033
  1739.2000      8.8355      2.5741      0.3169      4.5991    160.6931     29.4276
  1739.3000      8.8537      2.6041      0.3714      2.7824    158.9157     29.1287
  1739.4000      8.8537      2.6023      0.2610      2.8906    162.7505     28.8690
  1739.5000      8.9628      2.5948      0.2909      3.3458    165.9115     28.7258
  1739.6000      8.9628      2.5794      0.3340      4.2777    163.4088     28.8823
  1739.7000      8.9628      2.5360      0.2887      6.9089    155.9075     29.1664
  1739.8000      8.9226      2.4646      0.2616     11.2358    144.3549     29.3240
  1739.9000      8.9226      2.3792      0.1705     16.4143    135.6171     29.6734
  1740.0000      8.7525      2.2920      0.1409     21.6961    137.9396     30.2078
  1740.1000      8.7525      2.2201      0.0318     26.0561    146.6458     30.5387
  1740.2000      8.7525      2.1814      0.1285     28.3977    152.5201     30.7092
  1740.3000      8.3851      2.1715      0.1085     28.9980    152.2742     30.8957
  1740.4000      8.3851      2.1648      0.2551     29.4075    145.7958     31.0038
  1740.5000      8.2732      2.1336      0.3073     31.2955    136.6061     30.8292
  1740.6000      8.2732      2.0818      0.2612     34.4341    130.0274     30.3571
  1740.7000      8.2732      2.0378      0.3039     37.1051    127.9417     29.8961
  1740.8000      8.3450      2.0209      0.2733     38.1265    129.0545     29.5945
  1740.9000      8.3450      2.0433      0.2996     36.7692    131.7577     29.1493
  1741.0000      8.4936      2.1100      0.3150     32.7266    134.3103     28.7801
  1741.1000      8.4936      2.2108      0.3532     26.6169    136.2997     29.2031
  1741.2000      8.4936      2.3276      0.4023     19.5388    138.8555     30.0924
  1741.3000      8.9396      2.4542      0.4220     11.8662    140.1899     30.4324
  1741.4000      8.9396      2.5838      0.4553      4.0113    137.6347     30.1589
  1741.5000      9.2609      2.6801      0.5303     -1.8218    135.5666     29.8572
  1741.6000      9.2609      2.7139      0.4537     -3.8714    138.4146     29.4067
  1741.7000      9.2609      2.7079      0.3453     -3.5101    141.6920     28.7059
  1741.8000      9.3535      2.6949      0.2915     -2.7198    139.3178     28.2383
  1741.9000      9.3535      2.6752      0.2510     -1.5296    133.1814     27.9882
  1742.0000      9.4040      2.6410      0.1762      0.5466    131.3624     27.7392
  1742.1000      9.4040      2.6050      0.1002      2.7255    132.5911     27.6560
  1742.2000      9.4040      2.5866      0.0689      3.8411    129.7105     27.8343
  1742.3000      9.2435      2.5905      0.0535      3.6078    124.4617     27.9587
  1742.4000      9.2435      2.6125      0.0784      2.2720    119.7695     27.9461
  1742.5000      8.8463      2.6434      0.0952      0.4007    117.5864     28.0895
  1742.6000      8.8463      2.6668      0.1096     -1.0174    120.9449     28.3016
  1742.7000      8.8463      2.6626      0.1008     -0.7651    127.2226     28.0388
  1742.8000      8.1026      2.6334      0.0184      1.0076    131.1146     27.4185
  1742.9000      8.1026      2.6064      0.0366      2.6422    133.3318     27.3610
  1743.0000      7.9898      2.5886      0.0706      3.7187    137.8821     28.0377
  1743.1000      7.9898      2.5687      0.0081      4.9283    142.6662     28.5116
  1743.2000      7.9898      2.5504     -0.0222      6.0346    140.0241     28.3057
  1743.3000      8.0000      2.5421      0.0333      6.5398    130.6102     27.9315
  1743.4000      8.0000      2.5448     -0.0331      6.3778    124.8382     27.7789
  1743.5000      8.0222      2.5565      0.0050      5.6647    125.9309     27.7592
  1743.6000      8.0222      2.5658      0.0282      5.1056    128.0224     27.8176
  1743.7000      8.0222      2.5663      0.0156      5.0704    128.0652     27.8905
  1743.8000      8.0631      2.5640      0.0172      5.2132    127.3670     27.8728
  1743.9000      8.0631      2.5622      0.0100      5.3238    124.9998     27.8696
  1744.0000      8.0352      2.5629      0.0333      5.2765    121.0617     27.9974
  1744.1000      8.0352      2.5695      0.0031      4.8763    118.8486     28.1772
  1744.2000      8.0352      2.5846     -0.0011      3.9625    118.3288     28.0525
  1744.3000      8.0489      2.6018      0.0221      2.9240    118.5698     27.5223
  1744.4000      8.0489      2.6051      0.0281      2.7203    121.8497     26.8798
  1744.5000      8.0665      2.5900      0.0151      3.6361    126.3186     26.5951
  1744.6000      8.0665      2.5770      0.0084      4.4255    128.4815     26.8919
  1744.7000      8.0665      2.5873      0.0279      3.8000    129.7088     27.1905
  1744.8000      8.0660      2.6099      0.0785      2.4327    130.3890     27.1353
  1744.9000      8.0660      2.6190      0.0225      1.8775    132.1335     27.2514
  1745.0000      8.0916      2.6086      0.0449      2.5065    137.0281     27.8555
  1745.1000      8.0916      2.5910      0.0015      3.5734    141.1087     28.4205
  1745.2000      8.0916      2.5770      0.0122      4.4255    143.5320     28.5892
  1745.3000      8.1021      2.5648      0.0532      5.1627    149.8543     28.7393
  1745.4000      8.1021      2.5527      0.0336      5.8946    157.1048     28.8407
  1745.5000      8.1184      2.5435      0.0549      6.4522    155.7487     28.3381
  1745.6000      8.1184      2.5376      0.0233      6.8151    148.7254     27.4397
  1745.7000      8.1184      2.5346      0.0484      6.9913    147.2458     26.8324
  1745.8000      8.0661      2.5315      0.0191      7.1835    151.8663     26.6752
  1745.9000      8.0661      2.5178      0.0301      8.0139    156.3063     26.9549
  1746.0000      8.0505      2.4887     -0.0047      9.7743    156.9652     27.5156
  1746.1000      8.0505      2.4633      0.0049     11.3132    155.6041     27.7585
  1746.2000      8.0505      2.4630     -0.0095     11.3318    157.7776     27.3232
  1746.3000      8.0846      2.4848      0.0196     10.0149    162.7270     26.6274
  1746.4000      8.0846      2.5103      0.0701      8.4695    167.6973     26.3002
  1746.5000      8.1196      2.5303      0.0642      7.2539    172.6183     26.3333
  1746.6000      8.1196      2.5513      0.1422      5.9813    173.6038     26.6327
  1746.7000      8.1196      2.5788      0.1727      4.3161    167.2776     27.2265
  1746.8000      8.0977      2.6120      0.2293      2.3009    160.3747     27.6465
  1746.9000      8.0977      2.6474      0.2515      0.1597    159.5503     27.5732
  1747.0000      8.0509      2.6757      0.2583     -1.5581    155.9907     27.2283
  1747.1000      8.0509      2.6860      0.1879     -2.1840    144.7695     26.9386
  1747.2000      8.0509      2.6792      0.1681     -1.7672    136.3929     27.0448
  1747.3000      8.0450      2.6700      0.1357     -1.2133    137.2513     27.2824
  1747.4000      8.0450      2.6739      0.1373     -1.4513    139.1958     26.9971
  1747.5000      8.1109      2.6783      0.1983     -1.7131    135.6671     26.3782
  1747.6000      8.1109      2.6563      0.1240     -0.3826    133.6669     25.7857
  1747.7000      8.1109      2.6219      0.0422      1.7052    135.2818     25.2811
  1747.8000      8.0731      2.6034      0.0405      2.8260    133.6145     25.1354
  1747.9000      8.0731      2.6046      0.0062      2.7512    129.9082     25.0224
  1748.0000      7.8827      2.6226      0.0534      1.6600    128.6888     24.4627
  1748.1000      7.8827      2.6523      0.0964     -0.1373    127.5824     23.8110
  1748.2000      7.8827      2.6833      0.1018     -2.0155    124.9636     23.4192
  1748.3000      7.8960      2.7014      0.1523     -3.1174    123.0857     23.0091
  1748.4000      7.8960      2.6938      0.1203     -2.6522    121.7812     22.1354
