~Version Information
VERS.                      2.0: CWLS Log ASCII Standard - VERSION 2.0
WRAP.                       NO: One line per depth step
~Well Information Block
STRT.FT                -7.7500: 
STOP.FT              1383.2500: 
STEP.FT                 0.2500: 
NULL.                -999.2500: 
COMP.          Petrogulf Corporation: COMPANY
WELL.          Great Plains 22-22R: WELL
FLD.           Purgatoire River: FIELD
LOC.           2042' FNL & 1657' FWL SENW 22 33S 67W ----: LOCATION
PROV.                 Colorado: PROVINCE
CNTY.               Las Animas: COUNTRY
SRVC.                         : SERVICE COMPANY
DATE.          Thu Sep 22 14:55:58 2005: LOG DATE
UWI.             07108028     : UNIQUE WELL ID
~Curve Information Block
DEPT.FT            0 000 00 00: Depth
CCL.                          : Casing Collar Locator
TT3.usec                      : CBL 3' Travel Time
AMP3.mV                       : CBL 3' Amplitude
GR.GAPI                       : Gamma Ray
~Parameter Information Block
~A  Depth       CCL         TT3         AMP3         GR     
# ...
   896.7500      0.0000    580.9447     10.9760    125.8901
   897.0000      0.0000    584.2805     10.4930    134.8647
   897.2500      0.0000    580.1058      9.9812    144.1757
   897.5000      0.0000    580.4035      9.6383    150.9963
   897.7500      0.0000    593.1853      9.5154    152.6869
   898.0000      0.0000    616.2343      9.5502    148.9078
   898.2500      0.0000    640.4753      9.6386    142.5308
   898.5000      0.0000    658.3184      9.6920    137.7826
   898.7500      0.0000    667.9060      9.6715    136.9589
   899.0000      0.0000    671.3525      9.5973    139.1153
   899.2500      0.0000    671.6008      9.5228    141.9414
   899.5000      0.0000    671.1676      9.4854    144.2248
   899.7500      0.0000    672.1471      9.4821    146.2126
   900.0000      0.0000    675.9389      9.4935    148.3920
   900.2500      0.0000    682.7264      9.5199    150.7434
   900.5000      0.0000    691.3766      9.5813    152.9661
   900.7500      0.0000    699.8375      9.6871    154.8469
   901.0000      0.0000    705.8783      9.8181    156.2655
   901.2500      0.0000    707.8318      9.9403    156.9022
   901.5000      0.0000    704.9606     10.0290    156.0316
   901.7500      0.0000    697.2872     10.0774    153.0352
   902.0000      0.0000    685.4237     10.0942    148.4337
   902.2500      0.0000    671.1989     10.1015    144.0459
   902.5000      0.0000    658.6649     10.1297    141.6175
   902.7500      0.0000    652.9613     10.2046    141.3016
   903.0000      0.0000    656.1880     10.3346    141.7394
   903.2500      0.0000    664.8635     10.5115    141.5277
   903.5000      0.0000    673.0684     10.7203    140.3163
   903.7500      0.0000    677.5994     10.9461    138.7152
   904.0000      0.0000    679.2138     11.1792    137.6922
   904.2500      0.0000    680.2986     11.4137    137.9887
   904.5000      0.0000    682.8159     11.6402    139.5884
   904.7500      0.0000    687.5670     11.8398    141.7016
   905.0000      0.0000    693.6219     11.9964    143.2695
   905.2500      0.0000    698.1962     12.1162    143.1429
   905.5000      0.0000    698.2250     12.2251    140.0629
   905.7500      0.0000    692.6271     12.3392    133.5688
   906.0000      0.0000    682.4921     12.4451    125.2563
   906.2500      0.0000    669.1563     12.5134    118.3514
   906.5000      0.0000    653.5914     12.5253    115.6548
   906.7500      0.0000    637.9414     12.4774    117.9921
   907.0000      0.0000    625.7130     12.3612    124.2746
   907.2500      0.0000    619.4514     12.1522    132.5363
   907.5000      0.0000    619.7190     11.8328    141.0482
   907.7500      0.0000    626.4787     11.4259    149.0076
   908.0000      0.0000    639.1138     10.9963    156.4186
   908.2500      0.0000    654.8259     10.6155    163.3099
   908.5000      0.0000    669.2390     10.3341    169.2104
   908.7500      0.0000    679.1026     10.1989    173.4417
   909.0000      0.0000    683.7970     10.2796    175.5335
   909.2500      0.0000    684.9609     10.6450    175.1407
   909.5000      0.0000    685.3568     11.2887    172.0956
   909.7500      0.0000    687.2935     12.0812    167.0526
   910.0000      0.0000    691.1292     12.8125    161.7738
   910.2500      0.0000    695.1953     13.3035    158.2347
   910.5000      0.0000    697.3968     13.4987    157.4766
   910.7500      0.0000    696.9326     13.4721    159.5232
   911.0000      0.0000    694.7225     13.3543    164.0363
   911.2500      0.0000    692.6387     13.2533    170.4994
   911.5000      0.0000    692.2425     13.2240    177.9780
   911.7500      0.0000    693.4686     13.2748    185.3427
   912.0000      0.0000    694.1669     13.3618    191.7496
   912.2500      0.0000    691.2644     13.3682    196.7380
   912.5000      0.0000    682.2470     13.1330    200.0072
   912.7500      0.0000    665.3308     12.5578    201.2194
   913.0000      0.0000    639.4997     11.7124    199.9479
   913.2500      0.0000    606.3491     10.8277    195.9908
   913.5000      0.0000    571.8538     10.1678    189.8321
   913.7500      0.0000    544.3945      9.8905    182.3920
   914.0000      0.0000    530.2955     10.0084    174.1595
   914.2500      0.0000    531.6877     10.4459    164.9559
   914.5000      0.0000    547.5634     11.0973    154.7673
   914.7500      0.0000    574.1835     11.8412    144.4576
   915.0000      0.0000    603.6642     12.5552    135.4059
   915.2500      0.0000    624.1167     13.1682    128.7285
   915.5000      0.0000    623.4232     13.7005    125.0454
   915.7500      0.0000    594.8391     14.2252    124.4491
   916.0000      0.0000    541.6706     14.7783    126.0190
   916.2500      0.0000    477.6840     15.3166    127.7346
   916.5000      0.0000    420.6633     15.7691    127.8270
   916.7500      0.0000    383.2938     16.1158    126.4974
   917.0000      0.0000    370.2762     16.3941    125.7954
   917.2500      0.0000    382.9404     16.6250    127.6052
   917.5000      0.0000    422.1222     16.7618    132.2162
   917.7500      0.0000    482.9576     16.7489    139.0563
   918.0000      0.0000    548.2385     16.6346    147.9141
   918.2500      0.0000    592.0004     16.5878    158.4375
   918.5000      0.0000    594.3343     16.7782    168.9315
   918.7500      0.0000    555.3399     17.2384    177.0086
   919.0000      0.0000    496.3553     17.8344    181.6257
   919.2500      0.0000    446.7363     18.3550    183.5343
   919.5000      0.0000    425.5577     18.6359    183.5450
   919.7500      0.0000    432.7946     18.6169    181.3420
   920.0000      0.0000    457.3248     18.2980    176.5024
   920.2500      0.0000    491.7027     17.6725    169.7721
   920.5000      0.0000    535.7162     16.7334    162.4851
   920.7500      0.0000    586.8882     15.5431    155.2604
   921.0000      0.0000    635.1814     14.2596    148.0864
   921.2500      0.0000    670.3733     13.0688    141.2865
   921.5000      0.0000    690.3121     12.0916    135.5499
   921.7500      0.0000    699.5749     11.3588    131.1808
   922.0000      0.0000    702.9904     10.8506    127.8645
   922.2500      0.0000    702.4742     10.5273    125.1244
   922.5000      0.0000    698.4911     10.3236    122.8463
   922.7500      0.0000    692.2712     10.1603    121.6276
   923.0000      0.0000    685.9752      9.9907    122.5221
   923.2500      0.0000    681.1824      9.8291    125.9370
   923.5000      0.0000    677.8175      9.7263    130.7774
   923.7500      0.0000    674.4087      9.7372    135.1654
   924.0000      0.0000    669.3289      9.9143    138.1080
   924.2500      0.0000    662.5995     10.2974    140.1505
   924.5000      0.0000    657.0421     10.8767    142.2826
   924.7500      0.0000    656.6767     11.5664    144.5114
   925.0000      0.0000    662.9378     12.2396    145.8261
   925.2500      0.0000    672.9905     12.8026    145.4555
   925.5000      0.0000    682.3571     13.2375    143.8770
   925.7500      0.0000    688.5094     13.5830    142.6452
   926.0000      0.0000    691.4963     13.8952    143.3128
   926.2500      0.0000    691.8287     14.2233    146.1852
   926.5000      0.0000    688.1479     14.5918    149.8782
   926.7500      0.0000    677.3841     14.9868    152.4375
   927.0000      0.0000    658.4017     15.3694    152.9649
   927.2500      0.0000    636.0784     15.7157    151.8215
   927.5000      0.0000    619.2072     16.0364    149.4953
   927.7500      0.0000    611.6874     16.3588    145.9610
   928.0000      0.0000    607.2646     16.7100    141.1318
   928.2500      0.0000    595.5492     17.1217    135.3731
   928.5000      0.0000    571.5499     17.6210    129.4167
   928.7500      0.0000    537.4207     18.1940    123.9979
   929.0000      0.0000    497.6224     18.7739    119.3762
   929.2500      0.0000    456.3439     19.2665    114.7856
   929.5000      0.0000    419.4853     19.5749    108.4818
   929.7500      0.0000    394.5429     19.6226     99.0862
   930.0000      0.0000    384.5612     19.4016     87.3868
