~Version Information
VERS.                      2.0: CWLS Log ASCII Standard - VERSION 2.0
WRAP.                       NO: One line per depth step
~Well Information Block
STRT.FT                37.7500: 
STOP.FT              1898.5000: 
STEP.FT                 0.2500: 
NULL.                -999.2500: 
COMP.          Petrogulf Corporation: COMPANY
WELL.           Montoya 12-41R: WELL
FLD.           Purgatorie River: FIELD
LOC.           1086' FNL & 610' FEL--: LOCATION
PROV.                       CO: PROVINCE
CNTY.               Las Animas: COUNTRY
SRVC.                         : SERVICE COMPANY
DATE.          Wed Feb 09 11:45:45 2005: LOG DATE
UWI.         005 071 08241 : UNIQUE WELL ID
~Curve Information Block
DEPT.FT            0 000 00 00: Depth
CCL.                          : Casing Collar Locator
TT3.usec                      : CBL 3' Travel Time
AMP3.mV                       : CBL 3' Amplitude
GR.GAPI                       : Gamma Ray
~Parameter Information Block
~A  Depth       CCL         TT3         AMP3         GR     
# ...
   640.7500      0.0000    266.0526     85.6650    222.2272
   641.0000      0.0000    266.0313     85.7013    220.6156
   641.2500      0.0000    266.0102     85.6868    220.1599
   641.5000      0.0000    265.9980     85.6422    219.5525
   641.7500      0.0000    265.9976     85.6012    217.4564
   642.0000      0.0000    266.0040     85.5962    213.5552
   642.2500      0.0000    266.0085     85.6390    208.9084
   642.5000      0.0000    266.0063     85.7029    205.9694
   642.7500      0.0000    265.9997     85.7384    207.4177
   643.0000      0.0000    265.9944     85.7199    213.8101
   643.2500      0.0000    265.9936     85.6663    222.5197
   643.5000      0.0000    265.9987     85.6092    229.5207
   643.7500      0.0000    266.0100     85.5545    232.0742
   644.0000      0.0000    266.0266     85.4822    229.7117
   644.2500      0.0000    266.0485     85.3768    223.3573
   644.5000      0.0000    266.0769     85.2499    214.1166
   644.7500      0.0000    266.1117     85.1368    203.0960
   645.0000      0.0000    266.1469     85.0795    192.3216
   645.2500      0.0000    266.1744     85.1098    185.0707
   645.5000      0.0000    266.1909     85.2302    184.0925
   645.7500      0.0000    266.2014     85.3968    189.3280
   646.0000      0.0000    266.2135     85.5360    197.9416
   646.2500      0.0000    266.2301     85.5982    206.6629
   646.5000      0.0000    266.2490     85.5904    214.0737
   646.7500      0.0000    266.2668     85.5505    221.2060
   647.0000      0.0000    266.2822     85.5060    230.1576
   647.2500      0.0000    266.2946     85.4635    241.6359
   647.5000      0.0000    266.3044     85.4142    253.6870
   647.7500      0.0000    266.3116     85.3402    263.0185
   648.0000      0.0000    266.3144     85.2376    267.1353
   648.2500      0.0000    266.3075     85.1395    264.9977
   648.5000      0.0000    266.2847     85.0961    256.7813
   648.7500      0.0000    266.2445     85.1262    243.8568
   649.0000      0.0000    266.1932     85.2036    228.4019
   649.2500      0.0000    266.1445     85.2878    212.5682
   649.5000      0.0000    266.1115     85.3526    198.2425
   649.7500      0.0000    266.0983     85.3914    187.2085
   650.0000      0.0000    266.0997     85.4063    180.6086
   650.2500      0.0000    266.1093     85.3979    177.9656
   650.5000      0.0000    266.1250     85.3669    177.1420
   650.7500      0.0000    266.1474     85.3209    175.8172
   651.0000      0.0000    266.1754     85.2739    173.2307
   651.2500      0.0000    266.2068     85.2408    170.3895
   651.5000      0.0000    266.2388     85.2342    168.5565
   651.7500      0.0000    266.2673     85.2582    167.5733
   652.0000      0.0000    266.2876     85.2942    165.7341
   652.2500      0.0000    266.2978     85.2928    161.6190
   652.5000      0.0000    266.2986     85.1802    156.2260
   652.7500      0.0000    266.2910     84.8583    152.8256
   653.0000      0.0000    266.2743     84.2056    154.0608
   653.2500      0.0000    266.2484     83.1259    159.1740
   653.5000      0.0000    266.2174     81.6624    164.4051
   653.7500      0.0000    266.1886     80.0708    165.9900
   654.0000      0.0000    266.1672     78.7148    162.6058
   654.2500      0.0000    266.1540     77.8402    155.4036
   654.5000      0.0000    266.1467     77.4482    146.5661
   654.7500      0.0000    266.1447     77.3708    138.0957
   655.0000      0.0000    266.1497     77.4273    131.3017
   655.2500      0.0000    266.1606     77.5030    126.6033
   655.5000      0.0000    266.1733     77.5019    123.6099
   655.7500      0.0000    266.1870     77.2577    121.6268
   656.0000      0.0000    266.2066     76.5457    120.2215
   656.2500      0.0000    266.2345     75.2527    119.2324
   656.5000      0.0000    266.2629     73.5517    118.3773
   656.7500      0.0000    266.2791     71.8527    117.1309
   657.0000      0.0000    266.2784     70.5357    114.8617
   657.2500      0.0000    266.2667     69.7319    110.9194
   657.5000      0.0000    266.2552     69.3381    104.9988
   657.7500      0.0000    266.2525     69.1787     97.7902
   658.0000      0.0000    266.2593     69.1270     90.9142
   658.2500      0.0000    266.2690     69.1223     85.7238
   658.5000      0.0000    266.2742     69.1399     82.2911
   658.7500      0.0000    266.2736     69.1697     79.7634
   659.0000      0.0000    266.2713     69.2082     77.3855
   659.2500      0.0000    266.2704     69.2494     74.9528
   659.5000      0.0000    266.2697     69.2820     72.6893
   659.7500      0.0000    266.2669     69.2986     71.1297
   660.0000      0.0000    266.2603     69.3021     70.9490
   660.2500      0.0000    266.2518     69.2972     72.3135
   660.5000      0.0000    266.2477     69.2836     74.1028
   660.7500      0.0000    266.2536     69.2610     74.3208
   661.0000      0.0000    266.2699     69.2323     71.9781
   661.2500      0.0000    266.2938     69.1948     68.3502
   661.5000      0.0000    266.3242     69.1395     65.8126
   661.7500      0.0000    266.3613     69.0664     65.5959
   662.0000      0.0000    266.4006     68.9963     66.8695
   662.2500      0.0000    266.4325     68.9588     67.5603
   662.5000      0.0000    266.4470     68.9686     65.9467
   662.7500      0.0000    266.4409     69.0128     62.1727
   663.0000      0.0000    266.4193     69.0592     58.6683
   663.2500      0.0000    266.3922     69.0778     58.9788
   663.5000      0.0000    266.3690     69.0542     65.8858
   663.7500      0.0000    266.3559     68.9877     80.0539
   664.0000      0.0000    266.3555     68.8896     99.5523
   664.2500      0.0000    266.3669     68.7854    120.4524
   664.5000      0.0000    266.3862     68.7055    138.7613
   664.7500      0.0000    266.4118     68.6605    152.6636
   665.0000      0.0000    266.4464     68.6331    162.9947
   665.2500      0.0000    266.4908     68.5967    171.4184
   665.5000      0.0000    266.5379     68.5331    178.1730
   665.7500      0.0000    266.5755     68.4324    181.5276
   666.0000      0.0000    266.5963     68.2959    179.1812
   666.2500      0.0000    266.6017     68.1427    170.0216
   666.5000      0.0000    266.5971     68.0025    154.8072
   666.7500      0.0000    266.5867     67.9017    135.6953
   667.0000      0.0000    266.5722     67.8630    115.2775
   667.2500      0.0000    266.5544     67.9060     95.8260
   667.5000      0.0000    266.5354     68.0310     79.0880
   667.7500      0.0000    266.5185     68.2030     66.4052
   668.0000      0.0000    266.5079     68.3610     58.7673
   668.2500      0.0000    266.5091     68.4478     56.8292
   668.5000      0.0000    266.5261     68.4377     60.8988
   668.7500      0.0000    266.5573     68.3485     70.5537
   669.0000      0.0000    266.5943     68.2241     83.9463
   669.2500      0.0000    266.6248     68.1047     97.8070
   669.5000      0.0000    266.6370     68.0140    108.8555
   669.7500      0.0000    266.6240     67.9713    115.6046
   670.0000      0.0000    266.5881     68.0025    118.8453
   670.2500      0.0000    266.5429     68.1287    120.5630
   670.5000      0.0000    266.5099     68.3413    122.3414
   670.7500      0.0000    266.5186     68.5643    124.2902
   671.0000      0.0000    266.6185     68.6036    125.2433
   671.2500      0.0000    266.8973     68.1056    124.1688
   671.5000      0.0000    267.4699     66.6562    121.2882
   671.7500      0.0000    268.4090     64.0803    117.7271
   672.0000      0.0000    269.6581     60.6849    114.3627
   672.2500      0.0000    271.0193     57.0807    111.0321
   672.5000      0.0000    272.2449     53.7563    106.4820
   672.7500      0.0000    273.1560     50.9546     99.3029
   673.0000      0.0000    273.7081     48.8394     89.5172
   673.2500      0.0000    273.9805     47.5055     79.1517
   673.5000      2.0000    274.1071     46.8403     70.9217
   673.7500      2.0000    274.2031     46.5713     66.5572
   674.0000      0.0000    274.3404     46.4527     66.4727
