~Version Information
 VERS.                                  2.0 : CWLS LAS VERSION
 WRAP.                                   NO : WRAPING MODE
 SWARE .                 MController 2.5.0J : SOFTWARE VERSION
~Well Information
 WELL.                     Old Yeller 31-32 : WELL
 COMP.    Pioneer Natural Resources USA Inc : COMPANY
 FLD.                      Purgatoire River : FIELD
 LOC.                NW/NE Sec 32 T32S R67W : LOCATION
 DATE.                           8/23-28/05 : DATE(S) LOGGED
 SRVC.       BLANCO Geological Services LLC : SERVICE COMPANY
 STAT.                                   CO : STATE
 CNTY.                           Las Animas : COUNTY
 CTRY.                                  USA : COUNTRY
 API.                       05-071-08356-00 : API NUMBER
 STRT.FT                            1664.00 : START DEPTH
 STOP.FT                            2951.00 : STOP DEPTH
 STEP.FT                               1.00 : DEPTH INCREMENT
 NULL.                                -9999 : NULL VALUE
~Curve information
 DEPTH.FT                                   :
 ROP.MIN/FT                                 :
 GAS.UNITS                                  :
~ASCII Log data
      1664.0     -9999.00          4.9 
      1665.0        18.30          1.2 
      1666.0         3.42          2.8 
      1667.0         5.60          0.5 
      1668.0         2.60          0.9 
      1669.0         2.42          0.8 
      1670.0         0.90          1.1 
      1671.0         0.32          1.3 
      1672.0         2.13          1.8 
      1673.0         2.45          3.0 
      1674.0         1.57         10.1 
      1675.0         1.92         10.9 
      1676.0         1.33          8.3 
      1677.0         1.25          2.3 
      1678.0         1.37          0.4 
      1679.0         1.25          0.4 
      1680.0         1.40          1.2 
      1681.0         1.45          1.1 
      1682.0         1.53          0.4 
      1683.0         1.75          0.0 
      1684.0         0.90          0.4 
      1685.0         0.77          0.1 
      1686.0         0.67          0.4 
      1687.0         0.63          0.1 
      1688.0         0.88          0.2 
      1689.0         0.95          0.5 
      1690.0         1.00          0.7 
      1691.0         0.92          2.0 
      1692.0         0.70          3.3 
      1693.0         0.73          5.7 
      1694.0         1.38          6.2 
      1695.0         0.73          2.9 
      1696.0         0.70          1.7 
      1697.0       207.40          7.7 
      1698.0         0.50          7.8 
      1699.0         1.38          7.0 
      1700.0         0.63          7.5 
      1701.0         1.00         23.1 
      1702.0         2.55         33.4 
      1703.0         1.03         11.3 
      1704.0         0.92          5.2 
      1705.0         1.07          5.2 
      1706.0         0.97          3.9 
      1707.0         1.78          6.5 
      1708.0         1.83          6.5 
      1709.0         2.22          7.8 
      1710.0       220.95         11.9 
      1711.0         3.78          9.5 
      1712.0         1.72         13.3 
      1713.0         1.43         11.6 
      1714.0         1.52          8.2 
      1715.0         1.37          8.5 
      1716.0         3.22          7.0 
      1717.0         1.55          6.2 
      1718.0         2.12         10.6 
      1719.0         1.70          7.3 
      1720.0         1.65         10.2 
      1721.0         1.53          5.6 
      1722.0         2.68          3.7 
      1723.0         2.72          9.5 
      1724.0         2.43          6.1 
      1725.0         1.72          5.1 
      1726.0       227.10         42.7 
      1727.0         0.33         38.9 
      1728.0         0.97         34.2 
      1729.0         1.10         48.4 
      1730.0         0.75         33.4 
      1731.0         1.03         17.5 
      1732.0         0.47         14.2 
      1733.0         1.22         11.7 
      1734.0         0.90          8.8 
      1735.0         0.60          6.9 
      1736.0         1.30          3.6 
      1737.0         1.08          3.8 
      1738.0         0.57          3.4 
      1739.0         1.63          4.4 
      1740.0         1.18          4.8 
      1741.0         1.13          5.1 
      1742.0         1.58          3.7 
      1743.0         1.27          3.6 
      1744.0         2.25          3.6 
      1745.0         1.52          4.0 
      1746.0         1.40          3.9 
      1747.0         0.87          3.6 
      1748.0         1.22          4.1 
      1749.0         1.80          4.0 
      1750.0         1.15          4.1 
      1751.0       239.80          5.0 
      1752.0         2.52         10.1 
      1753.0         1.37         18.7 
      1754.0         1.83         29.9 
      1755.0         2.35          4.8 
      1756.0         2.35          2.7 
      1757.0         2.88          3.8 
      1758.0         4.35          3.5 
      1759.0         3.28          2.9 
      1760.0         2.78          3.5 
      1761.0         1.77          3.0 
      1762.0         1.42          5.1 
      1763.0         1.47          3.1 
      1764.0         1.92          3.7 
      1765.0         2.15          4.6 
      1766.0         2.95          3.3 
      1767.0         2.30          2.2 
      1768.0         2.52          2.9 
      1769.0         2.15          2.7 
      1770.0         1.93          2.7 
      1771.0         1.82          3.0 
      1772.0         1.17          3.1 
      1773.0         1.22          2.7 
      1774.0         2.03          2.5 
      1775.0         1.62          3.2 
      1776.0       238.40          6.4 
      1777.0         1.43          6.3 
      1778.0         0.57          6.4 
      1779.0         0.37          6.3 
      1780.0         0.37          6.8 
      1781.0         4.07          4.1 
      1782.0         4.82         19.7 
      1783.0         2.38         18.1 
      1784.0         1.13         17.0 
      1785.0         0.73         12.5 
      1786.0         1.42          5.4 
      1787.0         0.67          3.7 
      1788.0         1.30          3.5 
      1789.0         1.32          3.3 
      1790.0         1.47         13.9 
      1791.0         1.35         26.4 
      1792.0         1.63         24.4 
      1793.0         3.88          4.2 
      1794.0         1.12          3.7 
      1795.0         0.90          3.2 
      1796.0         0.90          2.5 
      1797.0         1.58          2.2 
      1798.0         0.90          3.0 
      1799.0       781.60          5.1 
      1800.0         0.88          5.2 
      1801.0         0.43          5.6 
      1802.0         0.37          5.5 
      1803.0         0.43          4.9 
      1804.0         0.40          4.7 
      1805.0         0.47          4.1 
      1806.0         0.55          4.3 
      1807.0         0.50          3.9 
      1808.0         0.43          2.3 
      1809.0         0.77          1.8 
      1810.0         0.53          1.7 
      1811.0         0.50          1.9 
      1812.0         0.45          1.9 
      1813.0         0.30          1.8 
      1814.0         0.20          2.1 
      1815.0         0.23          2.1 
      1816.0         0.23          2.2 
      1817.0         0.20          2.4 
      1818.0         0.17          2.1 
      1819.0         0.20          2.2 
      1820.0         0.20          2.5 
      1821.0         0.30          2.1 
      1822.0         0.30          2.3 
      1823.0         0.53          2.9 
      1824.0         0.55          3.0 
      1825.0         0.40          3.1 
      1826.0         0.30          3.0 
      1827.0         0.30          3.5 
      1828.0         0.20          3.9 
      1829.0         0.37          4.1 
      1830.0         0.47          5.7 
      1831.0         9.55         23.1 
      1832.0         0.43         21.5 
      1833.0         0.30         21.1 
      1834.0         0.33         17.7 
      1835.0         0.32         16.7 
      1836.0         0.27         14.6 
      1837.0         0.20         13.9 
      1838.0         0.27         12.8 
      1839.0         0.33         10.3 
      1840.0         0.33          8.7 
      1841.0         0.27          7.9 
      1842.0         0.30          7.4 
      1843.0         0.37          6.4 
      1844.0         0.50          5.2 
      1845.0         0.30          4.5 
      1846.0         0.32          3.8 
      1847.0         0.37          2.8 
      1848.0         0.27          2.5 
      1849.0         0.27          2.3 
      1850.0         0.30          2.5 
      1851.0         0.30          2.6 
      1852.0         0.37          3.1 
      1853.0         0.33          3.4 
      1854.0         0.40          3.4 
      1855.0         0.25          3.8 
      1856.0         0.30          4.2 
      1857.0         0.53          4.6 
      1858.0         0.30          4.5 
      1859.0         0.30          4.8 
      1860.0         0.37          4.9 
      1861.0         7.47          5.5 
      1862.0         0.68          6.0 
      1863.0         0.60          6.9 
