~Version Information
VERS.                      2.0: CWLS Log ASCII Standard - VERSION 2.0
WRAP.                       NO: One line per depth step
~Well Information Block
STRT.FT               480.0000: 
STOP.FT              1994.2000: 
STEP.FT                 0.1000: 
NULL.                -999.2500: 
COMP.          Evergreen Operating Corporation: COMPANY
WELL.          McCullough 34-32 Tr: WELL
FLD.           Purgatoire River: FIELD
LOC.           394' FSL & 2077' FEL: LOCATION
PROV.                 Colorado: PROVINCE
CNTY.               Las Animas: COUNTRY
SRVC.                Patterson: SERVICE COMPANY
DATE.          Mon Sep 20 07:30:00 2004: LOG DATE
UWI.           05 071 08157 00: UNIQUE WELL ID
~Curve Information Block
DEPT.FT            0 000 00 00: Depth
DCAL.in                       : CDL Caliper
RHOB.g/cc                     : CDL Bulk Density
RHOC.g/cc                     : CDL Density Correction
DPOR.pu                       : CDL Density Porosity
NPOR.pu                       : Neutron Porosity
GR.GAPI                       : Gamma Ray
~Parameter Information Block
~A  Depth       DCAL        RHOB        RHOC        DPOR        NPOR         GR     
# ...
  1766.4000      7.9691      2.5341      0.0669      7.0237     25.0109    161.5413
  1766.5000      7.9677      2.5289      0.0852      7.3423     25.3358    152.6181
  1766.6000      7.9677      2.5290      0.0487      7.3314     26.2657    149.7372
  1766.7000      7.9677      2.5333      0.0385      7.0720     26.8368    153.1001
  1766.8000      7.9743      2.5395      0.0355      6.6989     26.9048    156.7651
  1766.9000      7.9743      2.5387      0.0811      6.7475     26.8657    152.9975
  1767.0000      7.9814      2.5238      0.0639      7.6507     26.7119    142.8784
  1767.1000      7.9814      2.5071      0.0363      8.6617     26.9811    138.0778
  1767.2000      7.9814      2.5070      0.0364      8.6697     27.9740    142.5480
  1767.3000      7.9843      2.5190      0.0812      7.9387     29.0042    148.7322
  1767.4000      7.9843      2.5217      0.0783      7.7734     29.4408    152.6816
  1767.5000      7.9834      2.5049      0.0832      8.7937     29.3679    158.2481
  1767.6000      7.9834      2.4749      0.0351     10.6142     29.2401    162.9093
  1767.7000      7.9834      2.4451      0.0285     12.4155     29.3981    157.3380
  1767.8000      7.9815      2.4237      0.0058     13.7139     29.6866    144.3050
  1767.9000      7.9815      2.4151      0.0171     14.2394     29.8178    136.6711
  1768.0000      7.9815      2.4238      0.0116     13.7063     29.8081    137.9018
  1768.1000      7.9815      2.4385      0.0835     12.8169     29.6067    141.9626
  1768.2000      7.9815      2.4381      0.0648     12.8415     29.2404    144.8109
  1768.3000      7.9806      2.4285      0.0308     13.4249     28.9126    146.2717
  1768.4000      7.9806      2.4298      0.0699     13.3474     28.5238    143.0133
  1768.5000      7.9724      2.4486      0.0956     12.2033     27.9127    135.8912
  1768.6000      7.9724      2.4807      0.1542     10.2623     27.4749    131.5266
  1768.7000      7.9724      2.5084      0.1847      8.5813     27.3714    129.5147
  1768.8000      7.9577      2.5172      0.1590      8.0493     27.0269    128.1525
  1768.9000      7.9577      2.5149      0.1481      8.1909     26.1346    128.0554
  1769.0000      7.9514      2.5179      0.1335      8.0045     25.3894    129.8648
  1769.1000      7.9514      2.5303      0.1726      7.2521     25.4266    136.1847
  1769.2000      7.9514      2.5381      0.1937      6.7795     25.9356    145.6336
  1769.3000      7.9732      2.5279      0.1545      7.3998     26.5371    152.9348
  1769.4000      7.9732      2.4990      0.1044      9.1509     27.0652    152.1113
  1769.5000      8.0360      2.4604      0.0487     11.4904     27.3259    140.3786
  1769.6000      8.0360      2.4280      0.0446     13.4551     27.3150    127.0109
  1769.7000      8.0360      2.4095      0.0322     14.5759     27.0943    122.2998
  1769.8000      8.1344      2.3930      0.0155     15.5733     26.5898    125.1213
  1769.9000      8.1344      2.3653      0.0080     17.2532     26.2953    130.9789
  1770.0000      8.2480      2.3365     -0.0050     19.0023     26.8018    137.1503
  1770.1000      8.2480      2.3266      0.0346     19.5996     27.9924    141.3679
  1770.2000      8.2480      2.3305      0.0852     19.3656     29.2168    142.9579
  1770.3000      8.3467      2.3221      0.0992     19.8720     29.9721    140.3446
  1770.4000      8.3467      2.3032      0.0248     21.0193     30.0767    133.0950
  1770.5000      8.4500      2.3118      0.0237     20.4974     29.8132    129.2711
  1770.6000      8.4500      2.3616      0.1581     17.4810     29.5118    136.3593
  1770.7000      8.4500      2.4231      0.1525     13.7544     28.9895    150.2833
  1770.8000      8.5511      2.4726      0.1575     10.7535     28.2740    161.6466
  1770.9000      8.5511      2.5063      0.1801      8.7090     27.8718    167.3324
  1771.0000      8.5704      2.5260      0.1925      7.5161     27.7960    166.8021
  1771.1000      8.5704      2.5374      0.1797      6.8265     27.3999    159.1553
  1771.2000      8.5704      2.5521      0.1535      5.9354     26.6306    149.5575
  1771.3000      8.4318      2.5714      0.1526      4.7628     26.1017    142.9854
  1771.4000      8.4318      2.5865      0.1254      3.8490     25.7392    140.5571
  1771.5000      8.1999      2.6012      0.1112      2.9594     24.9881    142.7481
  1771.6000      8.1999      2.6138      0.1389      2.1963     23.9188    142.7611
  1771.7000      8.1999      2.6092      0.0946      2.4720     22.7801    133.7129
  1771.8000      8.0443      2.5929      0.0328      3.4592     21.7439    122.5063
  1771.9000      8.0443      2.5889      0.0270      3.7052     21.2921    119.2964
  1772.0000      7.9943      2.5961      0.1043      3.2691     21.4442    122.2294
  1772.1000      7.9943      2.5900      0.0690      3.6337     21.7339    126.5753
  1772.2000      7.9943      2.5691      0.0314      4.9010     22.1119    128.5291
  1772.3000      7.9859      2.5563      0.0347      5.6798     22.6442    123.1296
  1772.4000      7.9859      2.5676      0.0146      4.9927     22.6591    112.7388
  1772.5000      7.9897      2.5951      0.0834      3.3274     21.6695    104.9510
  1772.6000      7.9897      2.6131      0.0764      2.2346     20.5322    103.0884
  1772.7000      7.9897      2.6109      0.0662      2.3694     20.0529    105.4538
  1772.8000      7.9985      2.5977      0.0566      3.1715     19.8899    108.0771
  1772.9000      7.9985      2.5839      0.0074      4.0073     19.9092    110.6378
  1773.0000      8.0038      2.5729      0.0606      4.6738     20.2618    116.5754
  1773.1000      8.0038      2.5635      0.0177      5.2420     20.7111    123.9934
  1773.2000      8.0038      2.5592      0.0430      5.5026     21.4185    127.1228
  1773.3000      7.9997      2.5620      0.0403      5.3363     22.4417    126.3302
  1773.4000      7.9997      2.5659      0.0756      5.0972     23.2348    126.4027
  1773.5000      7.9961      2.5666      0.0237      5.0529     23.5290    129.2736
  1773.6000      7.9961      2.5701      0.0340      4.8434     23.6543    133.3494
  1773.7000      7.9961      2.5737      0.0686      4.6220     23.9088    136.9942
  1773.8000      8.0012      2.5671      0.0493      5.0217     24.2818    142.2614
  1773.9000      8.0012      2.5542      0.0550      5.8037     24.7187    149.0310
  1774.0000      8.0088      2.5466      0.0520      6.2686     24.8974    152.0844
  1774.1000      8.0088      2.5477      0.0321      6.2015     24.4715    154.0533
  1774.2000      8.0088      2.5487      0.0222      6.1414     23.6544    161.5718
  1774.3000      8.0098      2.5382      0.0394      6.7743     22.8434    167.8521
  1774.4000      8.0098      2.5203      0.0198      7.8587     22.4504    167.5085
  1774.5000      8.0028      2.5199     -0.0027      7.8871     22.6833    165.2962
  1774.6000      8.0028      2.5518      0.0368      5.9522     23.0169    163.2498
  1774.7000      8.0028      2.5866      0.0985      3.8425     23.1023    161.4978
  1774.8000      7.9928      2.5921      0.0900      3.5120     23.5089    158.9090
  1774.9000      7.9928      2.5867      0.0413      3.8351     24.6004    153.0022
  1775.0000      7.9869      2.5976      0.0749      3.1746     25.5520    149.6115
  1775.1000      7.9869      2.6045      0.0972      2.7564     25.7913    154.4580
  1775.2000      7.9869      2.5789      0.0875      4.3114     25.5748    159.2815
  1775.3000      7.9829      2.5374      0.0190      6.8245     25.0264    155.7394
  1775.4000      7.9829      2.5163      0.0111      8.1059     24.5770    150.9870
  1775.5000      7.9821      2.5191      0.0545      7.9353     24.5342    152.9125
  1775.6000      7.9821      2.5193      0.0419      7.9200     24.4517    158.5751
  1775.7000      7.9821      2.5049      0.0328      8.7935     24.1244    161.8321
  1775.8000      7.9850      2.4926     -0.0082      9.5389     24.0511    161.7170
  1775.9000      7.9850      2.4987      0.0232      9.1708     24.3725    160.7376
