~Version Information
VERS.                      2.0: CWLS Log ASCII Standard - VERSION 2.0
WRAP.                       NO: One line per depth step
~Well Information Block
STRT.FT               780.0000: 
STOP.FT              1557.5000: 
STEP.FT                 0.1000: 
NULL.                -999.2500: 
COMP.          Pioneer Natural Resources: COMPANY
WELL.          Bunner's 13-26 Tr: WELL
FLD.           Purgatoire River: FIELD
LOC.           1843' FSL & 456' FWL----: LOCATION
PROV.                 Colorado: PROVINCE
CNTY.               Las Animas: COUNTRY
SRVC.                Patterson: SERVICE COMPANY
DATE.          Tue Mar 29 07:41:16 2005: LOG DATE
UWI.           05 071 08331 00: UNIQUE WELL ID
~Curve Information Block
DEPT.FT            0 000 00 00: Depth
DCAL.in                       : CDL Caliper
RHOB.g/cc                     : CDL Bulk Density
RHOC.g/cc                     : CDL Density Correction
DPOR.pu                       : CDL Density Porosity
NPOR.pu                       : Neutron Porosity
GR.GAPI                       : Gamma Ray
~Parameter Information Block
~A  Depth       DCAL        RHOB        RHOC        DPOR        NPOR         GR     
# ...
  1125.6000      7.8775      2.4245      0.0397     13.6662     24.8907    132.3839
  1125.7000      7.8775      2.4151      0.0836     14.2378     24.4622    131.5405
  1125.8000      7.8770      2.4195      0.0582     13.9675     23.5865    129.2426
  1125.9000      7.8770      2.4370      0.1066     12.9083     22.7069    127.3293
  1126.0000      7.8745      2.4578      0.0997     11.6455     22.2112    129.3881
  1126.1000      7.8745      2.4838      0.0599     10.0697     21.8247    135.5215
  1126.2000      7.8745      2.5244      0.0902      7.6151     21.6229    137.6860
  1126.3000      7.8731      2.5647      0.1405      5.1715     21.9409    131.5068
  1126.4000      7.8731      2.5848      0.0766      3.9532     22.7639    123.8166
  1126.5000      7.8730      2.5927      0.0349      3.4729     23.5535    120.4117
  1126.6000      7.8730      2.6061      0.0522      2.6621     23.8684    120.2528
  1126.7000      7.8730      2.6296      0.0356      1.2337     23.9125    119.8987
  1126.8000      7.8751      2.6584      0.0558     -0.5098     24.0924    119.8499
  1126.9000      7.8751      2.6831      0.0679     -2.0073     24.6684    121.4170
  1127.0000      7.8780      2.6924      0.0523     -2.5696     25.5246    123.3653
  1127.1000      7.8780      2.6877      0.0103     -2.2870     26.3258    127.0259
  1127.2000      7.8780      2.6850      0.0257     -2.1217     27.1021    130.3006
  1127.3000      7.8789      2.6861      0.0656     -2.1856     27.8365    126.0282
  1127.4000      7.8789      2.6841      0.0203     -2.0687     28.3307    116.6262
  1127.5000      7.8784      2.6823      0.0298     -1.9563     28.5643    110.6098
  1127.6000      7.8784      2.6766      0.0480     -1.6100     28.5963    111.2395
  1127.7000      7.8784      2.6612      0.0206     -0.6766     28.3114    115.8810
  1127.8000      7.8783      2.6444      0.0509      0.3401     27.5391    119.0692
  1127.9000      7.8783      2.6337      0.0289      0.9874     26.9518    117.2836
  1128.0000      7.8779      2.6369      0.0163      0.7914     27.0540    111.1818
  1128.1000      7.8779      2.6585      0.0270     -0.5135     27.3366    105.2516
  1128.2000      7.8779      2.6825      0.0539     -1.9685     27.6674    102.8411
  1128.3000      7.8761      2.6895      0.0660     -2.3931     28.2844    103.1875
  1128.4000      7.8761      2.6859     -0.0041     -2.1760     29.1212    104.6826
  1128.5000      7.8744      2.6925      0.0639     -2.5734     29.9751    108.4648
  1128.6000      7.8744      2.7116      0.0506     -3.7347     30.5786    113.7055
  1128.7000      7.8744      2.7349      0.0386     -5.1469     30.9908    114.1422
  1128.8000      7.8742      2.7559      0.0335     -6.4154     31.1503    107.6688
  1128.9000      7.8742      2.7688      0.0395     -7.2022     30.9531    100.0693
  1129.0000      7.8738      2.7778      0.0292     -7.7483     30.9189     98.8181
  1129.1000      7.8738      2.7855      0.0712     -8.2091     31.1247    104.9645
  1129.2000      7.8738      2.7808      0.0371     -7.9298     31.2198    110.1187
  1129.3000      7.8735      2.7684     -0.0293     -7.1743     31.4037    107.6302
  1129.4000      7.8735      2.7600      0.0200     -6.6680     31.8676    101.0977
  1129.5000      7.8757      2.7437      0.0281     -5.6794     32.2437     98.1721
  1129.6000      7.8757      2.7089      0.0036     -3.5686     32.0543    101.8807
  1129.7000      7.8757      2.6660     -0.0249     -0.9696     31.2556    108.0261
  1129.8000      7.8758      2.6320     -0.0496      1.0910     30.4077    112.1746
  1129.9000      7.8758      2.6162     -0.0378      2.0482     29.9309    116.0582
  1130.0000      7.8717      2.6101     -0.0012      2.4189     29.5091    119.0477
  1130.1000      7.8717      2.5982     -0.0011      3.1419     28.7037    118.4781
  1130.2000      7.8717      2.5808      0.0039      4.1945     27.6744    118.3469
  1130.3000      7.8688      2.5733     -0.0033      4.6466     27.0071    119.8612
  1130.4000      7.8688      2.5923      0.0286      3.4951     26.7217    117.8762
  1130.5000      7.8671      2.6412      0.0200      0.5305     26.4511    113.8197
  1130.6000      7.8671      2.6924      0.0967     -2.5693     26.4171    112.8648
  1130.7000      7.8671      2.7109      0.0502     -3.6927     26.9660    114.4922
  1130.8000      7.8644      2.7029      0.0651     -3.2044     27.6811    116.9463
  1130.9000      7.8644      2.7012      0.0336     -3.1006     27.9966    118.8358
  1131.0000      7.8635      2.7227      0.0630     -4.4062     28.1422    117.2745
  1131.1000      7.8635      2.7542      0.0433     -6.3176     28.3566    115.7293
  1131.2000      7.8635      2.7740      0.0218     -7.5128     28.2713    119.7067
  1131.3000      7.8646      2.7739      0.0202     -7.5120     27.9295    125.6307
  1131.4000      7.8646      2.7598      0.0313     -6.6574     27.8083    124.9931
  1131.5000      7.8655      2.7398      0.0637     -5.4433     27.8981    116.7779
  1131.6000      7.8655      2.7210      0.0564     -4.3060     27.8886    111.1349
  1131.7000      7.8655      2.7099      0.0359     -3.6285     27.6827    114.1499
  1131.8000      7.8642      2.6977      0.0542     -2.8911     27.4069    119.1155
  1131.9000      7.8642      2.6691      0.0458     -1.1559     27.0059    120.0475
  1132.0000      7.8600      2.6294      0.0284      1.2477     26.6478    117.6570
  1132.1000      7.8600      2.6019     -0.0031      2.9134     26.7742    115.1959
  1132.2000      7.8600      2.5979     -0.0119      3.1590     27.2608    115.2737
  1132.3000      7.8555      2.6048      0.0054      2.7399     27.5579    118.0713
  1132.4000      7.8555      2.6085     -0.0170      2.5157     27.4045    123.8978
  1132.5000      7.8553      2.6072      0.0464      2.5938     27.0371    129.5399
  1132.6000      7.8553      2.6061      0.0217      2.6608     26.9415    129.9893
  1132.7000      7.8553      2.6104      0.0027      2.4007     27.2094    125.8084
  1132.8000      7.8588      2.6055      0.0676      2.6965     27.3554    120.1681
  1132.9000      7.8588      2.5778     -0.0271      4.3755     27.0671    117.4044
  1133.0000      7.8625      2.5528      0.0034      5.8927     26.6109    120.6901
  1133.1000      7.8625      2.5468      0.0511      6.2561     26.1405    127.3826
  1133.2000      7.8625      2.5431      0.0371      6.4784     25.4320    131.1167
  1133.3000      7.8700      2.5354     -0.0010      6.9452     24.4886    130.0868
  1133.4000      7.8700      2.5345     -0.0049      7.0030     23.6975    126.8724
  1133.5000      7.8845      2.5417      0.0146      6.5638     23.2759    121.9909
  1133.6000      7.8845      2.5437      0.0186      6.4444     22.9204    116.8601
  1133.7000      7.8845      2.5377     -0.0080      6.8068     22.4863    114.7167
  1133.8000      7.9016      2.5330      0.0095      7.0930     22.1610    111.9916
  1133.9000      7.9016      2.5286      0.0370      7.3580     21.8592    104.9347
  1134.0000      7.9143      2.5207      0.0407      7.8373     21.5435    100.2629
  1134.1000      7.9143      2.5169      0.0157      8.0681     21.3479    102.2488
  1134.2000      7.9143      2.5275      0.0239      7.4259     21.3366    105.0367
  1134.3000      7.9167      2.5478      0.0087      6.1940     21.7121    103.6339
  1134.4000      7.9167      2.5625      0.0720      5.3060     22.2994     99.7767
  1134.5000      7.9090      2.5649      0.0446      5.1546     22.5941     95.6996
  1134.6000      7.9090      2.5555      0.0513      5.7281     22.7177     92.2077
  1134.7000      7.9090      2.5354      0.0199      6.9476     23.1165     90.4258
  1134.8000      7.8987      2.5198      0.0139      7.8900     23.5762     90.1973
  1134.9000      7.8987      2.5200      0.0070      7.8786     23.7192     90.1958
  1135.0000      7.8894      2.5285      0.0496      7.3654     23.6663     88.8944
  1135.1000      7.8894      2.5399      0.0118      6.6704     23.5429     86.0935
