~Version Information
VERS.                      2.0: CWLS Log ASCII Standard - VERSION 2.0
WRAP.                       NO: One line per depth step
~Well Information Block
STRT.FT               930.0000: 
STOP.FT              2783.2500: 
STEP.FT                 0.2500: 
NULL.                -999.2500: 
COMP.          Pioneer Natural Resources: COMPANY
WELL.           Desoto 13-7TR: WELL
FLD.           Purgatoire River: FIELD
LOC.           1404' FSL & 1115' FWL: LOCATION
PROV.                 Colorado: PROVINCE
CNTY.               Las Animas: COUNTRY
SRVC.                Patterson: SERVICE COMPANY
DATE.          Fri Jan 14 11:02:13 2005: LOG DATE
UWI.           05 071 08216 00: UNIQUE WELL ID
~Curve Information Block
DEPT.FT            0 000 00 00: Depth
SN.Ohm-m                      : IEL Short Normal
SP.mV                         : IEL Spontaneous Potential
DIR.Ohm-m                     : IEL Induction Resistivity
GR.GAPI                       : Gamma Ray
~Parameter Information Block
~A  Depth        SN          SP         DIR          GR     
# ...
  2739.0000     13.4072    -39.4812     14.1948    129.4589
  2739.2500     12.9126    -37.9064     13.8494    129.7531
  2739.5000     12.4976    -36.5701     13.4832    130.3112
  2739.7500     12.2663    -35.5125     13.1361    130.5640
  2740.0000     12.2379    -34.7249     12.8256    130.1019
  2740.2500     12.3525    -34.1626     12.5522    129.2522
  2740.5000     12.5107    -33.7604     12.3116    128.5793
  2740.7500     12.6219    -33.4487     12.1032    129.4972
  2741.0000     12.6321    -33.1676     11.9300    132.7220
  2741.2500     12.5272    -32.8751     11.7936    134.7577
  2741.5000     12.3228    -32.5489     11.6901    135.4268
  2741.7500     12.0552    -32.1812     11.6116    134.2492
  2742.0000     11.7759    -31.7703     11.5496    132.0189
  2742.2500     11.5406    -31.3143     11.4982    131.4694
  2742.5000     11.3909    -30.8096     11.4540    132.7368
  2742.7500     11.3336    -30.2546     11.4140    134.5812
  2743.0000     11.3358    -29.6555     11.3726    137.8824
  2743.2500     11.3460    -29.0290     11.3208    140.0486
  2743.5000     11.3247    -28.3994     11.2478    142.6896
  2743.7500     11.2585    -27.7899     11.1451    143.6989
  2744.0000     11.1554    -27.2139     11.0117    143.9000
  2744.2500     11.0321    -26.6698     10.8557    143.5501
  2744.5000     10.9012    -26.1426     10.6908    143.3388
  2744.7500     10.7645    -25.6109     10.5290    143.6163
  2745.0000     10.6163    -25.0559     10.3746    144.1080
  2745.2500     10.4542    -24.4686     10.2253    144.2112
  2745.5000     10.2880    -23.8531     10.0777    144.4013
  2745.7500     10.1356    -23.2252      9.9325    144.9874
  2746.0000     10.0113    -22.6095      9.7939    146.8810
  2746.2500      9.9177    -22.0360      9.6663    148.7877
  2746.5000      9.8473    -21.5368      9.5518    152.5836
  2746.7500      9.7902    -21.1441      9.4503    155.6091
  2747.0000      9.7408    -20.8895      9.3611    160.0293
  2747.2500      9.6974    -20.8027      9.2838    162.2297
  2747.5000      9.6615    -20.9094      9.2203    163.9157
  2747.7500      9.6380    -21.2273      9.1760    164.0785
  2748.0000      9.6330    -21.7604      9.1600    162.8159
  2748.2500      9.6518    -22.4920      9.1833    160.5881
  2748.5000      9.6976    -23.3805      9.2550    154.7805
  2748.7500      9.7744    -24.3604      9.3802    149.5078
  2749.0000      9.8855    -25.3487      9.5577    140.2892
  2749.2500     10.0291    -26.2585      9.7793    133.7406
  2749.5000     10.1944    -27.0122     10.0298    124.2706
  2749.7500     10.3625    -27.5542     10.2877    118.6749
  2750.0000     10.5128    -27.8566     10.5293    111.1678
  2750.2500     10.6326    -27.9196     10.7330    105.7258
  2750.5000     10.7229    -27.7665     10.8840     93.9033
  2750.7500     10.7955    -27.4369     10.9773     82.0106
  2751.0000     10.8642    -26.9803     11.0193     58.4383
  2751.2500     10.9391    -26.4510     11.0260     41.4573
  2751.5000     11.0284    -25.9051     11.0189     20.0353
  2751.7500     11.1362    -25.3970     11.0168     10.5484
  2752.0000     11.2555    -24.9761     11.0281      3.1271
  2752.2500     11.3668    -24.6817     11.0501      1.1646
  2752.5000     11.4556    -24.5372     11.0762      0.2003
  2752.7500     11.5283    -24.5470     11.1068      0.0502
  2753.0000     11.6103    -24.6972     11.1540      0.0029
  2753.2500     11.7273    -24.9601     11.2370   -999.2500
  2753.5000     11.8895    -25.3040     11.3710   -999.2500
  2753.7500     12.0915    -25.7026     11.5595   -999.2500
  2754.0000     12.3235    -26.1434     11.7944   -999.2500
  2754.2500     12.5845    -26.6318     12.0632   -999.2500
  2754.5000     12.8904    -27.1910     12.3590   -999.2500
  2754.7500     13.2713    -27.8579     12.6855   -999.2500
  2755.0000     13.7590    -28.6747     13.0515   -999.2500
  2755.2500     14.3694    -29.6787     13.4635   -999.2500
  2755.5000     15.0897    -30.8910     13.9218   -999.2500
  2755.7500     15.8782    -32.3065     14.4224   -999.2500
  2756.0000     16.6815    -33.8885     14.9648   -999.2500
  2756.2500     17.4606    -35.5706     15.5582   -999.2500
  2756.5000     18.2120    -37.2651     16.2218   -999.2500
  2756.7500     18.9739    -38.8775     16.9773   -999.2500
  2757.0000     19.8128    -40.3209     17.8333   -999.2500
  2757.2500     20.7982    -41.5278     18.7745   -999.2500
  2757.5000     21.9781    -42.4567     19.7633   -999.2500
  2757.7500     23.3611    -43.0932     20.7560   -999.2500
  2758.0000     24.8972    -43.4470     21.7175   -999.2500
  2758.2500     26.4654    -43.5489     22.6209   -999.2500
  2758.5000     27.8952    -43.4476     23.4341   -999.2500
  2758.7500     29.0288    -43.2063     24.1112   -999.2500
  2759.0000     29.7856    -42.8985     24.6051   -999.2500
  2759.2500     30.1884    -42.6011     24.8958   -999.2500
  2759.5000     30.3453    -42.3860     25.0121   -999.2500
  2759.7500     30.4061    -42.3111     25.0250   -999.2500
  2760.0000     30.5134    -42.4138     25.0185   -999.2500
  2760.2500     30.7574    -42.7066     25.0567   -999.2500
  2760.5000     31.1489    -43.1772     25.1680   -999.2500
  2760.7500     31.6263    -43.7910     25.3498   -999.2500
  2761.0000     32.0977    -44.4982     25.5839   -999.2500
  2761.2500     32.4904    -45.2419     25.8512   -999.2500
  2761.5000     32.7758    -45.9700     26.1371   -999.2500
  2761.7500     32.9649    -46.6452     26.4289   -999.2500
  2762.0000     33.0920    -47.2536     26.7094   -999.2500
  2762.2500     33.2018    -47.8060     26.9578   -999.2500
  2762.5000     33.3434    -48.3345     27.1523   -999.2500
  2762.7500     33.5579    -48.8817     27.2732   -999.2500
  2763.0000     33.8610    -49.4881     27.3030   -999.2500
  2763.2500     34.2280    -50.1774     27.2276   -999.2500
  2763.5000     34.5976    -50.9447     27.0444   -999.2500
  2763.7500     34.8943    -51.7482     26.7764   -999.2500
  2764.0000     35.0593    -52.5069     26.4793   -999.2500
  2764.2500     35.0652    -53.1089     26.2292   -999.2500
  2764.5000     34.9040    -53.4286     26.0893   -999.2500
  2764.7500     34.5639    -53.3528     26.0758   -999.2500
  2765.0000     34.0239    -52.8099     26.1439   -999.2500
  2765.2500     33.2726    -51.7905     26.2046   -999.2500
  2765.5000     32.3319    -50.3534     26.1619   -999.2500
  2765.7500     31.2622    -48.6106     25.9512   -999.2500
  2766.0000     30.1467    -46.6948     25.5623   -999.2500
  2766.2500     29.0635    -44.7216     25.0341   -999.2500
  2766.5000     28.0551    -42.7608     24.4199   -999.2500
  2766.7500     27.1054    -40.8272     23.7460   -999.2500
  2767.0000     26.1389    -38.8954     22.9946   -999.2500
  2767.2500     25.0549    -36.9286     22.1306   -999.2500
  2767.5000     23.7878    -34.9085     21.1458   -999.2500
  2767.7500     22.3575    -32.8514     20.0829   -999.2500
  2768.0000     20.8748    -30.8056     19.0182   -999.2500
  2768.2500     19.4979    -28.8343     18.0261   -999.2500
  2768.5000     18.3656    -26.9951     17.1557   -999.2500
  2768.7500     17.5421    -25.3246     16.4246   -999.2500
  2769.0000     16.9996    -23.8351     15.8234   -999.2500
  2769.2500     16.6417    -22.5193     15.3250   -999.2500
  2769.5000     16.3503    -21.3587     14.8939   -999.2500
  2769.7500     16.0269    -20.3296     14.4978   -999.2500
  2770.0000     15.6186    -19.4055     14.1186   -999.2500
  2770.2500     15.1322    -18.5559     13.9605   -999.2500
  2770.5000     14.6298    -17.7467     13.6295   -999.2500
  2770.7500     14.1926    -16.9429     13.3584   -999.2500
  2771.0000     13.8658    -16.1142     13.1521   -999.2500
  2771.2500     13.6330    -15.2424     12.9935   -999.2500
  2771.5000     13.4434    -14.3267     12.8532   -999.2500
  2771.7500     13.2571    -13.3851     12.7086   -999.2500
  2772.0000     13.0619    -12.4501     12.5566   -999.2500
  2772.2500     12.8601    -11.5620     12.4148   -999.2500
