~Version Information
VERS.                      2.0: CWLS Log ASCII Standard - VERSION 2.0
WRAP.                       NO: One line per depth step
~Well Information Block
STRT.FT                -7.0000: 
STOP.FT              1863.5000: 
STEP.FT                 0.2500: 
NULL.                -999.2500: 
COMP.          Pioneer Natural Resources: COMPANY
WELL.            Formula 23-11: WELL
FLD.           Purgatorie River: FIELD
LOC.           1976' FSL & 1935' FWL--: LOCATION
PROV.                       CO: PROVINCE
CNTY.               Las Animas: COUNTRY
SRVC.          Patterson Wireline: SERVICE COMPANY
DATE.          Wed Jun 15 14:44:40 2005: LOG DATE
UWI.           05 071 08399 00: UNIQUE WELL ID
~Curve Information Block
DEPT.FT            0 000 00 00: Depth
CCL.                          : Casing Collar Locator
TT3.usec                      : CBL 3' Travel Time
AMP3.mV                       : CBL 3' Amplitude
GR.GAPI                       : Gamma Ray
~Parameter Information Block
~A  Depth       CCL         TT3         AMP3         GR     
# ...
   730.0000      0.0000    837.0222      5.1261    111.0536
   730.2500      0.0000    843.0638      5.1426    115.7247
   730.5000      0.0000    851.8528      5.1048    124.0874
   730.7500      0.0000    860.5770      4.9914    134.5566
   731.0000      0.0000    864.8157      4.8328    143.9999
   731.2500      0.0000    861.3049      4.7129    149.6190
   731.5000      0.0000    850.0961      4.7176    150.5579
   731.7500      0.0000    834.3075      4.8698    147.8924
   732.0000      0.0000    818.1999      5.1112    143.6233
   732.2500      0.0000    805.1263      5.3489    139.6437
   732.5000      0.0000    796.2049      5.5157    136.9577
   732.7500      0.0000    790.4120      5.5973    135.5390
   733.0000      0.0000    786.2112      5.6235    135.0674
   733.2500      0.0000    783.2755      5.6487    135.5743
   733.5000      0.0000    782.7113      5.7256    136.9146
   733.7500      0.0000    786.0172      5.8730    137.9493
   734.0000      0.0000    794.1091      6.0585    137.1054
   734.2500      0.0000    806.9589      6.2182    133.7767
   734.5000      0.0000    823.4165      6.3023    128.7495
   734.7500      0.0000    840.8763      6.3149    123.4294
   735.0000      0.0000    855.4602      6.3126    118.8539
   735.2500      0.0000    863.5603      6.3540    115.1085
   735.5000      0.0000    863.6816      6.4404    111.6708
   735.7500      0.0000    856.6155      6.5120    108.6679
   736.0000      0.0000    844.2050      6.5121    107.5198
   736.2500      0.0000    828.7865      6.4445    109.7463
   736.5000      0.0000    813.6042      6.3594    115.1803
   736.7500      0.0000    802.1946      6.2962    121.6815
   737.0000      0.0000    796.1528      6.2524    126.5977
   737.2500      0.0000    793.8561      6.1988    128.5568
   737.5000      0.0000    792.1731      6.1124    128.2057
   737.7500      0.0000    789.3165      6.0004    127.5369
   738.0000      0.0000    785.6975      5.8989    128.3447
   738.2500      0.0000    782.5309      5.8447    131.0116
   738.5000      0.0000    780.4304      5.8483    134.5221
   738.7500      0.0000    779.2758      5.8966    137.3360
   739.0000      0.0000    778.7133      5.9670    138.0363
   739.2500      0.0000    778.4908      6.0256    135.5740
   739.5000      0.0000    778.4987      6.0305    129.9740
   739.7500      0.0000    778.7664      5.9657    123.2442
   740.0000      0.0000    779.5217      5.8655    118.6487
   740.2500      0.0000    781.2859      5.7877    117.9696
   740.5000      0.0000    784.6315      5.7653    119.7249
   740.7500      0.0000    789.2283      5.7908    120.7557
   741.0000      0.0000    792.9771      5.8398    119.2848
   741.2500      0.0000    793.0419      5.8970    116.1307
   741.5000      0.0000    788.6644      5.9606    113.6412
   741.7500      0.0000    782.4364      6.0267    113.9448
   742.0000      0.0000    778.0261      6.0823    117.5473
   742.2500      0.0000    777.2461      6.1164    122.9381
   742.5000      0.0000    779.7711      6.1366    127.7352
   742.7500      0.0000    784.4972      6.1682    130.4560
   743.0000      0.0000    789.9460      6.2316    131.0499
   743.2500      0.0000    793.9526      6.3165    130.1108
   743.5000      0.0000    794.5422      6.3812    128.2524
   743.7500      0.0000    791.8170      6.3817    126.0585
   744.0000      0.0000    788.3243      6.3035    123.8684
   744.2500      0.0000    786.7008      6.1737    121.4923
   744.5000      0.0000    787.0420      6.0425    118.6757
   744.7500      0.0000    787.3234      5.9301    116.0026
   745.0000      0.0000    786.4560      5.7907    114.8593
   745.2500      0.0000    785.9242      5.5574    116.1004
   745.5000      0.0000    787.8248      5.2311    118.8436
   745.7500      0.0000    792.1924      4.8985    120.9200
   746.0000      0.0000    797.2666      4.6566    120.6858
   746.2500      0.0000    801.7120      4.5442    118.3456
   746.5000      2.0000    805.5680      4.5490    115.4281
   746.7500      0.0000    809.5770      4.6434    113.2140
   747.0000      0.0000    814.4290      4.7996    112.0195
   747.2500      0.0000    820.0765      4.9943    111.7548
   747.5000      0.0000    825.1904      5.2161    112.5981
   747.7500      0.0000    827.8736      5.4507    115.0046
   748.0000      0.0000    827.1586      5.6550    119.1780
   748.2500      0.0000    823.1448      5.7741    124.4802
   748.5000      0.0000    816.1198      5.7920    129.3768
   748.7500      0.0000    806.9293      5.7407    132.2119
   749.0000      0.0000    797.8309      5.6569    132.1407
   749.2500      0.0000    791.3437      5.5523    129.4740
   749.5000      0.0000    788.1148      5.4282    125.5252
   749.7500      0.0000    786.8483      5.3025    122.0209
   750.0000      0.0000    786.2302      5.2063    120.0299
   750.2500      0.0000    786.0198      5.1519    119.3258
   750.5000      0.0000    786.2218      5.1205    119.1431
   750.7500      0.0000    786.1963      5.0906    119.4089
   751.0000      0.0000    785.2282      5.0603    120.6521
   751.2500      0.0000    783.4413      5.0304    122.7756
   751.5000      0.0000    781.6046      4.9868    124.5689
   751.7500      0.0000    780.2767      4.9212    124.6507
   752.0000      0.0000    779.5044      4.8520    122.7145
   752.2500      0.0000    779.1599      4.8076    119.8186
   752.5000      0.0000    779.2728      4.7974    117.4726
   752.7500      0.0000    780.1027      4.8102    116.3136
   753.0000      0.0000    781.9440      4.8250    115.7041
   753.2500      0.0000    784.6620      4.8168    114.7585
   753.5000      0.0000    787.2870      4.7631    113.5172
   753.7500      0.0000    788.4058      4.6561    112.7668
   754.0000      0.0000    787.3406      4.5155    112.9919
   754.2500      0.0000    784.8971      4.3899    113.8131
   754.5000      0.0000    782.8673      4.3387    114.2448
   754.7500      0.0000    783.1208      4.3941    113.3950
   755.0000      0.0000    787.1226      4.5336    111.1340
   755.2500      0.0000    795.2375      4.6943    108.2571
   755.5000      0.0000    805.5178      4.8181    106.0413
   755.7500      0.0000    813.9236      4.8800    105.3642
   756.0000      0.0000    817.5833      4.8872    105.7233
   756.2500      0.0000    818.1977      4.8680    105.1337
   756.5000      0.0000    820.8148      4.8549    101.7564
   756.7500      0.0000    828.7037      4.8667     95.7245
   757.0000      0.0000    840.3634      4.9054     88.6644
   757.2500      0.0000    851.6691      4.9616     81.6564
   757.5000      0.0000    859.7418      5.0167     74.7147
   757.7500      0.0000    864.3504      5.0520     68.0420
   758.0000      0.0000    866.6863      5.0552     62.5395
   758.2500      0.0000    867.8375      5.0152     58.7312
   758.5000      0.0000    868.2695      4.9272     56.0375
   758.7500      0.0000    867.9545      4.8119     53.6314
   759.0000      0.0000    866.4404      4.7114     51.5342
   759.2500      0.0000    862.9024      4.6559     50.3051
   759.5000      0.0000    856.7396      4.6454     49.8466
   759.7500      0.0000    848.7526      4.6636     49.1292
   760.0000      0.0000    841.7413      4.7033     47.2427
   760.2500      0.0000    839.1922      4.7745     44.3430
   760.5000      0.0000    842.6433      4.8808     41.4908
   760.7500      0.0000    850.3027      4.9956     39.8876
   761.0000      0.0000    858.4977      5.0764     40.2870
   761.2500      0.0000    864.4213      5.0982     42.7089
   761.5000      0.0000    867.4803      5.0637     46.3957
   761.7500      0.0000    868.5902      4.9919     50.1122
   762.0000      0.0000    868.8585      4.9066     52.7970
   762.2500      0.0000    868.9049      4.8310     54.0960
   762.5000      0.0000    868.7911      4.7791     54.3658
   762.7500      0.0000    868.1035      4.7508     54.3273
   763.0000      0.0000    866.1197      4.7335     54.7247
   763.2500      0.0000    862.3643      4.7107     55.9912
