~Version Information
VERS.                      2.0: CWLS Log ASCII Standard - VERSION 2.0
WRAP.                       NO: One line per depth step
~Well Information Block
STRT.FT               298.0000: 
STOP.FT              1325.5000: 
STEP.FT                 0.2500: 
NULL.                -999.2500: 
COMP.          Pioneer Natural Resources: COMPANY
WELL.          Santa Fe 43-27 Tr: WELL
FLD.           Purgatoire River: FIELD
LOC.           2018' FSL & 534' FEL: LOCATION
PROV.                 Colorado: PROVINCE
CNTY.               Las Animas: COUNTRY
SRVC.                Patterson: SERVICE COMPANY
DATE.          Tue Mar 08 10:44:11 2005: LOG DATE
UWI.           05 071 08303 00: UNIQUE WELL ID
~Curve Information Block
DEPT.FT            0 000 00 00: Depth
SN.Ohm-m                      : IEL Short Normal
SP.mV                         : IEL Spontaneous Potential
DIR.Ohm-m                     : IEL Induction Resistivity
GR.GAPI                       : Gamma Ray
~Parameter Information Block
~A  Depth        SN          SP         DIR          GR     
# ...
   834.0000     12.2546     -8.2363      8.7141    137.1878
   834.2500     12.2777     -8.2346      8.7929    139.6922
   834.5000     12.3239     -8.1559      8.9424    143.3568
   834.7500     12.4130     -8.0304      9.1537    144.7015
   835.0000     12.5690     -7.8886      9.4157    143.7879
   835.2500     12.8255     -7.7491      9.7192    141.0349
   835.5000     13.2102     -7.6215     10.0624    134.2614
   835.7500     13.7214     -7.5168     10.4530    128.5452
   836.0000     14.3463     -7.4494     10.9057    119.1463
   836.2500     15.1093     -7.4290     11.4358    112.9993
   836.5000     16.0985     -7.4508     12.0522    105.4383
   836.7500     17.4529     -7.4967     12.7542    102.2274
   837.0000     19.3073     -7.5464     13.5351    100.1391
   837.2500     21.7162     -7.5900     14.3892     99.7154
   837.5000     24.5681     -7.6327     15.3149     98.6271
   837.7500     27.5139     -7.6882     16.3087     96.8625
   838.0000     30.0805     -7.7649     17.3499     92.5335
   838.2500     31.9430     -7.8541     18.3873     89.0822
   838.5000     33.0618     -7.9309     19.3460     84.6740
   838.7500     33.6013     -7.9656     20.1582     83.1156
   839.0000     33.7718     -7.9385     20.8011     83.3669
   839.2500     33.7146     -7.8482     21.3037     84.9197
   839.5000     33.4987     -7.7077     21.7077     88.0666
   839.7500     33.1743     -7.5370     22.0101     89.7997
   840.0000     32.7759     -7.3566     22.1402     90.4401
   840.2500     32.2930     -7.1878     21.9979     89.2296
   840.5000     31.7114     -7.0534     21.5276     85.7750
   840.7500     31.0705     -6.9761     20.7661     83.4639
   841.0000     30.3889     -6.9731     19.8283     81.9215
   841.2500     29.5507     -7.0476     18.8524     83.0368
   841.5000     28.3509     -7.1832     17.9475     88.8251
   841.7500     26.6926     -7.3461     17.1665     95.4343
   842.0000     24.7303     -7.4928     16.5063    108.1371
   842.2500     22.7732     -7.5828     15.9276    117.0421
   842.5000     21.0419     -7.5896     15.3838    128.5201
   842.7500     19.5575     -7.5068     14.8450    133.8503
   843.0000     18.2464     -7.3479     14.3035    137.6833
   843.2500     17.1049     -7.1426     13.7661    137.8557
   843.5000     16.2303     -6.9284     13.2423    136.2318
   843.7500     15.6774     -6.7392     12.7400    134.8687
   844.0000     15.3525     -6.5924     12.2708    133.1012
   844.2500     15.1141     -6.4827     11.8533    132.0299
   844.5000     14.8989     -6.3889     11.5073    130.4532
   844.7500     14.6845     -6.2865     11.2421    129.5742
   845.0000     14.4358     -6.1590     11.0474    128.8938
   845.2500     14.1554     -6.0018     10.8969    128.9380
   845.5000     13.8920     -5.8209     10.7615    129.5163
   845.7500     13.6739     -5.6289     10.6244    129.9418
   846.0000     13.4940     -5.4403     10.4855    129.9955
   846.2500     13.3445     -5.2644     10.3554    129.4182
   846.5000     13.2270     -5.1004     10.2472    128.0447
   846.7500     13.1304     -4.9427     10.1718    127.4667
   847.0000     13.0175     -4.7926     10.1376    128.2298
   847.2500     12.8432     -4.6642     10.1510    130.0681
   847.5000     12.6077     -4.5745     10.2149    134.2546
   847.7500     12.3829     -4.5320     10.3267    137.1041
   848.0000     12.2393     -4.5347     10.4789    139.4345
   848.2500     12.1843     -4.5726     10.6629    138.8412
   848.5000     12.2251     -4.6275     10.8717    134.7417
   848.7500     12.4224     -4.6767     11.1027    130.5584
   849.0000     12.8516     -4.7089     11.3554    123.5273
   849.2500     13.5471     -4.7356     11.6292    119.0225
   849.5000     14.4617     -4.7826     11.9193    113.4381
   849.7500     15.4631     -4.8698     12.2143    110.8167
   850.0000     16.4092     -4.9964     12.4944    108.4584
   850.2500     17.2371     -5.1407     12.7330    107.4424
   850.5000     17.9588     -5.2700     12.9007    105.6863
   850.7500     18.5757     -5.3536     12.9742    104.2123
   851.0000     19.0099     -5.3766     12.9456    102.5437
   851.2500     19.1289     -5.3461     12.8284    102.6556
   851.5000     18.8499     -5.2861     12.6548    105.5992
   851.7500     18.2254     -5.2222     12.4649    109.5434
   852.0000     17.4194     -5.1660     12.2927    118.1285
   852.2500     16.6007     -5.1103     12.1578    125.1040
   852.5000     15.8624     -5.0383     12.0633    135.8273
   852.7500     15.2242     -4.9356     12.0014    141.9421
   853.0000     14.6807     -4.7987     11.9609    147.7879
   853.2500     14.2450     -4.6359     11.9325    149.0870
   853.5000     13.9535     -4.4676     11.9108    147.8198
   853.7500     13.8459     -4.3230     11.8952    145.5149
   854.0000     13.9420     -4.2299     11.8920    140.4049
   854.2500     14.2089     -4.2053     11.9161    135.8375
   854.5000     14.5696     -4.2511     11.9877    127.4744
   854.7500     14.9876     -4.3559     12.1261    121.4929
   855.0000     15.5164     -4.4957     12.3443    113.1572
   855.2500     16.2278     -4.6396     12.6465    108.4920
   855.5000     17.1058     -4.7589     13.0312    103.2880
   855.7500     18.0366     -4.8353     13.4933    101.3168
   856.0000     18.9175     -4.8620     14.0252    101.0581
   856.2500     19.7477     -4.8407     14.6136    102.5642
   856.5000     20.5815     -4.7833     15.2363    106.2021
   856.7500     21.4175     -4.7149     15.8618    108.5937
   857.0000     22.1696     -4.6666     16.4531    110.8577
   857.2500     22.7564     -4.6587     16.9744    111.2706
   857.5000     23.1950     -4.6909     17.4011    110.6230
   857.7500     23.5619     -4.7514     17.7324    109.6440
   858.0000     23.8620     -4.8326     17.9978    107.6903
   858.2500     23.9803     -4.9373     18.2459    106.4279
   858.5000     23.8018     -5.0719     18.5167    105.9811
   858.7500     23.3748     -5.2350     18.8174    107.5287
   859.0000     22.9292     -5.4074     19.1178    112.6782
   859.2500     22.7249     -5.5537     19.3669    116.6733
   859.5000     22.8487     -5.6360     19.5160    119.7994
   859.7500     23.1684     -5.6328     19.5287    118.2012
   860.0000     23.5083     -5.5533     19.3766    109.8966
   860.2500     23.8113     -5.4363     19.0348    101.8548
   860.5000     24.1273     -5.3306     18.4919     89.7118
   860.7500     24.5028     -5.2682     17.7695     83.3601
   861.0000     24.8575     -5.2455     16.9300     78.2178
   861.2500     24.9425     -5.2243     16.0581     78.2811
   861.5000     24.4569     -5.1525     15.2293     84.1577
   861.7500     23.2609     -4.9933     14.4874     91.6740
   862.0000     21.5052     -4.7434     13.8407    106.2599
   862.2500     19.5393     -4.4289     13.2722    116.2695
   862.5000     17.6864     -4.0921     12.7536    128.7090
   862.7500     16.1133     -3.7795     12.2574    134.4862
   863.0000     14.8550     -3.5297     11.7658    139.8685
   863.2500     13.8800     -3.3580     11.2759    142.0181
   863.5000     13.1316     -3.2448     10.7993    143.8177
   863.7500     12.5598     -3.1440     10.3569    144.0649
   864.0000     12.1321     -3.0144      9.9716    143.0548
   864.2500     11.8218     -2.8479      9.6622    141.7814
   864.5000     11.5888     -2.6678      9.4402    139.7294
   864.7500     11.3722     -2.5040      9.3085    138.5932
   865.0000     11.1229     -2.3728      9.2617    137.5221
   865.2500     10.8521     -2.2731      9.2896    137.3141
   865.5000     10.6496     -2.1926      9.3792    137.8209
   865.7500     10.6510     -2.1185      9.5132    138.5026
   866.0000     10.9276     -2.0500      9.6668    138.8255
   866.2500     11.3833     -2.0049      9.8090    137.5508
   866.5000     11.8520     -2.0115      9.9097    132.4940
   866.7500     12.2937     -2.0894      9.9492    127.5227
   867.0000     12.7921     -2.2324      9.9228    119.6787
   867.2500     13.3988     -2.4048      9.8402    115.2495
