~Version Information
VERS.                      2.0: CWLS Log ASCII Standard - VERSION 2.0
WRAP.                       NO: One line per depth step
~Well Information Block
STRT.FT                 8.7500: 
STOP.FT              2723.0000: 
STEP.FT                 0.2500: 
NULL.                -999.2500: 
COMP.          Pioneer Natural Resources: COMPANY
WELL.           Desoto 13-7 Tr: WELL
FLD.           Purgatoire River: FIELD
LOC.           1404' FSL & 1115' FWL: LOCATION
PROV.                 Colorado: PROVINCE
CNTY.               Las Animas: COUNTRY
SRVC.                Patterson: SERVICE COMPANY
DATE.          Wed Mar 16 18:00:51 2005: LOG DATE
UWI.           05 071 08216 00: UNIQUE WELL ID
~Curve Information Block
DEPT.FT            0 000 00 00: Depth
GR.GAPI                       : Gamma Ray
CCL.                          : Casing Collar Locator
TT3.usec                      : CBL 3' Travel Time
AMP3.mV                       : CBL 3' Amplitude
AMP5.mV                       : CBL 5' Amplitude
~Parameter Information Block
~A  Depth        GR         CCL         TT3         AMP3        AMP5    
# ...
  2696.7500    129.8389      0.0000    640.5851      9.2093      0.9533
  2697.0000    134.2071      0.0000    657.4525      9.2173      0.9664
  2697.2500    137.8239      0.0000    683.5502      9.2411      0.9743
  2697.5000    139.7840      0.0000    709.4178      9.3040      0.9784
  2697.7500    139.4374      0.0000    726.1307      9.4023      0.9808
  2698.0000    136.5642      0.0000    729.9296      9.5089      0.9830
  2698.2500    131.8255      0.0000    723.4909      9.5908      0.9854
  2698.5000    126.7262      0.0000    713.1645      9.6231      0.9873
  2698.7500    122.7801      0.0000    704.4592      9.5910      0.9876
  2699.0000    120.7814      0.0000    699.4321      9.4940      0.9867
  2699.2500    120.7680      0.0000    697.3746      9.3542      0.9861
  2699.5000    122.0714      0.0000    696.6848      9.2116      0.9865
  2699.7500    123.3683      0.0000    695.8078      9.1001      0.9866
  2700.0000    123.4710      0.0000    693.0369      9.0299      0.9838
  2700.2500    122.4703      0.0000    686.4517      8.9936      0.9762
  2700.5000    121.5396      0.0000    674.8730      8.9826      0.9628
  2700.7500    121.3768      0.0000    659.3057      8.9888      0.9429
  2701.0000    121.4767      0.0000    643.0276      8.9943      0.9145
  2701.2500    121.2242      0.0000    630.1397      8.9695      0.8740
  2701.5000    120.9991      0.0000    624.2811      8.8901      0.8199
  2701.7500    121.6942      0.0000    627.8330      8.7484      0.7574
  2702.0000    123.5578      0.0000    640.5490      8.5386      0.6954
  2702.2500    125.9092      0.0000    658.5795      8.2319      0.6382
  2702.5000    127.7754      0.0000    675.3658      7.8010      0.5825
  2702.7500    128.5333      0.0000    684.1785      7.2920      0.5276
  2703.0000    128.1166      0.0000    682.1918      6.8373      0.4824
  2703.2500    126.8625      0.0000    674.2258      6.5442      0.4572
  2703.5000    125.2038      0.0000    670.1428      6.3917      0.4525
  2703.7500    123.3670      0.0000    675.7689      6.2864      0.4611
  2704.0000    121.1806      0.0000    688.0743      6.1860      0.4751
  2704.2500    118.1511      0.0000    700.9709      6.1091      0.4875
  2704.5000    114.0099      0.0000    712.5389      6.0638      0.4916
  2704.7500    109.3634     -3.0000    723.3885      6.0351      0.4829
  2705.0000    105.5441      0.0000    730.7552      6.0327      0.4636
  2705.2500    103.7457      0.0000    728.6338      6.1210      0.4437
  2705.5000    104.4579      0.0000    713.2776      6.3927      0.4338
  2705.7500    107.4258      0.0000    686.0273      6.8927      0.4372
  2706.0000    111.6871      0.0000    650.7692      7.5440      0.4497
  2706.2500    115.8615      0.0000    610.7260      8.1691      0.4674
  2706.5000    118.9546      0.0000    569.1403      8.6174      0.4935
  2706.7500    120.8894      0.0000    532.2599      8.8568      0.5309
  2707.0000    122.0181      0.0000    508.8891      8.9281      0.5649
  2707.2500    122.2798      0.0000    504.1402      8.8572      0.5631
  2707.5000    121.2655      0.0000    511.9626      8.6341      0.5031
  2707.7500    119.1137      0.0000    513.8414      8.2175      0.3994
  2708.0000    116.9055      0.0000    487.2284      7.5176      0.2930
  2708.2500    115.8796      0.0000    419.5915      6.4241      0.2162
  2708.5000    116.4243      0.0000    318.1656      4.9396      0.1751
  2708.7500    117.9941      0.0000    207.1627      3.2931      0.1583
  2709.0000    119.8116      0.0000    113.3884      1.8464      0.1531
  2709.2500    121.5031      0.0000     51.2386      0.8512      0.1518
  2709.5000    123.1054      0.0000     18.8369      0.3177      0.1515
  2709.7500    124.4569      0.0000      5.5684      0.0949   -999.2500
  2710.0000    124.8454      0.0000      1.3089      0.0225   -999.2500
  2710.2500    123.7263      0.0000      0.2399      0.0042   -999.2500
  2710.5000    121.5992      0.0000      0.0319      0.0006   -999.2500
  2710.7500    119.5639      0.0000   -999.2500   -999.2500   -999.2500
  2711.0000    118.3529      0.0000   -999.2500   -999.2500   -999.2500
  2711.2500    118.2645      0.0000   -999.2500   -999.2500   -999.2500
  2711.5000    119.2004      0.0000   -999.2500   -999.2500   -999.2500
  2711.7500    120.1145      0.0000   -999.2500   -999.2500   -999.2500
  2712.0000    119.3904      0.0000   -999.2500   -999.2500   -999.2500
  2712.2500    116.5245      0.0000   -999.2500   -999.2500   -999.2500
  2712.5000    112.9437      0.0000   -999.2500   -999.2500   -999.2500
  2712.7500    110.8714      0.0000   -999.2500   -999.2500   -999.2500
  2713.0000    111.6513      0.0000   -999.2500   -999.2500   -999.2500
  2713.2500    114.8993      0.0000   -999.2500   -999.2500   -999.2500
  2713.5000    118.7233      0.0000   -999.2500   -999.2500   -999.2500
  2713.7500    121.0308      0.0000   -999.2500   -999.2500   -999.2500
  2714.0000    121.2853      0.0000   -999.2500   -999.2500   -999.2500
  2714.2500    120.8936      0.0000   -999.2500   -999.2500   -999.2500
  2714.5000    121.6428      0.0000   -999.2500   -999.2500   -999.2500
  2714.7500    124.1436      0.0000   -999.2500   -999.2500   -999.2500
  2715.0000    127.9121      0.0000   -999.2500   -999.2500   -999.2500
  2715.2500    132.0618      0.0000   -999.2500   -999.2500   -999.2500
  2715.5000    135.3135      0.0000   -999.2500   -999.2500   -999.2500
  2715.7500    136.1034      0.0000   -999.2500   -999.2500   -999.2500
  2716.0000    133.7288      0.0000   -999.2500   -999.2500   -999.2500
  2716.2500    129.3763   -999.2500   -999.2500   -999.2500   -999.2500
  2716.5000    125.4402   -999.2500   -999.2500   -999.2500   -999.2500
  2716.7500    123.7409   -999.2500   -999.2500   -999.2500   -999.2500
  2717.0000    124.5259   -999.2500   -999.2500   -999.2500   -999.2500
  2717.2500    126.7289   -999.2500   -999.2500   -999.2500   -999.2500
  2717.5000    128.6050   -999.2500   -999.2500   -999.2500   -999.2500
  2717.7500    128.4865   -999.2500   -999.2500   -999.2500   -999.2500
  2718.0000    125.9472   -999.2500   -999.2500   -999.2500   -999.2500
  2718.2500    122.4229   -999.2500   -999.2500   -999.2500   -999.2500
  2718.5000    119.7925   -999.2500   -999.2500   -999.2500   -999.2500
  2718.7500    117.6208   -999.2500   -999.2500   -999.2500   -999.2500
  2719.0000    112.1851   -999.2500   -999.2500   -999.2500   -999.2500
  2719.2500     99.0923   -999.2500   -999.2500   -999.2500   -999.2500
  2719.5000     77.5106   -999.2500   -999.2500   -999.2500   -999.2500
  2719.7500     51.8625   -999.2500   -999.2500   -999.2500   -999.2500
  2720.0000     28.9454   -999.2500   -999.2500   -999.2500   -999.2500
  2720.2500     13.2337   -999.2500   -999.2500   -999.2500   -999.2500
  2720.5000      4.8921   -999.2500   -999.2500   -999.2500   -999.2500
  2720.7500      1.4482   -999.2500   -999.2500   -999.2500   -999.2500
  2721.0000      0.3402   -999.2500   -999.2500   -999.2500   -999.2500
  2721.2500      0.0626   -999.2500   -999.2500   -999.2500   -999.2500
  2721.5000      0.0081   -999.2500   -999.2500   -999.2500   -999.2500
  2721.7500      0.0000   -999.2500   -999.2500   -999.2500   -999.2500
  2722.0000   -999.2500   -999.2500   -999.2500   -999.2500   -999.2500
  2722.2500   -999.2500   -999.2500   -999.2500   -999.2500   -999.2500
  2722.5000   -999.2500   -999.2500   -999.2500   -999.2500   -999.2500
  2722.7500   -999.2500   -999.2500   -999.2500   -999.2500   -999.2500
  2723.0000   -999.2500   -999.2500   -999.2500   -999.2500   -999.2500
