~Version Information
VERS.                      2.0: CWLS Log ASCII Standard - VERSION 2.0
WRAP.                       NO: One line per depth step
~Well Information Block
STRT.FT                 1.5000: 
STOP.FT              1895.2500: 
STEP.FT                 0.2500: 
NULL.                -999.2500: 
COMP.          Petrogulf Corporation: COMPANY
WELL.             State 16-32R: WELL
FLD.           Purgatorie River: FIELD
LOC.           1849' FNL & 1677' FEL: LOCATION
CNTY.               Las Animas: COUNTY
SRVC.                         : SERVICE COMPANY
DATE.          Thu May 20 08:40:19 2004: LOG DATE
UWI.           05 071 08033 00: UNIQUE WELL ID
STAT.                 Colorado: STATE
~Curve Information Block
DEPT.FT            0 000 00 00: Depth
GR.GAPI                       : Gamma Ray
CCL.                          : Casing Collar Locator
TT3.usec                      : CBL 3' Travel Time
AMP3.mV                       : CBL 3' Amplitude
~Parameter Information Block
~A  Depth        GR         CCL         TT3         AMP3    
# ...
   638.0000     98.0722      0.0000    286.4668     43.5744
   638.2500    100.0692      0.0000    286.6569     42.9318
   638.5000    100.6113      0.0000    286.7709     42.3373
   638.7500    100.4098      0.0000    286.7999     42.1573
   639.0000     99.8672      0.0000    286.7494     42.6591
   639.2500     99.1772      0.0000    286.6282     43.8627
   639.5000     98.5567      0.0000    286.4724     45.5130
   639.7500     98.2768      0.0000    286.3415     47.1379
   640.0000     98.5249      0.0000    286.2712     48.1361
   640.2500     98.9438      0.0000    286.2482     48.0529
   640.5000     98.3392      0.0000    286.2387     46.8824
   640.7500     95.6332      0.0000    286.2223     45.0207
   641.0000     91.2884      0.0000    286.1996     42.9143
   641.2500     87.0104      0.0000    286.1971     40.8069
   641.5000     83.9164      0.0000    286.2622     38.7592
   641.7500     81.7335      0.0000    286.4215     36.7721
   642.0000     79.7894      0.0000    286.6386     34.9174
   642.2500     78.0452      0.0000    286.8385     33.4082
   642.5000     76.9160      0.0000    286.9712     32.4095
   642.7500     76.6716      0.0000    287.0265     31.8298
   643.0000     77.3019      0.0000    287.0005     31.4229
   643.2500     78.4815      0.0000    286.8959     31.0124
   643.5000     79.3697      0.0000    286.7488     30.6004
   643.7500     78.9278      0.0000    286.6087     30.3093
   644.0000     76.8149      0.0000    286.5072     30.2003
   644.2500     73.6581      0.0000    286.4755     30.1857
   644.5000     70.3253      0.0000    286.5553     30.0834
   644.7500     67.4085      0.0000    286.7432     29.7763
   645.0000     65.4413      0.0000    286.9388     29.4455
   645.2500     65.0453      0.0000    287.0050     29.4969
   645.5000     66.4292      0.0000    286.8946     30.1440
   645.7500     68.8187      0.0000    286.6895     31.2190
   646.0000     70.6800      0.0000    286.5148     32.4438
   646.2500     70.7864      0.0000    286.4341     33.7316
   646.5000     69.0678      0.0000    286.4201     35.1413
   646.7500     66.4811      0.0000    286.3976     36.6572
   647.0000     64.3155      0.0000    286.3213     38.0983
   647.2500     63.5365      0.0000    286.2240     39.1633
   647.5000     64.2946      0.0000    286.1786     39.6041
   647.7500     65.9266      0.0000    286.2137     39.4528
   648.0000     67.6748      0.0000    286.2783     38.9574
   648.2500     69.4400      0.0000    286.3062     38.3187
   648.5000     71.7878      0.0000    286.2834     37.7255
   648.7500     75.2801      0.0000    286.2283     37.3846
   649.0000     79.8998      0.0000    286.1526     37.2043
   649.2500     85.0472      0.0000    286.0695     36.7456
   649.5000     89.8165      0.0000    286.0058     35.7051
   649.7500     93.3101      0.0000    285.9849     34.2649
   650.0000     95.1646      0.0000    286.0065     32.8197
   650.2500     95.8848      0.0000    286.0343     31.5716
   650.5000     96.2471      0.0000    286.0179     30.5472
   650.7500     96.3592      0.0000    285.9637     29.6978
   651.0000     95.6093      0.0000    285.9371     28.8940
   651.2500     93.5661      0.0000    285.9446     28.1215
   651.5000     90.8498      0.0000    285.8879     27.6372
   651.7500     88.9608      0.0000    285.6945     27.6759
   652.0000     89.0103      0.0000    285.4384     28.1054
   652.2500     90.8078      0.0000    285.2730     28.5597
   652.5000     93.4741      0.0000    285.2667     28.7857
   652.7500     96.5714      0.0000    285.3646     28.7325
   653.0000    100.2125      0.0000    285.4892     28.4418
   653.2500    104.3938      0.0000    285.6143     27.9807
   653.5000    108.5884      0.0000    285.7697     27.3527
   653.7500    111.6329      0.0000    286.0121     26.4538
   654.0000    111.8174      0.0000    286.3542     25.2870
   654.2500    107.7403      0.0000    286.7197     24.0980
   654.5000     99.6434      0.0000    287.0085     23.1435
   654.7500     89.6528      0.0000    287.1937     22.4961
   655.0000     80.2545      0.0000    287.3134     22.1423
   655.2500     72.5014      0.0000    287.3968     22.0306
   655.5000     65.8045      0.0000    287.4500     22.0410
   655.7500     59.2596      0.0000    287.4885     22.1384
   656.0000     52.7453      0.0000    287.7906     22.4207
   656.2500     46.7650      0.0000    290.4344     22.8407
   656.5000     41.7928      0.0000    303.3390     23.0801
   656.7500     38.1249      0.0000    341.3731     22.8643
   657.0000     36.0953      0.0000    408.3333     22.2770
   657.2500     36.0252      0.0000    469.7148     21.6794
   657.5000     37.9074      0.0000    474.3617     21.3945
   657.7500     41.2626      0.0000    418.7471     21.4737
   658.0000     45.2992      0.0000    350.9102     21.6888
   658.2500     49.1872      0.0000    308.6817     21.7540
   658.5000     52.3124      0.0000    292.5065     21.6254
   658.7500     54.4400      0.0000    288.5085     21.4951
   659.0000     55.7332      0.0000    288.2104     21.4977
   659.2500     56.5924      0.0000    290.2288     21.5578
   659.5000     57.3550      0.0000    297.3994     21.4923
   659.7500     58.0992      0.0000    312.8507     21.2305
   660.0000     58.7253      0.0000    332.6565     20.9470
   660.2500     59.1800      0.0000    345.5866     20.9203
   660.5000     59.4964      0.0000    350.1974     21.2313
   660.7500     59.6910      0.0000    362.7942     21.6818
   661.0000     59.9362      0.0000    388.1145     22.1094
   661.2500     60.8650      0.0000    398.1931     22.6344
   661.5000     63.2934      0.0000    371.8083     23.3979
   661.7500     67.3766      0.0000    329.6893     24.2673
   662.0000     72.2562      0.0000    301.1837     25.1246
   662.2500     76.7343      0.0000    290.9497     26.2115
   662.5000     80.2399      0.0000    292.2883     27.7539
   662.7500     83.0723      0.0000    305.7770     29.1746
   663.0000     85.7962      0.0000    337.5035     29.1857
   663.2500     88.4394      0.0000    384.3701     27.3687
   663.5000     90.1647      0.0000    426.2969     24.9642
   663.7500     89.7881      0.0000    441.6490     23.2623
   664.0000     86.8804      0.0000    432.0021     22.4770
   664.2500     82.4178      0.0000    426.4634     22.3270
   664.5000     78.1986      0.0000    448.1140     22.3682
   664.7500     75.6869     -2.0000    473.7674     22.2275
   665.0000     75.4363     -2.0000    460.6727     21.9904
   665.2500     77.2394      0.0000    410.2833     21.8799
   665.5000     80.3623      0.0000    361.1962     21.7569
   665.7500     83.6858      0.0000    337.0624     21.3125
   666.0000     86.2902      0.0000    333.4976     20.7276
   666.2500     88.4408      0.0000    339.3396     20.7407
   666.5000     91.7022      0.0000    354.8380     21.5696
   666.7500     97.3942      0.0000    379.6000     22.5296
   667.0000    104.7911      0.0000    390.3627     23.1019
   667.2500    111.0772      0.0000    367.1308     23.3404
   667.5000    113.0688      0.0000    327.8242     23.4058
   667.7500    109.0885      0.0000    300.5871     23.2707
   668.0000     99.8431      0.0000    290.4420     22.7668
   668.2500     88.0995      0.0000    289.5924     21.8632
   668.5000     77.4048      0.0000    293.7680     20.7760
   668.7500     70.5424      0.0000    302.1344     19.8104
   669.0000     68.5547      0.0000    311.5078     19.2299
   669.2500     70.7073      0.0000    315.8094     19.1813
   669.5000     75.2337      0.0000    311.6801     19.6292
   669.7500     80.3385      0.0000    302.2344     20.3689
   670.0000     84.7431      0.0000    293.6093     21.1014
   670.2500     87.5406      0.0000    288.9811     21.5342
   670.5000     88.1151      0.0000    287.7448     21.5012
   670.7500     86.7581      0.0000    289.0008     21.0448
   671.0000     85.1492      0.0000    293.6076     20.3523
   671.2500     85.4456      0.0000    302.5866     19.6221
