~Version Information
VERS.                      2.0: CWLS Log ASCII Standard - VERSION 2.0
WRAP.                       NO: One line per depth step
~Well Information Block
STRT.FT                 0.5000: 
STOP.FT              2744.2500: 
STEP.FT                 0.2500: 
NULL.                -999.2500: 
COMP.          Petrogulf Corporation: COMPANY
WELL.              Silva 1-43V: WELL
FLD.           Purgatoire River: FIELD
LOC.           2010' FSL & 614' FEL--: LOCATION
PROV.                 Colorado: PROVINCE
CNTY.               Las Animas: COUNTRY
SRVC.                Patterson: SERVICE COMPANY
DATE.          Mon Sep 12 10:37:12 2005: LOG DATE
UWI.           05 071 08371 00: UNIQUE WELL ID
~Curve Information Block
DEPT.FT            0 000 00 00: Depth
CCL.                          : Casing Collar Locator
TT3.usec                      : CBL 3' Travel Time
AMP3.mV                       : CBL 3' Amplitude
GR.GAPI                       : Gamma Ray
~Parameter Information Block
~A  Depth       CCL         TT3         AMP3         GR     
# ...
   536.5000      0.0000    745.9909      7.0928    169.2059
   536.7500      0.0000    741.5650      7.0655    163.9570
   537.0000      0.0000    735.9438      7.0303    159.1835
   537.2500      0.0000    729.1354      7.0077    155.0124
   537.5000      0.0000    722.4550      7.0174    151.8571
   537.7500      0.0000    717.6096      7.0571    150.6497
   538.0000      0.0000    715.6418      7.0990    152.0437
   538.2500      0.0000    716.8850      7.1126    155.6764
   538.5000      0.0000    721.1999      7.0912    160.2395
   538.7500      0.0000    727.5546      7.0528    163.9872
   539.0000      0.0000    733.7885      7.0206    165.6761
   539.2500      0.0000    737.9833      7.0020    165.4881
   539.5000      0.0000    740.6525      6.9889    164.5327
   539.7500      0.0000    744.8951      6.9720    163.1943
   540.0000      0.0000    753.5479      6.9515    160.4651
   540.2500      0.0000    766.3076      6.9304    155.0047
   540.5000      0.0000    779.9601      6.9035    146.7536
   540.7500      0.0000    790.9681      6.8569    137.5369
   541.0000      0.0000    797.3752      6.7817    129.9426
   541.2500      0.0000    798.6260      6.6837    125.4568
   541.5000      0.0000    794.5049      6.5809    123.9342
   541.7500      0.0000    784.9013      6.4925    124.6258
   542.0000      0.0000    770.6089      6.4274    126.6766
   542.2500      0.0000    753.8624      6.3792    128.6629
   542.5000      0.0000    737.6798      6.3336    129.0272
   542.7500      0.0000    724.5341      6.2823    127.4575
   543.0000      0.0000    715.4901      6.2307    125.1622
   543.2500      0.0000    710.1981      6.1904    123.6459
   543.5000      0.0000    707.4877      6.1699    123.4026
   543.7500      0.0000    706.1122      6.1728    123.6039
   544.0000      0.0000    705.2432      6.2048    123.0018
   544.2500      0.0000    704.5513      6.2744    121.3386
   544.5000      0.0000    704.0123      6.3869    119.7727
   544.7500      0.0000    703.6718      6.5358    119.8230
   545.0000      0.0000    703.5032      6.7047    122.1760
   545.2500      0.0000    703.3854      6.8732    126.4866
   545.5000      0.0000    703.1931      7.0238    131.8132
   545.7500      0.0000    702.9143      7.1463    137.1605
   546.0000      0.0000    702.6682      7.2395    142.1317
   546.2500      0.0000    702.6735      7.3083    147.0838
   546.5000      0.0000    703.2625      7.3605    152.1389
   546.7500      0.0000    704.9917      7.4086    156.2564
   547.0000      0.0000    708.3745      7.4702    157.9736
   547.2500      0.0000    712.9409      7.5568    156.9207
   547.5000      0.0000    716.6042      7.6593    153.9215
   547.7500      0.0000    716.8452      7.7571    149.9145
   548.0000      0.0000    713.0618      7.8542    145.6423
   548.2500      0.0000    707.3766      7.9877    142.2216
   548.5000      0.0000    703.3271      8.1667    140.9376
   548.7500      0.0000    704.1518      8.3182    142.0301
   549.0000      0.0000    711.2078      8.3452    144.0032
   549.2500      0.0000    722.6998      8.2334    144.5822
   549.5000      2.0000    734.4573      8.0584    142.7342
   549.7500      0.0000    742.6799      7.9007    139.7383
   550.0000     -2.0000    745.4073      7.7964    137.9136
   550.2500      0.0000    741.6781      7.7547    138.4074
   550.5000      0.0000    731.3578      7.7865    140.5210
   550.7500      0.0000    716.7775      7.9068    142.6787
   551.0000      0.0000    702.9833      8.1125    143.3496
   551.2500      0.0000    694.7713      8.3556    141.4913
   551.5000      0.0000    693.1979      8.5583    137.0495
   551.7500      0.0000    695.6191      8.6848    131.2013
   552.0000      0.0000    699.2872      8.7764    125.8375
   552.2500      0.0000    703.7114      8.8929    122.5653
   552.5000      0.0000    708.8087      9.0440    121.8624
   552.7500      0.0000    712.3846      9.1971    122.9719
   553.0000      0.0000    711.5585      9.3254    124.6595
   553.2500      0.0000    706.4390      9.4290    126.1742
   553.5000      0.0000    700.6599      9.5251    127.6482
   553.7500      0.0000    697.7263      9.6279    129.7026
   554.0000      0.0000    697.6205      9.7382    132.5976
   554.2500      0.0000    697.4378      9.8455    135.6377
   554.5000      0.0000    694.8593      9.9417    137.3733
   554.7500      0.0000    690.3157     10.0302    136.4951
   555.0000      0.0000    685.9420     10.1228    132.8482
   555.2500      0.0000    683.5146     10.2298    127.8941
   555.5000      0.0000    683.9005     10.3496    123.8786
   555.7500      0.0000    687.6301     10.4686    122.1310
   556.0000      0.0000    694.6818     10.5727    122.4339
   556.2500      0.0000    703.2239     10.6594    124.1644
   556.5000      0.0000    709.4085     10.7356    127.1940
   556.7500      0.0000    709.7855     10.8061    131.1607
   557.0000      0.0000    704.3574     10.8694    134.5196
   557.2500      0.0000    696.7224     10.9257    135.0532
   557.5000      0.0000    691.2402     10.9845    131.5706
   557.7500      0.0000    690.5150     11.0578    125.1439
   558.0000      0.0000    694.8672     11.1457    118.5112
   558.2500      0.0000    702.8096     11.2343    113.9521
   558.5000      0.0000    711.8808     11.3101    111.7084
   558.7500      0.0000    719.8024     11.3689    110.6496
   559.0000      0.0000    724.9822     11.4068    110.1327
   559.2500      0.0000    726.0318     11.4137    110.7273
   559.5000      0.0000    721.9938     11.3845    113.4062
   559.7500      0.0000    713.7570     11.3325    118.7512
   560.0000      0.0000    704.2618     11.2803    126.7725
   560.2500      0.0000    696.3610     11.2403    136.6848
   560.5000      0.0000    690.8538     11.2094    146.5990
   560.7500      0.0000    686.9674     11.1806    153.9317
   561.0000      0.0000    684.0919     11.1518    156.6903
   561.2500      0.0000    682.4806     11.1247    154.6293
   561.5000      0.0000    682.8491     11.1020    149.3471
   561.7500      0.0000    685.8954     11.0860    143.3910
   562.0000      0.0000    691.9178     11.0751    139.0833
   562.2500      0.0000    700.2788     11.0604    137.7642
   562.5000      0.0000    709.3197     11.0280    139.8211
   562.7500      0.0000    717.1102     10.9653    145.1163
   563.0000      0.0000    722.2613     10.8660    153.0282
   563.2500      0.0000    724.0819     10.7327    162.1795
   563.5000      0.0000    722.4763     10.5768    170.5900
   563.7500      0.0000    717.9653     10.4140    176.3847
   564.0000      0.0000    711.7913     10.2585    178.3815
   564.2500      0.0000    705.9120     10.1180    176.1415
   564.5000      0.0000    702.2908      9.9905    169.8455
   564.7500      0.0000    701.5218      9.8656    160.4424
   565.0000      0.0000    702.4005      9.7294    149.7691
   565.2500      0.0000    703.2383      9.5744    140.0966
   565.5000      0.0000    703.1530      9.4047    133.2928
   565.7500      0.0000    702.1503      9.2317    130.1548
   566.0000      0.0000    701.0176      9.0686    130.1286
   566.2500      0.0000    700.9419      8.9270    131.5397
   566.5000      0.0000    701.9564      8.8155    132.6676
   566.7500      0.0000    701.8893      8.7391    133.2112
   567.0000      0.0000    697.9797      8.6991    134.4501
   567.2500      0.0000    689.4072      8.6929    137.6184
   567.5000      0.0000    677.7455      8.7149    142.4596
   567.7500      0.0000    665.7520      8.7590    147.5159
   568.0000      0.0000    656.4938      8.8175    151.1919
   568.2500      0.0000    652.6588      8.8770    152.3189
   568.5000      0.0000    655.2719      8.9202    150.4817
   568.7500      0.0000    663.0018      8.9359    146.3239
   569.0000      0.0000    673.1675      8.9272    141.3338
   569.2500      0.0000    683.2498      8.9085    137.1380
   569.5000      0.0000    691.3260      8.8944    134.8898
   569.7500      0.0000    696.2573      8.8907    135.0215
