~Version Information
 VERS.                                  2.0 : CWLS LAS VERSION
 WRAP.                                   NO : WRAPING MODE
 SWARE .                 MController 2.5.0J : SOFTWARE VERSION
~Well Information
 WELL.                          Quack 22-24 : WELL
 COMP.    PIONEER NATURAL RESOURCES USA INC : COMPANY
 FLD.                      PURGATOIRE RIVER : FIELD
 LOC.                 SE/NW Sec 24 32S  67W : LOCATION
 DATE.                                  N/A : DATE(S) LOGGED
 SRVC.       Blanco Geological Services LLC : SERVICE COMPANY
 STAT.                                   CO : STATE
 CNTY.                           LAS ANIMAS : COUNTY
 CTRY.                                  USA : COUNTRY
 API.                       05-071-08402-00 : API NUMBER
 STRT.FT                             201.00 : START DEPTH
 STOP.FT                            2610.00 : STOP DEPTH
 STEP.FT                               1.00 : DEPTH INCREMENT
 NULL.                                -9999 : NULL VALUE
~Curve information
 DEPTH.FT                                   :
 ROP.MIN/FT                                 :
 GAS.UNITS                                  :
~ASCII Log data
# ...
      2201.0         0.47        961.4 
      2202.0         0.30        959.0 
      2203.0         0.30        955.0 
      2204.0         0.32        949.6 
      2205.0         0.30        947.6 
      2206.0         0.33        949.2 
      2207.0         0.30        950.6 
      2208.0         0.27        950.3 
      2209.0         0.30        949.9 
      2210.0         0.33        944.5 
      2211.0         0.37        943.2 
      2212.0         0.43        929.7 
      2213.0         0.45        749.8 
      2214.0         0.43        603.2 
      2215.0         0.47        678.7 
      2216.0         2.75       1996.7 
      2217.0         0.73       1774.4 
      2218.0         0.57       1351.9 
      2219.0         0.47       1148.7 
      2220.0         0.43       1035.8 
      2221.0         0.37        961.4 
      2222.0         0.48        931.7 
      2223.0         0.43        937.1 
      2224.0         0.43        942.5 
      2225.0         0.60        939.8 
      2226.0         0.37        914.5 
      2227.0         0.57        893.3 
      2228.0         0.43        888.6 
      2229.0         0.43        892.0 
      2230.0         0.48        871.4 
      2231.0         0.47        852.6 
      2232.0         0.40        852.2 
      2233.0         0.20        850.2 
      2234.0         0.23        853.9 
      2235.0         0.37        852.9 
      2236.0         0.27        846.8 
      2237.0         0.30        854.2 
      2238.0         0.33        862.0 
      2239.0         0.33        857.3 
      2240.0         0.25        733.6 
      2241.0         0.20        606.6 
      2242.0         0.27        545.6 
      2243.0         0.27        531.8 
      2244.0         0.23        569.9 
      2245.0         0.27        652.1 
      2246.0         2.22       1769.0 
      2247.0         0.70       1736.3 
      2248.0         0.67       1425.0 
      2249.0         0.53       1112.7 
      2250.0         0.83        941.8 
      2251.0         0.62        854.2 
      2252.0         0.50        877.5 
      2253.0         0.43        880.2 
      2254.0         0.67        866.4 
      2255.0         0.50        829.6 
      2256.0         0.50        809.4 
      2257.0         0.48        790.9 
      2258.0         0.60        759.6 
      2259.0         0.60        710.4 
      2260.0         0.83        676.3 
      2261.0         0.47        700.9 
      2262.0         0.27        708.4 
      2263.0         0.20        708.4 
      2264.0         0.32        705.3 
      2265.0         0.33        693.2 
      2266.0         0.37        686.5 
      2267.0         0.37        685.4 
      2268.0         0.33        706.3 
      2269.0         0.33        726.9 
      2270.0         0.33        746.8 
      2271.0         0.33        753.8 
      2272.0         0.30        731.9 
      2273.0         0.40        618.4 
      2274.0         0.42        501.2 
      2275.0         0.47        553.7 
      2276.0         2.20       1566.1 
      2277.0         0.78       1553.7 
      2278.0         0.57       1232.6 
      2279.0         0.57       1024.0 
      2280.0         0.53        876.1 
      2281.0         0.43        790.9 
      2282.0         0.40        772.0 
      2283.0         0.43        804.0 
      2284.0         0.35        822.9 
      2285.0         0.33        829.6 
      2286.0         0.47        828.0 
      2287.0         0.43        809.8 
      2288.0         0.47        791.6 
      2289.0         0.57        771.4 
      2290.0         0.37        743.1 
      2291.0         0.55        722.2 
      2292.0         0.57        707.3 
      2293.0         0.60        693.2 
      2294.0         0.57        684.1 
      2295.0         0.53        671.3 
      2296.0         0.53        664.2 
      2297.0         0.55        671.0 
      2298.0         0.53        679.7 
      2299.0         0.53        685.8 
      2300.0         0.50        689.8 
      2301.0         0.50        689.5 
      2302.0         0.50        689.5 
      2303.0         0.47        590.1 
      2304.0         0.52        462.4 
      2305.0         0.50        534.8 
      2306.0         3.65       1948.5 
      2307.0         0.47       1049.3 
      2308.0         0.67        891.6 
      2309.0         0.50        746.8 
      2310.0         0.33        732.3 
      2311.0         0.35        742.0 
      2312.0         0.40        742.0 
      2313.0         0.77        742.4 
      2314.0         0.70        728.2 
      2315.0         0.97        696.6 
      2316.0         1.02        618.4 
      2317.0         0.70        579.7 
      2318.0         0.50        625.8 
      2319.0         0.33        632.2 
      2320.0         0.90        643.0 
      2321.0         0.78        635.6 
      2322.0         0.77        615.4 
      2323.0         1.07        626.1 
      2324.0         0.77        617.4 
      2325.0         0.55        658.2 
      2326.0         0.47        699.3 
      2327.0         0.40        701.6 
      2328.0         0.57        687.8 
      2329.0         0.60        643.3 
      2330.0         0.40        613.3 
      2331.0         0.30        579.7 
      2332.0         0.45        501.8 
      2333.0         0.27        440.0 
      2334.0         0.47         99.1 
      2335.0         0.40        137.2 
      2336.0         2.03       1570.5 
      2337.0         0.48       1536.5 
      2338.0         0.57       1418.9 
      2339.0         0.43       1193.8 
      2340.0         0.37       1041.2 
      2341.0         0.40        945.5 
      2342.0         0.40        860.0 
      2343.0         0.43        800.0 
      2344.0         0.48        788.9 
      2345.0         0.30        790.6 
      2346.0         0.23        784.2 
      2347.0         0.50        779.4 
      2348.0         0.60        757.5 
      2349.0         0.70        723.2 
      2350.0         0.83        679.7 
      2351.0         0.92        635.6 
      2352.0         1.17        632.2 
      2353.0         0.97        793.3 
      2354.0         0.85        740.4 
      2355.0         0.97        440.0 
      2356.0         1.20        255.8 
      2357.0         1.28        114.9 
      2358.0         1.03        151.2 
      2359.0         0.73        406.4 
      2360.0         1.08       1270.0 
      2361.0         0.90       1002.5 
      2362.0         1.03        440.0 
      2363.0         0.93        364.3 
      2364.0         0.37       1296.9 
      2365.0         0.55       1844.4 
      2366.0       525.80      10091.1 
      2367.0         0.93         44.2 
      2368.0         0.58         49.9 
      2369.0         0.50         62.7 
      2370.0         0.47         77.9 
      2371.0         7.77        105.7 
      2372.0         0.37         54.7 
      2373.0         0.50         85.9 
      2374.0         0.52        136.4 
      2375.0         0.47        136.4 
      2376.0         0.30         89.5 
      2377.0         0.23         50.8 
      2378.0         0.37         33.4 
      2379.0         0.50         21.0 
      2380.0         0.47         15.7 
      2381.0         0.37         11.9 
      2382.0         0.25         19.3 
      2383.0         0.20         29.3 
      2384.0         0.37         50.1 
      2385.0         0.33         74.5 
      2386.0         0.40         89.1 
      2387.0         0.33         89.0 
      2388.0         0.47         79.9 
      2389.0         0.47         60.6 
      2390.0         0.53         50.4 
      2391.0         0.58         53.4 
      2392.0         0.57         54.1 
      2393.0         0.57         46.2 
      2394.0         0.57         29.7 
      2395.0         0.43         21.7 
      2396.0         0.33         20.6 
      2397.0         0.20         19.3 
      2398.0         0.32         16.3 
      2399.0         0.33          6.7 
      2400.0         0.27          0.1 
