~Version Information
VERS.                      2.0: CWLS Log ASCII Standard - VERSION 2.0
WRAP.                       NO: One line per depth step
~Well Information Block
STRT.FT               954.4000: 
STOP.FT              2380.0000: 
STEP.FT                 0.1000: 
NULL.                -999.2500: 
COMP.          Petrogulf Corporation: COMPANY
WELL.             State 16-24V: WELL
FLD.           Purgatorie River: FIELD
LOC.           481' FSL & 2419' FWL: LOCATION
CNTY.               Las Animas: COUNTY
SRVC.                         : SERVICE COMPANY
DATE.          Tue May 04 07:31:25 2004: LOG DATE
UWI.           05 071 08014 00: UNIQUE WELL ID
STAT.                 Colorado: STATE
~Curve Information Block
DEPT.FT            0 000 00 00: Depth
DCAL.in                       : CDL Caliper
RHOB.g/cc                     : CDL Bulk Density
RHOC.g/cc                     : CDL Density Correction
DPOR.pu                       : CDL Density Porosity
GR.GAPI                       : Gamma Ray
~Parameter Information Block
~A  Depth       DCAL        RHOB        RHOC        DPOR         GR     
# ...
  1335.2000      7.9270      2.3935     -0.0272     15.5482    165.0223
  1335.3000      7.9147      2.3889      0.0339     15.8262    173.3362
  1335.4000      7.9147      2.4085      0.0042     14.6391    174.7047
  1335.5000      7.9090      2.4472      0.0487     12.2915    167.8383
  1335.6000      7.9090      2.4842      0.0167     10.0481    158.8881
  1335.7000      7.9090      2.4932      0.0639      9.5009    156.5019
  1335.8000      7.9096      2.4761      0.0762     10.5401    160.8755
  1335.9000      7.9096      2.4586      0.0392     11.6009    162.2098
  1336.0000      7.9168      2.4512     -0.0029     12.0457    162.6537
  1336.1000      7.9168      2.4498      0.0258     12.1310    167.0866
  1336.2000      7.9168      2.4543      0.0212     11.8624    168.2553
  1336.3000      7.9116      2.4776     -0.0056     10.4472    168.8351
  1336.4000      7.9116      2.5246      0.0312      7.5972    178.7614
  1336.5000      7.9011      2.5618      0.2012      5.3425    190.3087
  1336.6000      7.9011      2.5594      0.0306      5.4886    190.8139
  1336.7000      7.9011      2.5255      0.1066      7.5438    180.5580
  1336.8000      7.8989      2.4779     -0.0163     10.4294    170.2427
  1336.9000      7.8989      2.4392     -0.0471     12.7770    173.2018
  1337.0000      7.8941      2.4202      0.0323     13.9278    189.1158
  1337.1000      7.8941      2.4247      0.0049     13.6556    204.8445
  1337.2000      7.8941      2.4543      0.0598     11.8616    212.9624
  1337.3000      7.9014      2.4911      0.0538      9.6291    213.5797
  1337.4000      7.9014      2.5133      0.0630      8.2830    200.1052
  1337.5000      7.9039      2.5179      0.0314      8.0086    177.1211
  1337.6000      7.9039      2.5245      0.0425      7.6059    160.7305
  1337.7000      7.9039      2.5492      0.0272      6.1066    155.6744
  1337.8000      7.9000      2.5859      0.1439      3.8869    157.8499
  1337.9000      7.9000      2.6180      0.1006      1.9414    166.1277
  1338.0000      7.8987      2.6365      0.1656      0.8208    177.1081
  1338.1000      7.8987      2.6331      0.1584      1.0250    181.5745
  1338.2000      7.8987      2.6129      0.0811      2.2492    183.1641
  1338.3000      7.9062      2.5973      0.1066      3.1913    188.0071
  1338.4000      7.9062      2.5854      0.1081      3.9137    190.8643
  1338.5000      7.9009      2.5649      0.0732      5.1600    190.4154
  1338.6000      7.9009      2.5317      0.1061      7.1689    189.4844
  1338.7000      7.9009      2.4749      0.0965     10.6120    186.7757
  1338.8000      7.9129      2.4120     -0.0085     14.4237    183.5782
  1338.9000      7.9129      2.3893     -0.0237     15.8016    183.6889
  1339.0000      7.9384      2.4066      0.0522     14.7505    185.5134
  1339.1000      7.9384      2.4302      0.0658     13.3214    184.4556
  1339.2000      7.9384      2.4477      0.1070     12.2595    178.3330
  1339.3000      7.9439      2.4525      0.1390     11.9722    167.9522
  1339.4000      7.9439      2.4322      0.0267     13.1990    153.2771
  1339.5000      7.9338      2.3911      0.0884     15.6880    140.5106
  1339.6000      7.9338      2.3694     -0.1719     17.0045    143.0670
  1339.7000      7.9338      2.4010      0.0082     15.0909    160.9313
  1339.8000      7.9439      2.4511      0.0798     12.0531    169.4353
  1339.9000      7.9439      2.4814      0.0009     10.2175    156.6973
  1340.0000      7.9080      2.5090     -0.0436      8.5459    139.9176
  1340.1000      7.9080      2.5546      0.0476      5.7829    134.1845
  1340.2000      7.9080      2.6025      0.0910      2.8799    138.7953
  1340.3000      7.8909      2.6173      0.1173      1.9819    146.0718
  1340.4000      7.8909      2.5802      0.0936      4.2289    148.8585
  1340.5000      7.8927      2.5122      0.0790      8.3495    141.6714
  1340.6000      7.8927      2.4482      0.0240     12.2317    127.4721
  1340.7000      7.8927      2.4077     -0.0474     14.6876    117.8451
  1340.8000      7.8858      2.3949     -0.0155     15.4609    120.1713
  1340.9000      7.8858      2.4093     -0.0245     14.5899    130.4843
  1341.0000      7.9006      2.4554      0.0170     11.7943    144.1213
  1341.1000      7.9006      2.5250      0.0188      7.5761    160.8123
  1341.2000      7.9006      2.5785      0.1464      4.3358    170.0722
  1341.3000      7.8989      2.5811      0.0788      4.1759    162.2331
  1341.4000      7.8989      2.5601      0.0582      5.4479    147.0739
  1341.5000      7.9036      2.5578      0.1723      5.5885    137.4462
  1341.6000      7.9036      2.5609      0.1858      5.4023    133.5790
  1341.7000      7.9036      2.5474      0.1313      6.2193    129.1720
  1341.8000      7.8838      2.5417      0.0905      6.5653    123.6105
  1341.9000      7.8838      2.5735      0.1634      4.6349    118.4639
  1342.0000      7.8658      2.6278      0.1425      1.3427    112.6590
  1342.1000      7.8658      2.6635      0.2039     -0.8209    106.3548
  1342.2000      7.8658      2.6542      0.1487     -0.2524     99.8829
  1342.3000      7.8660      2.6116      0.1082      2.3244     97.8214
  1342.4000      7.8660      2.5788      0.0002      4.3121    102.7974
  1342.5000      7.8694      2.5785      0.0830      4.3347    107.4331
  1342.6000      7.8694      2.5825      0.1264      4.0879    108.1774
  1342.7000      7.8694      2.5614      0.1464      5.3687    113.9934
  1342.8000      7.8695      2.5275      0.0563      7.4251    127.5769
  1342.9000      7.8695      2.5062      0.0582      8.7123    140.4832
  1343.0000      7.8608      2.4954      0.1031      9.3726    145.3252
  1343.1000      7.8608      2.4756      0.0180     10.5696    137.2487
  1343.2000      7.8608      2.4354      0.0759     13.0067    121.8687
  1343.3000      7.8583      2.3921     -0.0884     15.6313    114.7991
  1343.4000      7.8583      2.3934     -0.0827     15.5531    117.0059
  1343.5000      7.8479      2.4524      0.0219     11.9770    119.5529
  1343.6000      7.8479      2.5246      0.1515      7.6019    125.6625
  1343.7000      7.8479      2.5627      0.1242      5.2893    131.9283
  1343.8000      7.8408      2.5548      0.2244      5.7682    128.2673
  1343.9000      7.8408      2.5256      0.1284      7.5385    120.0489
  1344.0000      7.8241      2.5226      0.1177      7.7238    115.9583
  1344.1000      7.8241      2.5644      0.1339      5.1901    117.8275
  1344.2000      7.8241      2.6136      0.2107      2.2087    120.5205
  1344.3000      7.7990      2.6183      0.2028      1.9232    116.4184
  1344.4000      7.7990      2.5823      0.0706      4.1056    108.6736
  1344.5000      7.8102      2.5435      0.1237      6.4523    107.2178
  1344.6000      7.8102      2.5215      0.0115      7.7874    108.4096
  1344.7000      7.8102      2.5288      0.0351      7.3430    104.9781
  1344.8000      7.8526      2.5487      0.1132      6.1398    105.0183
  1344.9000      7.8526      2.5495      0.0078      6.0895    110.9141
  1345.0000      7.8472      2.5436      0.0677      6.4491    114.8726
  1345.1000      7.8472      2.5594      0.0854      5.4895    115.4377
  1345.2000      7.8472      2.5938      0.1005      3.4047    112.1746
  1345.3000      7.8285      2.6194      0.0754      1.8549    103.0772
  1345.4000      7.8285      2.6209      0.0693      1.7666     93.0512
  1345.5000      7.8235      2.6029      0.0390      2.8575     89.3790
  1345.6000      7.8235      2.5865     -0.0567      3.8510     93.1266
  1345.7000      7.8235      2.5927      0.0516      3.4755     99.4650
  1345.8000      7.8464      2.6174      0.0482      1.9755    104.4609
  1345.9000      7.8464      2.6452      0.1130      0.2911    110.2107
  1346.0000      7.8508      2.6605      0.0839     -0.6360    120.6794
  1346.1000      7.8508      2.6636     -0.0006     -0.8215    135.5987
  1346.2000      7.8508      2.6735      0.0901     -1.4266    143.2495
  1346.3000      7.8664      2.6877      0.0821     -2.2820    138.9367
