~Version Information
VERS.                      2.0: CWLS Log ASCII Standard - VERSION 2.0
WRAP.                       NO: One line per depth step
~Well Information Block
STRT.FT               240.0000: 
STOP.FT              1453.0000: 
STEP.FT                 0.2500: 
NULL.                -999.2500: 
COMP.          Petrogulf Corporation: COMPANY
WELL.          Robinson 15-12R: WELL
FLD.           Purgatorie River: FIELD
LOC.           1752' FNL & 561' FWL: LOCATION
PROV.                 Colorado: PROVINCE
CNTY.               Las Animas: COUNTRY
SRVC.                Patterson: SERVICE COMPANY
DATE.          Tue Sep 13 15:11:42 2005: LOG DATE
UWI.                          : UNIQUE WELL ID
~Curve Information Block
DEPT.FT            0 000 00 00: Depth
SP.mV                         : DIL Spontaneous Potential
RILD.Ohm-m                    : DIL Deep Resistivity
RILM.Ohm-m                    : DIL Medium Resistivity
RLL3.Ohm-m                    : DIL Shallow Resistivity
GR.GAPI                       : Gamma Ray
~Parameter Information Block
~A  Depth        SP         RILD        RILM        RLL3         GR     
# ...
   464.0000    130.8004     15.3211     16.1369     16.2761    125.2849
   464.2500    130.7063     15.6224     16.5240     15.9830    160.5992
   464.5000    130.4855     16.4704     17.6379     17.8658    118.9569
   464.7500    129.8743     16.5886     18.5370     20.2660    116.6003
   465.0000    129.6729     17.3092     19.8132     19.9962    111.6208
   465.2500    129.6489     17.4667     20.8341     24.9669    112.5510
   465.5000    129.6313     16.5866     22.1837     30.8449     91.4313
   465.7500    129.5197     17.5156     21.6974     32.8386    104.3347
   466.0000    129.5862     17.4933     21.6536     38.2636    109.9569
   466.2500    129.6257     17.9262     21.5149     42.7649    120.7480
   466.5000    129.6423     18.2056     21.4621     24.8754    134.1486
   466.7500    129.7457     18.2543     21.1844     22.7986    133.2298
   467.0000    129.8305     18.6496     21.8090     22.4529    124.9655
   467.2500    129.8735     19.0705     23.0295     21.3934    129.6734
   467.5000    130.1858     19.0729     21.7554     22.1482    139.6717
   467.7500    130.7569     19.1445     21.6778     21.7147    136.8632
   468.0000    131.1921     19.6232     22.3917     18.9947    149.5282
   468.2500    131.7655     18.7501     21.6913     19.6676    142.0784
   468.5000    132.2342     18.2145     21.8856     21.7131    122.2722
   468.7500    132.5662     18.2453     20.9069     24.1158    117.2838
   469.0000    132.7352     18.7000     20.8923     25.0307    112.3669
   469.2500    132.8951     19.2247     22.7186     23.9464    117.4658
   469.5000    133.0334     19.0525     21.8118     30.1621    116.4317
   469.7500    133.1358     18.7256     21.9397     23.0319    112.9347
   470.0000    133.0984     19.0481     21.3907     19.0455    117.9084
   470.2500    133.0413     18.7378     21.2776     21.7148    107.6749
   470.5000    133.0370     18.8443     22.2506     25.4246    103.2708
   470.7500    133.1276     18.9938     23.0389     27.8314    102.0306
   471.0000    133.2999     18.8901     22.5156     28.9584    105.3374
   471.2500    133.4807     18.3920     22.0803     27.3786    112.7407
   471.5000    133.7194     18.3577     21.9591     28.7947    112.0880
   471.7500    134.0733     18.8948     20.8410     37.9202    134.5929
   472.0000    134.4103     19.0263     21.1818     27.1434    129.0355
   472.2500    134.8295     19.4413     21.2098     20.2779    127.8542
   472.5000    135.3389     19.6987     21.3326     18.3897    116.7119
   472.7500    135.9612     19.7853     21.2946     18.4957    107.2546
   473.0000    136.5546     20.2728     21.4633     20.6848     99.9153
   473.2500    137.0185     20.5013     21.5971     22.3619    108.5781
   473.5000    137.3226     20.1295     22.5618     22.3811    113.3021
   473.7500    137.4675     21.4042     23.3936     28.7154     91.2736
   474.0000    137.4170     20.9276     24.5134     30.2606    109.8319
   474.2500    137.4385     21.2261     24.6134     26.3097    113.4130
   474.5000    137.4171     20.7433     25.4872     28.2440    115.4471
   474.7500    137.4989     20.5385     25.7925     28.9996    108.1971
   475.0000    137.6186     20.8226     26.0223     29.4181    102.6845
   475.2500    137.6467     21.0324     26.0100     30.3376    123.7190
   475.5000    137.6444     21.1363     25.6860     26.8021    105.9577
   475.7500    137.6631     20.9765     25.7284     25.0164    116.4106
   476.0000    137.6652     20.8453     24.5620     28.9881    107.7874
   476.2500    137.7417     21.1380     25.0254     38.6357    102.4985
   476.5000    137.5985     20.7525     24.8344     29.5503    123.2190
   476.7500    137.6605     20.5532     24.1893     22.0760    125.5649
   477.0000    137.8396     20.8553     23.2762     21.1185    116.0878
   477.2500    138.0800     21.3851     23.4937     20.6348    126.8310
   477.5000    138.3555     21.0056     22.3629     19.8749    119.8095
   477.7500    138.8321     20.6344     22.5758     20.6414    111.3160
   478.0000    139.2851     20.2681     22.2027     20.8469    112.6106
   478.2500    139.7501     20.4337     22.8866     20.8152    111.6365
   478.5000    140.0345     19.8941     22.9628     21.4966    129.4061
   478.7500    140.1919     19.5660     22.7503     21.5529    131.2207
   479.0000    140.3255     20.0530     23.1323     22.5246    108.2953
   479.2500    140.5349     19.8456     22.5390     24.7063     81.6982
   479.5000    140.7042     19.3031     22.5651     27.6390    118.8019
   479.7500    140.9030     18.7219     22.5246     28.3279    138.1336
   480.0000    141.0577     19.0035     21.3776     24.5168    123.7227
   480.2500    141.1483     19.0130     20.5718     19.6415    128.4707
   480.5000    141.1734     18.7601     20.9019     17.5171    114.9745
   480.7500    141.1767     18.2974     19.8741     17.2553    111.5491
   481.0000    141.1325     18.0408     18.5412     17.0294    113.0328
   481.2500    141.1035     17.7264     18.0155     16.0501    120.2616
   481.5000    141.0329     17.0123     17.8416     14.9007    134.7920
   481.7500    141.0041     16.5606     17.2925     14.5675    131.7059
   482.0000    141.0757     16.5310     16.6702     14.7453    132.7932
   482.2500    141.1764     16.0709     16.4289     15.2182    148.4166
   482.5000    141.3120     15.8266     16.1116     15.1587    144.0059
   482.7500    141.5756     15.4631     15.1762     14.9630    120.7064
   483.0000    141.7649     15.4618     15.2370     14.3354    130.3745
   483.2500    141.8231     15.3857     15.0531     13.8441    129.2256
   483.5000    141.7197     15.1420     14.9564     14.6803    118.0235
   483.7500    141.5534     14.9919     14.4925     14.7232    121.6637
   484.0000    141.2839     14.8585     14.5906     13.7491    148.9370
   484.2500    141.0597     14.6356     14.6119     14.7708    139.2836
   484.5000    140.7994     13.9261     14.6400     16.6655    123.2725
   484.7500    140.4763     13.6486     14.5721     18.9017    117.8348
   485.0000    140.1880     13.3622     14.5827     18.3078    124.0280
   485.2500    139.8540     12.5940     14.5073     16.5161    128.9874
   485.5000    139.4725     11.6043     14.1805     16.1647    125.8401
   485.7500    138.8947     10.0703     13.7914     13.9678    160.7654
   486.0000    138.3023      8.3324     13.8552     13.5150    145.8056
   486.2500    137.8178      6.5843     14.0346     13.6944    136.2690
   486.5000    137.5395      5.0851     14.2813     13.9572    126.7673
   486.7500    137.5873      4.3761     14.3520     14.4089    131.3596
   487.0000    137.9735      4.6888     14.4520     14.4509    157.0594
   487.2500    138.5825      6.8335     14.6634     14.5952    139.8268
   487.5000    139.4192     14.4675     14.7714     14.6997    137.1615
   487.7500    140.3482     94.6756     15.1124     15.1472    131.3999
   488.0000    141.1142 100000.0000     15.0749     15.7156    133.4195
   488.2500    141.6713 100000.0000     15.6703     15.1592    138.7332
   488.5000    142.0644 100000.0000     15.8068     15.7622    161.3977
   488.7500    142.2312 100000.0000     15.9066     18.9207    170.7180
   489.0000    142.1947 100000.0000     16.3918     21.4319    148.2956
   489.2500    142.0559 100000.0000     16.8915     16.8074    141.7181
   489.5000    141.5680 100000.0000     17.6191     15.7865    136.4844
   489.7500    140.8385     28.7770     18.3219     17.3578    130.4506
   490.0000    140.0905     31.1857     18.6974     19.5999    113.9314
   490.2500    139.2567 100000.0000     19.6479     19.8847    120.2979
   490.5000    138.4383 100000.0000     20.2804     19.5960    115.2694
   490.7500    137.5721 100000.0000     21.1671     18.8686    124.1429
   491.0000    136.7185 100000.0000     21.5738     17.8024    142.2694
   491.2500    135.7594 100000.0000     22.0672     16.9006    132.0276
   491.5000    134.8206 100000.0000     22.6906     15.8164    149.5432
   491.7500    133.8711 100000.0000     24.9294     15.6325    157.4274
