~Version Information
VERS.                      2.0: CWLS Log ASCII Standard - VERSION 2.0
WRAP.                       NO: One line per depth step
~Well Information Block
STRT.FT               640.0000: 
STOP.FT               927.0000: 
STEP.FT                 0.1000: 
NULL.                -999.2500: 
COMP.          Pioneer Natural Resources: COMPANY
WELL.          Claim Jumper 41-22: WELL
FLD.           Purgatoire River: FIELD
LOC.           1120' FNL & 977' FEL: LOCATION
PROV.                 Colorado: PROVINCE
CNTY.               Las Animas: COUNTRY
SRVC.                Patterson: SERVICE COMPANY
DATE.          Thu Jun 23 08:35:14 2005: LOG DATE
UWI.           05-071-08405-00: UNIQUE WELL ID
~Curve Information Block
DEPT.FT            0 000 00 00: Depth
DCAL.in                       : CDL Caliper
RHOB.g/cc                     : CDL Bulk Density
RHOC.g/cc                     : CDL Density Correction
DPOR.pu                       : CDL Density Porosity
GR.GAPI                       : Gamma Ray
NPOR.pu                       : Neutron Porosity
~Parameter Information Block
~A  Depth       DCAL        RHOB        RHOC        DPOR         GR         NPOR    
# ...
   841.6000      7.9289      2.4350      0.0863     13.0277    106.6203     20.7406
   841.7000      7.9289      2.4568      0.1063     11.7114    107.4361     20.6669
   841.8000      7.9245      2.4759      0.0886     10.5518    107.2310     20.4829
   841.9000      7.9245      2.4866      0.0669      9.9049    101.3761     20.0104
   842.0000      7.9203      2.4966      0.1057      9.2946     94.3382     19.7810
   842.1000      7.9203      2.5047      0.1271      8.8066     93.8825     19.9924
   842.2000      7.9203      2.5057      0.1251      8.7477    103.7004     20.2048
   842.3000      7.9131      2.4963      0.1230      9.3160    114.7570     20.1251
   842.4000      7.9131      2.4767      0.1053     10.5022    118.0984     19.7670
   842.5000      7.9026      2.4612      0.0868     11.4442    116.6261     19.6191
   842.6000      7.9026      2.4644      0.1089     11.2504    114.9596     20.1031
   842.7000      7.9026      2.4797      0.1102     10.3241    113.9918     20.8276
   842.8000      7.8947      2.4900      0.1156      9.6946    112.4915     21.1782
   842.9000      7.8947      2.4880      0.1327      9.8162    110.9236     21.0366
   843.0000      7.8916      2.4761      0.0962     10.5367    109.1442     20.7577
   843.1000      7.8916      2.4631      0.0281     11.3265    105.8531     20.6602
   843.2000      7.8916      2.4544      0.0858     11.8521    101.2823     20.8777
   843.3000      7.8917      2.4483      0.0578     12.2266     95.5280     21.5006
   843.4000      7.8917      2.4460      0.0973     12.3615     92.2349     22.3090
   843.5000      7.8932      2.4444      0.1184     12.4608     94.9808     22.7102
   843.6000      7.8932      2.4418      0.0444     12.6200    100.1750     22.3789
   843.7000      7.8932      2.4405      0.0653     12.6957    102.9630     21.6605
   843.8000      7.8953      2.4313      0.0528     13.2531    104.5371     20.9578
   843.9000      7.8953      2.4113      0.0498     14.4692    109.5877     20.5393
   844.0000      7.8940      2.3982     -0.0027     15.2579    118.8994     20.5271
   844.1000      7.8940      2.4046      0.0547     14.8751    124.4587     20.6583
   844.2000      7.8940      2.4178      0.0866     14.0746    117.9463     20.5623
   844.3000      7.8866      2.4265      0.0669     13.5465    104.6866     20.3902
   844.4000      7.8866      2.4288      0.0981     13.4060     97.9598     20.6134
   844.5000      7.8823      2.4238      0.0400     13.7087    102.5393     21.0268
   844.6000      7.8823      2.4198      0.0132     13.9520    112.5280     21.0961
   844.7000      7.8823      2.4219      0.0331     13.8234    116.5505     20.9288
   844.8000      7.8897      2.4244      0.0470     13.6707    110.2136     21.0427
   844.9000      7.8897      2.4311      0.0634     13.2669    103.4905     21.6176
   845.0000      7.8961      2.4543      0.0615     11.8613    103.1083     22.0603
   845.1000      7.8961      2.4887      0.1270      9.7767    102.3936     21.6851
   845.2000      7.8961      2.5099      0.1461      8.4933    101.0293     20.6255
   845.3000      7.8903      2.5073      0.1472      8.6509    103.7842     19.7064
   845.4000      7.8903      2.4913      0.1494      9.6202    108.4959     19.5956
   845.5000      7.8828      2.4743      0.1185     10.6493    109.4556     20.1245
   845.6000      7.8828      2.4614      0.1083     11.4306    106.3571     20.6071
   845.7000      7.8828      2.4490      0.0724     12.1810    102.9056     20.6670
   845.8000      7.8841      2.4392      0.0708     12.7756    100.4289     20.4727
   845.9000      7.8841      2.4396      0.0766     12.7539     99.5576     20.3721
   846.0000      7.8866      2.4527      0.0951     11.9562     97.8493     20.5609
   846.1000      7.8866      2.4757      0.1113     10.5632     93.5629     21.1005
   846.2000      7.8866      2.4984      0.1369      9.1880     91.1586     21.7361
   846.3000      7.8787      2.5094      0.1567      8.5242     92.3065     22.0202
   846.4000      7.8787      2.5107      0.1347      8.4453     94.1655     21.9529
   846.5000      7.8622      2.5134      0.1463      8.2759     96.0719     21.8518
   846.6000      7.8622      2.5309      0.1373      7.2197     97.2853     21.9885
   846.7000      7.8622      2.5794      0.1339      4.2795     96.5617     22.5169
   846.8000      7.8490      2.6501      0.2139     -0.0065     95.0674     23.1555
   846.9000      7.8490      2.7062      0.2238     -3.4059     93.5103     23.4747
   847.0000      7.8471      2.7293      0.2127     -4.8059     94.4094     23.5029
   847.1000      7.8471      2.7291      0.1649     -4.7959     98.8481     23.4071
   847.2000      7.8471      2.7179      0.1892     -4.1174    102.3703     23.2383
   847.3000      7.8540      2.7041      0.1610     -3.2811    103.3633     23.1074
   847.4000      7.8540      2.6933      0.1471     -2.6247    103.6672     23.1281
   847.5000      7.8650      2.6778      0.1146     -1.6839    101.9719     23.1620
   847.6000      7.8650      2.6450      0.0826      0.3007     97.9382     22.8873
   847.7000      7.8650      2.6071      0.0244      2.6019     95.1549     22.3507
   847.8000      7.8755      2.5912      0.0297      3.5632     94.6073     21.8469
   847.9000      7.8755      2.5946      0.0681      3.3584     94.9647     21.2880
   848.0000      7.8801      2.5959      0.0556      3.2800     97.9178     20.5714
   848.1000      7.8801      2.5908      0.0764      3.5871    102.0796     20.0233
   848.2000      7.8801      2.5738      0.0842      4.6175    101.7685     19.9905
   848.3000      7.8782      2.5385      0.0480      6.7586     94.8314     20.1453
   848.4000      7.8782      2.5004     -0.0409      9.0637     88.7755     19.8419
   848.5000      7.8789      2.4763     -0.0123     10.5280     92.4423     19.3301
   848.6000      7.8789      2.4626      0.0006     11.3582    101.4415     19.1893
   848.7000      7.8789      2.4579     -0.0053     11.6435    106.5113     19.2752
   848.8000      7.8849      2.4658      0.0366     11.1651    105.4136     19.3050
   848.9000      7.8849      2.4770      0.0726     10.4872    104.0113     19.3199
   849.0000      7.8885      2.4826      0.0764     10.1457    107.5247     19.2749
   849.1000      7.8885      2.4818      0.1244     10.1964    113.1374     19.2192
   849.2000      7.8885      2.4778      0.1179     10.4337    114.8887     19.3898
   849.3000      7.8864      2.4807      0.1479     10.2582    112.3317     19.7352
   849.4000      7.8864      2.4887      0.1389      9.7751    108.8985     20.1550
   849.5000      7.8820      2.4826      0.1349     10.1446    105.3585     20.5246
   849.6000      7.8820      2.4613      0.1068     11.4365    101.9363     20.6520
   849.7000      7.8820      2.4499      0.0873     12.1259    101.7135     20.6929
   849.8000      7.8800      2.4641      0.1020     11.2682    104.4192     20.8734
   849.9000      7.8800      2.4963      0.1411      9.3140    103.5929     21.0086
   850.0000      7.8813      2.5265      0.1463      7.4860    100.0572     20.9139
   850.1000      7.8813      2.5380      0.1435      6.7907     99.8830     20.6920
   850.2000      7.8813      2.5338      0.1201      7.0422    102.9569     20.4499
   850.3000      7.8832      2.5257      0.1496      7.5309    106.4760     20.4212
   850.4000      7.8832      2.5173      0.1353      8.0430    107.7777     20.6500
   850.5000      7.8829      2.5072      0.1176      8.6544    106.9259     20.8544
   850.6000      7.8829      2.4978      0.0793      9.2248    107.2543     21.1283
   850.7000      7.8829      2.4932      0.0777      9.5032    108.8539     21.5472
   850.8000      7.8848      2.4928      0.0369      9.5277    109.3977     21.5856
   850.9000      7.8848      2.4912      0.0485      9.6220    111.1639     21.0272
   851.0000      7.8891      2.4817      0.0566     10.1999    117.5053     20.4384
   851.1000      7.8891      2.4565      0.0670     11.7254    122.7970     20.1719
