~Version Information
VERS.                      2.0: CWLS Log ASCII Standard - VERSION 2.0
WRAP.                       NO: One line per depth step
~Well Information Block
STRT.FT                -4.0000: 
STOP.FT              2464.0000: 
STEP.FT                 0.2500: 
NULL.                -999.2500: 
COMP.          Pioneer Natural Resources: COMPANY
WELL.            Rancher 12-35: WELL
FLD.           Purgatorie River: FIELD
LOC.           2131' FNL & 297' FWL--: LOCATION
PROV.                       CO: PROVINCE
CNTY.               Las Animas: COUNTRY
SRVC.                         : SERVICE COMPANY
DATE.          Wed Oct 20 13:17:53 2004: LOG DATE
UWI.                          : UNIQUE WELL ID
~Curve Information Block
DEPT.FT            0 000 00 00: Depth
GR.GAPI                       : Gamma Ray
CCL.                          : Casing Collar Locator
TT3.usec                      : CBL 3' Travel Time
AMP3.mV                       : CBL 3' Amplitude
~Parameter Information Block
~A  Depth        GR         CCL         TT3         AMP3    
    -4.0000   -999.2500   -999.2500   -999.2500   -999.2500
    -3.7500   -999.2500   -999.2500   -999.2500   -999.2500
    -3.5000   -999.2500   -999.2500   -999.2500   -999.2500
    -3.2500   -999.2500   -999.2500   -999.2500   -999.2500
    -3.0000   -999.2500   -999.2500   -999.2500   -999.2500
    -2.7500   -999.2500   -999.2500    921.0000      1.1111
    -2.5000   -999.2500   -999.2500    921.0000      1.0768
    -2.2500   -999.2500   -999.2500    921.0000      1.0209
    -2.0000   -999.2500   -999.2500    921.0000      0.9704
    -1.7500   -999.2500   -999.2500    921.0000      0.9459
    -1.5000   -999.2500   -999.2500    921.0000      0.9534
    -1.2500   -999.2500   -999.2500    921.0000      0.9867
    -1.0000   -999.2500   -999.2500    921.0000      1.0325
    -0.7500   -999.2500   -999.2500    921.0000      1.0748
    -0.5000   -999.2500   -999.2500    921.0000      1.0977
    -0.2500   -999.2500   -999.2500    921.0000      1.0930
     0.0000   -999.2500   -999.2500    921.0000      1.0603
     0.2500   -999.2500   -999.2500    921.0000      1.0024
     0.5000   -999.2500   -999.2500    921.0000      0.8406
     0.7500   -999.2500   -999.2500    921.0000      0.7755
     1.0000   -999.2500   -999.2500    921.0000      0.7491
     1.2500   -999.2500   -999.2500    921.0000      0.7624
     1.5000   -999.2500   -999.2500    921.0000      0.7966
     1.7500   -999.2500   -999.2500    921.0000      0.8250
     2.0000   -999.2500   -999.2500    921.0000      0.8297
     2.2500   -999.2500   -999.2500    921.0000      0.8118
     2.5000   -999.2500      0.0000    921.0000      0.7873
     2.7500   -999.2500      0.0000    921.0000      0.7752
     3.0000   -999.2500      0.0000    921.0000      0.7862
     3.2500   -999.2500      0.0000    921.0000      0.8194
     3.5000   -999.2500      0.0000    921.0000      0.8654
     3.7500   -999.2500      0.0000    921.0000      0.9126
     4.0000   -999.2500      0.0000    921.0000      0.9503
     4.2500   -999.2500      0.0000    921.0000      0.9680
     4.5000   -999.2500      0.0000    920.9556      0.9653
     4.7500   -999.2500      0.0000    920.6664      0.9730
     5.0000   -999.2500      0.0000    919.1974      1.1102
     5.2500   -999.2500      0.0000    913.3876      1.7174
     5.5000   -999.2500      0.0000    895.4917      3.5794
     5.7500   -999.2500      0.0000    852.5601      7.9939
     6.0000   -999.2500      0.0000    772.3502     16.1928
     6.2500   -999.2500      0.0000    655.6393     28.1108
     6.5000   -999.2500      0.0000    523.3803     41.6518
     6.7500   -999.2500      2.0000    406.6538     53.6740
     7.0000   -999.2500      0.0000    326.4242     62.0229
     7.2500   -999.2500      0.0000    283.4810     66.5787
     7.5000     80.9924      0.0000    265.5832     68.5724
     7.7500     85.7821      0.0000    259.7738     69.3345
     8.0000     90.8755      0.0000    258.2995     69.6579
     8.2500     96.8278      0.0000    257.9979     69.8455
     8.5000    102.3633      0.0000    257.9391     69.9737
     8.7500    105.6337      0.0000    257.9279     70.0637
     9.0000    106.6418      0.0000    257.9221     70.1164
     9.2500    107.3727      0.0000    257.9225     70.0540
     9.5000    109.4022      0.0000    257.9408     69.6302
     9.7500    111.9007      0.0000    258.0438     68.3825
    10.0000    112.3411      0.0000    258.4872     65.7456
    10.2500    109.2604      0.0000    259.9395     61.3651
    10.5000    103.9838      0.0000    263.9359     55.3967
    10.7500     99.2468      0.0000    273.6842     48.4752
    11.0000     96.6158      0.0000    295.2785     41.3540
    11.2500     95.8208      0.0000    338.0231     34.5855
    11.5000     96.0884      0.0000    410.6437     28.4826
    11.7500     97.2011      0.0000    512.5697     23.2166
    12.0000     99.2212      0.0000    627.8549     18.8501
    12.2500    101.7654      0.0000    731.5923     15.3286
    12.5000    103.8201      0.0000    805.4752     12.5245
    12.7500    104.2219      0.0000    847.1255     10.3148
    13.0000    102.3999      0.0000    865.8275      8.6129
    13.2500     98.9525      0.0000    872.6856      7.3514
    13.5000     95.5943      0.0000    875.0046      6.4573
    13.7500     94.2056      0.0000    876.2289      5.8452
    14.0000     95.4899      0.0000    877.8465      5.4320
    14.2500     98.4239      0.0000    880.6411      5.1565
    14.5000    101.1088      0.0000    884.7971      4.9829
    14.7500    102.2160      0.0000    889.4583      4.8835
    15.0000    101.7055      0.0000    893.0184      4.8279
    15.2500    100.4634      0.0000    894.5939      4.7913
    15.5000     99.4286      0.0000    895.2018      4.7635
    15.7500     98.8196      0.0000    896.8223      4.7448
    16.0000     98.0979      0.0000    900.2275      4.7350
    16.2500     96.9315      0.0000    904.2548      4.7323
    16.5000     96.1423      0.0000    907.1057      4.7328
    16.7500     97.3655      0.0000    907.8224      4.7256
    17.0000    101.7521      0.0000    906.7104      4.6956
    17.2500    109.0111      0.0000    905.0144      4.6391
    17.5000    117.2557      0.0000    904.1958      4.5691
    17.7500    123.5780      0.0000    904.9704      4.5033
    18.0000    125.3547      0.0000    906.8663      4.4524
    18.2500    121.9237      0.0000    908.8374      4.4187
    18.5000    115.4023      0.0000    910.2084      4.3958
    18.7500    109.5036      0.0000    910.9606      4.3680
    19.0000    106.9657      0.0000    911.4001      4.3154
    19.2500    107.8813      0.0000    911.8089      4.2261
    19.5000    110.4247      0.0000    912.3439      4.1066
    19.7500    112.9115      0.0000    913.0640      3.9845
    20.0000    114.8759      0.0000    913.9328      3.8944
    20.2500    116.4994      0.0000    914.8154      3.8495
    20.5000    117.7136      0.0000    915.4827      3.8279
    20.7500    118.0833      0.0000    915.5637      3.7933
    21.0000    117.2040      0.0000    914.3310      3.7295
    21.2500    114.9614      0.0000    910.7169      3.6507
    21.5000    111.6555      0.0000    904.1503      3.5831
    21.7500    108.1552      0.0000    895.5349      3.5424
    22.0000    105.7354      0.0000    886.5934      3.5216
    22.2500    105.3730      0.0000    878.0897      3.4974
    22.5000    106.9568      0.0000    869.9182      3.4514
    22.7500    109.2253      0.0000    863.0218      3.3855
    23.0000    110.7211      0.0000    859.1669      3.3125
    23.2500    111.0776      0.0000    858.2316      3.2388
    23.5000    111.3507      0.0000    857.4748      3.1629
    23.7500    112.7493      0.0000    853.9792      3.0839
    24.0000    115.1591      0.0000    846.5635      3.0033
    24.2500    117.2883      0.0000    835.5402      2.9213
    24.5000    117.9434      0.0000    822.5728      2.8398
    24.7500    116.6057      0.0000    811.4872      2.7659
    25.0000    113.1446      0.0000    807.0875      2.7083
    25.2500    107.7188      0.0000    810.7091      2.6736
    25.5000    101.1230      0.0000    817.2520      2.6639
    25.7500     94.8799      0.0000    818.5056      2.6723
    26.0000     90.6569      0.0000    810.1817      2.6810
    26.2500     89.3749      0.0000    795.7581      2.6713
    26.5000     90.8402      0.0000    783.3027      2.6405
    26.7500     94.3096      0.0000    777.8369      2.6048
    27.0000     99.0693      0.0000    777.1908      2.5834
    27.2500    104.1341      0.0000    776.5697      2.5831
    27.5000    107.9186      0.0000    775.5297      2.5995
    27.7500    109.1002      0.0000    777.6563      2.6286
    28.0000    107.7670      0.0000    785.0287      2.6706
    28.2500    105.0783      0.0000    796.4842      2.7229
    28.5000    101.9342      0.0000    810.5671      2.7743
    28.7500     98.4797      0.0000    827.0934      2.8124
    29.0000     94.7781      0.0000    845.5642      2.8382
    29.2500     91.5012      0.0000    863.6242      2.8662
