~Version Information
VERS.                      2.0: CWLS Log ASCII Standard - VERSION 2.0
WRAP.                       NO: One line per depth step
~Well Information Block
STRT.FT               550.0000: 
STOP.FT              1577.7000: 
STEP.FT                 0.1000: 
NULL.                -999.2500: 
COMP.          Pioneer Natural Resources: COMPANY
WELL.          Kristin 22-23 Tr: WELL
FLD.           Purgatoire River: FIELD
LOC.           2273' FNL & 2029' FWL: LOCATION
PROV.                 Colorado: PROVINCE
CNTY.               Las Animas: COUNTRY
SRVC.                Patterson: SERVICE COMPANY
DATE.          Fri Jan 21 06:58:50 2005: LOG DATE
UWI.           05 071 08259 00: UNIQUE WELL ID
~Curve Information Block
DEPT.FT            0 000 00 00: Depth
DCAL.in                       : CDL Caliper
RHOB.g/cc                     : CDL Bulk Density
RHOC.g/cc                     : CDL Density Correction
DPOR.pu                       : CDL Density Porosity
NPOR.pu                       : Neutron Porosity
GR.GAPI                       : Gamma Ray
~Parameter Information Block
~A  Depth       DCAL        RHOB        RHOC        DPOR        NPOR         GR     
# ...
  1212.4000      7.9808      2.5334     -0.0089      7.0641     19.2989    124.8360
  1212.5000      7.9819      2.5139     -0.0056      8.2480     18.6168    116.8195
  1212.6000      7.9819      2.4953     -0.0347      9.3760     17.7277    110.8867
  1212.7000      7.9819      2.4961      0.0068      9.3291     17.1658    110.2394
  1212.8000      7.9836      2.5086     -0.0054      8.5694     17.0826    107.1881
  1212.9000      7.9836      2.5153      0.0264      8.1608     17.0691     97.4886
  1213.0000      7.9839      2.5181      0.0064      7.9944     16.8685     91.4663
  1213.1000      7.9839      2.5282     -0.0122      7.3809     16.7562     95.4698
  1213.2000      7.9839      2.5442      0.0263      6.4143     16.8977    101.9766
  1213.3000      7.9852      2.5531      0.0283      5.8723     17.1384    104.7797
  1213.4000      7.9852      2.5466      0.0877      6.2651     17.2816    104.0122
  1213.5000      7.9855      2.5255      0.0458      7.5475     17.1945    101.9627
  1213.6000      7.9855      2.5037      0.0435      8.8663     16.9162     99.8825
  1213.7000      7.9855      2.4994     -0.0238      9.1290     16.7544     97.7786
  1213.8000      7.9844      2.5143      0.0457      8.2258     16.9041     94.9296
  1213.9000      7.9844      2.5299      0.0415      7.2796     17.3132     90.3810
  1214.0000      7.9863      2.5310      0.0520      7.2106     17.6522     85.5170
  1214.1000      7.9863      2.5206      0.0329      7.8413     17.6736     82.7639
  1214.2000      7.9863      2.5073      0.0180      8.6492     17.4355     82.3583
  1214.3000      7.9902      2.4983     -0.0029      9.1966     17.1421     82.8221
  1214.4000      7.9902      2.5001      0.0038      9.0820     17.0748     83.5807
  1214.5000      7.9884      2.5053      0.0372      8.7670     17.3123     83.9024
  1214.6000      7.9884      2.5054      0.0205      8.7630     17.8462     83.1827
  1214.7000      7.9884      2.5137      0.0143      8.2614     18.2761     83.6249
  1214.8000      7.9818      2.5368      0.0627      6.8635     18.3322     86.4061
  1214.9000      7.9818      2.5523      0.1046      5.9215     18.3000     90.5124
  1215.0000      7.9813      2.5471      0.0486      6.2382     18.0517     93.9398
  1215.1000      7.9813      2.5324      0.0860      7.1303     17.5331     94.6033
  1215.2000      7.9813      2.5177      0.0419      8.0165     17.2951     94.6722
  1215.3000      7.9838      2.5110      0.0264      8.4248     17.4211     95.1846
  1215.4000      7.9838      2.5134      0.0458      8.2797     17.7473     93.3768
  1215.5000      7.9855      2.5139      0.0365      8.2501     18.2383     91.3328
  1215.6000      7.9855      2.5076      0.0230      8.6333     18.4175     93.6946
  1215.7000      7.9855      2.5002      0.0222      9.0763     18.0072     97.6748
  1215.8000      7.9845      2.4994      0.0414      9.1266     17.4096     99.1885
  1215.9000      7.9845      2.5102      0.0433      8.4750     16.8271     98.6633
  1216.0000      7.9807      2.5304      0.0870      7.2458     16.1096     96.0769
  1216.1000      7.9807      2.5463      0.1137      6.2845     15.3211     92.9994
  1216.2000      7.9807      2.5439      0.0721      6.4299     14.9258     93.2936
  1216.3000      7.9788      2.5285      0.0424      7.3636     15.2754     96.7541
  1216.4000      7.9788      2.5126      0.0466      8.3256     15.8688     98.5817
  1216.5000      7.9805      2.4976      0.0284      9.2371     15.9780     97.1840
  1216.6000      7.9805      2.4854     -0.0098      9.9768     16.0613     94.2521
  1216.7000      7.9805      2.4828      0.0117     10.1309     17.0211     90.0857
  1216.8000      7.9824      2.4900      0.0067      9.6946     18.2013     85.6630
  1216.9000      7.9824      2.5056      0.0074      8.7534     18.1146     81.9730
  1217.0000      7.9842      2.5225      0.0519      7.7268     17.0913     80.0454
  1217.1000      7.9842      2.5299      0.0306      7.2782     16.2920     81.8059
  1217.2000      7.9842      2.5333      0.0289      7.0737     15.8420     85.5373
  1217.3000      7.9872      2.5388      0.0535      6.7405     15.6294     87.6146
  1217.4000      7.9872      2.5359      0.0495      6.9124     15.6379     88.4362
  1217.5000      7.9871      2.5271     -0.0055      7.4483     15.7649     86.7257
  1217.6000      7.9871      2.5293      0.0447      7.3152     15.8128     81.8044
  1217.7000      7.9871      2.5392      0.0460      6.7137     15.6098     79.7266
  1217.8000      7.9841      2.5423      0.0587      6.5267     15.6457     83.3433
  1217.9000      7.9841      2.5348      0.0534      6.9809     16.2479     89.0870
  1218.0000      7.9853      2.5231      0.0416      7.6917     17.0409     92.6964
  1218.1000      7.9853      2.5199      0.0232      7.8842     17.7572     92.0273
  1218.2000      7.9853      2.5302      0.0570      7.2602     18.2790     87.0215
  1218.3000      7.9857      2.5460      0.0241      6.3025     18.5018     80.6093
  1218.4000      7.9857      2.5526      0.0355      5.9041     18.2863     79.4687
  1218.5000      7.9855      2.5364      0.0514      6.8858     17.5473     83.8330
  1218.6000      7.9855      2.5056     -0.0058      8.7506     16.9313     86.7754
  1218.7000      7.9855      2.4791      0.0394     10.3564     17.2044     85.8050
  1218.8000      7.9861      2.4560      0.0176     11.7600     18.0799     84.0101
  1218.9000      7.9861      2.4323      0.0133     13.1911     18.7450     83.9315
  1219.0000      7.9853      2.4227     -0.0192     13.7773     18.8087     84.2220
  1219.1000      7.9853      2.4379     -0.0073     12.8548     18.4097     81.1619
  1219.2000      7.9853      2.4660      0.0351     11.1504     18.1582     75.2955
  1219.3000      7.9842      2.4892      0.0212      9.7469     18.6229     72.8802
  1219.4000      7.9842      2.4998      0.0303      9.1055     19.5661     75.6966
  1219.5000      7.9834      2.4963      0.0327      9.3181     20.1464     78.8463
  1219.6000      7.9834      2.4795      0.0354     10.3316     19.9332     79.6428
  1219.7000      7.9834      2.4546     -0.0034     11.8420     18.8479     79.3966
  1219.8000      7.9822      2.4349     -0.0251     13.0355     17.0952     77.9200
  1219.9000      7.9822      2.4311     -0.0082     13.2695     15.6542     76.4737
  1220.0000      7.9814      2.4407     -0.0164     12.6833     15.3663     81.0112
  1220.1000      7.9814      2.4564      0.0212     11.7362     16.0364     92.2133
  1220.2000      7.9814      2.4741     -0.0039     10.6609     16.8276    101.6627
  1220.3000      7.9807      2.4964      0.0208      9.3113     17.0813    103.5902
  1220.4000      7.9807      2.5202      0.0247      7.8645     16.7737    101.1487
  1220.5000      7.9807      2.5332      0.0594      7.0813     16.4208     99.3911
  1220.6000      7.9807      2.5268      0.0679      7.4640     16.6153     98.7241
  1220.7000      7.9807      2.5017      0.0557      8.9860     17.3113     98.1224
  1220.8000      7.9819      2.4678     -0.0290     11.0426     17.6025     96.3655
  1220.9000      7.9819      2.4483     -0.0343     12.2262     17.2186     91.1165
  1221.0000      7.9839      2.4515      0.0027     12.0315     16.7433     84.1482
  1221.1000      7.9839      2.4577      0.0371     11.6519     16.1553     76.9792
  1221.2000      7.9839      2.4547     -0.0059     11.8386     15.4024     69.7927
  1221.3000      7.9861      2.4537      0.0000     11.8944     14.9301     67.4558
  1221.4000      7.9861      2.4627      0.0076     11.3526     15.1143     71.9029
  1221.5000      7.9881      2.4715      0.0102     10.8152     15.7520     77.6977
  1221.6000      7.9881      2.4741     -0.0387     10.6631     16.1656     78.8364
  1221.7000      7.9881      2.4782      0.0150     10.4122     16.2619     75.9022
  1221.8000      7.9894      2.4870      0.0260      9.8809     16.3212     74.0033
  1221.9000      7.9894      2.4962      0.0110      9.3215     15.9872     74.4267
