~Version Information
VERS.                      2.0: CWLS Log ASCII Standard - VERSION 2.0
WRAP.                       NO: One line per depth step
~Well Information Block
STRT.FT               784.0000: 
STOP.FT              1035.0000: 
STEP.FT                 0.2500: 
NULL.                -999.2500: 
COMP.          Pioneer Natural Resources: COMPANY
WELL.          Run-Away-Train 43-26: WELL
FLD.           Purgatoire River: FIELD
LOC.           1693' FSL & 1195' FEL: LOCATION
PROV.                 Colorado: PROVINCE
CNTY.               Las Animas: COUNTRY
SRVC.                Patterson: SERVICE COMPANY
DATE.          Tue Apr 05 19:22:37 2005: LOG DATE
UWI.           05 071 08188 00: UNIQUE WELL ID
~Curve Information Block
DEPT.FT            0 000 00 00: Depth
SN.Ohm-m                      : IEL Short Normal
SP.mV                         : IEL Spontaneous Potential
DIR.Ohm-m                     : IEL Induction Resistivity
GR.GAPI                       : Gamma Ray
~Parameter Information Block
~A  Depth        SN          SP         DIR          GR     
# ...
   951.5000     18.3805    -18.1444     17.8951     69.0865
   951.7500     18.3683    -16.5105     17.9638     69.2369
   952.0000     18.5201    -14.7701     18.0750     68.4163
   952.2500     18.7399    -13.0892     18.1913     67.5457
   952.5000     18.8720    -11.6316     18.2747     66.4438
   952.7500     18.8264    -10.4987     18.3004     65.9912
   953.0000     18.6701     -9.7783     18.2645     65.6265
   953.2500     18.5464     -9.5836     18.1846     65.5728
   953.5000     18.5627     -9.9720     18.0931     66.1237
   953.7500     18.7839    -10.8360     18.0272     67.1460
   954.0000     19.1709    -11.9141     18.0207     69.4197
   954.2500     19.5195    -12.9303     18.0987     70.8758
   954.5000     19.6119    -13.7372     18.2714     72.2158
   954.7500     19.4731    -14.3449     18.5268     72.5961
   955.0000     19.3739    -14.8400     18.8266     72.8933
   955.2500     19.5547    -15.2884     19.1112     73.0316
   955.5000     20.0895    -15.6771     19.3201     73.0059
   955.7500     20.9637    -15.9099     19.4166     72.7279
   956.0000     22.0491    -15.8785     19.4065     71.8406
   956.2500     23.0235    -15.5805     19.3367     70.9419
   956.5000     23.5297    -15.1559     19.2739     69.3001
   956.7500     23.4954    -14.7613     19.2750     68.1911
   957.0000     23.1734    -14.3886     19.3639     66.7763
   957.2500     22.8609    -13.8116     19.5238     66.0609
   957.5000     22.7193    -12.7125     19.7049     65.3400
   957.7500     22.7949    -10.8826     19.8421     65.1268
   958.0000     23.0357     -8.3649     19.8796     65.2856
   958.2500     23.3406     -5.4796     19.7947     65.6650
   958.5000     23.6647     -2.7335     19.6106     66.3187
   958.7500     24.0071     -0.6589     19.3901     66.6106
   959.0000     24.2968      0.3383     19.2092     66.8584
   959.2500     24.3605      0.0373     19.1229     67.1471
   959.5000     24.0540     -1.6059     19.1391     68.2508
   959.7500     23.4218     -4.4106     19.2115     69.6352
   960.0000     22.6809     -7.8587     19.2594     73.0197
   960.2500     22.0060    -11.1416     19.2126     76.2937
   960.5000     21.3887    -13.5288     19.0514     82.2185
   960.7500     20.7876    -14.7926     18.8112     85.8526
   961.0000     20.2885    -15.2404     18.5523     88.7904
   961.2500     19.9934    -15.3242     18.3257     88.5814
   961.5000     19.8852    -15.2650     18.1525     86.0375
   961.7500     19.8870    -15.0283     18.0199     83.9450
   962.0000     19.9396    -14.5466     17.8918     81.3098
   962.2500     19.9864    -13.8802     17.7301     79.8428
   962.5000     19.9768    -13.1856     17.5203     77.6295
   962.7500     19.9055    -12.6124     17.2787     76.0586
   963.0000     19.8239    -12.2729     17.0392     73.6335
   963.2500     19.8058    -12.2895     16.8306     72.0123
   963.5000     19.8848    -12.8556     16.6641     69.7137
   963.7500     20.0129    -14.2491     16.5353     68.4573
   964.0000     20.1157    -16.7237     16.4300     67.3684
   964.2500     20.2102    -20.2555     16.3294     67.3582
   964.5000     20.3964    -24.3405     16.2134     68.6104
   964.7500     20.6974    -28.1259     16.0630     70.3300
   965.0000     21.0016    -30.8544     15.8638     74.2602
   965.2500     21.1605    -32.2228     15.6066     77.8557
   965.5000     21.0398    -32.3526     15.2867     85.0904
   965.7500     20.5467    -31.5054     14.9064     91.4193
   966.0000     19.7370    -29.8810     14.4793    103.0033
   966.2500     18.7672    -27.6343     14.0305    111.1628
   966.5000     17.6950    -24.9927     13.5862    121.1415
   966.7500     16.5701    -22.3006     13.1626    124.7357
   967.0000     15.6289    -19.9261     12.7629    124.6384
   967.2500     15.0962    -18.1173     12.3832    121.3746
   967.5000     14.9086    -16.9333     12.0211    113.2997
   967.7500     14.7597    -16.2822     11.6821    107.0700
   968.0000     14.3923    -16.0002     11.3805     99.2032
   968.2500     13.8479    -15.9080     11.1350     96.4446
   968.5000     13.3904    -15.8334     10.9611     96.9768
   968.7500     13.1997    -15.6207     10.8634     99.6009
   969.0000     13.2322    -15.1478     10.8315    103.9745
   969.2500     13.3135    -14.3698     10.8428    105.6254
   969.5000     13.2673    -13.3661     10.8677    105.2320
   969.7500     13.0722    -12.3237     10.8759    103.4661
   970.0000     12.9211    -11.4222     10.8433    100.0398
   970.2500     13.0134    -10.7014     10.7594     98.0252
   970.5000     13.3498    -10.0345     10.6339     96.0652
   970.7500     13.7832     -9.2273     10.4962     95.4591
   971.0000     14.1569     -8.1536     10.3865     95.3254
   971.2500     14.3689     -6.8359     10.3416     95.6027
   971.5000     14.3752     -5.4154     10.3838     96.4910
   971.7500     14.1942     -4.0388     10.5169     97.5200
   972.0000     13.9348     -2.7775     10.7286     99.9055
   972.2500     13.7132     -1.6721     10.9973    101.7472
   972.5000     13.4858     -0.8249     11.2982    103.4159
   972.7500     13.1308     -0.3812     11.6057    102.8442
   973.0000     12.7161     -0.4006     11.8939     98.8032
   973.2500     12.4600     -0.7804     12.1409     94.4326
   973.5000     12.4958     -1.3157     12.3374     87.2711
   973.7500     12.8749     -1.7873     12.4941     83.4915
   974.0000     13.6545     -1.9809     12.6403     81.2762
   974.2500     14.8840     -1.7137     12.8131     82.5243
   974.5000     16.5803     -0.9425     13.0441     87.5826
   974.7500     18.5805      0.1500     13.3508     91.7747
   975.0000     20.4378      1.2286     13.7337     96.6083
   975.2500     21.6621      2.0009     14.1771     97.6774
   975.5000     22.0607      2.3685     14.6525     95.5933
   975.7500     21.8410      2.4308     15.1253     92.4016
   976.0000     21.4258      2.3639     15.5661     86.7138
   976.2500     21.1651      2.2736     15.9597     83.1988
   976.5000     21.2088      2.1208     16.3077     79.0570
   976.7500     21.5244      1.7644     16.6203     77.1033
   977.0000     21.9116      1.0830     16.9056     75.2810
   977.2500     22.1081      0.0714     17.1604     74.7425
   977.5000     22.0246     -1.1551     17.3690     74.7913
   977.7500     21.8114     -2.4233     17.5060     75.2678
   978.0000     21.6927     -3.5672     17.5478     76.4337
   978.2500     21.8540     -4.4627     17.4856     77.3459
   978.5000     22.3712     -5.0488     17.3326     78.5040
   978.7500     23.0864     -5.3490     17.1198     78.9721
   979.0000     23.6755     -5.4918     16.8843     79.4513
   979.2500     23.9125     -5.6975     16.6592     79.9411
   979.5000     23.7626     -6.1813     16.4659     81.1522
   979.7500     23.2764     -6.9898     16.3084     82.1424
   980.0000     22.5326     -7.9075     16.1705     83.7502
   980.2500     21.6595     -8.5723     16.0188     84.9981
   980.5000     20.8768     -8.7388     15.8171     87.0559
   980.7500     20.4293     -8.4500     15.5464     88.0832
   981.0000     20.3410     -7.9587     15.2198     88.0982
   981.2500     20.3720     -7.4909     14.8810     87.0220
   981.5000     20.3328     -7.0762     14.5872     84.8606
   981.7500     20.3232     -6.5633     14.3860     83.8333
   982.0000     20.5484     -5.7662     14.2994     83.4813
   982.2500     20.9727     -4.5981     14.3221     83.9454
   982.5000     21.3520     -3.1020     14.4298     85.4249
   982.7500     21.5144     -1.3939     14.5915     86.8817
   983.0000     21.4584      0.3976     14.7803     89.7196
   983.2500     21.2653      2.1502     14.9756     91.9198
   983.5000     20.9594      3.7545     15.1591     95.2529
   983.7500     20.4811      5.1408     15.3094     97.1498
   984.0000     19.8283      6.2908     15.4015     98.8759
   984.2500     19.1504      7.2118     15.4085     99.0798
   984.5000     18.6457      7.9240     15.3055     98.2899
   984.7500     18.4500      8.4828     15.0738     97.5586
