~Version Information
VERS.                      2.0: CWLS Log ASCII Standard - VERSION 2.0
WRAP.                       NO: One line per depth step
~Well Information Block
STRT.FT               387.1000: 
STOP.FT              1748.0000: 
STEP.FT                 0.1000: 
NULL.                -999.2500: 
COMP.          Evergreen Operating Corp.: COMPANY
WELL.          Pachorek 13-31 Tr: WELL
FLD.           Cottontail Pass: FIELD
LOC.           1575' FSL & 900' FWL--API# 05-071-07019-00: LOCATION
PROV.                 Colorado: PROVINCE
CNTY.               Las Animas: COUNTRY
SRVC.          Scientific Data Systems, Inc.: SERVICE COMPANY
DATE.          Tue Aug 08 15:02:37 2000: LOG DATE
UWI.                      05071070190000:UNIQUE WELL IDENTIFICATION
~Curve Information Block
DEPT.FT            0 000 00 00: Depth
DCAL.in                       : CDL Caliper
RHOB.g/cc                     : CDL Bulk Density
RHOC.g/cc                     : CDL Density Correction
DPOR.pu                       : CDL Density Porosity
GR.GAPI                       : Gamma Ray
NPOR.pu                       : Neutron Porosity
~Parameter Information Block
~A  Depth       DCAL        RHOB        RHOC        DPOR         GR         NPOR    
# ...
  1107.1000      7.9129      2.6098      0.0186      2.4365    115.8507     18.4201
  1107.2000      7.9129      2.6045      0.0166      2.7585    117.1792     18.3645
  1107.3000      7.9072      2.5993      0.0142      3.0722    118.3515     18.3311
  1107.4000      7.9072      2.5942      0.0117      3.3812    119.3057     18.3067
  1107.5000      7.9105      2.5891      0.0094      3.6882    120.0347     18.2819
  1107.6000      7.9105      2.5841      0.0074      3.9941    120.5900     18.2508
  1107.7000      7.9105      2.5791      0.0060      4.2987    121.0611     18.2106
  1107.8000      7.9230      2.5741      0.0054      4.6008    121.5601     18.1613
  1107.9000      7.9230      2.5692      0.0054      4.8982    122.1940     18.1049
  1108.0000      7.9334      2.5644      0.0063      5.1883    123.0454     18.0451
  1108.1000      7.9334      2.5598      0.0080      5.4685    124.1625     17.9871
  1108.2000      7.9334      2.5554      0.0103      5.7357    125.5472     17.9367
  1108.3000      7.9375      2.5512      0.0131      5.9873    127.1595     17.9000
  1108.4000      7.9375      2.5474      0.0160      6.2206    128.9272     17.8820
  1108.5000      7.9356      2.5438      0.0190      6.4334    130.7605     17.8865
  1108.6000      7.9356      2.5407      0.0217      6.6235    132.5632     17.9154
  1108.7000      7.9356      2.5380      0.0241      6.7888    134.2461     17.9684
  1108.8000      7.9308      2.5357      0.0259      6.9274    135.7410     18.0438
  1108.9000      7.9308      2.5339      0.0271      7.0372    137.0013     18.1394
  1109.0000      7.9320      2.5326      0.0276      7.1160    138.0050     18.2535
  1109.1000      7.9320      2.5318      0.0276      7.1614    138.7472     18.3864
  1109.2000      7.9320      2.5317      0.0270      7.1705    139.2381     18.5407
  1109.3000      7.9407      2.5322      0.0260      7.1406    139.4924     18.7216
  1109.4000      7.9407      2.5334      0.0247      7.0687    139.5267     18.9367
  1109.5000      7.9509      2.5353      0.0233      6.9524    139.3566     19.1946
  1109.6000      7.9509      2.5380      0.0221      6.7897    139.0073     19.5032
  1109.7000      7.9509      2.5414      0.0212      6.5799    138.5143     19.8689
  1109.8000      7.9538      2.5457      0.0209      6.3240    137.9339     20.2951
  1109.9000      7.9538      2.5506      0.0214      6.0249    137.3411     20.7817
  1110.0000      7.9527      2.5561      0.0229      5.6879    136.8322     21.3245
  1110.1000      7.9527      2.5622      0.0251      5.3210    136.5199     21.9166
  1110.2000      7.9527      2.5686      0.0281      4.9342    136.5192     22.5478
  1110.3000      7.9586      2.5751      0.0314      4.5397    136.9412     23.2064
  1110.4000      7.9586      2.5815      0.0346      4.1511    137.8694     23.8793
  1110.5000      7.9683      2.5876      0.0373      3.7821    139.3532     24.5531
  1110.6000      7.9683      2.5931      0.0391      3.4460    141.4014     25.2141
  1110.7000      7.9683      2.5980      0.0398      3.1545    143.9735     25.8485
  1110.8000      7.9735      2.6019      0.0394      2.9170    146.9857     26.4430
  1110.9000      7.9735      2.6048      0.0378      2.7398    150.3164     26.9845
  1111.0000      7.9801      2.6067      0.0356      2.6256    153.8168     27.4609
  1111.1000      7.9801      2.6075      0.0330      2.5743    157.3272     27.8618
  1111.2000      7.9801      2.6074      0.0307      2.5824    160.6882     28.1791
  1111.3000      7.9896      2.6064      0.0290      2.6443    163.7529     28.4082
  1111.4000      7.9896      2.6046      0.0283      2.7529    166.3993     28.5477
  1111.5000      7.9907      2.6021      0.0287      2.9000    168.5362     28.6011
  1111.6000      7.9907      2.5992      0.0301      3.0779    170.1093     28.5749
  1111.7000      7.9907      2.5959      0.0324      3.2789    171.1045     28.4794
  1111.8000      7.9919      2.5923      0.0352      3.4962    171.5457     28.3269
  1111.9000      7.9919      2.5886      0.0383      3.7242    171.5027     28.1309
  1112.0000      8.0001      2.5847      0.0414      3.9580    171.0871     27.9052
  1112.1000      8.0001      2.5808      0.0443      4.1934    170.4469     27.6633
  1112.2000      8.0001      2.5770      0.0470      4.4268    169.7536     27.4170
  1112.3000      8.0084      2.5732      0.0495      4.6552    169.1899     27.1767
  1112.4000      8.0084      2.5695      0.0519      4.8760    168.9185     26.9504
  1112.5000      8.0103      2.5661      0.0544      5.0875    169.0598     26.7433
  1112.6000      8.0103      2.5627      0.0572      5.2890    169.6707     26.5578
  1112.7000      8.0103      2.5596      0.0605      5.4813    170.7344     26.3936
  1112.8000      8.0062      2.5565      0.0642      5.6667    172.1648     26.2472
  1112.9000      8.0062      2.5535      0.0682      5.8499    173.8246     26.1132
  1113.0000      7.9997      2.5504      0.0724      6.0371    175.5498     25.9846
  1113.1000      7.9997      2.5471      0.0763      6.2364    177.1820     25.8539
  1113.2000      7.9997      2.5435      0.0797      6.4570    178.5965     25.7141
  1113.3000      7.9957      2.5393      0.0821      6.7082    179.7182     25.5592
  1113.4000      7.9957      2.5345      0.0833      6.9987    180.5251     25.3847
  1113.5000      7.9946      2.5290      0.0830      7.3353    181.0414     25.1883
  1113.6000      7.9946      2.5226      0.0812      7.7218    181.3196     24.9699
  1113.7000      7.9946      2.5154      0.0782      8.1586    181.4196     24.7321
  1113.8000      7.9946      2.5074      0.0741      8.6414    181.3950     24.4805
  1113.9000      7.9946      2.4988      0.0695      9.1618    181.2806     24.2242
  1114.0000      7.9944      2.4898      0.0647      9.7062    181.0921     23.9754
  1114.1000      7.9944      2.4807      0.0603     10.2577    180.8285     23.7493
  1114.2000      7.9944      2.4719      0.0566     10.7958    180.4793     23.5621
  1114.3000      7.9945      2.4636      0.0539     11.2982    180.0313     23.4304
  1114.4000      7.9945      2.4563      0.0524     11.7419    179.4758     23.3677
  1114.5000      7.9954      2.4503      0.0520     12.1046    178.8108     23.3831
  1114.6000      7.9954      2.4460      0.0529     12.3666    178.0405     23.4788
  1114.7000      7.9954      2.4436      0.0548     12.5117    177.1727     23.6493
  1114.8000      7.9955      2.4433      0.0577     12.5289    176.2161     23.8818
  1114.9000      7.9955      2.4452      0.0613     12.4129    175.1811     24.1567
  1115.0000      7.9996      2.4493      0.0655     12.1655    174.0718     24.4501
  1115.1000      7.9996      2.4554      0.0700     11.7949    172.8981     24.7361
  1115.2000      7.9996      2.4633      0.0745     11.3163    171.6672     24.9900
  1115.3000      8.0194      2.4726      0.0787     10.7506    170.3974     25.1903
  1115.4000      8.0194      2.4830      0.0822     10.1239    169.1146     25.3208
  1115.5000      8.0462      2.4938      0.0848      9.4653    167.8505     25.3717
  1115.6000      8.0462      2.5047      0.0862      8.8059    166.6419     25.3396
  1115.7000      8.0462      2.5151      0.0864      8.1760    165.5201     25.2272
  1115.8000      8.0467      2.5245      0.0852      7.6037    164.5042     25.0422
  1115.9000      8.0467      2.5326      0.0829      7.1134    163.6001     24.7965
  1116.0000      8.0242      2.5391      0.0795      6.7235    162.7874     24.5043
  1116.1000      8.0242      2.5436      0.0753      6.4464    162.0322     24.1819
  1116.2000      8.0242      2.5463      0.0706      6.2871    161.2916     23.8450
  1116.3000      8.0050      2.5470      0.0659      6.2441    160.5252     23.5090
  1116.4000      8.0050      2.5459      0.0614      6.3097    159.7086     23.1872
  1116.5000      7.9983      2.5432      0.0575      6.4711    158.8481     22.8902
  1116.6000      7.9983      2.5393      0.0543      6.7117    157.9869     22.6250
