~Version Information
VERS.                      2.0: CWLS Log ASCII Standard - VERSION 2.0
WRAP.                       NO: One line per depth step
~Well Information Block
STRT.FT               510.0000: 
STOP.FT              1861.5000: 
STEP.FT                 0.1000: 
NULL.                -999.2500: 
COMP.          Pioneer Natural Resources: COMPANY
WELL.           Guajardo 24-16: WELL
FLD.           Purgatoire River: FIELD
LOC.           883' FSL & 2147' FWL: LOCATION
PROV.                 Colorado: PROVINCE
CNTY.               Las Animas: COUNTRY
SRVC.                Patterson: SERVICE COMPANY
DATE.          Mon Aug 08 09:13:01 2005: LOG DATE
UWI.           05 071 08377 00: UNIQUE WELL ID
~Curve Information Block
DEPT.FT            0 000 00 00: Depth
DCAL.in                       : CDL Caliper
RHOB.g/cc                     : CDL Bulk Density
RHOC.g/cc                     : CDL Density Correction
DPOR.pu                       : CDL Density Porosity
GR.GAPI                       : Gamma Ray
NPOR.pu                       : Neutron Porosity
~Parameter Information Block
~A  Depth       DCAL        RHOB        RHOC        DPOR         GR         NPOR    
   510.0000      4.9229      1.1680     -0.2122     -0.0297    126.6783     24.9398
   510.1000      4.9229      1.3529     -0.0829     -0.0260    124.4105     25.0630
   510.2000      4.9229      1.5464      0.1122     -0.0221    122.0513     24.7323
   510.3000      4.9212      1.7155      0.2662     -0.0187    120.6815     23.9018
   510.4000      4.9212      1.8394      0.3892     49.1298    118.2828     23.3077
   510.5000      4.9356      1.9274      0.4603     43.7909    114.2009     23.4113
   510.6000      4.9356      2.0121      0.5103     38.6585    110.1767     23.7913
   510.7000      4.9356      2.1319      0.5476     31.3974    109.9524     24.3507
   510.8000      4.9325      2.3137      0.5886     20.3806    114.4684     25.1526
   510.9000      4.9325      2.5487      0.6881      6.1376    118.5225     25.6222
   511.0000      4.9328      2.7751      0.7968     -7.5809    118.5815     25.5687
   511.1000      4.9328      2.9088      0.8228    -15.6842    115.4626     25.6629
   511.2000      4.9328      2.9264      0.8030    -16.7525    108.5442     25.9187
   511.3000      4.9420      2.9188      0.6698    -16.2906     97.2330     25.9379
   511.4000      4.9420      2.9512      0.7997    -18.2565     87.0815     25.4914
   511.5000      5.3019      2.9301      0.6484    -16.9757     84.4912     24.4773
   511.6000      5.3019      2.7889      0.3521     -8.4197     88.6976     23.5659
   511.7000      5.3019      2.5989      0.1242      3.0977     95.8024     23.4347
   511.8000      7.9157      2.4305     -0.0647     13.3012    104.0202     23.6101
   511.9000      7.9157      2.2741     -0.0577     22.7788    110.4173     23.3579
   512.0000      8.2674      2.1075     -0.4521     32.8792    112.0932     22.7915
   512.1000      8.2674      1.9646     -0.5776     41.5371    113.0218     22.3861
   512.2000      8.2674      1.8893     -0.6297     46.1031    116.9113     22.2008
   512.3000      8.2526      1.8751     -0.5596     46.9660    120.4364     21.9930
   512.4000      8.2526      1.8824     -0.5827     46.5239    120.6007     21.7706
   512.5000      8.2674      1.8828     -0.5377     46.4943    118.7773     21.9979
   512.6000      8.2674      1.8792     -0.6418     46.7138    116.8226     22.5476
   512.7000      8.2674      1.8842     -0.5522     46.4136    118.1473     22.4455
   512.8000      8.2678      1.8870     -0.5681     46.2419    121.7147     21.9249
   512.9000      8.2678      1.8786     -0.6022     46.7545    119.1490     22.0618
   513.0000      8.2702      1.8706     -0.5968     47.2389    110.6090     22.4487
   513.1000      8.2702      1.8716     -0.5376     47.1735    105.9070     22.0138
   513.2000      8.2702      1.8828     -0.6033     46.4986    108.7162     21.1468
   513.3000      8.2725      1.9056     -0.5822     45.1178    112.4364     20.7763
   513.4000      8.2725      1.9236     -0.5023     44.0235    111.4636     20.7984
   513.5000      8.2698      1.9132     -0.4951     44.6534    108.5495     20.6177
   513.6000      8.2698      1.8836     -0.5702     46.4515    106.3777     20.3596
   513.7000      8.2698      1.8608     -0.5422     47.8275    105.2621     20.5658
   513.8000      8.2685      1.8513     -0.5876     48.4088    106.1664     21.0607
   513.9000      8.2685      1.8470     -0.5540     48.6663    109.3479     21.4555
   514.0000      8.2691      1.8414     -0.5507     49.0087    110.4766     21.7942
   514.1000      8.2691      1.8341     -0.5950     49.4483    104.8999     21.9363
   514.2000      8.2691      1.8286     -0.5374     49.7818     95.0091     21.6662
   514.3000      8.2702      1.8331     -0.6612     49.5106     91.4060     20.9638
   514.4000      8.2702      1.8574     -0.5714     48.0340    101.3829     20.2601
   514.5000      8.2676      1.8858     -0.4710     46.3128    116.2122     20.1182
   514.6000      8.2676      1.8942     -0.5233     45.8069    122.4277     20.1754
   514.7000      8.2676      1.8877     -0.5449     46.1986    119.6536     20.2117
   514.8000      8.2683      1.8795     -0.5106     46.6951    118.7810     20.8440
   514.9000      8.2683      1.8684     -0.5532     47.3717    122.5296     22.0129
   515.0000      8.2717      1.8578     -0.5674     48.0126    122.2418     22.8055
   515.1000      8.2717      1.8579     -0.6013     48.0031    114.5884     22.4903
   515.2000      8.2717      1.8679     -0.5691     47.4010    108.2079     21.3953
   515.3000      8.2871      1.8818     -0.5781     46.5546    110.6431     20.5069
   515.4000      8.2871      1.9051     -0.5443     45.1459    119.6018     20.4102
   515.5000      8.2745      1.9351     -0.4899     43.3294    129.5922     21.2024
   515.6000      8.2745      1.9466     -0.4696     42.6285    136.7132     22.1060
   515.7000      8.2745      1.9213     -0.4886     44.1654    141.5018     22.2661
   515.8000      8.2685      1.8739     -0.5739     47.0354    146.6530     22.0951
   515.9000      8.2685      1.8281     -0.5919     49.8092    148.6974     22.1368
   516.0000      8.2733      1.7960     -0.6424     51.7556    142.8333     22.2489
   516.1000      8.2733      1.7882     -0.6181     52.2321    133.6593     22.5649
   516.2000      8.2733      1.8112     -0.6220     50.8388    129.9218     23.4028
   516.3000      8.2722      1.8538     -0.5474     48.2551    133.5793     24.2994
   516.4000      8.2722      1.8859     -0.4688     46.3093    138.4635     24.4084
   516.5000      8.2752      1.8862     -0.5002     46.2894    139.6481     23.9921
   516.6000      8.2752      1.8685     -0.6028     47.3626    138.1886     24.1199
   516.7000      8.2752      1.8620     -0.6082     47.7547    134.3383     24.6682
   516.8000      8.2720      1.8819     -0.5461     46.5540    126.8524     24.9745
   516.9000      8.2720      1.9224     -0.5432     44.0951    118.3312     25.2807
   517.0000      8.2723      1.9673     -0.5044     41.3773    116.0033     25.5291
   517.1000      8.2723      2.0035     -0.4943     39.1819    122.1252     25.3601
   517.2000      8.2723      2.0233     -0.4779     37.9809    128.5735     24.8014
   517.3000      8.2706      2.0275     -0.5302     37.7291    127.2828     23.9578
   517.4000      8.2706      2.0240     -0.4833     37.9422    121.2359     23.3397
   517.5000      8.2686      2.0203     -0.5474     38.1627    117.0047     23.5122
   517.6000      8.2686      2.0290     -0.5481     37.6340    114.6846     23.8925
   517.7000      8.2686      2.0456     -0.4521     36.6318    112.4503     23.6198
   517.8000      8.2723      2.0559     -0.4890     36.0048    108.9212     22.9371
   517.9000      8.2723      2.0661     -0.5037     35.3899    104.4788     22.5538
   518.0000      8.2702      2.0720     -0.4571     35.0308    102.2281     22.6236
   518.1000      8.2702      2.0534     -0.4745     36.1589    104.8339     22.8092
   518.2000      8.2702      2.0151     -0.5597     38.4788    109.1464     22.7032
   518.3000      8.2683      1.9786     -0.5451     40.6931    109.2048     22.4765
   518.4000      8.2683      1.9460     -0.5511     42.6640    104.8467     22.5878
   518.5000      8.2706      1.9161     -0.6108     44.4807    102.0282     23.1492
   518.6000      8.2706      1.8937     -0.5900     45.8344    104.4327     23.9241
   518.7000      8.2706      1.8680     -0.5645     47.3918    107.9582     24.4105
   518.8000      8.2751      1.8247     -0.6292     50.0191    108.7848     24.3275
   518.9000      8.2751      1.7821     -0.6704     52.5998    107.8861     24.2067
   519.0000      8.2962      1.7744     -0.6241     53.0693    107.2242     24.5247
   519.1000      8.2962      1.8086     -0.6721     50.9946    107.7029     24.9908
   519.2000      8.2962      1.8610     -0.5976     47.8184    110.7205     25.1498
   519.3000      8.2748      1.9069     -0.6280     45.0339    114.7767     24.8405
   519.4000      8.2748      1.9483     -0.6337     42.5296    114.0740     24.3259
   519.5000      8.2724      1.9868     -0.5903     40.1919    106.0052     23.9106
