~Version Information
VERS.                      2.0: CWLS Log ASCII Standard - VERSION 2.0
WRAP.                       NO: One line per depth step
~Well Information Block
STRT.FT                -4.7500: 
STOP.FT              2809.5000: 
STEP.FT                 0.2500: 
NULL.                -999.2500: 
COMP.          Pioneer Natural Resources: COMPANY
WELL.              Lynch 43-30: WELL
FLD.           Purgatorie River: FIELD
LOC.           1438' FSL & 429' FEL--: LOCATION
PROV.                       CO: PROVINCE
CNTY.               Las Animas: COUNTRY
SRVC.                         : SERVICE COMPANY
DATE.          Sat Oct 30 09:52:34 2004: LOG DATE
UWI.          005 071 08170   : UNIQUE WELL ID
~Curve Information Block
DEPT.FT            0 000 00 00: Depth
GR.GAPI                       : Gamma Ray
CCL.                          : Casing Collar Locator
TT3.usec                      : CBL 3' Travel Time
AMP3.mV                       : CBL 3' Amplitude
~Parameter Information Block
~A  Depth        GR         CCL         TT3         AMP3    
    -4.7500   -999.2500   -999.2500   -999.2500   -999.2500
    -4.5000   -999.2500   -999.2500   -999.2500   -999.2500
    -4.2500   -999.2500   -999.2500   -999.2500   -999.2500
    -4.0000   -999.2500   -999.2500   -999.2500   -999.2500
    -3.7500   -999.2500   -999.2500   -999.2500   -999.2500
    -3.5000   -999.2500   -999.2500    921.0000     -0.2918
    -3.2500   -999.2500   -999.2500    921.0000     -0.3081
    -3.0000   -999.2500   -999.2500    921.0000     -0.3071
    -2.7500   -999.2500   -999.2500    921.0000     -0.3056
    -2.5000   -999.2500   -999.2500    921.0000     -0.3152
    -2.2500   -999.2500   -999.2500    921.0000     -0.3251
    -2.0000   -999.2500   -999.2500    921.0000     -0.3172
    -1.7500   -999.2500   -999.2500    921.0000     -0.2917
    -1.5000   -999.2500   -999.2500    921.0000     -0.2691
    -1.2500   -999.2500   -999.2500    921.0000     -0.2663
    -1.0000   -999.2500   -999.2500    921.0000     -0.2755
    -0.7500   -999.2500   -999.2500    921.0000     -0.2738
    -0.5000   -999.2500   -999.2500    921.0000     -0.2530
    -0.2500   -999.2500   -999.2500    921.0000     -0.2320
     0.0000   -999.2500   -999.2500    921.0000     -0.2377
     0.2500   -999.2500   -999.2500    921.0000     -0.2735
     0.5000   -999.2500   -999.2500    921.0000     -0.3113
     0.7500   -999.2500   -999.2500    921.0000     -0.3204
     1.0000   -999.2500   -999.2500    921.0000     -0.2986
     1.2500   -999.2500   -999.2500    921.0000     -0.2686
     1.5000   -999.2500   -999.2500    921.0000     -0.2502
     1.7500   -999.2500   -999.2500    921.0000     -0.2456
     2.0000   -999.2500      0.0000    921.0000     -0.2477
     2.2500   -999.2500      0.0000    921.0000     -0.2501
     2.5000   -999.2500      0.0000    921.0000     -0.2477
     2.7500   -999.2500      0.0000    921.0000     -0.2388
     3.0000   -999.2500      0.0000    921.0000     -0.2273
     3.2500   -999.2500      0.0000    921.0000     -0.2188
     3.5000   -999.2500      0.0000    920.9905     -0.2164
     3.7500   -999.2500      0.0000    920.9379     -0.2197
     4.0000   -999.2500      0.0000    920.6847     -0.2280
     4.2500   -999.2500      0.0000    919.7529     -0.2421
     4.5000   -999.2500      0.0000    917.1490     -0.2620
     4.7500   -999.2500      0.0000    911.6788     -0.2799
     5.0000   -999.2500      0.0000    903.1379     -0.2675
     5.2500   -999.2500      0.0000    892.9141     -0.1119
     5.5000   -999.2500      0.0000    881.2047      0.5523
     5.7500   -999.2500      0.0000    861.3377      2.6018
     6.0000   -999.2500      0.0000    818.3547      7.4778
     6.2500   -999.2500      0.0000    738.4671     16.5034
     6.5000   -999.2500      0.0000    623.9553     29.5111
     6.7500     62.2924      0.0000    497.7607     44.0965
     7.0000     60.8348      0.0000    389.8956     56.8062
     7.2500     60.3234      0.0000    317.9816     65.3988
     7.5000     60.0659      0.0000    280.4991     69.8933
     7.7500     59.1623      0.0000    265.2235     71.7064
     8.0000     57.5551      0.0000    260.3618     72.2754
     8.2500     56.2320      0.0000    259.1637     72.4335
     8.5000     56.2525      0.0000    258.9424     72.5072
     8.7500     57.6150      0.0000    258.9118     72.5876
     9.0000     59.2145      0.0000    258.8960     72.6890
     9.2500     59.9207      0.0000    258.8605     72.8015
     9.5000     59.6643      0.0000    258.8179     72.9011
     9.7500     59.4064      0.0000    258.7851     72.9666
    10.0000     60.0006      0.0000    258.7709     72.9925
    10.2500     61.1907      0.0000    258.7720     72.9912
    10.5000     61.8836      0.0000    258.7786     72.9812
    10.7500     61.2731      0.0000    258.7820     72.9741
    11.0000     59.5622      0.0000    258.7793     72.9760
    11.2500     57.8287      0.0000    258.7708     72.9979
    11.5000     57.3802      0.0000    258.7564     73.0519
    11.7500     58.9080      0.0000    258.7351     73.1319
    12.0000     61.7735      0.0000    258.7097     73.2050
    12.2500     64.1914      0.0000    258.6894     73.2319
    12.5000     64.5956      0.0000    258.6837     73.1967
    12.7500     62.9091      0.0000    258.6928     73.1156
    13.0000     60.2362      0.0000    258.7078     73.0175
    13.2500     57.5785      0.0000    258.7193     72.9176
    13.5000     55.3837      0.0000    258.7236     72.8140
    13.7500     54.1386      0.0000    258.7184     72.7031
    14.0000     54.5479      0.0000    258.6977     72.5727
    14.2500     56.7208      0.0000    258.6571     72.3425
    14.5000     59.6494      0.0000    258.6115     71.7893
    14.7500     61.9928      0.0000    258.6362     70.5397
    15.0000     63.1359      0.0000    258.9545     68.1811
    15.2500     63.2135      0.0000    260.0969     64.4421
    15.5000     62.5132      0.0000    262.9949     59.3330
    15.7500     61.2476      0.0000    268.9875     53.1726
    16.0000     59.7069      0.0000    280.0519     46.4978
    16.2500     58.3130      0.0000    299.9126     39.8957
    16.5000     57.4065      0.0000    335.0383     33.8138
    16.7500     56.9518      0.0000    392.0230     28.4497
    17.0000     56.5626      0.0000    470.2605     23.7984
    17.2500     56.0176      0.0000    556.9522     19.7928
    17.5000     55.6829      0.0000    632.8668     16.3919
    17.7500     56.1506      0.0000    685.0031     13.5705
    18.0000     57.4075      0.0000    713.0821     11.2890
    18.2500     58.6323      0.0000    725.1277      9.5009
    18.5000     58.9961      0.0000    729.7308      8.1705
    18.7500     58.6097      0.0000    732.4012      7.2656
    19.0000     58.5055      0.0000    736.0242      6.7353
    19.2500     59.5532      0.0000    742.1801      6.4967
    19.5000     61.3853      0.0000    751.6188      6.4439
    19.7500     62.5636      0.0000    764.1259      6.4724
    20.0000     61.8925      0.0000    778.1578      6.5008
    20.2500     59.5290      0.0000    790.4146      6.4832
    20.5000     56.8906      0.0000    796.2363      6.4130
    20.7500     55.5882      0.0000    792.1155      6.3164
    21.0000     56.2470      0.0000    778.8881      6.2296
    21.2500     58.0996      0.0000    761.8380      6.1714
    21.5000     59.7432      0.0000    746.9579      6.1341
    21.7500     60.3804      0.0000    737.2337      6.0981
    22.0000     60.2790      0.0000    732.2269      6.0554
    22.2500     60.1834      0.0000    730.0565      6.0220
    22.5000     60.6214      0.0000    729.1549      6.0221
    22.7500     61.6980      0.0000    728.7705      6.0606
    23.0000     63.0224      0.0000    728.7906      6.1152
    23.2500     63.7217      0.0000    729.5888      6.1564
    23.5000     63.0909      0.0000    731.9293      6.1706
    23.7500     61.5825      0.0000    736.4745      6.1625
    24.0000     60.8816      0.0000    742.7812      6.1448
    24.2500     62.7585      0.0000    748.7165      6.1323
    24.5000     67.6703      0.0000    751.4614      6.1396
    24.7500     74.2039      0.0000    749.6495      6.1761
    25.0000     79.9432      0.0000    744.5463      6.2409
    25.2500     83.2421      0.0000    739.0407      6.3225
    25.5000     84.2168      0.0000    735.7067      6.4017
    25.7500     84.0043      0.0000    735.8596      6.4601
    26.0000     83.5557      0.0000    739.7390      6.4942
    26.2500     83.3692      0.0000    746.6750      6.5199
    26.5000     83.6120      0.0000    755.1526      6.5577
    26.7500     83.8489      0.0000    763.5880      6.6132
    27.0000     83.2499      0.0000    771.6288      6.6766
    27.2500     81.8540      0.0000    780.3057      6.7355
    27.5000     81.2004      0.0000    790.1312      6.7873
    27.7500     82.9099      0.0000    798.9798      6.8403
    28.0000     86.9463      0.0000    803.0396      6.9028
    28.2500     91.8219      0.0000    800.9979      6.9659
    28.5000     96.0173      0.0000    796.9124      7.0001
