~Version Information
VERS.                      2.0: CWLS Log ASCII Standard - VERSION 2.0
WRAP.                       NO: One line per depth step
~Well Information Block
STRT.FT               590.0000: 
STOP.FT              1563.5000: 
STEP.FT                 0.2500: 
NULL.                -999.2500: 
COMP.          Petrogulf Corporation: COMPANY
WELL.             State 16-43R: WELL
FLD.           Purgatorie River: FIELD
LOC.           2538' FSL & 716' FEL: LOCATION
PROV.                 Colorado: PROVINCE
CNTY.               Las Animas: COUNTRY
SRVC.                Patterson: SERVICE COMPANY
DATE.          Tue Aug 09 14:21:37 2005: LOG DATE
UWI.                          : UNIQUE WELL ID
~Curve Information Block
DEPT.FT            0 000 00 00: Depth
RILD.Ohm-m                    : DIL Deep Resistivity
RILM.Ohm-m                    : DIL Medium Resistivity
GR.GAPI                       : Gamma Ray
~Parameter Information Block
~A  Depth       RILD        RILM         GR     
# ...
   715.2500      9.7466     10.0416    155.7153
   715.5000      9.8051     10.0857    156.9922
   715.7500      9.8526     10.1957    160.7794
   716.0000      9.8289     10.2992    144.9788
   716.2500      9.5593     10.5066    147.6135
   716.5000      9.8439     10.3333    134.4474
   716.7500     10.0092     10.2069    138.1603
   717.0000     10.2931     10.4791    133.4185
   717.2500     10.6557     10.6494    136.7925
   717.5000     10.8736     10.8943    140.0258
   717.7500     11.2465     10.9186    137.5765
   718.0000     11.4343     11.0324    148.0757
   718.2500     11.6155     11.1918    146.8044
   718.5000     11.8190     11.5673    145.2893
   718.7500     11.9754     12.2907    140.9054
   719.0000     12.3938     13.1896    144.4956
   719.2500     12.0567     13.8251    149.0230
   719.5000     12.1395     14.3356    140.2632
   719.7500     12.0352     14.6703    128.7055
   720.0000     12.5512     14.9722    133.6234
   720.2500     12.7738     14.2635    143.4980
   720.5000     12.7623     13.7984    154.3215
   720.7500     13.2965     13.5452    155.5484
   721.0000     14.0161     13.4695    155.5412
   721.2500     13.9254     13.8908    142.1834
   721.5000     13.5934     14.1178    132.5892
   721.7500     13.3137     14.8119    125.3432
   722.0000     13.3643     14.8610    123.0437
   722.2500     12.9219     14.6211    127.3210
   722.5000     12.8162     14.4990    137.0344
   722.7500     12.4228     14.0274    138.3010
   723.0000     12.5487     14.0468    132.5152
   723.2500     12.6409     13.7443    134.0921
   723.5000     12.6692     13.4507    126.0095
   723.7500     12.9684     13.1242    134.3807
   724.0000     13.2747     13.1488    143.1806
   724.2500     13.0115     13.3089    139.7508
   724.5000     13.1947     13.4002    131.3060
   724.7500     13.4696     13.1752    123.4853
   725.0000     13.6977     13.7444    128.1465
   725.2500     13.8257     14.3719    124.5050
   725.5000     14.2696     14.7169    129.5454
   725.7500     14.6661     14.9302    125.7614
   726.0000     14.8786     15.4102    119.2622
   726.2500     15.3520     15.9412    120.2762
   726.5000     15.2377     16.7802    116.1205
   726.7500     15.5497     17.0955    115.1769
   727.0000     16.6612     17.6282    120.3855
   727.2500     17.3655     18.1993    123.1678
   727.5000     17.4616     18.5758    122.4051
   727.7500     18.4652     19.2813    123.3794
   728.0000     18.9907     21.1027    126.6042
   728.2500     19.5049     21.6740    125.8239
   728.5000     20.9192     22.6656    122.2134
   728.7500     22.3069     23.1614    121.6436
   729.0000     22.9720     24.2875    133.9329
   729.2500     23.5789     25.3286    133.6936
   729.5000     23.8268     26.9115    117.7074
   729.7500     22.9714     28.3287    107.1009
   730.0000     22.4337     29.7685     88.5384
   730.2500     21.1819     32.1175     89.9696
   730.5000     21.9053     34.3204     96.4490
   730.7500     20.7418     31.1924     95.3939
   731.0000     20.1308     28.2605    106.7056
   731.2500     19.7024     26.5287    119.8535
   731.5000     19.2578     23.2150    132.3896
   731.7500     20.2027     21.0787    142.7331
   732.0000     19.1251     20.1258    144.3046
   732.2500     19.2101     18.7950    146.9812
   732.5000     18.3299     18.5083    141.0721
   732.7500     17.4897     18.6187    131.8358
   733.0000     16.4547     18.2252    130.8268
   733.2500     15.7150     17.6869    138.3468
   733.5000     14.9661     17.6778    132.7233
   733.7500     14.1892     16.9780    134.5448
   734.0000     13.7465     15.9016    142.1454
   734.2500     13.6874     15.1443    146.2959
   734.5000     13.1329     13.9914    151.6311
   734.7500     12.6085     13.1209    146.0767
   735.0000     12.8957     12.7344    156.4269
   735.2500     12.5508     12.5895    156.9624
   735.5000     12.8055     11.9283    152.2604
   735.7500     12.3566     11.8733    158.7807
   736.0000     12.5994     11.4207    154.5227
   736.2500     12.6444     11.3972    155.9180
   736.5000     12.9004     11.3779    157.6189
   736.7500     13.2793     11.8317    152.9755
   737.0000     13.2873     12.1246    143.6767
   737.2500     13.1567     12.8208    128.3968
   737.5000     13.0259     13.6887    115.6060
   737.7500     12.8766     14.5331    109.8082
   738.0000     12.9215     14.3337    127.2281
   738.2500     12.8856     14.3660    127.7140
   738.5000     12.9624     14.4460    137.8320
   738.7500     13.1238     13.8713    133.5578
   739.0000     13.7289     13.9638    132.8401
   739.2500     14.1928     13.3834    137.4156
   739.5000     14.8693     13.9396    131.5104
   739.7500     15.5832     13.8190    134.3934
   740.0000     15.2491     14.3001    128.1534
   740.2500     14.7972     14.7943    122.5482
   740.5000     14.8042     15.0352    113.4500
   740.7500     14.2981     15.3545    115.0195
   741.0000     13.5816     15.8420    119.4289
   741.2500     13.3571     15.8235    113.1871
   741.5000     12.8413     15.1749    119.9573
   741.7500     12.5336     14.7730    125.8550
   742.0000     12.5567     14.3279    133.2633
   742.2500     12.4285     13.3733    136.5576
   742.5000     11.9995     12.6922    148.3674
   742.7500     11.9841     12.0852    151.9240
   743.0000     11.8814     11.7753    149.1418
   743.2500     11.5910     11.2728    149.0496
   743.5000     11.2867     11.1095    150.2244
   743.7500     10.8190     11.1596    150.7182
   744.0000     10.3824     11.1041    141.4328
   744.2500     10.0590     10.6928    141.2402
   744.5000      9.6747     10.1823    146.0925
   744.7500      9.7332      9.7265    152.0152
   745.0000      9.5949      9.1653    145.4025
   745.2500      9.6028      8.9059    146.0044
   745.5000      9.7487      8.7605    143.0527
   745.7500     10.0334      8.7496    144.7964
   746.0000     10.2681      9.0617    138.8116
   746.2500     10.4109      9.5663    126.6680
   746.5000     10.4656     10.0796    131.8958
   746.7500     10.4492     10.6694    120.8990
   747.0000     10.4275     11.1776    103.5214
   747.2500     10.3682     11.6151    100.4478
   747.5000     10.6530     11.8429    106.3853
   747.7500     10.7571     12.0380    120.4793
   748.0000     10.9815     12.1749    138.5450
   748.2500     11.1726     12.3729    129.2435
   748.5000     11.7339     12.0632    142.1337
   748.7500     12.7493     12.1796    152.1984
   749.0000     12.2248     12.5673    153.2809
   749.2500     12.4397     12.4390    150.9581
   749.5000     13.2089     12.3717    154.1877
   749.7500     13.3000     12.4671    152.8783
   750.0000     12.9386     12.5612    147.6829
   750.2500     13.1255     12.9019    138.7828
   750.5000     13.2525     13.2510    125.5563
   750.7500     13.2677     13.8099    120.9346
   751.0000     13.1651     14.8396    124.2503
   751.2500     13.1211     15.3106    116.8437
   751.5000     12.9069     15.5837    125.2674
   751.7500     12.9164     15.1860    118.4245
   752.0000     12.9185     14.8928    133.8903
   752.2500     12.8492     14.6205    148.5438
   752.5000     13.0347     15.1850    158.3660
   752.7500     13.4666     14.4053    158.9762
   753.0000     13.6136     14.2965    156.7769
   753.2500     13.2042     14.0464    153.1071
   753.5000     13.0179     13.9239    151.2356
   753.7500     13.3604     14.2549    161.5980
   754.0000     12.8966     14.5086    167.8003
   754.2500     12.4809     13.4342    161.6200
   754.5000     12.6697     12.7396    166.4032
   754.7500     12.5284     12.4156    174.6740
   755.0000     12.1950     12.0162    174.2460
   755.2500     12.0919     11.9233    172.0241
   755.5000     11.8273     11.9933    165.6973
   755.7500     12.3240     11.9079    169.3807
   756.0000     12.4366     12.0035    163.4653
   756.2500     12.0950     12.4559    167.9964
   756.5000     12.0998     12.7582    167.7891
   756.7500     12.6929     12.5158    159.9723
