~Version Information
VERS.                      2.0: CWLS Log ASCII Standard - VERSION 2.0
WRAP.                       NO: One line per depth step
~Well Information Block
STRT.FT               784.0000: 
STOP.FT              1035.0000: 
STEP.FT                 0.2500: 
NULL.                -999.2500: 
COMP.          Pioneer Natural Resources: COMPANY
WELL.          Run-Away-Train 43-26: WELL
FLD.           Purgatoire River: FIELD
LOC.           1693' FSL & 1195' FEL: LOCATION
PROV.                 Colorado: PROVINCE
CNTY.               Las Animas: COUNTRY
SRVC.                Patterson: SERVICE COMPANY
DATE.          Tue Apr 05 19:22:37 2005: LOG DATE
UWI.           05 071 08188 00: UNIQUE WELL ID
~Curve Information Block
DEPT.FT            0 000 00 00: Depth
SN.Ohm-m                      : IEL Short Normal
SP.mV                         : IEL Spontaneous Potential
DIR.Ohm-m                     : IEL Induction Resistivity
GR.GAPI                       : Gamma Ray
~Parameter Information Block
~A  Depth        SN          SP         DIR          GR     
# ...
   851.0000     10.8853   -148.5045     15.9990     85.1195
   851.2500     12.3238   -169.7767     16.5615     78.5617
   851.5000     12.4914   -203.6755     17.1684     68.3625
   851.7500     12.6771   -249.9449     17.7935     61.6147
   852.0000     17.4846   -305.4478     18.3991     52.2724
   852.2500     36.6618   -363.0504     18.9381     46.9244
   852.5000     81.0613   -412.9400     19.3490     40.4039
   852.7500    148.7760   -446.6240     19.5529     36.9886
   853.0000    217.1566   -460.8143     19.4735     33.4206
   853.2500    259.7417   -457.8548     19.0843     32.5253
   853.5000    268.2430   -442.5353     18.4445     34.4897
   853.7500    248.4495   -418.4042     17.6770     38.3706
   854.0000    206.6059   -386.6360     16.9004     47.5733
   854.2500    151.2327   -347.6650     16.1753     55.1368
   854.5000     95.6983   -303.4374     15.5007     67.0825
   854.7500     51.0130   -258.3570     14.8466     74.7461
   855.0000     21.7757   -218.5468     14.1906     84.6925
   855.2500      6.9516   -189.8537     13.5331     89.6319
   855.5000      1.8507   -175.1436     12.8925     93.9903
   855.7500      1.8524   -171.9878     12.2935     95.2671
   856.0000      4.1966   -172.7571     11.7608     96.0907
   856.2500      6.6849   -168.2568     11.3163     96.3645
   856.5000      7.2675   -153.0202     10.9768     96.0434
   856.7500      5.5405   -128.2377     10.7513     94.9597
   857.0000      3.0576   -100.1156     10.6416     92.0740
   857.2500      1.7329    -75.4654     10.6440     89.7907
   857.5000      2.6629    -58.1627     10.7511     86.7635
   857.7500      5.8077    -48.4645     10.9516     85.3756
   858.0000      9.7754    -44.4722     11.2271     84.5174
   858.2500     12.6633    -43.8803     11.5523     84.6643
   858.5000     13.6785    -44.8662     11.9003     85.1693
   858.7500     13.3190    -46.1881     12.2528     85.0936
   859.0000     12.5038    -47.0438     12.6060     84.0186
   859.2500     12.1314    -47.0101     12.9643     83.0603
   859.5000     12.5647    -46.0652     13.3250     82.2181
   859.7500     13.3502    -44.6231     13.6714     82.2049
   860.0000     13.9799    -43.5184     13.9830     82.3605
   860.2500     14.4410    -43.8604     14.2528     82.1206
   860.5000     14.9215    -46.6937     14.4940     81.2793
   860.7500     15.4831    -52.4920     14.7311     80.9077
   861.0000     15.9802    -60.6794     14.9873     81.3503
   861.2500     16.1432    -69.4722     15.2783     82.1498
   861.5000     15.7336    -76.2858     15.6119     82.9736
   861.7500     14.6670    -78.7711     15.9833     82.6145
   862.0000     13.0798    -76.1854     16.3707     80.4156
   862.2500     11.2498    -70.1893     16.7385     78.1684
   862.5000      9.6159    -64.0245     17.0534     74.3005
   862.7500      9.1602    -60.2893     17.3017     71.5148
   863.0000     10.9148    -59.1771     17.4958     67.0337
   863.2500     14.3202    -58.8148     17.6615     64.0938
   863.5000     17.2842    -57.2330     17.8213     60.5760
   863.7500     18.3592    -54.0036     17.9855     59.1122
   864.0000     18.0420    -50.2221     18.1565     58.0211
   864.2500     18.0342    -47.3048     18.3365     57.7708
   864.5000     19.2623    -45.9665     18.5317     57.9599
   864.7500     20.9401    -46.0791     18.7489     58.4474
   865.0000     21.9934    -47.0834     18.9875     59.3774
   865.2500     22.2773    -48.4047     19.2317     59.7519
   865.5000     22.1692    -49.6842     19.4512     59.4167
   865.7500     21.9830    -50.8642     19.6133     58.5881
   866.0000     21.8525    -52.1640     19.6995     57.0176
   866.2500     21.7686    -53.9742     19.7170     56.2531
   866.5000     21.6715    -56.7205     19.6945     56.1762
   866.7500     21.5813    -60.7318     19.6675     56.8979
   867.0000     21.6301    -66.0915     19.6673     58.5587
   867.2500     21.9394    -72.3664     19.7192     59.4280
   867.5000     22.4938    -78.2530     19.8471     59.4680
   867.7500     23.0737    -81.6333     20.0745     58.5567
   868.0000     23.0919    -80.5937     20.4204     56.2939
   868.2500     21.6198    -74.9123     20.8911     54.5116
   868.5000     18.5295    -66.4742     21.4762     51.5652
   868.7500     15.9521    -57.9396     22.1456     49.3460
   869.0000     16.7318    -51.0091     22.8514     45.7234
   869.2500     20.7686    -45.9477     23.5378     43.3946
   869.5000     25.1493    -42.3413     24.1599     40.6123
   869.7500     27.7045    -39.8971     24.6975     39.3848
   870.0000     28.3423    -38.5974     25.1507     38.3889
   870.2500     27.7717    -38.4643     25.5236     38.2263
   870.5000     26.6284    -39.3974     25.8113     38.7947
   870.7500     25.6219    -41.1873     25.9962     39.6918
   871.0000     25.5610    -43.5429     26.0460     41.3575
   871.2500     26.7535    -46.0848     25.9149     42.2407
   871.5000     28.6583    -48.4123     25.5567     42.6452
   871.7500     30.5250    -50.2509     24.9584     42.2870
   872.0000     32.0427    -51.5265     24.1690     41.3213
   872.2500     33.0848    -52.2914     23.2964     40.7711
   872.5000     33.5197    -52.6104     22.4725     40.4376
   872.7500     33.5407    -52.5225     21.8043     40.5920
   873.0000     33.3735    -52.0883     21.3370     41.5817
   873.2500     32.5062    -51.4431     21.0366     43.0321
   873.5000     30.1147    -50.7790     20.8038     46.9850
   873.7500     26.3341    -50.2902     20.5260     51.0403
   874.0000     22.3936    -50.1869     20.1437     59.1069
   874.2500     19.5114    -50.7755     19.6779     65.1131
   874.5000     17.9481    -52.4518     19.1912     72.5932
   874.7500     17.0966    -55.5402     18.7267     74.8928
   875.0000     16.2670    -60.1238     18.2844     73.0405
   875.2500     15.2020    -66.0228     17.8417     69.1275
   875.5000     14.1558    -72.8356     17.3887     62.6677
   875.7500     13.9855    -79.8319     16.9449     60.0049
   876.0000     16.7609    -85.7380     16.5490     60.4983
   876.2500     26.6781    -88.8484     16.2363     64.0149
   876.5000     46.9913    -87.8117     16.0252     73.1243
   876.7500     70.1412    -82.6668     15.9157     80.5632
   877.0000     77.2782    -75.1132     15.8922     90.8769
   877.2500     60.8320    -67.5718     15.9279     95.5507
   877.5000     36.7936    -61.8242     15.9908     98.0049
   877.7500     22.5257    -58.3443     16.0572     97.1416
   878.0000     19.1004    -56.5802     16.1270     94.4170
   878.2500     19.7720    -55.6320     16.2216     92.9876
   878.5000     20.5897    -54.7868     16.3581     92.5208
   878.7500     21.0716    -53.7467     16.5226     93.0804
   879.0000     21.6676    -52.5871     16.6697     93.6861
   879.2500     22.4549    -51.5666     16.7532     92.8522
   879.5000     22.9641    -50.9486     16.7602     88.5068
   879.7500     22.6242    -50.9094     16.7167     83.5314
   880.0000     21.3812    -51.4757     16.6637     74.3110
   880.2500     19.8174    -52.4626     16.6285     68.3779
   880.5000     18.6962    -53.4936     16.6129     62.2137
   880.7500     18.4197    -54.1772     16.5980     60.7189
   881.0000     18.9199    -54.3351     16.5536     62.0496
   881.2500     19.9143    -54.0704     16.4480     64.3740
   881.5000     21.0159    -53.5990     16.2590     68.4579
   881.7500     21.7137    -53.0251     15.9876     71.2687
   882.0000     21.6242    -52.2697     15.6635     75.9569
   882.2500     20.8276    -51.1590     15.3348     79.5950
   882.5000     19.7415    -49.5483     15.0478     85.5687
   882.7500     18.7461    -47.4194     14.8336     89.4583
   883.0000     18.0718    -44.9496     14.7083     94.2980
   883.2500     17.8091    -42.5255     14.6773     96.5343
   883.5000     17.9003    -40.6659     14.7375     98.1918
   883.7500     18.2077    -39.8831     14.8733     97.9360
   884.0000     18.4963    -40.5649     15.0519     94.5096
   884.2500     18.2917    -42.9117     15.2264     89.6456
