~Version Information
 VERS.                                  2.0 : CWLS LAS VERSION
 WRAP.                                   NO : WRAPING MODE
 SWARE .                 MController 2.5.0J : SOFTWARE VERSION
~Well Information
 WELL.                          Quack 22-24 : WELL
 COMP.    PIONEER NATURAL RESOURCES USA INC : COMPANY
 FLD.                      PURGATOIRE RIVER : FIELD
 LOC.                 SE/NW Sec 24 32S  67W : LOCATION
 DATE.                                  N/A : DATE(S) LOGGED
 SRVC.       Blanco Geological Services LLC : SERVICE COMPANY
 STAT.                                   CO : STATE
 CNTY.                           LAS ANIMAS : COUNTY
 CTRY.                                  USA : COUNTRY
 API.                       05-071-08402-00 : API NUMBER
 STRT.FT                             201.00 : START DEPTH
 STOP.FT                            2610.00 : STOP DEPTH
 STEP.FT                               1.00 : DEPTH INCREMENT
 NULL.                                -9999 : NULL VALUE
~Curve information
 DEPTH.FT                                   :
 ROP.MIN/FT                                 :
 GAS.UNITS                                  :
~ASCII Log data
       201.0     -9999.00          1.5 
       202.0        14.78          2.7 
       203.0         0.43          2.9 
       204.0         0.97          4.9 
       205.0         0.80          4.6 
       206.0         0.10          4.3 
       207.0         0.23          4.1 
       208.0         0.27          4.2 
       209.0         0.10          3.9 
       210.0         0.10          3.8 
       211.0         0.10          3.9 
       212.0         0.10          3.9 
       213.0         0.15          3.7 
       214.0         0.10          3.7 
       215.0         0.07          3.8 
       216.0         0.10          3.4 
       217.0         0.10          3.7 
       218.0         0.13          3.8 
       219.0         0.13          3.8 
       220.0         0.13          3.7 
       221.0         0.13          3.3 
       222.0         0.13          3.5 
       223.0         0.13          3.7 
       224.0         0.10          3.2 
       225.0         0.13          3.1 
       226.0         0.13          3.0 
       227.0         0.10          3.4 
       228.0         0.13          3.2 
       229.0         0.13          3.4 
       230.0         0.13          3.1 
       231.0         0.13          3.2 
       232.0         0.10          3.2 
       233.0         0.13          3.1 
       234.0         0.23          3.4 
       235.0         0.13          3.1 
       236.0         0.20          2.9 
       237.0         0.17          2.5 
       238.0         0.28          2.9 
       239.0         0.23          2.6 
       240.0         0.10          2.4 
       241.0         0.07          2.7 
       242.0         0.20          2.6 
       243.0         0.10          2.5 
       244.0         0.10          2.7 
       245.0         0.10          2.9 
       246.0         0.07          2.7 
       247.0         0.10          2.8 
       248.0         0.10          2.7 
       249.0         0.07          2.7 
       250.0         0.10          2.9 
       251.0         0.10          2.8 
       252.0         0.07          2.8 
       253.0         0.10          3.1 
       254.0         0.10          3.0 
       255.0         0.07          3.0 
       256.0         0.10          2.9 
       257.0         0.07          2.9 
       258.0         0.10          3.1 
       259.0         0.07          2.8 
       260.0         0.10          3.0 
       261.0         0.10          3.1 
       262.0         0.10          3.1 
       263.0         0.13          3.1 
       264.0         0.10          3.0 
       265.0         0.13          3.2 
       266.0         1.38          3.0 
       267.0         0.10          2.6 
       268.0         0.23          2.6 
       269.0         0.23          2.8 
       270.0         0.23          2.9 
       271.0         0.20          2.6 
       272.0         0.17          2.4 
       273.0         0.17          2.6 
       274.0         0.17          2.5 
       275.0         0.20          2.4 
       276.0         0.17          2.3 
       277.0         0.17          2.3 
       278.0         0.17          2.3 
       279.0         0.18          2.2 
       280.0         0.17          2.3 
       281.0         0.17          2.2 
       282.0         0.13          2.3 
       283.0         0.17          2.1 
       284.0         0.20          1.9 
       285.0         0.17          2.0 
       286.0         0.17          2.0 
       287.0         0.13          2.0 
       288.0         0.13          2.1 
       289.0         0.13          1.9 
       290.0         0.17          2.3 
       291.0         0.17          2.5 
       292.0         0.13          2.7 
       293.0         0.17          2.8 
       294.0         0.13          2.7 
       295.0         0.13          2.6 
       296.0         1.35          3.4 
       297.0         0.20          2.2 
       298.0         0.30          2.2 
       299.0         0.23          2.0 
       300.0         0.23         52.9 
       301.0         0.20         88.8 
       302.0         0.20         86.5 
       303.0         0.20         52.8 
       304.0         0.20         25.7 
       305.0         0.17         10.8 
       306.0         0.20          5.3 
       307.0         0.20          6.7 
       308.0         0.20          9.1 
       309.0         0.20         10.4 
       310.0         0.18         11.6 
       311.0         0.17         12.0 
       312.0         0.17         12.4 
       313.0         0.17         12.4 
       314.0         0.17         12.5 
       315.0         0.20         12.5 
       316.0         0.20         11.6 
       317.0         0.13         13.1 
       318.0         0.17         16.9 
       319.0         0.17         19.5 
       320.0         0.17         23.8 
       321.0         0.20         53.0 
       322.0         0.17         69.9 
       323.0         0.17         70.2 
       324.0         0.20         63.1 
       325.0         0.20         47.6 
       326.0         1.75         35.7 
       327.0         0.20         16.5 
       328.0         0.20         16.5 
       329.0         0.23         15.8 
       330.0         0.17         16.1 
       331.0         0.17         16.0 
       332.0         0.13         15.8 
       333.0         0.20         15.7 
       334.0         0.20         15.9 
       335.0         0.17         15.7 
       336.0         0.17         15.9 
       337.0         0.17         15.9 
       338.0         0.17         16.4 
       339.0         0.18         16.3 
       340.0         0.20         16.3 
       341.0         0.17         16.3 
       342.0         0.20         15.9 
       343.0         0.20         15.9 
       344.0         0.20         15.3 
       345.0         0.20         14.2 
       346.0         0.17         17.8 
       347.0         0.20         22.2 
       348.0         0.17         25.7 
       349.0         0.20         30.3 
       350.0         0.17         50.3 
       351.0         0.17         74.4 
       352.0         0.13         77.6 
       353.0         0.17         75.8 
       354.0         0.20         64.5 
       355.0         0.17         48.5 
       356.0         1.48         38.4 
       357.0         0.30         17.9 
       358.0         0.20         17.2 
       359.0         0.23         17.8 
       360.0         0.23         17.4 
       361.0         0.23         16.7 
       362.0         0.20         16.6 
       363.0         0.17         16.7 
       364.0         0.20         16.2 
       365.0         0.18         16.5 
       366.0         0.20         16.7 
       367.0         0.17         16.2 
       368.0         0.17         16.1 
       369.0         0.13         16.0 
       370.0         0.17         16.4 
       371.0         0.13         16.1 
       372.0         0.17         16.1 
       373.0         0.13         16.0 
       374.0         0.17         15.0 
       375.0         0.20         14.6 
       376.0         0.17         17.7 
       377.0         0.17         22.6 
       378.0         0.17         25.1 
       379.0         0.17         32.1 
       380.0         0.20         65.3 
       381.0         0.17         77.1 
       382.0         0.17         76.7 
       383.0         0.17         66.5 
       384.0         0.17         51.4 
       385.0         0.22         39.8 
       386.0         1.53         28.4 
       387.0         0.23          8.5 
       388.0         0.23          6.7 
       389.0         0.23          5.5 
       390.0         0.20          4.1 
       391.0         0.17          3.5 
       392.0         0.17          3.3 
       393.0         0.20          3.6 
       394.0         0.17          4.0 
       395.0         0.18          4.3 
       396.0         0.17          4.7 
       397.0         0.17          4.4 
       398.0         0.17          4.4 
       399.0         0.20          4.8 
       400.0         0.17          4.8 
