~Version Information
VERS.                      2.0: CWLS Log ASCII Standard - VERSION 2.0
WRAP.                       NO: One line per depth step
~Well Information Block
STRT.FT               375.0000: 
STOP.FT              1727.7000: 
STEP.FT                 0.1000: 
NULL.                -999.2500: 
COMP.          Pioneer Natural Resources: COMPANY
WELL.          Warrior 33-1 Tr: WELL
FLD.           Purgatoire River: FIELD
LOC.           2648' FSL & 2341' FEL--: LOCATION
PROV.                 Colorado: PROVINCE
CNTY.               Las Animas: COUNTRY
SRVC.                Patterson: SERVICE COMPANY
DATE.          Sat Jun 18 07:53:12 2005: LOG DATE
UWI.           05 071 08412 00: UNIQUE WELL ID
~Curve Information Block
DEPT.FT            0 000 00 00: Depth
DCAL.in                       : CDL Caliper
RHOB.g/cc                     : CDL Bulk Density
RHOC.g/cc                     : CDL Density Correction
DPOR.pu                       : CDL Density Porosity
NPOR.pu                       : Neutron Porosity
GR.GAPI                       : Gamma Ray
~Parameter Information Block
~A  Depth       DCAL        RHOB        RHOC        DPOR        NPOR         GR     
# ...
   816.6000      8.2197      2.3438      0.0741     18.5587     33.2387    116.1399
   816.7000      8.2197      2.3326      0.1216     19.2366     33.5185    116.4811
   816.8000      8.1983      2.3168      0.1061     20.1953     32.8665    119.5536
   816.9000      8.1983      2.2991      0.0641     21.2692     32.0122    125.9989
   817.0000      8.1891      2.2903      0.0395     21.8029     31.7108    128.6666
   817.1000      8.1891      2.3014      0.0214     21.1287     31.8550    124.2953
   817.2000      8.1891      2.3309      0.0571     19.3394     31.8534    119.9436
   817.3000      8.1884      2.3588      0.0887     17.6470     31.5904    119.1222
   817.4000      8.1884      2.3679      0.0961     17.0988     31.3381    120.1590
   817.5000      8.1891      2.3717      0.0380     16.8688     31.1367    122.4587
   817.6000      8.1891      2.4015      0.0644     15.0616     30.7839    123.0554
   817.7000      8.1891      2.4578      0.1677     11.6470     30.2637    119.6343
   817.8000      8.1896      2.5114      0.1921      8.4019     30.0811    117.1559
   817.9000      8.1896      2.5412      0.1760      6.5969     30.3916    120.4490
   818.0000      8.1881      2.5492      0.1381      6.1088     30.4628    125.6887
   818.1000      8.1881      2.5460      0.1159      6.3002     29.6757    124.8594
   818.2000      8.1881      2.5326      0.0850      7.1149     28.5335    116.8997
   818.3000      8.1821      2.5105      0.0787      8.4520     27.8252    110.5057
   818.4000      8.1821      2.5036      0.0171      8.8720     27.2279    111.4701
   818.5000      8.1733      2.5336      0.0402      7.0575     26.3601    113.4760
   818.6000      8.1733      2.5777      0.0975      4.3797     25.4861    109.8785
   818.7000      8.1733      2.6037      0.0706      2.8061     25.1166    103.3582
   818.8000      8.1660      2.6121      0.1171      2.2940     25.5639    100.0023
   818.9000      8.1660      2.6149      0.0945      2.1256     26.5884    101.4801
   819.0000      8.1626      2.6175      0.1117      1.9695     27.5102    103.8381
   819.1000      8.1626      2.6144      0.0978      2.1579     27.6122    104.4462
   819.2000      8.1626      2.5945      0.1152      3.3643     27.1758    101.7190
   819.3000      8.1680      2.5611      0.0471      5.3885     27.0162     97.0111
   819.4000      8.1680      2.5332      0.0468      7.0769     27.3345     97.3094
   819.5000      8.1946      2.5199      0.0090      7.8878     27.8219    103.9908
   819.6000      8.1946      2.5157      0.0349      8.1403     28.2402    113.5176
   819.7000      8.1946      2.5127      0.0654      8.3218     28.8581    121.5792
   819.8000      8.2361      2.5037      0.0675      8.8693     29.5575    123.2294
   819.9000      8.2361      2.4863      0.0600      9.9221     29.7065    120.9774
   820.0000      8.2587      2.4672      0.0251     11.0808     29.3218    120.7533
   820.1000      8.2587      2.4571      0.0172     11.6883     29.1527    121.4099
   820.2000      8.2587      2.4622      0.0305     11.3827     29.8200    120.0079
   820.3000      8.2602      2.4779      0.0574     10.4304     31.1345    119.9425
   820.4000      8.2602      2.4872      0.1018      9.8686     32.3048    123.6895
   820.5000      8.2593      2.4697      0.0667     10.9272     32.6821    129.5251
   820.6000      8.2593      2.4303      0.0376     13.3130     32.3841    136.4194
   820.7000      8.2593      2.3939      0.0561     15.5212     32.0430    140.2945
   820.8000      8.2676      2.3694      0.0540     17.0090     31.8989    139.5692
   820.9000      8.2676      2.3449      0.0318     18.4900     31.6780    137.4630
   821.0000      8.2970      2.3189      0.0186     20.0656     31.5018    134.8307
   821.1000      8.2970      2.3097     -0.0131     20.6267     31.6132    134.4809
   821.2000      8.2970      2.3189      0.0608     20.0651     31.9418    136.9352
   821.3000      8.3463      2.3165      0.0432     20.2140     32.1811    138.2682
   821.4000      8.3463      2.2882      0.0468     21.9266     32.2308    138.8806
   821.5000      8.3866      2.2642     -0.0037     23.3817     32.3838    138.9153
   821.6000      8.3866      2.2723      0.0804     22.8918     32.4220    135.3415
   821.7000      8.3866      2.2923      0.1280     21.6783     32.0974    127.5999
   821.8000      8.3983      2.2909      0.0745     21.7642     31.6887    119.0732
   821.9000      8.3983      2.2727      0.0277     22.8644     31.6458    112.8843
   822.0000      8.3840      2.2617      0.0286     23.5340     32.3606    111.5865
   822.1000      8.3840      2.2575      0.0845     23.7859     33.4786    115.6928
   822.2000      8.3840      2.2497      0.0465     24.2583     34.1365    122.1933
   822.3000      8.3650      2.2438      0.0620     24.6176     34.0337    127.6888
   822.4000      8.3650      2.2435      0.0949     24.6344     33.4327    130.5244
   822.5000      8.3555      2.2406      0.1182     24.8125     32.8121    131.1044
   822.6000      8.3555      2.2320      0.1173     25.3348     32.6636    132.2878
   822.7000      8.3555      2.2292      0.0387     25.5049     32.9769    136.4596
   822.8000      8.3365      2.2443      0.0780     24.5885     33.5918    141.4581
   822.9000      8.3365      2.2709      0.1031     22.9745     34.1797    142.3382
   823.0000      8.2986      2.2882      0.1626     21.9289     34.2128    139.7366
   823.1000      8.2986      2.2831      0.1471     22.2373     33.6712    141.2856
   823.2000      8.2986      2.2656      0.1227     23.2957     32.9516    146.7100
   823.3000      8.2750      2.2515      0.0994     24.1518     32.5426    148.5152
   823.4000      8.2750      2.2448      0.0878     24.5562     32.6789    145.4532
   823.5000      8.2713      2.2423      0.0807     24.7076     33.1155    139.8106
   823.6000      8.2713      2.2460      0.0508     24.4846     33.5031    135.8421
   823.7000      8.2713      2.2611      0.0641     23.5676     33.6287    133.0912
   823.8000      8.2715      2.2748      0.1080     22.7374     33.5292    128.3870
   823.9000      8.2715      2.2716      0.0862     22.9354     33.4058    125.1842
   824.0000      8.2730      2.2602      0.0856     23.6230     33.2550    123.2708
   824.1000      8.2730      2.2558      0.0692     23.8907     33.1676    123.3468
   824.2000      8.2730      2.2571      0.1089     23.8124     33.3158    129.2985
   824.3000      8.2761      2.2509      0.1378     24.1880     33.5139    135.6759
   824.4000      8.2761      2.2304      0.0615     25.4317     33.4685    134.3393
   824.5000      8.2794      2.1891      0.1321     27.9352     33.1078    127.4697
   824.6000      8.2794      2.1134      0.1111     32.5189     32.7419    121.4592
   824.7000      8.2794      2.0091      0.0471     38.8411     32.9827    114.0329
   824.8000      8.2850      1.8968     -0.0258     45.6498     33.9091    102.4240
   824.9000      8.2850      1.7902     -0.0398     52.1064     34.8929     91.7286
   825.0000      8.3090      1.6971     -0.0730     57.7541     35.5181     84.2150
   825.1000      8.3090      1.6162     -0.0802     62.6564     36.0036     79.9947
   825.2000      8.3090      1.5398     -0.0879     67.2859     36.3960     78.0597
   825.3000      8.3583      1.4673     -0.0847     71.6781     36.1045     74.0018
   825.4000      8.3583      1.4077     -0.0800     75.2915     35.1410     70.0931
   825.5000      8.3956      1.3694     -0.0399     77.6125     34.5317     68.4024
   825.6000      8.3956      1.3527     -0.0401     78.6229     34.7768     63.5003
   825.7000      8.3956      1.3501      0.0055     78.7815     35.0666     55.3770
   825.8000      8.3960      1.3519      0.0106     78.6719     34.5900     50.0371
   825.9000      8.3960      1.3538      0.0263     78.5589     33.8559     48.9296
   826.0000      8.3820      1.3563      0.0100     78.4056     33.8497     51.6285
   826.1000      8.3820      1.3611      0.0295     78.1122     34.5542     58.6105
