~Version Information
VERS.                      2.0: CWLS Log ASCII Standard - VERSION 2.0
WRAP.                       NO: One line per depth step
~Well Information Block
STRT.FT               275.0000: 
STOP.FT              1682.2500: 
STEP.FT                 0.2500: 
NULL.                -999.2500: 
COMP.          Pioneer Natural Resources: COMPANY
WELL.               Elmo 14-21: WELL
FLD.           Purgatoire River: FIELD
LOC.           623' FSL & 450' FWL----: LOCATION
PROV.                 Colorado: PROVINCE
CNTY.               Las Animas: COUNTRY
SRVC.                Patterson: SERVICE COMPANY
DATE.          Tue May 17 16:07:31 2005: LOG DATE
UWI.           05 071 08360 00: UNIQUE WELL ID
~Curve Information Block
DEPT.FT            0 000 00 00: Depth
SN.Ohm-m                      : IEL Short Normal
SP.mV                         : IEL Spontaneous Potential
DIR.Ohm-m                     : IEL Induction Resistivity
GR.GAPI                       : Gamma Ray
~Parameter Information Block
~A  Depth        SN          SP         DIR          GR     
# ...
  1179.5000      7.0539    -23.3217      8.4145    108.0944
  1179.7500      7.0214    -23.3566      8.3176    108.7789
  1180.0000      6.9744    -23.3885      8.2182    108.4628
  1180.2500      6.9174    -23.4133      8.1226    108.0229
  1180.5000      6.8619    -23.4283      8.0359    108.1620
  1180.7500      6.8190    -23.4323      7.9620    109.0274
  1181.0000      6.7925    -23.4258      7.9030    111.1047
  1181.2500      6.7795    -23.4098      7.8589    112.4971
  1181.5000      6.7752    -23.3854      7.8283    113.7675
  1181.7500      6.7762    -23.3535      7.8086    113.9997
  1182.0000      6.7804    -23.3150      7.7965    114.2277
  1182.2500      6.7860    -23.2708      7.7889    114.8337
  1182.5000      6.7929    -23.2228      7.7841    116.2493
  1182.7500      6.8017    -23.1745      7.7820    116.7113
  1183.0000      6.8114    -23.1300      7.7826    115.2909
  1183.2500      6.8205    -23.0940      7.7860    112.9530
  1183.5000      6.8306    -23.0701      7.7925    109.1180
  1183.7500      6.8464    -23.0602      7.8032    107.6781
  1184.0000      6.8721    -23.0633      7.8209    108.1496
  1184.2500      6.9089    -23.0764      7.8485    109.6142
  1184.5000      6.9578    -23.0949      7.8884    111.5357
  1184.7500      7.0203    -23.1141      7.9411    111.7520
  1185.0000      7.0974    -23.1306      8.0057    110.0281
  1185.2500      7.1882    -23.1428      8.0801    107.7308
  1185.5000      7.2917    -23.1507      8.1625    103.4965
  1185.7500      7.4067    -23.1560      8.2523    100.8626
  1186.0000      7.5310    -23.1610      8.3502     98.1668
  1186.2500      7.6617    -23.1675      8.4574     97.4358
  1186.5000      7.7975    -23.1772      8.5756     97.7881
  1186.7500      7.9426    -23.1911      8.7079     98.6403
  1187.0000      8.1059    -23.2104      8.8610    100.0185
  1187.2500      8.2982    -23.2366      9.0448    100.6858
  1187.5000      8.5313    -23.2722      9.2703    101.5034
  1187.7500      8.8223    -23.3202      9.5479    102.3324
  1188.0000      9.1946    -23.3839      9.8861    104.3211
  1188.2500      9.6720    -23.4670     10.2934    105.7480
  1188.5000     10.2711    -23.5722     10.7801    106.6222
  1188.7500     11.0022    -23.7019     11.3584    105.5711
  1189.0000     11.8771    -23.8574     12.0420    100.9529
  1189.2500     12.9166    -24.0386     12.8437     96.0374
  1189.5000     14.1518    -24.2444     13.7722     86.9146
  1189.7500     15.6248    -24.4724     14.8288     80.3515
  1190.0000     17.3887    -24.7198     16.0054     70.7086
  1190.2500     19.5034    -24.9830     17.2875     64.8198
  1190.5000     22.0145    -25.2579     18.6600     57.4024
  1190.7500     24.9183    -25.5393     20.1101     53.6424
  1191.0000     28.1276    -25.8192     21.6243     49.8195
  1191.2500     31.4496    -26.0861     23.1823     48.3230
  1191.5000     34.5871    -26.3230     24.7527     47.2490
  1191.7500     37.1743    -26.5083     26.2871     47.0362
  1192.0000     38.8505    -26.6168     27.7062     46.9021
  1192.2500     39.3465    -26.6232     28.8834     46.5826
  1192.5000     38.5563    -26.5069     29.6454     45.5002
  1192.7500     36.5839    -26.2555     29.8139     44.6732
  1193.0000     33.7521    -25.8694     29.2756     44.4024
  1193.2500     30.5359    -25.3621     28.0423     45.4693
  1193.5000     27.4108    -24.7595     26.2594     49.4412
  1193.7500     24.6879    -24.0964     24.1567     53.9258
  1194.0000     22.4469    -23.4116     21.9721     64.1730
  1194.2500     20.6045    -22.7430     19.8907     73.5489
  1194.5000     19.0433    -22.1240     18.0201     90.1111
  1194.7500     17.6987    -21.5806     16.4013    101.1050
  1195.0000     16.5625    -21.1308     15.0355    114.3973
  1195.2500     15.6440    -20.7844     13.9098    119.9612
  1195.5000     14.9411    -20.5439     13.0119    123.0421
  1195.7500     14.4384    -20.4058     12.3346    122.3031
  1196.0000     14.1135    -20.3606     11.8731    119.0108
  1196.2500     13.9369    -20.3940     11.6194    116.2761
  1196.5000     13.8679    -20.4870     11.5580    111.4734
  1196.7500     13.8513    -20.6168     11.6608    107.0819
  1197.0000     13.8236    -20.7577     11.8817     97.4044
  1197.2500     13.7269    -20.8836     12.1544     88.8667
  1197.5000     13.5316    -20.9696     12.3970     74.6997
  1197.7500     13.2584    -20.9954     12.5277     66.1199
  1198.0000     12.9742    -20.9475     12.4870     57.7733
  1198.2500     12.7503    -20.8211     12.2555     56.6666
  1198.5000     12.6049    -20.6202     11.8564     62.6054
  1198.7500     12.4787    -20.3571     11.3411     70.9472
  1199.0000     12.2684    -20.0497     10.7685     87.0043
  1199.2500     11.8912    -19.7190     10.1877     97.9223
  1199.5000     11.3304    -19.3855      9.6306    111.9024
  1199.7500     10.6345    -19.0668      9.1139    118.9632
  1200.0000      9.8830    -18.7756      8.6453    126.1584
  1200.2500      9.1539    -18.5191      8.2293    128.9595
  1200.5000      8.5055    -18.2992      7.8696    130.6302
  1200.7500      7.9721    -18.1132      7.5694    130.2725
  1201.0000      7.5656    -17.9555      7.3294    128.2058
  1201.2500      7.2805    -17.8193      7.1467    126.5609
  1201.5000      7.1028    -17.6980      7.0153    124.9877
  1201.7500      7.0185    -17.5869      6.9262    124.7165
  1202.0000      7.0179    -17.4848      6.8690    124.6793
  1202.2500      7.0917    -17.3936      6.8331    124.2857
  1202.5000      7.2228    -17.3187      6.8090    122.6222
  1202.7500      7.3841    -17.2674      6.7908    120.7880
  1203.0000      7.5480    -17.2469      6.7782    116.9304
  1203.2500      7.6985    -17.2627      6.7777    113.5058
  1203.5000      7.8383    -17.3173      6.8015    107.0529
  1203.7500      7.9844    -17.4094      6.8644    102.1972
  1204.0000      8.1593    -17.5348      6.9805     95.2299
  1204.2500      8.3861    -17.6878      7.1613     91.5083
  1204.5000      8.6878    -17.8633      7.4163     87.9210
  1204.7500      9.0877    -18.0582      7.7543     86.7508
  1205.0000      9.6100    -18.2719      8.1850     86.2491
  1205.2500     10.2852    -18.5066      8.7191    100.7791
  1205.5000     11.1572    -18.7661      9.3679    100.7757
  1205.7500     12.2897    -19.0543     10.1425     99.6427
  1206.0000     13.7689    -19.3744     11.0539     94.6853
  1206.2500     15.7041    -19.7275     12.1140    101.9572
  1206.5000     18.2224    -20.1126     13.3384     91.4146
  1206.7500     21.4385    -20.5278     14.7484     85.6956
  1207.0000     25.3917    -20.9706     16.3701     80.8763
  1207.2500     29.9801    -21.4401     18.2278     79.6032
  1207.5000     34.9484    -21.9371     20.3281     78.5169
  1207.7500     39.9615    -22.4650     22.6383     77.6560
  1208.0000     44.7273    -23.0289     25.0674     76.1232
  1208.2500     49.0941    -23.6335     27.4736     74.8943
  1208.5000     53.0748    -24.2813     29.7122     72.1594
  1208.7500     56.7977    -24.9704     31.7006     69.5075
  1209.0000     60.4161    -25.6921     33.4512     64.5980
  1209.2500     64.0123    -26.4313     35.0447     61.0866
  1209.5000     67.5327    -27.1662     36.5730     55.9738
  1209.7500     70.7830    -27.8699     38.0868     52.9167
  1210.0000     73.4758    -28.5129     39.5626     49.3719
  1210.2500     75.3023    -29.0647     40.8897     47.9558
  1210.5000     75.9947    -29.4962     41.8841     47.3757
  1210.7500     75.3775    -29.7815     42.3354     47.9284
  1211.0000     73.4029    -29.8990     42.0775     50.0320
  1211.2500     70.1576    -29.8332     41.0550     52.3535
  1211.5000     65.8296    -29.5760     39.3451     57.6073
  1211.7500     60.6595    -29.1281     37.1173     62.5163
  1212.0000     54.9111    -28.5004     34.5641     72.0202
  1212.2500     48.8737    -27.7147     31.8555     79.5274
  1212.5000     42.8619    -26.8028     29.1322     91.6589
  1212.7500     37.1784    -25.8042     26.5134     99.5989
