~Version Information
VERS.                      2.0: CWLS Log ASCII Standard - VERSION 2.0
WRAP.                       NO: One line per depth step
~Well Information Block
STRT.FT               770.0000: 
STOP.FT              1997.7000: 
STEP.FT                 0.1000: 
NULL.                -999.2500: 
COMP.          Pioneer Natural Resources: COMPANY
WELL.          Titan Federal 34-17: WELL
FLD.           Purgatoire River: FIELD
LOC.           321' FSL & 1911' FEL--: LOCATION
STAT.                 Colorado: State
CNTY.               Las Animas: COUNTY
CTRY. USA : Country
SECT. 17 : Section
TOWN. 32S : Township
RANG. 65W : Range
SRVC.                Patterson: SERVICE COMPANY
DATE.          Thu Oct 06 15:09:27 2005: LOG DATE
API.           05 071 08272 00: UNIQUE WELL ID
~Curve Information Block
DEPT.FT            0 000 00 00: Depth
DCAL.in                       : CDL Caliper
RHOB.g/cc                     : CDL Bulk Density
RHOC.g/cc                     : CDL Density Correction
DPOR.pu                       : CDL Density Porosity
NPOR.pu                       : Neutron Porosity
GR.GAPI                       : Gamma Ray
~Parameter Information Block
~A  Depth       DCAL        RHOB        RHOC        DPOR        NPOR         GR     
   770.0000      8.1073      2.4069     -0.2616     14.7307     47.5989     78.0046
   770.1000      8.1073      2.3838     -0.2255     16.1345     48.0486     71.7567
   770.2000      8.1073      2.3205     -0.2601     19.9681     48.0180     66.0556
   770.3000      8.1083      2.2158     -0.3453     26.3180     47.6889     63.3285
   770.4000      8.1083      2.0933     -0.3847     33.7390     47.3879     63.0091
   770.5000      8.1075      1.9698     -0.4410     41.2263     47.1751     62.4819
   770.6000      8.1075      1.8564     -0.4927     48.0984     46.9347     58.9735
   770.7000      8.1075      1.7668     -0.4361     53.5290     46.5679     52.9880
   770.8000      8.1076      1.7091     -0.4819     57.0243     46.0526     48.3585
   770.9000      8.1076      1.6995     -0.5381     57.6052     45.4856     47.0726
   771.0000      8.1079      1.7539     -0.4331     54.3095     44.7521     47.6321
   771.1000      8.1079      1.8634     -0.3846     47.6703     43.8272     47.3559
   771.2000      8.1079      2.0022     -0.3058     39.2626     42.9794     46.9033
   771.3000      8.1068      2.1397     -0.2523     30.9251     42.5234     49.6480
   771.4000      8.1068      2.2579     -0.2528     23.7656     42.6521     55.5334
   771.5000      8.1062      2.3555     -0.2190     17.8512     43.1211     62.1107
   771.6000      8.1062      2.4355     -0.2442     12.9981     43.5295     68.3016
   771.7000      8.1062      2.4944     -0.2207      9.4277     43.6595     72.4728
   771.8000      8.1066      2.5235     -0.2797      7.6663     43.7320     73.3851
   771.9000      8.1066      2.5306     -0.3264      7.2375     43.7542     70.6110
   772.0000      8.1056      2.5347     -0.3057      6.9898     43.4039     64.5376
   772.1000      8.1056      2.5442     -0.3287      6.4146     42.9332     58.6724
   772.2000      8.1056      2.5541     -0.3016      5.8143     42.6056     56.5044
   772.3000      8.1048      2.5556     -0.2826      5.7241     42.3742     58.4962
   772.4000      8.1048      2.5508     -0.2813      6.0114     42.2116     61.6318
   772.5000      8.1062      2.5428     -0.2163      6.4961     42.1218     62.4746
   772.6000      8.1062      2.5299     -0.2729      7.2773     42.2079     62.6260
   772.7000      8.1062      2.5167     -0.2498      8.0795     42.2950     62.0431
   772.8000      8.1091      2.5047     -0.2640      8.8059     42.1551     57.4292
   772.9000      8.1091      2.4928     -0.2723      9.5293     41.9318     51.7934
   773.0000      8.1096      2.4858     -0.2986      9.9525     41.8403     51.4074
   773.1000      8.1096      2.4912     -0.2782      9.6247     41.9751     55.6042
   773.2000      8.1096      2.5055     -0.2153      8.7586     42.2081     57.4951
   773.3000      8.1072      2.5219     -0.3021      7.7623     42.2591     55.6032
   773.4000      8.1072      2.5394     -0.1941      6.7054     42.1355     54.9893
   773.5000      8.1065      2.5432     -0.1745      6.4730     42.0388     55.7251
   773.6000      8.1065      2.5287     -0.2150      7.3530     41.9283     55.1795
   773.7000      8.1065      2.5241     -0.2801      7.6314     41.7921     55.0689
   773.8000      8.1076      2.5431     -0.2227      6.4795     41.9262     55.5686
   773.9000      8.1076      2.5594     -0.2133      5.4937     42.3817     53.2701
   774.0000      8.1086      2.5548     -0.1929      5.7696     42.7353     48.0416
   774.1000      8.1086      2.5375     -0.1962      6.8186     42.7528     46.6188
   774.2000      8.1086      2.5231     -0.2441      7.6917     42.6524     52.4896
   774.3000      8.1108      2.5304     -0.2616      7.2489     42.6935     60.5608
   774.4000      8.1108      2.5651     -0.2582      5.1424     42.7449     65.2279
   774.5000      8.1128      2.5985     -0.1835      3.1202     42.6097     65.0032
   774.6000      8.1128      2.5957     -0.1927      3.2920     42.3744     61.9016
   774.7000      8.1128      2.5680     -0.2879      4.9681     42.1149     59.5943
   774.8000      8.1137      2.5496     -0.2253      6.0824     42.0932     60.2131
   774.9000      8.1137      2.5522     -0.2622      5.9285     42.3878     62.9595
   775.0000      8.1136      2.5789     -0.2726      4.3110     42.5542     64.4544
   775.1000      8.1136      2.6207     -0.1891      1.7764     42.4311     63.6157
   775.2000      8.1136      2.6544     -0.1970     -0.2680     42.2312     63.0129
   775.3000      8.1140      2.6674     -0.1904     -1.0536     42.2256     61.9531
   775.4000      8.1140      2.6593     -0.2005     -0.5613     42.4235     59.6586
   775.5000      8.1135      2.6460     -0.2895      0.2401     42.6021     61.0869
   775.6000      8.1135      2.6545     -0.2405     -0.2705     42.7676     67.8772
   775.7000      8.1135      2.6929     -0.2136     -2.5982     42.9045     73.5196
   775.8000      8.1120      2.7451     -0.1988     -5.7608     42.8662     72.9581
   775.9000      8.1120      2.7783     -0.1541     -7.7781     42.8295     69.9749
   776.0000      8.1116      2.7678     -0.1939     -7.1406     42.9964     69.9230
   776.1000      8.1116      2.7214     -0.2520     -4.3266     43.2292     72.2079
   776.2000      8.1116      2.6660     -0.2687     -0.9712     43.3202     72.8688
   776.3000      8.1123      2.6309     -0.2653      1.1556     43.3209     72.2128
   776.4000      8.1123      2.6296     -0.2631      1.2356     43.4459     73.8043
   776.5000      8.1119      2.6430     -0.1936      0.4222     43.7241     75.7491
   776.6000      8.1119      2.6523     -0.2137     -0.1371     44.0304     74.8572
   776.7000      8.1119      2.6637     -0.1892     -0.8325     44.3972     73.6942
   776.8000      8.1107      2.6741     -0.1555     -1.4632     44.6616     75.2120
   776.9000      8.1107      2.6693     -0.1924     -1.1717     44.4551     78.9002
   777.0000      8.1112      2.6634     -0.2496     -0.8146     43.8807     82.4485
   777.1000      8.1112      2.6736     -0.1732     -1.4300     43.2695     81.8898
   777.2000      8.1112      2.6847     -0.1665     -2.1011     42.7234     77.6903
   777.3000      8.1104      2.6814     -0.1579     -1.9048     42.3739     75.3705
   777.4000      8.1104      2.6706     -0.2252     -1.2488     42.3955     75.4651
   777.5000      8.1072      2.6658     -0.2254     -0.9603     42.7081     73.8071
   777.6000      8.1072      2.6547     -0.1628     -0.2819     42.8393     69.2334
   777.7000      8.1072      2.6158     -0.2340      2.0729     42.4874     64.2120
   777.8000      8.1061      2.5713     -0.2434      4.7687     42.0282     60.7803
   777.9000      8.1061      2.5514     -0.2557      5.9761     41.8140     58.7910
   778.0000      8.1081      2.5478     -0.2522      6.1960     41.8063     59.4296
   778.1000      8.1081      2.5427     -0.2741      6.5009     41.9272     63.3317
   778.2000      8.1081      2.5355     -0.2702      6.9418     41.9898     66.5667
   778.3000      8.1110      2.5337     -0.2541      7.0471     41.7909     65.6189
   778.4000      8.1110      2.5400     -0.2504      6.6658     41.3695     61.7761
   778.5000      8.1121      2.5507     -0.2614      6.0154     40.8490     58.8432
   778.6000      8.1121      2.5646     -0.2432      5.1776     40.4889     59.5046
   778.7000      8.1121      2.5799     -0.2271      4.2456     40.5376     62.7521
   778.8000      8.1116      2.5975     -0.2218      3.1844     40.8489     63.1392
   778.9000      8.1116      2.6238     -0.1563      1.5871     40.9369     58.9276
   779.0000      8.1117      2.6663     -0.1941     -0.9897     40.8890     54.8998
   779.1000      8.1117      2.7299     -0.2014     -4.8410     41.4587     53.3184
   779.2000      8.1117      2.7995     -0.1498     -9.0620     42.3704     52.8815
   779.3000      8.1141      2.8460     -0.1541    -11.8766     42.7491     52.4025
   779.4000      8.1141      2.8671     -0.1585    -13.1603     42.9233     52.6778
   779.5000      8.1160      2.8753     -0.1638    -13.6555     43.6269     56.5606
