~Version Information
VERS.                      2.0: CWLS Log ASCII Standard - VERSION 2.0
WRAP.                       NO: One line per depth step
~Well Information Block
STRT.FT              2246.0000: 
STOP.FT              2472.6000: 
STEP.FT                 0.1000: 
NULL.                -999.2500: 
COMP.          Petrogulf Corporation: COMPANY
WELL.           Schedler 9-23V: WELL
FLD.           Purgatorie River: FIELD
LOC.           2185' FSL & 2328' FWL: LOCATION
CNTY.               Las Animas: COUNTY
SRVC.                         : SERVICE COMPANY
DATE.          Thu Jul 10 10:29:30 2003: LOG DATE
UWI.           05 071 07876 00: UNIQUE WELL ID
STAT.                 Colorado: STATE
~Curve Information Block
DEPT.FT            0 000 00 00: Depth
DCAL.in                       : CDL Caliper
RHOB.g/cc                     : CDL Bulk Density
RHOC.g/cc                     : CDL Density Correction
DPOR.pu                       : CDL Density Porosity
GR.GAPI                       : Gamma Ray
NPOR.pu                       : Neutron Porosity
~Parameter Information Block
~A  Depth       DCAL        RHOB        RHOC        DPOR         GR         NPOR    
# ...
  2428.4000      7.8318      2.4801      0.0616     10.2963     71.2416     17.8310
  2428.5000      7.8079      2.4793      0.0613     10.3442     70.9170     17.8615
  2428.6000      7.8079      2.4786      0.0611     10.3857     70.5241     17.8745
  2428.7000      7.8079      2.4781      0.0607     10.4208     70.0707     17.8654
  2428.8000      7.7938      2.4776      0.0602     10.4500     69.5858     17.8341
  2428.9000      7.7938      2.4772      0.0596     10.4739     69.1129     17.7852
  2429.0000      7.7920      2.4769      0.0589     10.4935     68.7020     17.7279
  2429.1000      7.7920      2.4766      0.0580     10.5099     68.3998     17.6745
  2429.2000      7.7920      2.4764      0.0570     10.5240     68.2430     17.6392
  2429.3000      7.7969      2.4761      0.0559     10.5369     68.2507     17.6367
  2429.4000      7.7969      2.4759      0.0548     10.5493     68.4227     17.6806
  2429.5000      7.8031      2.4757      0.0537     10.5614     68.7415     17.7820
  2429.6000      7.8031      2.4755      0.0527     10.5732     69.1755     17.9482
  2429.7000      7.8031      2.4754      0.0519     10.5844     69.6862     18.1811
  2429.8000      7.8082      2.4752      0.0515     10.5940     70.2344     18.4763
  2429.9000      7.8082      2.4751      0.0515     10.6011     70.7888     18.8231
  2430.0000      7.8122      2.4750      0.0521     10.6041     71.3295     19.2049
  2430.1000      7.8122      2.4751      0.0531     10.6019     71.8532     19.6006
  2430.2000      7.8122      2.4752      0.0547     10.5931     72.3685     19.9869
  2430.3000      7.8131      2.4755      0.0567     10.5764     72.8957     20.3417
  2430.4000      7.8131      2.4759      0.0590     10.5512     73.4584     20.6462
  2430.5000      7.8065      2.4765      0.0614     10.5170     74.0779     20.8871
  2430.6000      7.8065      2.4772      0.0637     10.4738     74.7684     21.0575
  2430.7000      7.8065      2.4780      0.0659     10.4218     75.5324     21.1566
  2430.8000      7.7968      2.4790      0.0677     10.3620     76.3587     21.1892
  2430.9000      7.7968      2.4801      0.0691     10.2957     77.2282     21.1632
  2431.0000      7.7911      2.4813      0.0702     10.2244     78.1137     21.0889
  2431.1000      7.7911      2.4825      0.0707     10.1501     78.9846     20.9770
  2431.2000      7.7911      2.4838      0.0709     10.0752     79.8123     20.8382
  2431.3000      7.7895      2.4850      0.0707     10.0019     80.5703     20.6811
  2431.4000      7.7895      2.4861      0.0702      9.9327     81.2356     20.5135
  2431.5000      7.7895      2.4871      0.0693      9.8700     81.7879     20.3412
  2431.6000      7.7895      2.4880      0.0681      9.8158     82.2114     20.1685
  2431.7000      7.7895      2.4888      0.0665      9.7716     82.4916     19.9984
  2431.8000      7.7897      2.4893      0.0645      9.7384     82.6218     19.8333
  2431.9000      7.7897      2.4897      0.0621      9.7165     82.6033     19.6751
  2432.0000      7.7898      2.4899      0.0595      9.7053     82.4503     19.5263
  2432.1000      7.7898      2.4899      0.0566      9.7033     82.1879     19.3898
  2432.2000      7.7898      2.4898      0.0537      9.7085     81.8529     19.2689
  2432.3000      7.7910      2.4897      0.0509      9.7180     81.4902     19.1673
  2432.4000      7.7910      2.4895      0.0482      9.7285     81.1431     19.0887
  2432.5000      7.7919      2.4894      0.0458      9.7363     80.8481     19.0361
  2432.6000      7.7919      2.4893      0.0439      9.7378     80.6306     19.0117
  2432.7000      7.7919      2.4895      0.0425      9.7293     80.4951     19.0161
  2432.8000      7.7917      2.4898      0.0416      9.7077     80.4323     19.0490
  2432.9000      7.7917      2.4904      0.0413      9.6701     80.4159     19.1090
  2433.0000      7.7930      2.4914      0.0414      9.6142     80.4124     19.1937
  2433.1000      7.7930      2.4926      0.0421      9.5387     80.3877     19.3001
  2433.2000      7.7930      2.4942      0.0431      9.4425     80.3114     19.4252
  2433.3000      7.7972      2.4961      0.0443      9.3256     80.1647     19.5652
  2433.4000      7.7972      2.4984      0.0458      9.1884     79.9419     19.7157
  2433.5000      7.8013      2.5010      0.0473      9.0318     79.6491     19.8717
  2433.6000      7.8013      2.5039      0.0488      8.8569     79.3042     20.0267
  2433.7000      7.8013      2.5070      0.0501      8.6654     78.9303     20.1739
  2433.8000      7.8035      2.5104      0.0513      8.4588     78.5512     20.3053
  2433.9000      7.8035      2.5141      0.0523      8.2384     78.1868     20.4138
  2434.0000      7.8037      2.5179      0.0530      8.0055     77.8520     20.4927
  2434.1000      7.8037      2.5219      0.0535      7.7612     77.5509     20.5371
  2434.2000      7.8037      2.5261      0.0537      7.5063     77.2805     20.5442
  2434.3000      7.8009      2.5305      0.0538      7.2414     77.0338     20.5135
  2434.4000      7.8009      2.5350      0.0539      6.9673     76.8039     20.4459
  2434.5000      7.7984      2.5397      0.0541      6.6852     76.5885     20.3445
  2434.6000      7.7984      2.5445      0.0544      6.3964     76.3972     20.2130
  2434.7000      7.7984      2.5493      0.0550      6.1028     76.2477     20.0555
  2434.8000      7.7980      2.5542      0.0557      5.8070     76.1684     19.8759
  2434.9000      7.7980      2.5591      0.0566      5.5119     76.1906     19.6777
  2435.0000      7.7952      2.5639      0.0574      5.2208     76.3399     19.4634
  2435.1000      7.7952      2.5685      0.0581      4.9372     76.6281     19.2343
  2435.2000      7.7952      2.5730      0.0584      4.6642     77.0475     18.9899
  2435.3000      7.7892      2.5773      0.0581      4.4046     77.5669     18.7279
  2435.4000      7.7892      2.5814      0.0571      4.1604     78.1339     18.4457
  2435.5000      7.7814      2.5851      0.0555      3.9328     78.6864     18.1392
  2435.6000      7.7814      2.5886      0.0533      3.7220     79.1618     17.8058
  2435.7000      7.7814      2.5918      0.0507      3.5277     79.5085     17.4444
  2435.8000      7.7767      2.5947      0.0480      3.3488     79.6988     17.0573
  2435.9000      7.7767      2.5975      0.0453      3.1842     79.7293     16.6504
  2436.0000      7.7816      2.6000      0.0431      3.0330     79.6229     16.2345
  2436.1000      7.7816      2.6022      0.0414      2.8946     79.4209     15.8231
  2436.2000      7.7816      2.6043      0.0403      2.7696     79.1756     15.4326
  2436.3000      7.7881      2.6061      0.0400      2.6591     78.9398     15.0799
  2436.4000      7.7881      2.6077      0.0404      2.5657     78.7588     14.7809
  2436.5000      7.7901      2.6089      0.0414      2.4928     78.6662     14.5486
  2436.6000      7.7901      2.6097      0.0428      2.4443     78.6800     14.3924
  2436.7000      7.7901      2.6100      0.0445      2.4246     78.8067     14.3170
  2436.8000      7.7888      2.6098      0.0463      2.4380     79.0395     14.3229
  2436.9000      7.7888      2.6089      0.0481      2.4883     79.3625     14.4055
  2437.0000      7.7887      2.6075      0.0498      2.5784     79.7523     14.5566
  2437.1000      7.7887      2.6053      0.0511      2.7096     80.1795     14.7652
  2437.2000      7.7887      2.6024      0.0521      2.8820     80.6109     15.0179
  2437.3000      7.7898      2.5990      0.0526      3.0935     81.0166     15.3008
  2437.4000      7.7898      2.5949      0.0526      3.3405     81.3698     15.6001
  2437.5000      7.7894      2.5903      0.0520      3.6175     81.6550     15.9033
  2437.6000      7.7894      2.5854      0.0511      3.9175     81.8717     16.2002
  2437.7000      7.7894      2.5802      0.0498      4.2324     82.0319     16.4830
  2437.8000      7.7891      2.5749      0.0483      4.5535     82.1609     16.7464
  2437.9000      7.7891      2.5696      0.0468      4.8718     82.2912     16.9880
