~Version Information
VERS.                      2.0: CWLS Log ASCII Standard - VERSION 2.0
WRAP.                       NO: One line per depth step
~Well Information Block
STRT.FT                -8.8000: 
STOP.FT              2006.2000: 
STEP.FT                 0.1000: 
NULL.                -999.2500: 
COMP.          Petrogulf Corporation: COMPANY
WELL.             J & P 12-33V: WELL
FLD.           Purgatorie River: FIELD
LOC.           2005' FSL & 1928' FEL: LOCATION
CNTY.               Las Animas: COUNTY
SRVC.                         : SERVICE COMPANY
DATE.          Fri Jul 29 13:37:28 2005: LOG DATE
UWI.                          : UNIQUE WELL ID
STAT.                 Colorado: STATE
~Curve Information Block
DEPT.FT            0 000 00 00: Depth
GR.GAPI                       : Gamma Ray
CCL.                          : Casing Collar Locator
TT3.usec                      : CBL 3' Travel Time
AMP3.mV                       : CBL 3' Amplitude
~Parameter Information Block
~A  Depth        GR         CCL         TT3         AMP3    
# ...
  1987.8000     80.6386      0.0000    703.0740      7.5309
  1987.9000     80.6386      0.0000    703.0740      7.5309
  1988.0000     75.3138      0.0000    692.4523      7.0064
  1988.1000     75.3138      0.0000    692.4523      7.0064
  1988.2000     75.3138      0.0000    692.4523      7.0064
  1988.3000     67.8630      0.0000    708.5055      6.4776
  1988.4000     67.8630      0.0000    708.5055      6.4776
  1988.5000     60.6455      0.0000    737.2474      5.9223
  1988.6000     60.6455      0.0000    737.2474      5.9223
  1988.7000     60.6455      0.0000    737.2474      5.9223
  1988.8000     54.9756      0.0000    752.9132      5.3362
  1988.9000     54.9756      0.0000    752.9132      5.3362
  1989.0000     51.0133      0.0000    743.3723      4.7803
  1989.1000     51.0133      0.0000    743.3723      4.7803
  1989.2000     51.0133      0.0000    743.3723      4.7803
  1989.3000     48.3563      0.0000    729.3780      4.3210
  1989.4000     48.3563      0.0000    729.3780      4.3210
  1989.5000     46.6074      0.0000    739.7528      3.9367
  1989.6000     46.6074      0.0000    739.7528      3.9367
  1989.7000     46.6074      0.0000    739.7528      3.9367
  1989.8000     45.7925      0.0000    774.3453      3.5625
  1989.9000     45.7925      0.0000    774.3453      3.5625
  1990.0000     46.5754      0.0000    804.1862      3.1816
  1990.1000     46.5754      0.0000    804.1862      3.1816
  1990.2000     46.5754      0.0000    804.1862      3.1816
  1990.3000     49.8902      0.0000    806.3220      2.8453
  1990.4000     49.8902      0.0000    806.3220      2.8453
  1990.5000     56.1888      0.0000    789.2138      2.6556
  1990.6000     56.1888      0.0000    789.2138      2.6556
  1990.7000     56.1888      0.0000    789.2138      2.6556
  1990.8000     65.1886      0.0000    778.6234      2.7056
  1990.9000     65.1886      0.0000    778.6234      2.7056
  1991.0000     76.2703      0.0000    787.5682      3.0006
  1991.1000     76.2703      0.0000    787.5682      3.0006
  1991.2000     76.2703      0.0000    787.5682      3.0006
  1991.3000     88.5846      0.0000    806.4526      3.4829
  1991.4000     88.5846      0.0000    806.4526      3.4829
  1991.5000    100.7365      0.0000    818.4908      4.0913
  1991.6000    100.7365      0.0000    818.4908      4.0913
  1991.7000    100.7365      0.0000    818.4908      4.0913
  1991.8000    111.1268      0.0000    819.6826      4.7449
  1991.9000    111.1268      0.0000    819.6826      4.7449
  1992.0000    119.0051      0.0000    817.4606      5.3475
  1992.1000    119.0051      0.0000    817.4606      5.3475
  1992.2000    119.0051      0.0000    817.4606      5.3475
  1992.3000    124.8266      0.0000    812.1532      5.8275
  1992.4000    124.8266      0.0000    812.1532      5.8275
  1992.5000    129.4472      0.0000    791.8795      6.1463
  1992.6000    129.4472      0.0000    791.8795      6.1463
  1992.7000    129.4472      0.0000    791.8795      6.1463
  1992.8000    133.2920      0.0000    739.5555      6.2236
  1992.9000    133.2920      0.0000    739.5555      6.2236
  1993.0000    136.2442      0.0000    631.9160      5.7963
  1993.1000    136.2442      0.0000    631.9160      5.7963
  1993.2000    136.2442      0.0000    631.9160      5.7963
  1993.3000    137.9655      0.0000    458.3105      4.6085
  1993.4000    137.9655      0.0000    458.3105      4.6085
  1993.5000    138.2477      0.0000    259.5893      2.9459
  1993.6000    138.2477      0.0000    259.5893      2.9459
  1993.7000    138.2477      0.0000    259.5893      2.9459
  1993.8000    137.2495      0.0000    107.2111      1.5461
  1993.9000    137.2495      0.0000    107.2111      1.5461
  1994.0000    135.5503      0.0000     30.7836      0.8091
  1994.1000    135.5503      0.0000     30.7836      0.8091
  1994.2000    135.5503      0.0000     30.7836      0.8091
  1994.3000    134.0669      0.0000      5.9587      0.5630
  1994.4000    134.0669      0.0000      5.9587      0.5630
  1994.5000    133.7521      0.0000      0.7602      0.5107
  1994.6000    133.7521      0.0000      0.7602      0.5107
  1994.7000    133.7521      0.0000      0.7602      0.5107
  1994.8000    134.9799      0.0000      0.0603      0.5036
  1994.9000    134.9799      0.0000      0.0603      0.5036
  1995.0000    137.0784      0.0000   -999.2500   -999.2500
  1995.1000    137.0784      0.0000   -999.2500   -999.2500
  1995.2000    137.0784      0.0000   -999.2500   -999.2500
  1995.3000    138.6761      0.0000   -999.2500   -999.2500
  1995.4000    138.6761      0.0000   -999.2500   -999.2500
  1995.5000    138.6482      0.0000   -999.2500   -999.2500
  1995.6000    138.6482      0.0000   -999.2500   -999.2500
  1995.7000    138.6482      0.0000   -999.2500   -999.2500
  1995.8000    136.7578      0.0000   -999.2500   -999.2500
  1995.9000    136.7578      0.0000   -999.2500   -999.2500
  1996.0000    133.4340      0.0000   -999.2500   -999.2500
  1996.1000    133.4340      0.0000   -999.2500   -999.2500
  1996.2000    133.4340      0.0000   -999.2500   -999.2500
  1996.3000    128.8964      0.0000   -999.2500   -999.2500
  1996.4000    128.8964      0.0000   -999.2500   -999.2500
  1996.5000    122.5643      0.0000   -999.2500   -999.2500
  1996.6000    122.5643      0.0000   -999.2500   -999.2500
  1996.7000    122.5643      0.0000   -999.2500   -999.2500
  1996.8000    113.5797      0.0000   -999.2500   -999.2500
  1996.9000    113.5797      0.0000   -999.2500   -999.2500
  1997.0000    102.0102      0.0000   -999.2500   -999.2500
  1997.1000    102.0102      0.0000   -999.2500   -999.2500
  1997.2000    102.0102      0.0000   -999.2500   -999.2500
  1997.3000     89.3613      0.0000   -999.2500   -999.2500
  1997.4000     89.3613      0.0000   -999.2500   -999.2500
  1997.5000     77.7940      0.0000   -999.2500   -999.2500
  1997.6000     77.7940      0.0000   -999.2500   -999.2500
  1997.7000     77.7940      0.0000   -999.2500   -999.2500
  1997.8000     68.9006      0.0000   -999.2500   -999.2500
  1997.9000     68.9006      0.0000   -999.2500   -999.2500
  1998.0000     63.0663      0.0000   -999.2500   -999.2500
  1998.1000     63.0663      0.0000   -999.2500   -999.2500
  1998.2000     63.0663      0.0000   -999.2500   -999.2500
  1998.3000     59.6333      0.0000   -999.2500   -999.2500
  1998.4000     59.6333      0.0000   -999.2500   -999.2500
  1998.5000     57.5687      0.0000   -999.2500   -999.2500
  1998.6000     57.5687      0.0000   -999.2500   -999.2500
  1998.7000     57.5687      0.0000   -999.2500   -999.2500
  1998.8000     56.2307      0.0000   -999.2500   -999.2500
  1998.9000     56.2307      0.0000   -999.2500   -999.2500
  1999.0000     55.6746      0.0000   -999.2500   -999.2500
  1999.1000     55.6746      0.0000   -999.2500   -999.2500
  1999.2000     55.6746      0.0000   -999.2500   -999.2500
  1999.3000     56.2553      0.0000   -999.2500   -999.2500
  1999.4000     56.2553      0.0000   -999.2500   -999.2500
  1999.5000     57.9380      0.0000   -999.2500   -999.2500
  1999.6000     57.9380      0.0000   -999.2500   -999.2500
  1999.7000     57.9380      0.0000   -999.2500   -999.2500
  1999.8000     60.0032      0.0000   -999.2500   -999.2500
  1999.9000     60.0032      0.0000   -999.2500   -999.2500
  2000.0000     61.3972      0.0000   -999.2500   -999.2500
  2000.1000     61.3972      0.0000   -999.2500   -999.2500
  2000.2000     61.3972      0.0000   -999.2500   -999.2500
  2000.3000     61.3554      0.0000   -999.2500   -999.2500
  2000.4000     61.3554      0.0000   -999.2500   -999.2500
  2000.5000     59.7686      0.0000   -999.2500   -999.2500
  2000.6000     59.7686      0.0000   -999.2500   -999.2500
  2000.7000     59.7686      0.0000   -999.2500   -999.2500
  2000.8000     57.2240      0.0000   -999.2500   -999.2500
  2000.9000     57.2240      0.0000   -999.2500   -999.2500
  2001.0000     54.9285      0.0000   -999.2500   -999.2500
  2001.1000     54.9285   -999.2500   -999.2500   -999.2500
