~Version Information
VERS.                      2.0: CWLS Log ASCII Standard - VERSION 2.0
WRAP.                       NO: One line per depth step
~Well Information Block
STRT.FT               546.0000: 
STOP.FT              1771.5000: 
STEP.FT                 0.1000: 
NULL.                -999.2500: 
COMP.          Petrogulf Corporation: COMPANY
WELL.             McLeod 9-42R: WELL
FLD.           Purgatorie River: FIELD
LOC.           1748' FNL & 372' FEL: LOCATION
PROV.                 Colorado: PROVINCE
CNTY.               Las Animas: COUNTRY
SRVC.                Patterson: SERVICE COMPANY
DATE.          Tue Aug 16 11:11:38 2005: LOG DATE
UWI.                071 08092 : UNIQUE WELL ID
~Curve Information Block
DEPT.FT            0 000 00 00: Depth
DCAL.in                       : CDL Caliper
RHOB.g/cc                     : CDL Bulk Density
RHOC.g/cc                     : CDL Density Correction
DPOR.pu                       : CDL Density Porosity
GR.GAPI                       : Gamma Ray
NPOR.pu                       : Neutron Porosity
~Parameter Information Block
~A  Depth       DCAL        RHOB        RHOC        DPOR         GR         NPOR    
# ...
  1333.2000      7.8283      2.6164      0.0635      2.0358     83.3506     21.9005
  1333.3000      7.8777      2.6048      0.0619      2.7366     83.3839     21.2034
  1333.4000      7.8777      2.5914      0.0503      3.5528     80.8410     20.4780
  1333.5000      7.8863      2.5834      0.0399      4.0387     78.1795     19.7970
  1333.6000      7.8863      2.5897      0.0205      3.6543     79.2752     19.0033
  1333.7000      7.8863      2.6158      0.1028      2.0747     82.2873     18.5042
  1333.8000      7.8545      2.6538      0.1437     -0.2310     82.8476     18.5260
  1333.9000      7.8545      2.6868      0.1516     -2.2323     81.7371     18.8949
  1334.0000      7.7865      2.6987      0.1672     -2.9495     81.9062     19.2964
  1334.1000      7.7865      2.6852      0.1773     -2.1353     83.3238     19.3319
  1334.2000      7.7865      2.6578      0.1469     -0.4699     84.9979     18.9870
  1334.3000      7.7825      2.6296      0.1188      1.2350     86.2330     18.7473
  1334.4000      7.7825      2.6091      0.0849      2.4779     85.7478     18.9710
  1334.5000      7.7852      2.6029      0.0867      2.8537     83.8126     19.5308
  1334.6000      7.7852      2.6093      0.0749      2.4693     82.9309     19.9186
  1334.7000      7.7852      2.6142      0.1055      2.1690     85.2440     20.0457
  1334.8000      7.8330      2.6102      0.0610      2.4144     89.7535     20.0864
  1334.9000      7.8330      2.6077      0.0489      2.5656     94.1221     19.8241
  1335.0000      7.9381      2.6090      0.0916      2.4825     98.9667     19.4768
  1335.1000      7.9381      2.6010      0.0631      2.9693    104.0432     19.6688
  1335.2000      7.9381      2.5838      0.0457      4.0146    106.2508     20.4042
  1335.3000      7.9246      2.5699      0.0506      4.8557    105.5561     21.3956
  1335.4000      7.9246      2.5600      0.0662      5.4545    104.5315     22.5339
  1335.5000      7.8865      2.5456      0.0686      6.3265    105.8673     23.6385
  1335.6000      7.8865      2.5342      0.0042      7.0153    111.1890     24.4892
  1335.7000      7.8865      2.5409      0.0452      6.6149    116.0410     25.1154
  1335.8000      7.9114      2.5570      0.0831      5.6349    116.2245     25.5730
  1335.9000      7.9114      2.5644      0.0798      5.1857    115.9126     25.8014
  1336.0000      7.9064      2.5633      0.0675      5.2544    119.8273     25.9689
  1336.1000      7.9064      2.5644      0.0846      5.1888    125.6427     26.3558
  1336.2000      7.9064      2.5698      0.0959      4.8624    129.8501     26.8940
  1336.3000      7.8997      2.5763      0.0786      4.4676    132.9182     27.4247
  1336.4000      7.8997      2.5837      0.0647      4.0155    135.7805     27.8359
  1336.5000      7.8628      2.5881      0.1058      3.7510    137.6278     27.9774
  1336.6000      7.8628      2.5825      0.0647      4.0883    136.3463     28.2072
  1336.7000      7.8628      2.5672      0.0637      5.0180    133.3822     28.9635
  1336.8000      7.8859      2.5472      0.0603      6.2325    133.8778     29.7049
  1336.9000      7.8859      2.5342      0.0122      7.0179    137.9450     29.7024
  1337.0000      7.8964      2.5361      0.0540      6.9047    142.0664     29.2553
  1337.1000      7.8964      2.5410      0.0583      6.6031    143.9302     28.9608
  1337.2000      7.8964      2.5435      0.0314      6.4536    142.3189     28.7690
  1337.3000      7.8893      2.5553      0.0359      5.7400    137.7051     28.4771
  1337.4000      7.8893      2.5752      0.0842      4.5362    132.1259     28.3335
  1337.5000      7.8854      2.5881      0.0623      3.7501    128.1447     28.1519
  1337.6000      7.8854      2.5899      0.1004      3.6445    127.4121     27.5731
  1337.7000      7.8854      2.5888      0.0763      3.7118    128.6837     27.2145
  1337.8000      7.8789      2.5940      0.1057      3.3914    129.1531     27.7099
  1337.9000      7.8789      2.5996      0.1022      3.0517    127.5125     28.6420
  1338.0000      7.8442      2.5982      0.0806      3.1370    125.6172     28.8638
  1338.1000      7.8442      2.5925      0.1108      3.4826    127.4438     27.9212
  1338.2000      7.8442      2.5836      0.0737      4.0219    134.0702     26.8493
  1338.3000      7.8543      2.5777      0.0556      4.3848    141.5722     26.5855
  1338.4000      7.8543      2.5790      0.1058      4.3059    145.0628     27.0144
  1338.5000      7.9110      2.5743      0.1146      4.5862    143.4393     27.4995
  1338.6000      7.9110      2.5508      0.1040      6.0124    140.7789     27.6553
  1338.7000      7.9110      2.5223      0.0286      7.7380    138.7472     27.6444
  1338.8000      7.8784      2.5119      0.0253      8.3678    137.0175     27.6184
  1338.9000      7.8784      2.5149      0.0738      8.1866    136.5612     27.5427
  1339.0000      7.8967      2.5124      0.0810      8.3368    136.6768     27.6303
  1339.1000      7.8967      2.5023      0.0765      8.9512    135.2194     28.1754
  1339.2000      7.8967      2.5012      0.0310      9.0167    132.5529     28.7081
  1339.3000      7.9395      2.5283      0.0445      7.3766    132.3012     28.8748
  1339.4000      7.9395      2.5757      0.1105      4.5030    131.9859     28.9778
  1339.5000      7.8604      2.6155      0.1114      2.0896    124.1853     28.6708
  1339.6000      7.8604      2.6381      0.1370      0.7213    112.1973     27.5886
  1339.7000      7.8604      2.6501      0.1413     -0.0041    105.9641     26.1579
  1339.8000      7.8530      2.6536      0.1383     -0.2155    105.1601     24.9699
  1339.9000      7.8530      2.6511      0.1094     -0.0643    103.3853     24.3211
  1340.0000      7.8044      2.6496      0.0759      0.0214     99.4872     24.0338
  1340.1000      7.8044      2.6475      0.0930      0.1527     96.2020     23.7524
  1340.2000      7.8044      2.6366      0.0733      0.8100     94.8953     23.0391
  1340.3000      7.8312      2.6206      0.0221      1.7829     94.7730     21.7614
  1340.4000      7.8312      2.6063      0.0177      2.6499     94.1345     20.6737
  1340.5000      7.8938      2.5985      0.0073      3.1187     92.4623     20.5335
  1340.6000      7.8938      2.6009      0.0081      2.9765     91.9229     21.0047
  1340.7000      7.8938      2.6029      0.0457      2.8573     94.2962     21.2559
  1340.8000      7.9107      2.5953      0.0362      3.3181     97.7319     21.2084
  1340.9000      7.9107      2.5926      0.0056      3.4774    100.4311     21.4433
  1341.0000      7.8990      2.6094      0.0407      2.4586    103.5122     22.0556
  1341.1000      7.8990      2.6330      0.1154      1.0315    106.8583     22.6244
  1341.2000      7.8990      2.6466      0.0642      0.2057    108.2009     23.0930
  1341.3000      7.8784      2.6526      0.0822     -0.1552    108.0878     23.5741
  1341.4000      7.8784      2.6507      0.0832     -0.0412    108.4458     24.0716
  1341.5000      7.8825      2.6433      0.0470      0.4082    109.2776     24.5457
  1341.6000      7.8825      2.6396      0.0753      0.6297    111.1004     24.9538
  1341.7000      7.8825      2.6353      0.0775      0.8885    113.3425     25.1343
  1341.8000      7.9026      2.6261      0.0450      1.4511    114.9003     24.8405
  1341.9000      7.9026      2.6177      0.0462      1.9595    114.8040     24.4821
  1342.0000      7.8937      2.6121      0.0098      2.2978    111.5959     24.6793
  1342.1000      7.8937      2.6066      0.0263      2.6277    106.9339     25.2213
  1342.2000      7.8937      2.6000      0.0481      3.0322    103.6720     25.1858
  1342.3000      7.8870      2.5962      0.0238      3.2581    101.3552     24.1878
  1342.4000      7.8870      2.5983      0.0605      3.1355     99.2450     23.1776
  1342.5000      7.9129      2.6019      0.0515      2.9141     99.3522     22.9711
  1342.6000      7.9129      2.6052      0.0417      2.7148    101.0918     23.2767
  1342.7000      7.9129      2.6129      0.0323      2.2460    100.1959     23.6475
