~Version Information
VERS.                      2.0: CWLS Log ASCII Standard - VERSION 2.0
WRAP.                       NO: One line per depth step
~Well Information Block
STRT.FT               650.0000: 
STOP.FT              2085.0000: 
STEP.FT                 0.1000: 
NULL.                -999.2500: 
COMP.          Pioneer Natural Resources: COMPANY
WELL.           Galloway 32-13: WELL
FLD.           Purgatoire River: FIELD
LOC.           1809' FNL & 2004' FEL: LOCATION
PROV.                 Colorado: PROVINCE
CNTY.               Las Animas: COUNTRY
SRVC.                Patterson: SERVICE COMPANY
DATE.          Sat Jul 09 02:17:51 2005: LOG DATE
UWI.           05 071 08423 00: UNIQUE WELL ID
~Curve Information Block
DEPT.FT            0 000 00 00: Depth
DCAL.in                       : CDL Caliper
RHOB.g/cc                     : CDL Bulk Density
RHOC.g/cc                     : CDL Density Correction
DPOR.pu                       : CDL Density Porosity
GR.GAPI                       : Gamma Ray
NPOR.pu                       : Neutron Porosity
~Parameter Information Block
~A  Depth       DCAL        RHOB        RHOC        DPOR         GR         NPOR    
# ...
  2070.8000      7.8326      2.4207      0.0204     13.8948   -999.2500     53.2205
  2070.9000      7.8326      2.4555      0.0705     11.7867   -999.2500   -999.2500
  2071.0000      7.8317      2.5012      0.0688      9.0185   -999.2500   -999.2500
  2071.1000      7.8317      2.5296      0.0899      7.2972   -999.2500   -999.2500
  2071.2000      7.8317      2.5306      0.0683      7.2337   -999.2500   -999.2500
  2071.3000      7.8357      2.5217      0.0790      7.7783   -999.2500   -999.2500
  2071.4000      7.8357      2.5211      0.0624      7.8095   -999.2500   -999.2500
  2071.5000      7.8426      2.5302      0.0882      7.2616   -999.2500   -999.2500
  2071.6000      7.8426      2.5398      0.0845      6.6792   -999.2500   -999.2500
  2071.7000      7.8426      2.5502      0.0665      6.0474   -999.2500   -999.2500
  2071.8000      7.8426      2.5647      0.1026      5.1713   -999.2500   -999.2500
  2071.9000      7.8426      2.5721      0.1285      4.7202   -999.2500   -999.2500
  2072.0000      7.8359      2.5654      0.0775      5.1292   -999.2500   -999.2500
  2072.1000      7.8359      2.5581      0.0608      5.5715   -999.2500   -999.2500
  2072.2000      7.8359      2.5526      0.0942      5.9016   -999.2500   -999.2500
  2072.3000      7.8313      2.5352      0.0770      6.9579   -999.2500   -999.2500
  2072.4000      7.8313      2.5163      0.0248      8.1035   -999.2500   -999.2500
  2072.5000      7.8294      2.5145      0.0542      8.2126   -999.2500   -999.2500
  2072.6000      7.8294      2.5238      0.0539      7.6483   -999.2500   -999.2500
  2072.7000      7.8294      2.5346      0.0512      6.9935   -999.2500   -999.2500
  2072.8000      7.8280      2.5426      0.0818      6.5075   -999.2500   -999.2500
  2072.9000      7.8280      2.5450      0.0751      6.3607   -999.2500   -999.2500
  2073.0000      7.8274      2.5483      0.0765      6.1616   -999.2500   -999.2500
  2073.1000      7.8274      2.5593      0.1202      5.4975   -999.2500   -999.2500
  2073.2000      7.8274      2.5803      0.0728      4.2261   -999.2500   -999.2500
  2073.3000      7.8324      2.6033      0.1720      2.8297   -999.2500   -999.2500
  2073.4000      7.8324      2.6072      0.0860      2.5958   -999.2500   -999.2500
  2073.5000      7.8389      2.5816      0.1151      4.1464   -999.2500   -999.2500
  2073.6000      7.8389      2.5302      0.0524      7.2635   -999.2500   -999.2500
  2073.7000      7.8389      2.4776     -0.0175     10.4459   -999.2500   -999.2500
  2073.8000      7.8371      2.4500     -0.0063     12.1224   -999.2500   -999.2500
  2073.9000      7.8371      2.4447      0.0367     12.4451   -999.2500   -999.2500
  2074.0000      7.8219      2.4624     -0.0019     11.3670   -999.2500   -999.2500
  2074.1000      7.8219      2.5096      0.0754      8.5086   -999.2500   -999.2500
  2074.2000      7.8219      2.5646      0.1068      5.1728   -999.2500   -999.2500
  2074.3000      7.8056      2.6020      0.1312      2.9094   -999.2500   -999.2500
  2074.4000      7.8056      2.6125      0.1840      2.2744   -999.2500   -999.2500
  2074.5000      7.7973      2.5992      0.1775      3.0777   -999.2500   -999.2500
  2074.6000      7.7973      2.5800      0.1445      4.2402   -999.2500   -999.2500
  2074.7000      7.7973      2.5736      0.1126      4.6302   -999.2500   -999.2500
  2074.8000      7.7947      2.5802      0.1235      4.2304   -999.2500   -999.2500
  2074.9000      7.7947      2.5842      0.1149      3.9874   -999.2500   -999.2500
  2075.0000      7.7946      2.5777      0.0647      4.3847   -999.2500   -999.2500
  2075.1000      7.7946      2.5705      0.0655      4.8202   -999.2500   -999.2500
  2075.2000      7.7946      2.5702      0.0825      4.8361   -999.2500   -999.2500
  2075.3000      7.7946      2.5709      0.1043      4.7969   -999.2500   -999.2500
  2075.4000      7.7946      2.5690      0.0939      4.9085   -999.2500   -999.2500
  2075.5000      7.7941      2.5788      0.0313      4.3166   -999.2500   -999.2500
  2075.6000      7.7941      2.6137      0.0750      2.1979   -999.2500   -999.2500
  2075.7000      7.7941      2.6524      0.1702     -0.1441   -999.2500   -999.2500
  2075.8000      7.7923      2.6606      0.1528     -0.6408   -999.2500   -999.2500
  2075.9000      7.7923      2.6343      0.1350      0.9506   -999.2500   -999.2500
  2076.0000      7.7879      2.5898      0.1045      3.6470   -999.2500   -999.2500
  2076.1000      7.7879      2.5484      0.0890      6.1585   -999.2500   -999.2500
  2076.2000      7.7879      2.5278      0.0622      7.4075   -999.2500   -999.2500
  2076.3000      7.7860      2.5283      0.0870      7.3745   -999.2500   -999.2500
  2076.4000      7.7860      2.5431      0.0138      6.4761   -999.2500   -999.2500
  2076.5000      7.7900      2.5670      0.0696      5.0325   -999.2500   -999.2500
  2076.6000      7.7900      2.5801      0.0876      4.2379   -999.2500   -999.2500
  2076.7000      7.7900      2.5679      0.0401      4.9766   -999.2500   -999.2500
  2076.8000      7.7944      2.5504      0.0343      6.0388   -999.2500   -999.2500
  2076.9000      7.7944      2.5464      0.0442      6.2789   -999.2500   -999.2500
  2077.0000      7.7978      2.5419      0.0877      6.5522   -999.2500   -999.2500
  2077.1000      7.7978      2.5260      0.0193      7.5177   -999.2500   -999.2500
  2077.2000      7.7978      2.5143      0.0086      8.2221   -999.2500   -999.2500
  2077.3000      7.8013      2.5144      0.0526      8.2202   -999.2500   -999.2500
  2077.4000      7.8013      2.5231      0.0267      7.6918   -999.2500   -999.2500
  2077.5000      7.8045      2.5452      0.0407      6.3544   -999.2500   -999.2500
  2077.6000      7.8045      2.5709      0.1086      4.7932   -999.2500   -999.2500
  2077.7000      7.8045      2.5770      0.0860      4.4265   -999.2500   -999.2500
  2077.8000      7.8065      2.5628      0.0689      5.2864   -999.2500   -999.2500
  2077.9000      7.8065      2.5479      0.0521      6.1887   -999.2500   -999.2500
  2078.0000      7.8060      2.5450      0.0611      6.3644   -999.2500   -999.2500
  2078.1000      7.8060      2.5501      0.0435      6.0532   -999.2500   -999.2500
  2078.2000      7.8060      2.5482      0.0810      6.1673   -999.2500   -999.2500
  2078.3000      7.8060      2.5395     -0.0078      6.6992   -999.2500   -999.2500
  2078.4000      7.8060      2.5430      0.0332      6.4862   -999.2500   -999.2500
  2078.5000      7.8074      2.5579      0.0452      5.5801   -999.2500   -999.2500
  2078.6000      7.8074      2.5614      0.1290      5.3700   -999.2500   -999.2500
  2078.7000      7.8074      2.5496      0.0708      6.0858   -999.2500   -999.2500
  2078.8000      7.8081      2.5490      0.0584      6.1184   -999.2500   -999.2500
  2078.9000      7.8081      2.5734      0.0664      4.6410   -999.2500   -999.2500
  2079.0000      7.8056      2.5983      0.1348      3.1333   -999.2500   -999.2500
  2079.1000      7.8056      2.5931      0.1417      3.4508   -999.2500   -999.2500
  2079.2000      7.8056      2.5588      0.0924      5.5291   -999.2500   -999.2500
  2079.3000      7.8009      2.5247      0.0633      7.5928   -999.2500   -999.2500
  2079.4000      7.8009      2.5146      0.0442      8.2086   -999.2500   -999.2500
  2079.5000      7.7982      2.5279      0.0825      7.3998   -999.2500   -999.2500
  2079.6000      7.7982      2.5531      0.1077      5.8710   -999.2500   -999.2500
  2079.7000      7.7982      2.5789      0.1000      4.3078   -999.2500   -999.2500
  2079.8000      7.7987      2.5907      0.1157      3.5920   -999.2500   -999.2500
  2079.9000      7.7987      2.5778      0.0947      4.3746   -999.2500   -999.2500
  2080.0000      7.8002      2.5556      0.0208      5.7204   -999.2500   -999.2500
  2080.1000      7.8002      2.5502      0.0658      6.0507   -999.2500   -999.2500
  2080.2000      7.8002      2.5526      0.0870      5.9024   -999.2500   -999.2500
  2080.3000      7.7995      2.5435      0.0408      6.4570   -999.2500   -999.2500
