~Version Information
VERS.                      2.0: CWLS Log ASCII Standard - VERSION 2.0
WRAP.                       NO: One line per depth step
~Well Information Block
STRT.FT               590.0000: 
STOP.FT              1563.5000: 
STEP.FT                 0.2500: 
NULL.                -999.2500: 
COMP.          Petrogulf Corporation: COMPANY
WELL.             State 16-43R: WELL
FLD.           Purgatorie River: FIELD
LOC.           2538' FSL & 716' FEL: LOCATION
PROV.                 Colorado: PROVINCE
CNTY.               Las Animas: COUNTRY
SRVC.                Patterson: SERVICE COMPANY
DATE.          Tue Aug 09 14:21:37 2005: LOG DATE
UWI.                          : UNIQUE WELL ID
~Curve Information Block
DEPT.FT            0 000 00 00: Depth
RILD.Ohm-m                    : DIL Deep Resistivity
RILM.Ohm-m                    : DIL Medium Resistivity
GR.GAPI                       : Gamma Ray
~Parameter Information Block
~A  Depth       RILD        RILM         GR     
# ...
  1466.7500     15.2340     16.1081    100.0990
  1467.0000     15.7211     17.3527     87.7170
  1467.2500     16.0722     17.7554     87.7247
  1467.5000     16.8137     19.6110     77.6447
  1467.7500     17.8370     20.7219     74.3262
  1468.0000     17.9534     21.3075     77.7323
  1468.2500     18.0048     23.1373     80.9785
  1468.5000     19.6005     23.6732     84.5125
  1468.7500     21.5927     22.5331     91.0482
  1469.0000     22.2428     24.6828     88.7110
  1469.2500     23.0876     24.9329     87.0091
  1469.5000     23.0213     25.2106     77.9348
  1469.7500     23.8986     25.0360     66.5626
  1470.0000     24.5192     27.3192     64.6616
  1470.2500     24.7482     27.6917     66.5917
  1470.5000     23.9801     29.6437     72.6851
  1470.7500     22.8037     29.3312     71.9538
  1471.0000     22.6406     29.2543     69.5279
  1471.2500     21.4553     28.0553     72.5587
  1471.5000     20.0245     29.7855     73.8345
  1471.7500     18.8161     26.9791     83.4361
  1472.0000     17.4381     23.8711    102.8037
  1472.2500     16.9999     20.8899    123.9738
  1472.5000     16.8739     17.5113    152.1063
  1472.7500     15.7439     16.2571    158.7612
  1473.0000     14.5342     14.9624    163.3077
  1473.2500     14.0298     14.2599    164.0773
  1473.5000     13.1735     13.6602    159.3805
  1473.7500     12.8763     12.9472    166.9279
  1474.0000     12.2050     12.1773    172.8277
  1474.2500     12.0162     11.9662    173.4388
  1474.5000     11.4991     11.3207    172.5912
  1474.7500     11.0059     10.6497    167.6746
  1475.0000     10.6167     10.2956    168.4636
  1475.2500     10.4683     10.1700    167.9458
  1475.5000     10.4105     10.0668    161.4170
  1475.7500     10.0613     10.0582    169.4275
  1476.0000     10.4400     10.1652    170.7803
  1476.2500     10.4928      9.8783    172.4707
  1476.5000     10.7194     10.0705    167.6005
  1476.7500     10.9628     10.2679    173.8829
  1477.0000     11.3409     10.3994    174.5832
  1477.2500     11.5241     10.9301    177.6411
  1477.5000     12.0438     11.3948    163.8391
  1477.7500     12.4542     11.9096    149.3720
  1478.0000     13.0149     12.2453    128.3980
  1478.2500     13.4752     13.0898    121.6330
  1478.5000     13.3921     14.1821    116.7658
  1478.7500     13.9489     15.2152    113.1067
  1479.0000     14.3641     16.2682    103.7786
  1479.2500     15.6304     17.4191    104.4709
  1479.5000     16.3028     19.5813     98.5055
  1479.7500     16.3544     19.6784     92.1846
  1480.0000     17.8963     20.9985     91.5815
  1480.2500     18.6576     21.5191     92.7550
  1480.5000     18.7562     22.0240    100.0643
  1480.7500     19.4425     22.7434    102.0691
  1481.0000     20.0896     23.9527    113.4620
  1481.2500     19.0694     23.7232    115.1144
  1481.5000     19.6567     23.5262    117.7927
  1481.7500     20.0044     22.6218    121.1278
  1482.0000     20.1337     24.3283    116.6641
  1482.2500     20.2096     23.8446    110.4261
  1482.5000     21.2110     24.1601    105.3067
  1482.7500     20.9409     23.6567    101.6810
  1483.0000     20.3032     22.4222     89.7844
  1483.2500     20.2076     22.9328     84.5731
  1483.5000     20.5568     24.0506     81.2547
  1483.7500     19.3803     22.4253     79.2978
  1484.0000     19.6192     22.5499     71.8695
  1484.2500     20.3274     23.1477     69.6278
  1484.5000     20.5597     23.0784     66.6237
  1484.7500     20.3381     22.8951     61.9951
  1485.0000     19.8960     24.0900     60.3288
  1485.2500     20.3739     23.8527     66.5993
  1485.5000     21.5400     23.1525     75.1056
  1485.7500     20.6254     23.0775     75.7444
  1486.0000     19.6803     22.4847     96.0582
  1486.2500     19.7684     21.2371    108.1527
  1486.5000     21.1316     22.1507    106.8217
  1486.7500     20.6990     21.4924    107.4849
  1487.0000     20.3366     21.0126    114.2563
  1487.2500     20.5537     21.5624    101.0785
  1487.5000     21.4881     23.1023     85.8849
  1487.7500     21.0376     23.4886     73.2591
  1488.0000     22.7159     22.8231     59.2813
  1488.2500     22.6803     24.2416     57.3872
  1488.5000     22.1254     28.3994     55.0223
  1488.7500     22.7410     27.5517     51.1169
  1489.0000     22.3651     26.3788     51.2400
  1489.2500     22.2604     25.2968     50.5675
  1489.5000     23.1722     28.0280     48.2639
  1489.7500     23.0853     31.6101     51.3877
  1490.0000     23.0719     28.6923     55.5775
  1490.2500     23.5345     33.2528     58.5454
  1490.5000     24.7657     30.0535     69.2704
  1490.7500     24.3482     29.6127     71.7185
  1491.0000     25.3187     28.9492     61.8531
  1491.2500     24.8029     28.0143     61.2594
  1491.5000     23.7068     29.4231     62.8191
  1491.7500     24.1758     26.4587     62.2329
  1492.0000     23.9243     25.8820     66.0306
  1492.2500     23.0247     26.5102     72.4503
  1492.5000     23.0026     25.5891     73.5475
  1492.7500     22.3215     25.7288     72.1379
  1493.0000     22.5940     25.5036     74.3389
  1493.2500     23.0757     24.3279     75.8771
  1493.5000     22.8841     24.3542     80.7604
  1493.7500     22.6747     23.8127     90.3997
  1494.0000     21.4841     23.3127     86.2605
  1494.2500     22.3500     22.1455     81.5830
  1494.5000     21.9911     22.2687     82.8514
  1494.7500     22.5475     21.8889     86.8311
  1495.0000     22.8856     22.2080     71.9234
  1495.2500     22.3309     22.9175     64.6390
  1495.5000     22.7956     23.8815     64.2032
  1495.7500     22.8499     23.1675     59.2094
  1496.0000     23.4698     24.0711     58.4045
  1496.2500     22.4302     24.5890     60.5304
  1496.5000     22.2705     25.0394     55.5334
  1496.7500     22.2943     25.1480     57.0442
  1497.0000     21.6113     25.9644     60.6347
  1497.2500     20.3716     25.6288     59.7584
  1497.5000     19.5133     25.2009     62.8360
  1497.7500     18.7256     25.0483     73.0861
  1498.0000     18.6204     22.7265     97.1956
  1498.2500     16.8138     20.4214    103.9755
  1498.5000     15.4937     18.4394    127.2184
  1498.7500     14.8767     16.5958    139.3618
  1499.0000     14.7860     15.5600    148.3904
  1499.2500     13.9433     14.2808    143.8050
  1499.5000     13.6847     13.3812    138.8264
  1499.7500     12.9507     12.4832    143.0056
  1500.0000     12.3110     12.0990    144.2703
  1500.2500     11.5349     11.6862    142.2033
  1500.5000     11.3071     11.0340    144.8280
  1500.7500     10.9044     10.5250    142.4469
  1501.0000     10.6192     10.2327    146.5511
  1501.2500     10.4031     10.0802    145.9756
  1501.5000     10.1910     10.1950    152.2682
  1501.7500      9.9449     11.0574    151.5300
  1502.0000     10.0011      9.9517    152.4039
  1502.2500     10.1439      9.8056    146.6172
  1502.5000     10.0337      9.9249    141.3004
  1502.7500     10.2134      9.9122    141.2698
  1503.0000     10.2932     10.1134    144.7487
  1503.2500     10.1247     10.0509    143.7450
  1503.5000      9.9967     10.1131    150.2776
  1503.7500      9.9101     10.1946    150.0936
  1504.0000      9.9335     10.3508    144.1005
  1504.2500     10.1253     10.2317    145.5781
  1504.5000     10.1542     10.3329    139.1521
  1504.7500     10.2204     10.3255    140.2469
  1505.0000     10.1194     10.2324    136.6482
  1505.2500     10.2501     10.2860    139.5581
  1505.5000     10.1229     10.4330    135.3592
  1505.7500     10.2779     10.2615    143.0188
  1506.0000     10.1419     10.2675    149.6172
  1506.2500     10.3904     10.2244    140.2383
  1506.5000     10.3191     10.3449    133.5042
  1506.7500     10.2093     10.4574    133.3849
  1507.0000     10.1272     10.9067    124.6482
  1507.2500     10.2171     11.0668    116.0999
  1507.5000     10.1328     11.2466    117.4968
  1507.7500     10.2765     11.2463    113.7729
  1508.0000     10.3050     11.0683    111.2067
  1508.2500     10.3397     10.9000    114.1112
