~Version Information
VERS.                      2.0: CWLS Log ASCII Standard - VERSION 2.0
WRAP.                       NO: One line per depth step
~Well Information Block
STRT.FT               450.0000: 
STOP.FT              1739.2500: 
STEP.FT                 0.2500: 
NULL.                -999.2500: 
COMP.          Pioneer Natural Resources: COMPANY
WELL.            Harlee L 34-9: WELL
FLD.           Purgatoire River: FIELD
LOC.           600' FSL & 2125' FEL: LOCATION
PROV.                 Colorado: PROVINCE
CNTY.               Las Animas: COUNTRY
SRVC.                Patterson: SERVICE COMPANY
DATE.          Wed Jan 26 02:00:08 2005: LOG DATE
UWI.           05 071 08009 00: UNIQUE WELL ID
~Curve Information Block
DEPT.FT            0 000 00 00: Depth
SN.Ohm-m                      : IEL Short Normal
SP.mV                         : IEL Spontaneous Potential
DIR.Ohm-m                     : IEL Induction Resistivity
GR.GAPI                       : Gamma Ray
~Parameter Information Block
~A  Depth        SN          SP         DIR          GR     
   450.0000   2000.0000   2000.0000      0.2035     65.7948
   450.2500   2000.0000   2000.0000      0.2012     65.3423
   450.5000   2000.0000   2000.0000      0.2000     64.0581
   450.7500   2000.0000   2000.0000      0.1996     62.7445
   451.0000   2000.0000   2000.0000      0.1998     60.4506
   451.2500   2000.0000   2000.0000      0.2004     59.0446
   451.5000   2000.0000   2000.0000      0.2013     57.5661
   451.7500   2000.0000   2000.0000      0.2027     57.0251
   452.0000   2000.0000   2000.0000      0.2048     56.6266
   452.2500   2000.0000   2000.0000      0.2078     56.4948
   452.5000   2000.0000   2000.0000      0.2118     56.3432
   452.7500   2000.0000   2000.0000      0.2173     56.1958
   453.0000   2000.0000   2000.0000      0.2245     55.9121
   453.2500   2000.0000   2000.0000      0.2336     55.8720
   453.5000   2000.0000   2000.0000      0.2440     56.6005
   453.7500   2000.0000   2000.0000      0.2549     57.8637
   454.0000   2000.0000   2000.0000      0.2653     60.8260
   454.2500   2000.0000   2000.0000      0.2745     63.1301
   454.5000   2000.0000   2000.0000      0.2828     66.2660
   454.7500   2000.0000   2000.0000      0.2919     67.8591
   455.0000   2000.0000   2000.0000      0.3048     69.5533
   455.2500   2000.0000   2000.0000      0.3269     70.3517
   455.5000   2000.0000   2000.0000      0.3661     70.8406
   455.7500   2000.0000   2000.0000      0.4324     70.3137
   456.0000   2000.0000   2000.0000      0.5363     67.9647
   456.2500   2000.0000   2000.0000      0.6835     65.7687
   456.5000   2000.0000   2000.0000      0.8662     62.9548
   456.7500   2000.0000   2000.0000      1.0584     62.2213
   457.0000   2000.0000   2000.0000      1.2368     63.4729
   457.2500   2000.0000   2000.0000      1.4086     65.5645
   457.5000   2000.0000   2000.0000      1.5946     69.0943
   457.7500   2000.0000   2000.0000      1.7781     70.7653
   458.0000   2000.0000   2000.0000      1.8799     71.4649
   458.2500   2000.0000   2000.0000      1.8418     70.9830
   458.5000   2000.0000   2000.0000      1.7369     70.2586
   458.7500   2000.0000   2000.0000      1.7084     70.6878
   459.0000   2000.0000   2000.0000      1.8914     73.2282
   459.2500   2000.0000   2000.0000      2.5097     75.6463
   459.5000   2000.0000   2000.0000      4.3855     78.7721
   459.7500   2000.0000   2000.0000     15.3827     79.8680
   460.0000   2000.0000   2000.0000 100000.0000     79.9801
   460.2500   2000.0000   2000.0000 100000.0000     79.5824
   460.5000   2000.0000   2000.0000 100000.0000     79.7777
   460.7500   2000.0000   2000.0000 100000.0000     81.2754
   461.0000   2000.0000   2000.0000 100000.0000     86.2289
   461.2500   2000.0000   2000.0000 100000.0000     91.1113
   461.5000   2000.0000   2000.0000 100000.0000     99.6887
   461.7500   2000.0000   2000.0000 100000.0000    105.4162
   462.0000   2000.0000   2000.0000 100000.0000    112.5798
   462.2500   2000.0000   2000.0000 100000.0000    115.6816
   462.5000   2000.0000   2000.0000   1504.6196    117.1005
   462.7500   2000.0000   2000.0000    294.8543    115.9236
   463.0000   2000.0000   2000.0000    239.5232    111.9263
   463.2500   2000.0000   2000.0000    244.8321    108.7132
   463.5000   2000.0000   2000.0000    240.0885    104.5451
   463.7500   2000.0000   2000.0000    189.2632    102.5061
   464.0000   2000.0000   2000.0000    132.8566    100.1252
   464.2500   2000.0000   2000.0000     99.8176     98.7018
   464.5000   2000.0000   2000.0000     87.1406     97.0768
   464.7500   2000.0000   2000.0000     89.0902     96.7883
   465.0000   2000.0000   2000.0000    101.0791     97.9105
   465.2500   2000.0000   2000.0000    109.1373     99.3966
   465.5000   2000.0000   2000.0000     93.3388    101.7170
   465.7500   2000.0000   2000.0000     65.7091    102.7994
   466.0000   2000.0000   2000.0000     45.2343    103.3840
   466.2500   2000.0000   2000.0000     33.2148    103.2908
   466.5000   2000.0000   2000.0000     26.3292    103.3286
   466.7500   2000.0000   2000.0000     22.2710    103.9902
   467.0000   2000.0000   2000.0000     19.8235    106.2687
   467.2500   2000.0000   2000.0000     18.3456    108.5568
   467.5000   2000.0000   2000.0000     17.4563    113.0182
   467.7500   2000.0000   2000.0000     16.8935    116.7651
   468.0000   2000.0000   2000.0000     16.4767    123.6274
   468.2500   2000.0000   2000.0000     16.1060    128.6296
   468.5000   2000.0000   2000.0000     15.7502    134.8875
   468.7500   2000.0000   2000.0000     15.4190    136.8980
   469.0000   2000.0000   2000.0000     15.1324    135.8034
   469.2500   2000.0000   2000.0000     14.8997    133.1091
   469.5000   2000.0000   2000.0000     14.7104    128.3994
   469.7500   2000.0000   2000.0000     14.5318    125.6816
   470.0000   2000.0000   2000.0000     14.3189    122.5503
   470.2500   2000.0000   2000.0000     14.0322    121.0577
   470.5000   2000.0000   2000.0000     13.6528    119.7277
   470.7500   2000.0000   2000.0000     13.1835    119.3493
   471.0000   2000.0000   2000.0000     12.6383    119.0293
   471.2500   2000.0000   2000.0000     12.0341    118.6688
   471.5000   2000.0000   2000.0000     11.3901    117.8797
   471.7500   2000.0000   2000.0000     10.7319    117.6184
   472.0000   2000.0000   2000.0000     10.0901    118.7149
   472.2500   2000.0000   2000.0000      9.4946    120.7293
   472.5000   2000.0000   2000.0000      8.9672    124.9139
   472.7500   2000.0000   2000.0000      8.5207    127.5193
   473.0000   2000.0000   2000.0000      8.1621    129.6968
   473.2500   2000.0000   2000.0000      7.8967    129.7229
   473.5000   2000.0000   2000.0000      7.7314    128.2519
   473.7500   2000.0000   2000.0000      7.6739    126.9336
   474.0000   2000.0000   2000.0000      7.7304    125.1814
   474.2500   2000.0000   2000.0000      7.9011    123.9973
   474.5000   2000.0000   2000.0000      8.1755    121.0384
   474.7500   2000.0000   2000.0000      8.5268    117.5940
   475.0000   2000.0000   2000.0000      8.9090    110.1328
   475.2500   2000.0000   2000.0000      9.2584    104.4600
   475.5000   2000.0000   2000.0000      9.5033     97.2507
   475.7500   2000.0000   2000.0000      9.5833     94.5312
   476.0000   2000.0000   2000.0000      9.4709     94.5271
   476.2500   2000.0000   2000.0000      9.1827     97.1844
   476.5000   2000.0000   2000.0000      8.7698    104.5433
   476.7500   2000.0000   2000.0000      8.2943    111.1062
   477.0000   2000.0000   2000.0000      7.8075    121.9817
   477.2500   2000.0000   2000.0000      7.3423    128.9292
   477.5000   2000.0000   2000.0000      6.9152    137.3027
   477.7500   2000.0000   2000.0000      6.5336    140.8204
   478.0000   2000.0000   2000.0000      6.2007    142.6021
   478.2500   2000.0000   2000.0000      5.9184    141.8499
   478.5000   2000.0000   2000.0000      5.6879    139.3216
   478.7500   2000.0000   2000.0000      5.5094    137.6974
   479.0000   2000.0000   2000.0000      5.3812    136.4281
   479.2500   2000.0000   2000.0000      5.2992    136.3522
   479.5000   2000.0000   2000.0000      5.2571    136.6842
   479.7500   2000.0000   2000.0000      5.2467    136.8616
   480.0000   2000.0000   2000.0000      5.2592    136.7889
   480.2500   2000.0000   2000.0000      5.2857    136.2783
   480.5000   2000.0000   2000.0000      5.3178    134.4604
   480.7500   2000.0000   2000.0000      5.3482    132.7396
   481.0000   2000.0000   2000.0000      5.3715    130.1209
   481.2500   2000.0000   2000.0000      5.3845    128.4894
   481.5000   2000.0000   2000.0000      5.3868    125.9712
   481.7500   2000.0000   2000.0000      5.3807    124.2417
   482.0000   2000.0000   2000.0000      5.3703    122.0038
   482.2500   2000.0000   2000.0000      5.3605    121.0819
   482.5000   2000.0000   2000.0000      5.3555    120.9758
   482.7500   2000.0000   2000.0000      5.3587    121.6618
   483.0000   2000.0000   2000.0000      5.3714    122.7697
   483.2500   2000.0000   2000.0000      5.3932    122.8415
