~Version Information
VERS.                      2.0: CWLS Log ASCII Standard - VERSION 2.0
WRAP.                       NO: One line per depth step
~Well Information Block
STRT.FT               930.0000: 
STOP.FT              2783.2500: 
STEP.FT                 0.2500: 
NULL.                -999.2500: 
COMP.          Pioneer Natural Resources: COMPANY
WELL.           Desoto 13-7TR: WELL
FLD.           Purgatoire River: FIELD
LOC.           1404' FSL & 1115' FWL: LOCATION
PROV.                 Colorado: PROVINCE
CNTY.               Las Animas: COUNTRY
SRVC.                Patterson: SERVICE COMPANY
DATE.          Fri Jan 14 11:02:13 2005: LOG DATE
UWI.           05 071 08216 00: UNIQUE WELL ID
~Curve Information Block
DEPT.FT            0 000 00 00: Depth
SN.Ohm-m                      : IEL Short Normal
SP.mV                         : IEL Spontaneous Potential
DIR.Ohm-m                     : IEL Induction Resistivity
GR.GAPI                       : Gamma Ray
~Parameter Information Block
~A  Depth        SN          SP         DIR          GR     
# ...
  1064.0000   2000.0000   2000.0000     18.1857    128.9638
  1064.2500   2000.0000   2000.0000     18.1062    127.2967
  1064.5000   2000.0000   2000.0000     18.0401    124.8054
  1064.7500   2000.0000   2000.0000     17.9879    123.5173
  1065.0000   2000.0000   2000.0000     17.9528    122.4446
  1065.2500   2000.0000   2000.0000     17.9467    122.2241
  1065.5000   2000.0000   2000.0000     17.9876    122.2212
  1065.7500   2000.0000   2000.0000     18.0862    122.1795
  1066.0000   2000.0000   2000.0000     18.2292    121.8503
  1066.2500   2000.0000   2000.0000     18.3727    121.4848
  1066.5000   2000.0000   2000.0000     18.4537    120.8339
  1066.7500   2000.0000   2000.0000     18.4194    120.3830
  1067.0000   2000.0000   2000.0000     18.2554    119.7959
  1067.2500   2000.0000   2000.0000     17.9923    119.5079
  1067.5000   2000.0000   2000.0000     17.6854    119.2147
  1067.7500   2000.0000   2000.0000     17.3915    119.1034
  1068.0000   2000.0000   2000.0000     17.1595    119.0700
  1068.2500   2000.0000   2000.0000     17.0269    119.0381
  1068.5000   2000.0000   2000.0000     17.0108    118.6272
  1068.7500   2000.0000   2000.0000     17.0945    117.9461
  1069.0000   2000.0000   2000.0000     17.2252    116.2545
  1069.2500   2000.0000   2000.0000     17.3362    114.7937
  1069.5000   2000.0000   2000.0000     17.3847    112.6229
  1069.7500   2000.0000   2000.0000     17.3741    111.6055
  1070.0000   2000.0000   2000.0000     17.3430    111.0266
  1070.2500   2000.0000   2000.0000     17.3350    110.9148
  1070.5000   2000.0000   2000.0000     17.3749    110.0580
  1070.7500   2000.0000   2000.0000     17.4621    108.7731
  1071.0000   2000.0000   2000.0000     17.5764    106.5739
  1071.2500   2000.0000   2000.0000     17.6887    105.5724
  1071.5000   2000.0000   2000.0000     17.7739    104.9264
  1071.7500   2000.0000   2000.0000     17.8197    104.7077
  1072.0000   2000.0000   2000.0000     17.8307    104.4952
  1072.2500   2000.0000   2000.0000     17.8244    104.8094
  1072.5000   2000.0000   2000.0000     17.8220    106.7168
  1072.7500   2000.0000   2000.0000     17.8389    108.9153
  1073.0000   2000.0000   2000.0000     17.8803    112.5814
  1073.2500   2000.0000   2000.0000     17.9449    114.4782
  1073.5000   2000.0000   2000.0000     18.0307    115.5790
  1073.7500   2000.0000   2000.0000     18.1356    115.0171
  1074.0000   2000.0000   2000.0000     18.2541    112.7257
  1074.2500   2000.0000   2000.0000     18.3758    110.9247
  1074.5000   2000.0000   2000.0000     18.4906    109.1335
  1074.7500   2000.0000   2000.0000     18.5932    108.8480
  1075.0000   2000.0000   2000.0000     18.6808    109.1742
  1075.2500   2000.0000   2000.0000     18.7471    109.3307
  1075.5000   2000.0000   2000.0000     18.7835    109.0811
  1075.7500   2000.0000   2000.0000     18.7879    108.7515
  1076.0000   2000.0000   2000.0000     18.7693    108.4797
  1076.2500   2000.0000   2000.0000     18.7403    108.6240
  1076.5000   2000.0000   2000.0000     18.7056    109.3000
  1076.7500   2000.0000   2000.0000     18.6594    109.9035
  1077.0000   2000.0000   2000.0000     18.5931    110.7673
  1077.2500   2000.0000   2000.0000     18.5089    111.1589
  1077.5000   2000.0000   2000.0000     18.4234    111.0885
  1077.7500   2000.0000   2000.0000     18.3584    110.5285
  1078.0000   2000.0000   2000.0000     18.3207    109.7331
  1078.2500   2000.0000   2000.0000     18.2884    110.1556
  1078.5000   2000.0000   2000.0000     18.2173    113.2256
  1078.7500   2000.0000   2000.0000     18.0717    116.5386
  1079.0000   2000.0000   2000.0000     17.8588    121.5515
  1079.2500   2000.0000   2000.0000     17.6350    123.9796
  1079.5000   2000.0000   2000.0000     17.4736    126.0797
  1079.7500   2000.0000   2000.0000     17.4204    127.0182
  1080.0000   2000.0000   2000.0000     17.4719    128.5732
  1080.2500   2000.0000   2000.0000     17.5862    129.6483
  1080.5000   2000.0000   2000.0000     17.7152    130.4218
  1080.7500   2000.0000   2000.0000     17.8332    129.7843
  1081.0000   2000.0000   2000.0000     17.9438    126.6357
  1081.2500   2000.0000   2000.0000     18.0680    123.2635
  1081.5000   2000.0000   2000.0000     18.2269    117.1524
  1081.7500   2000.0000   2000.0000     18.4275    112.9593
  1082.0000   2000.0000   2000.0000     18.6563    107.3141
  1082.2500   2000.0000   2000.0000     18.8822    104.2293
  1082.5000   2000.0000   2000.0000     19.0699    100.5434
  1082.7500   2000.0000   2000.0000     19.2012     98.5291
  1083.0000   2000.0000   2000.0000     19.2892     96.1781
  1083.2500   2000.0000   2000.0000     19.3769     95.3305
  1083.5000   2000.0000   2000.0000     19.5157     95.5284
  1083.7500   2000.0000   2000.0000     19.7363     96.5301
  1084.0000   2000.0000   2000.0000     20.0305     98.7327
  1084.2500   2000.0000   2000.0000     20.3567    100.3736
  1084.5000   2000.0000   2000.0000     20.6654    102.8819
  1084.7500   2000.0000   2000.0000     20.9275    104.5374
  1085.0000   2000.0000   2000.0000     21.1437    106.9146
  1085.2500   2000.0000   2000.0000     21.3307    108.3609
  1085.5000   2000.0000   2000.0000     21.4993    110.0565
  1085.7500   2000.0000   2000.0000     21.6453    110.6279
  1086.0000   2000.0000   2000.0000     21.7634    110.4414
  1086.2500   2000.0000   2000.0000     21.8648    109.8554
  1086.5000   2000.0000   2000.0000     21.9762    109.1803
  1086.7500   2000.0000   2000.0000     22.1165    109.3396
  1087.0000   2000.0000   2000.0000     22.2750    110.6519
  1087.2500   2000.0000   2000.0000     22.4166    111.9158
  1087.5000   2000.0000   2000.0000     22.5099    113.5151
  1087.7500   2000.0000   2000.0000     22.5521    113.9356
  1088.0000   2000.0000   2000.0000     22.5666    113.1904
  1088.2500   2000.0000   2000.0000     22.5791    111.7995
  1088.5000   2000.0000   2000.0000     22.5933    108.9241
  1088.7500   2000.0000   2000.0000     22.5881    107.0152
  1089.0000   2000.0000   2000.0000     22.5363    104.9558
  1089.2500   2000.0000   2000.0000     22.4335    104.2201
  1089.5000   2000.0000   2000.0000     22.3150    103.5770
  1089.7500   2000.0000   2000.0000     22.2449    103.0740
  1090.0000   2000.0000   2000.0000     22.2819    102.0537
  1090.2500   2000.0000   2000.0000     22.4439    101.3851
  1090.5000   2000.0000   2000.0000     22.6963    100.5766
  1090.7500   2000.0000   2000.0000     22.9737    100.0420
  1091.0000   2000.0000   2000.0000     23.2185     99.1296
  1091.2500   2000.0000   2000.0000     23.4046     98.6882
  1091.5000   2000.0000   2000.0000     23.5329     98.9086
  1091.7500   2000.0000   2000.0000     23.6120     99.7350
  1092.0000   2000.0000   2000.0000     23.6503    101.2846
  1092.2500   2000.0000   2000.0000     23.6591    101.8371
  1092.5000   2000.0000   2000.0000     23.6576    101.1828
  1092.7500   2000.0000   2000.0000     23.6700     99.8073
  1093.0000   2000.0000   2000.0000     23.7143     97.0785
  1093.2500   2000.0000   2000.0000     23.7915     95.4592
  1093.5000   2000.0000   2000.0000     23.8788     94.4425
  1093.7500   2000.0000   2000.0000     23.9386     94.9930
  1094.0000   2000.0000   2000.0000     23.9373     97.1212
  1094.2500   2000.0000   2000.0000     23.8600     98.8716
  1094.5000   2000.0000   2000.0000     23.7155    101.7859
  1094.7500   2000.0000   2000.0000     23.5372    104.2328
  1095.0000   2000.0000   2000.0000     23.3869    108.7895
  1095.2500   2000.0000   2000.0000     23.3463    111.7732
  1095.5000   2000.0000   2000.0000     23.4835    114.3789
  1095.7500   2000.0000   2000.0000     23.8071    114.2107
  1096.0000   2000.0000   2000.0000     24.2442    111.4101
  1096.2500   2000.0000   2000.0000     24.6677    108.6198
  1096.5000   2000.0000   2000.0000     24.9626    104.5252
  1096.7500   2000.0000   2000.0000     25.0858    102.4962
  1097.0000   2000.0000   2000.0000     25.0784    100.9379
  1097.2500   2000.0000   2000.0000     25.0333    100.6915
