~Version Information
VERS.                      2.0: CWLS Log ASCII Standard - VERSION 2.0
WRAP.                       NO: One line per depth step
~Well Information Block
STRT.FT               425.0000: 
STOP.FT              2461.0000: 
STEP.FT                 0.1000: 
NULL.                -999.2500: 
COMP.          Evergreen Operating Corporation: COMPANY
WELL.              Nomad 32-10: WELL
FLD.           Purgatorie River: FIELD
LOC.           2281' FNL & 1585' FEL: LOCATION
PROV.                 Colorado: PROVINCE
CNTY.               Las Animas: COUNTRY
SRVC.                Patterson: SERVICE COMPANY
DATE.          Thu Aug 12 11:13:52 2004: LOG DATE
UWI.           05 071 08127 00: UNIQUE WELL ID
~Curve Information Block
DEPT.FT            0 000 00 00: Depth
DCAL.in                       : CDL Caliper
RHOB.g/cc                     : CDL Bulk Density
RHOC.g/cc                     : CDL Density Correction
DPOR.pu                       : CDL Density Porosity
NPOR.pu                       : Neutron Porosity
GR.GAPI                       : Gamma Ray
~Parameter Information Block
~A  Depth       DCAL        RHOB        RHOC        DPOR        NPOR         GR     
# ...
  1893.8000      8.1524      2.1209     -0.0276     32.0648     27.9821    138.0655
  1893.9000      8.1524      2.0957      0.0159     33.5967     29.2915    136.3638
  1894.0000      8.2368      2.0832      0.0948     34.3509     29.7319    131.7836
  1894.1000      8.2368      2.0706      0.1022     35.1158     29.3832    126.4724
  1894.2000      8.2368      2.0586      0.1182     35.8429     29.6210    123.5502
  1894.3000      8.3346      2.0565      0.2741     35.9683     30.2260    124.3745
  1894.4000      8.3346      2.0672      0.3232     35.3240     29.9457    128.7601
  1894.5000      8.3965      2.0936      0.3389     33.7195     29.0114    133.6603
  1894.6000      8.3965      2.1460      0.3168     30.5464     28.4948    134.7914
  1894.7000      8.3965      2.2275      0.3263     25.6059     28.5300    132.8391
  1894.8000      8.7262      2.3155      0.3916     20.2714     28.5085    134.0330
  1894.9000      8.7262      2.3764      0.4063     16.5792     28.2311    138.7409
  1895.0000      9.4762      2.3949      0.4069     15.4580     28.0162    142.0138
  1895.1000      9.4762      2.3680      0.3752     17.0916     28.0450    144.1221
  1895.2000      9.4762      2.3012      0.2623     21.1376     28.1839    147.9501
  1895.3000      9.5917      2.2252      0.1258     25.7441     28.0483    149.7849
  1895.4000      9.5917      2.1731      0.1026     28.9006     27.7373    146.1420
  1895.5000      9.1807      2.1451      0.1167     30.6024     27.8682    139.0272
  1895.6000      9.1807      2.1201      0.0861     32.1123     28.6107    131.5923
  1895.7000      9.1807      2.0877      0.0575     34.0811     29.4312    127.1509
  1895.8000      9.0233      2.0564      0.0366     35.9752     29.5375    125.5894
  1895.9000      9.0233      2.0459      0.0077     36.6120     29.0251    126.3297
  1896.0000      8.8103      2.0750      0.0477     34.8460     28.8514    133.1659
  1896.1000      8.8103      2.1541      0.0931     30.0540     29.2902    141.5703
  1896.2000      8.8103      2.2659      0.3366     23.2802     29.6097    140.4019
  1896.3000      8.9180      2.3664      0.4255     17.1875     29.6563    132.0269
  1896.4000      8.9180      2.4345      0.4453     13.0629     29.5455    128.5013
  1896.5000      8.8047      2.4751      0.4652     10.5988     28.8743    133.5552
  1896.6000      8.8047      2.4862      0.4206      9.9299     27.9060    139.3189
  1896.7000      8.8047      2.4792      0.2707     10.3503     27.3736    142.6699
  1896.8000      8.5139      2.4880      0.2166      9.8200     27.0490    145.8918
  1896.9000      8.5139      2.5160      0.2364      8.1204     26.4423    141.6255
  1897.0000      8.4047      2.5310      0.2403      7.2117     25.8683    128.1545
  1897.1000      8.4047      2.5199      0.1568      7.8874     25.7494    119.8132
  1897.2000      8.4047      2.5018      0.1196      8.9798     25.8029    123.5176
  1897.3000      8.5030      2.4906      0.1039      9.6583     25.5459    129.7171
  1897.4000      8.5030      2.4865      0.1100      9.9091     24.8460    129.6641
  1897.5000      8.2026      2.4976      0.0534      9.2393     23.8471    124.9456
  1897.6000      8.2026      2.5275      0.0902      7.4251     23.0072    120.5922
  1897.7000      8.2026      2.5547      0.1349      5.7764     22.8077    117.4959
  1897.8000      8.1338      2.5627      0.0860      5.2938     23.2749    115.6877
  1897.9000      8.1338      2.5584      0.1101      5.5528     24.0439    115.5271
  1898.0000      8.1313      2.5411      0.0754      6.6000     24.4720    113.7779
  1898.1000      8.1313      2.5124      0.0119      8.3383     24.2179    108.3372
  1898.2000      8.1313      2.4901     -0.0016      9.6926     24.0736    102.2262
  1898.3000      8.1181      2.4795      0.0332     10.3315     24.6335     99.0126
  1898.4000      8.1181      2.4707      0.0259     10.8693     25.2624     97.8437
  1898.5000      8.1071      2.4605      0.0371     11.4862     25.3355     97.9720
  1898.6000      8.1071      2.4562      0.0060     11.7425     25.3085    101.0726
  1898.7000      8.1071      2.4606      0.0561     11.4802     25.9314    104.8703
  1898.8000      8.1093      2.4704      0.0504     10.8839     27.1421    108.1133
  1898.9000      8.1093      2.4841      0.1038     10.0550     28.0392    113.7450
  1899.0000      8.1366      2.4995      0.0845      9.1195     27.8495    119.2609
  1899.1000      8.1366      2.5147      0.1120      8.2005     27.0660    117.8083
  1899.2000      8.1366      2.5183      0.1589      7.9816     26.7031    109.1741
  1899.3000      8.1588      2.4986      0.1428      9.1750     26.8734    101.1396
  1899.4000      8.1588      2.4689      0.1034     10.9752     26.8986    100.2103
  1899.5000      8.2017      2.4540      0.0921     11.8815     26.1715    103.0121
  1899.6000      8.2017      2.4552      0.1192     11.8040     25.1255    103.1325
  1899.7000      8.2017      2.4586      0.0887     11.6019     24.6674    101.4171
  1899.8000      8.2448      2.4620      0.0506     11.3956     24.6369    100.4569
  1899.9000      8.2448      2.4711      0.0974     10.8451     24.5798    100.1185
  1900.0000      8.1946      2.4827      0.0963     10.1423     24.5466    100.5330
  1900.1000      8.1946      2.4891      0.1085      9.7485     24.4713     99.5177
  1900.2000      8.1946      2.4945      0.0487      9.4268     24.0974     97.8453
  1900.3000      8.1847      2.5086      0.0812      8.5686     23.4705     99.9477
  1900.4000      8.1847      2.5237      0.1008      7.6545     22.8299    102.8785
  1900.5000      8.1734      2.5282      0.1237      7.3812     22.4320    100.1554
  1900.6000      8.1734      2.5276      0.0910      7.4171     22.4175     93.8771
  1900.7000      8.1734      2.5250      0.1093      7.5773     22.6216     92.1111
  1900.8000      8.1580      2.5102      0.0938      8.4724     22.7846     98.0559
  1900.9000      8.1580      2.4815      0.0313     10.2142     22.9255    105.0462
  1901.0000      8.1478      2.4494      0.0269     12.1583     23.3717    105.7123
  1901.1000      8.1478      2.4249     -0.0113     13.6422     24.1962    102.3378
  1901.2000      8.1478      2.4139      0.0043     14.3095     24.9268    101.6432
  1901.3000      8.1393      2.4086      0.0130     14.6324     25.2846    108.6691
  1901.4000      8.1393      2.3920      0.0386     15.6388     25.7738    119.0798
  1901.5000      8.1350      2.3553      0.0481     17.8599     27.0817    124.2499
  1901.6000      8.1350      2.3095     -0.0245     20.6343     28.9188    127.0278
  1901.7000      8.1350      2.2753      0.0089     22.7119     30.0824    132.5785
  1901.8000      8.1571      2.2614      0.0409     23.5531     30.0673    135.7914
  1901.9000      8.1571      2.2631      0.1033     23.4484     29.6779    130.2925
  1902.0000      8.1607      2.2721      0.1208     22.9059     29.7786    121.2388
  1902.1000      8.1607      2.2864      0.1228     22.0394     30.0921    117.7928
  1902.2000      8.1607      2.3133      0.0899     20.4091     29.8810    120.1564
  1902.3000      8.1910      2.3574      0.1345     17.7350     29.2940    121.0747
  1902.4000      8.1910      2.4058      0.1583     14.7989     28.5973    118.1565
  1902.5000      8.1937      2.4408      0.1617     12.6810     27.6033    114.6744
  1902.6000      8.1937      2.4635      0.1553     11.3001     26.6876    112.4779
  1902.7000      8.1937      2.4865      0.1335      9.9065     26.3188    114.2252
  1902.8000      8.1953      2.5053      0.1394      8.7709     26.3270    119.4226
  1902.9000      8.1953      2.5092      0.0887      8.5313     26.4906    122.9173
  1903.0000      8.1911      2.5067      0.0710      8.6867     26.7241    121.4951
  1903.1000      8.1911      2.5062      0.0501      8.7158     26.8637    119.4842
  1903.2000      8.1911      2.5045      0.0612      8.8204     26.8819    124.7235
  1903.3000      8.2050      2.5014      0.0287      9.0054     26.9752    132.9384
