~Version Information
 VERS.                                  2.0 : CWLS LAS VERSION
 WRAP.                                   NO : WRAPING MODE
 SWARE .                 MController 2.5.0N : SOFTWARE VERSION
~Well Information
 WELL.                         Vector 33-23 : WELL
 COMP.    Pioneer Natural Resources USA Inc : COMPANY
 FLD.                      Purgatoire River : FIELD
 LOC.                NW/SE Sec 23 T32S R66W : LOCATION
 DATE.                              3/25/05 : DATE(S) LOGGED
 SRVC.       Blanco Geological Services LLC : SERVICE COMPANY
 STAT.                                   CO : STATE
 CNTY.                           Las Animas : COUNTY
 CTRY.                                  USA : COUNTRY
 API.                       05-071-08336-00 : API NUMBER
 STRT.FT                             770.00 : START DEPTH
 STOP.FT                            2300.00 : STOP DEPTH
 STEP.FT                               1.00 : DEPTH INCREMENT
 NULL.                                -9999 : NULL VALUE
~Curve information
 DEPTH.FT                                   :
 ROP.MIN/FT                                 :
 GAS.UNITS                                  :
~ASCII Log data
       770.0     -9999.00          6.6 
       771.0         0.03          6.8 
       772.0         0.07          6.8 
       773.0         0.10          5.8 
       774.0         0.07          6.0 
       775.0         0.40          5.8 
       776.0         1.38          6.0 
       777.0         0.37          5.6 
       778.0         1.37          5.9 
       779.0         0.78          5.8 
       780.0         0.67          5.7 
       781.0         0.40          5.9 
       782.0         0.57          6.2 
       783.0         0.17          6.3 
       784.0         1.35          6.3 
       785.0         0.10          5.8 
       786.0         0.73          6.3 
       787.0         1.18          6.1 
       788.0         0.10          4.4 
       789.0         1.30          5.2 
       790.0         0.10          5.2 
       791.0         0.10          5.5 
       792.0         0.58          5.2 
       793.0         1.00          5.4 
       794.0         0.20          5.3 
       795.0         0.23          4.6 
       796.0         0.07          3.8 
       797.0         0.67          4.6 
       798.0         0.53          5.5 
       799.0         0.10          4.9 
       800.0         0.13          4.8 
       801.0         0.88          5.5 
       802.0         0.17          5.2 
       803.0         0.07          5.2 
       804.0         0.13          5.1 
       805.0         0.27          4.9 
       806.0         0.50          5.2 
       807.0         0.60          5.4 
       808.0         0.17          6.2 
       809.0         0.07          5.8 
       810.0         3.18          6.4 
       811.0         0.17          5.2 
       812.0         0.07          4.2 
       813.0         0.27          4.8 
       814.0         0.30          4.8 
       815.0         0.15          5.3 
       816.0         0.13          5.1 
       817.0         0.20          5.5 
       818.0         0.10          5.4 
       819.0         0.17          5.1 
       820.0         0.10          5.4 
       821.0         0.33          5.7 
       822.0         0.33          5.4 
       823.0         0.07          4.8 
       824.0         0.13          5.1 
       825.0         0.10          5.5 
       826.0         0.13          4.5 
       827.0         0.10          4.6 
       828.0         0.13          4.0 
       829.0         0.17          4.4 
       830.0         0.10          4.4 
       831.0         0.13          4.9 
       832.0         0.13          4.7 
       833.0         0.13          5.0 
       834.0         0.17          4.5 
       835.0         0.13          4.9 
       836.0         0.13          4.7 
       837.0         0.13          4.6 
       838.0         0.12          4.1 
       839.0         0.17          4.5 
       840.0         0.13          4.7 
       841.0         0.17          4.5 
       842.0         0.13          4.9 
       843.0         0.13          4.5 
       844.0         0.10          4.4 
       845.0         0.13          4.8 
       846.0         0.13          5.4 
       847.0         0.17          5.1 
       848.0         0.13          4.8 
       849.0         0.13          4.7 
       850.0         0.23          4.8 
       851.0         0.17          4.7 
       852.0         0.23          4.8 
       853.0         0.13          5.1 
       854.0         0.10          4.9 
       855.0         0.07          4.9 
       856.0         0.33          5.2 
       857.0         0.43          4.8 
       858.0         0.35          5.4 
       859.0         0.10          4.2 
       860.0         0.27          4.6 
       861.0         0.10          5.5 
       862.0         0.23          5.1 
       863.0         0.23          5.1 
       864.0         0.13          4.7 
       865.0         0.17          4.8 
       866.0         2.08          5.6 
       867.0         0.10          3.6 
       868.0         0.13          3.4 
       869.0         0.30          3.9 
       870.0         0.27          4.8 
       871.0         0.20          4.6 
       872.0         0.20          5.7 
       873.0         0.10          8.0 
       874.0         0.10         13.8 
       875.0         0.10         19.8 
       876.0         0.30         28.9 
       877.0         0.20         28.4 
       878.0         0.20         25.1 
       879.0         0.17         19.5 
       880.0         0.20         16.5 
       881.0         0.17         11.9 
       882.0         0.17         10.0 
       883.0         0.22          7.3 
       884.0         0.17          6.5 
       885.0         0.20          6.3 
       886.0         0.23          5.3 
       887.0         0.13          5.1 
       888.0         0.13          5.3 
       889.0         0.07          4.9 
       890.0         0.10          5.1 
       891.0         0.07          5.5 
       892.0         0.10          4.6 
       893.0         0.13          5.6 
       894.0         0.20          4.8 
       895.0         0.20          4.7 
       896.0         3.02          5.2 
       897.0         0.10          4.3 
       898.0         0.40          4.4 
       899.0         0.27          4.7 
       900.0         0.27          4.2 
       901.0         0.17          4.4 
       902.0         0.20          4.4 
       903.0         0.20          5.0 
       904.0         0.18          5.4 
       905.0         0.17          5.1 
       906.0         0.13          4.6 
       907.0         0.13          5.0 
       908.0         0.20          4.5 
       909.0         0.20          4.0 
       910.0         0.20          4.3 
       911.0         0.20          4.8 
       912.0         0.20          5.2 
       913.0         0.13          5.4 
       914.0         0.13          4.7 
       915.0         0.13          5.1 
       916.0         0.20          4.5 
       917.0         0.17          4.9 
       918.0         0.27          4.4 
       919.0         0.17          4.8 
       920.0         0.23          5.2 
       921.0         0.17          4.1 
       922.0         0.17          4.9 
       923.0         0.25          4.8 
       924.0         0.17          4.0 
       925.0         0.17          4.3 
       926.0         2.53          5.3 
       927.0         0.30          5.1 
       928.0         0.25          5.4 
       929.0         0.20          5.5 
       930.0         0.20          6.0 
       931.0         0.13          5.2 
       932.0         0.20          4.8 
       933.0         0.17          4.5 
       934.0         0.13          5.0 
       935.0         0.13          4.5 
       936.0         0.13          3.6 
       937.0         0.10          3.8 
       938.0         0.13          3.9 
       939.0         0.10          4.3 
       940.0         0.20          4.2 
       941.0         0.17          4.3 
       942.0         0.17          5.0 
       943.0         0.17          4.7 
       944.0         0.20          4.8 
       945.0         0.13          4.7 
       946.0         0.20          5.2 
       947.0         0.20          5.4 
       948.0         0.18          5.3 
       949.0         0.17          5.2 
       950.0         0.17          5.2 
       951.0         0.17          4.1 
       952.0         0.17          4.4 
       953.0         0.17          4.8 
       954.0         0.17          4.5 
       955.0         0.33          4.8 
       956.0         1.92          5.3 
       957.0         0.40          5.7 
       958.0         0.27          5.4 
       959.0         0.27          5.0 
       960.0         0.17          6.3 
       961.0         0.17          5.1 
       962.0         0.17          5.6 
       963.0         0.17          6.2 
       964.0         0.13          6.1 
       965.0         0.17          5.5 
       966.0         0.17          6.1 
       967.0         0.13          5.7 
       968.0         0.13          5.3 
       969.0         0.13          5.7 
