~Version Information
VERS.                      2.0: CWLS Log ASCII Standard - VERSION 2.0
WRAP.                       NO: One line per depth step
~Well Information Block
STRT.FT               -12.5000: 
STOP.FT              2284.7500: 
STEP.FT                 0.2500: 
NULL.                -999.2500: 
COMP.          Pioneer Natural Resources: COMPANY
WELL.          Hill Climb 22-2: WELL
FLD.           Purgatorie River: FIELD
LOC.           1820' FNL & 2193' FWL--: LOCATION
PROV.                       CO: PROVINCE
CNTY.               Las Animas: COUNTRY
SRVC.                         : SERVICE COMPANY
DATE.          Fri Oct 22 11:44:16 2004: LOG DATE
UWI.                          : UNIQUE WELL ID
~Curve Information Block
DEPT.FT            0 000 00 00: Depth
GR.GAPI                       : Gamma Ray
CCL.                          : Casing Collar Locator
TT3.usec                      : CBL 3' Travel Time
AMP3.mV                       : CBL 3' Amplitude
~Parameter Information Block
~A  Depth        GR         CCL         TT3         AMP3    
# ...
  2098.0000     97.7707      0.0000    258.6113     75.3333
  2098.2500     93.0736      0.0000    258.6379     75.2006
  2098.5000     88.0149      0.0000    258.6659     75.0271
  2098.7500     83.1018      0.0000    258.6869     74.8419
  2099.0000     78.4271      0.0000    258.6934     74.6948
  2099.2500     73.7587      0.0000    258.6854     74.6263
  2099.5000     69.1702      0.0000    258.6701     74.6360
  2099.7500     65.2994      0.0000    258.6565     74.6785
  2100.0000     63.0483      0.0000    258.6501     74.6932
  2100.2500     63.0838      0.0000    258.6518     74.6495
  2100.5000     65.0432      0.0000    258.6599     74.5750
  2100.7500     66.9572      0.0000    258.6729     74.5352
  2101.0000     66.3263      0.0000    258.6897     74.5718
  2101.2500     62.4638      0.0000    258.7085     74.6616
  2101.5000     57.3136      0.0000    258.7266     74.7428
  2101.7500     53.5977      0.0000    258.7391     74.7739
  2102.0000     52.6446      0.0000    258.7404     74.7590
  2102.2500     54.2944      0.0000    258.7281     74.7258
  2102.5000     58.2729      0.0000    258.7071     74.6934
  2102.7500     64.8063      0.0000    258.6862     74.6607
  2103.0000     73.7055      0.0000    258.6724     74.6172
  2103.2500     83.3869      0.0000    258.6685     74.5647
  2103.5000     91.4434      0.0000    258.6732     74.5259
  2103.7500     96.3963      0.0000    258.6807     74.5253
  2104.0000     98.6512      0.0000    258.6838     74.5635
  2104.2500     99.5327      0.0000    258.6790     74.6189
  2104.5000     99.7584      0.0000    258.6677     74.6693
  2104.7500     99.1753      0.0000    258.6530     74.7035
  2105.0000     97.5113      0.0000    258.6382     74.7207
  2105.2500     94.8840      0.0000    258.6283     74.7273
  2105.5000     91.9354      0.0000    258.6254     74.7295
  2105.7500     89.6908      0.0000    258.6264     74.7250
  2106.0000     88.8435      0.0000    258.6266     74.7084
  2106.2500     89.0848      0.0000    258.6265     74.6808
  2106.5000     89.4541      0.0000    258.6301     74.6454
  2106.7500     89.2302      0.0000    258.6388     74.5969
  2107.0000     88.3023      0.0000    258.6492     74.5253
  2107.2500     86.9076      0.0000    258.6576     74.4242
  2107.5000     85.1665      0.0000    258.6632     74.2943
  2107.7500     82.8817      0.0000    258.6674     74.1518
  2108.0000     79.9141      0.0000    258.6709     74.0295
  2108.2500     76.6602      0.0000    258.6727     73.9511
  2108.5000     73.9179      0.0000    258.6735     73.9044
  2108.7500     72.3948      0.0000    258.6761     73.8561
  2109.0000     72.5571      0.0000    258.6830     73.7893
  2109.2500     74.5986      0.0000    258.6920     73.7093
  2109.5000     78.0621      0.0000    258.6985     73.6194
  2109.7500     81.6592      0.0000    258.7016     73.5108
  2110.0000     84.0145      0.0000    258.7041     73.3746
  2110.2500     84.6911      0.0000    258.7065     73.2137
  2110.5000     84.3128      0.0000    258.7054     73.0469
  2110.7500     83.7595      0.0000    258.6985     72.9023
  2111.0000     83.4566      0.0000    258.6879     72.7971
  2111.2500     83.3534      0.0000    258.6786     72.7235
  2111.5000     83.1224      0.0000    258.6750     72.6639
  2111.7500     82.0545      0.0000    258.6805     72.6121
  2112.0000     79.1294      0.0000    258.6967     72.5666
  2112.2500     73.8561      0.0000    258.7211     72.5156
  2112.5000     67.2222      0.0000    258.7452     72.4474
  2112.7500     61.4005      0.0000    258.7585     72.3672
  2113.0000     58.2654      0.0000    258.7549     72.2886
  2113.2500     58.2166      0.0000    258.7372     72.2146
  2113.5000     60.4174      0.0000    258.7158     72.1402
  2113.7500     64.0202      0.0000    258.7029     72.0645
  2114.0000     69.0536      0.0000    258.7061     71.9928
  2114.2500     75.9259      0.0000    258.7233     71.9344
  2114.5000     84.1016      0.0000    258.7412     71.9048
  2114.7500     91.7330      0.0000    258.7426     71.9169
  2115.0000     96.9088      0.0000    258.7213     71.9646
  2115.2500     99.0337      0.0000    258.6906     72.0244
  2115.5000     98.8243      0.0000    258.6716     72.0751
  2115.7500     97.2878      0.0000    258.6725     72.1085
  2116.0000     95.0307      0.0000    258.6838     72.1262
  2116.2500     92.4072      0.0000    258.6929     72.1336
  2116.5000     89.7928      0.0000    258.6955     72.1362
  2116.7500     87.4906      0.0000    258.6931     72.1328
  2117.0000     85.7751      0.0000    258.6875     72.1180
  2117.2500     85.1857      0.0000    258.6812     72.0932
  2117.5000     86.2726      0.0000    258.6775     72.0705
  2117.7500     88.7855      0.0000    258.6768     72.0617
  2118.0000     91.4862      0.0000    258.6753     72.0649
  2118.2500     93.1256      0.0000    258.6709     72.0471
  2118.5000     93.5192      0.0000    258.6734     71.9304
  2118.7500     93.3760      0.0000    258.7166     71.5961
  2119.0000     93.3114      0.0000    258.8739     70.9345
  2119.2500     93.3818      0.0000    259.2575     69.9394
  2119.5000     93.2007      0.0000    259.9709     68.7513
  2119.7500     92.0510      0.0000    261.0235     67.5169
  2120.0000     89.0833      0.0000    262.2803     66.1841
  2120.2500     83.6579      0.0000    263.5125     64.5764
  2120.5000     75.5980      0.0000    264.5179     62.7237
  2120.7500     65.4384      0.0000    265.2141     60.9659
  2121.0000     54.5888      0.0000    265.6732     59.6445
  2121.2500     44.8985     -2.0000    266.1245     58.8094
  2121.5000     37.6730     -2.0000    266.9398     58.2592
  2121.7500     33.1416      0.0000    268.4718     57.8208
  2122.0000     30.8801      0.0000    270.6211     57.6066
  2122.2500     30.4939      0.0000    272.4518     58.0260
  2122.5000     31.7730      0.0000    272.5935     59.4576
  2122.7500     34.3999      0.0000    270.4342     61.8602
  2123.0000     37.6875      0.0000    266.8025     64.7603
  2123.2500     40.6383      0.0000    263.2298     67.5552
  2123.5000     42.3711      0.0000    260.7202     69.7705
  2123.7500     42.5975      0.0000    259.3630     71.1855
  2124.0000     41.7480      0.0000    258.7719     71.8728
  2124.2500     40.7261      0.0000    258.5613     72.0905
  2124.5000     40.4590      0.0000    258.5000     72.0917
  2124.7500     41.3875      0.0000    258.4798     72.0293
  2125.0000     43.1472      0.0000    258.4634     71.9788
  2125.2500     44.7462      0.0000    258.4443     71.9764
  2125.5000     45.1717      0.0000    258.4261     72.0180
  2125.7500     43.9540      0.0000    258.4113     72.0704
  2126.0000     41.3559      0.0000    258.4015     72.0999
  2126.2500     38.2448      0.0000    258.3988     72.0978
  2126.5000     35.8377      0.0000    258.4027     72.0797
  2126.7500     35.4508      0.0000    258.4088     72.0685
  2127.0000     38.1924      0.0000    258.4127     72.0765
  2127.2500     44.4478      0.0000    258.4139     72.0936
  2127.5000     53.4874      0.0000    258.4149     72.0949
  2127.7500     63.7227      0.0000    258.4174     72.0704
  2128.0000     73.4785      0.0000    258.4193     72.0416
  2128.2500     81.6183      0.0000    258.4141     72.0412
  2128.5000     87.7339      0.0000    258.3956     72.0832
  2128.7500     92.0194      0.0000    258.3629     72.1544
  2129.0000     94.8664      0.0000    258.3218     72.2254
  2129.2500     96.3820      0.0000    258.2833     72.2699
  2129.5000     96.4793      0.0000    258.2590     72.2822
  2129.7500     95.6253      0.0000    258.2551     72.2779
  2130.0000     95.2423      0.0000    258.2675     72.2728
  2130.2500     96.8956      0.0000    258.2852     72.2659
  2130.5000    100.8471      0.0000    258.2975     72.2446
  2130.7500    105.4688      0.0000    258.3011     72.1989
  2131.0000    108.2302      0.0000    258.3001     72.1277
  2131.2500    107.3839      0.0000    258.3050     72.0427
