~Version Information
VERS.                      2.0: CWLS Log ASCII Standard - VERSION 2.0
WRAP.                       NO: One line per depth step
~Well Information Block
STRT.FT               590.0000: 
STOP.FT              1563.5000: 
STEP.FT                 0.1000: 
NULL.                -999.2500: 
COMP.          Petrogulf Corporation: COMPANY
WELL.             State 16-43R: WELL
FLD.           Purgatorie River: FIELD
LOC.           2538' FSL & 716' FEL: LOCATION
PROV.                 Colorado: PROVINCE
CNTY.               Las Animas: COUNTRY
SRVC.                Patterson: SERVICE COMPANY
DATE.          Tue Aug 09 14:21:37 2005: LOG DATE
UWI.                          : UNIQUE WELL ID
~Curve Information Block
DEPT.FT            0 000 00 00: Depth
DCAL.in                       : CDL Caliper
RHOB.g/cc                     : CDL Bulk Density
RHOC.g/cc                     : CDL Density Correction
DPOR.pu                       : CDL Density Porosity
GR.GAPI                       : Gamma Ray
NPOR.pu                       : Neutron Porosity
~Parameter Information Block
~A  Depth       DCAL        RHOB        RHOC        DPOR         GR         NPOR    
# ...
  1281.2000      8.2607      2.5955      0.1073      3.3002    159.3147     26.1833
  1281.3000      8.2896      2.5895      0.1101      3.6689    155.8927     26.4156
  1281.4000      8.2896      2.5836      0.0728      4.0263    151.9703     26.6469
  1281.5000      8.3342      2.5874      0.0884      3.7915    150.8314     26.9275
  1281.6000      8.3342      2.6032      0.0796      2.8367    152.1167     27.2279
  1281.7000      8.3342      2.6184      0.1150      1.9154    152.5688     27.3871
  1281.8000      8.3604      2.6143      0.1040      2.1650    150.7804     27.6271
  1281.9000      8.3604      2.5924      0.0474      3.4895    148.0462     28.2971
  1282.0000      8.3716      2.5761      0.0333      4.4761    146.4718     29.0677
  1282.1000      8.3716      2.5743      0.0703      4.5908    146.9828     29.1831
  1282.2000      8.3716      2.5748      0.0361      4.5581    148.5411     28.5701
  1282.3000      8.3758      2.5697      0.0543      4.8651    151.3455     27.9573
  1282.4000      8.3758      2.5613      0.0327      5.3747    155.9001     27.6794
  1282.5000      8.3642      2.5553      0.0394      5.7408    160.9724     27.3347
  1282.6000      8.3642      2.5543      0.0598      5.7988    165.3956     26.8935
  1282.7000      8.3642      2.5584      0.0634      5.5509    167.2774     26.7618
  1282.8000      8.3888      2.5664      0.0510      5.0670    165.9248     26.9735
  1282.9000      8.3888      2.5734      0.0628      4.6450    165.5843     27.2512
  1283.0000      8.4136      2.5756      0.0763      4.5109    168.6453     27.5137
  1283.1000      8.4136      2.5777      0.0655      4.3790    171.2656     27.7397
  1283.2000      8.4136      2.5793      0.0796      4.2857    170.4498     27.8149
  1283.3000      8.4779      2.5675      0.0855      4.9998    168.8142     27.6130
  1283.4000      8.4779      2.5417      0.0472      6.5625    171.1830     27.1156
  1283.5000      8.4960      2.5157      0.0576      8.1370    176.6422     26.6192
  1283.6000      8.4960      2.4970      0.0630      9.2711    178.9742     26.7097
  1283.7000      8.4960      2.4847      0.0722     10.0189    173.6792     27.5858
  1283.8000      8.5196      2.4787      0.0176     10.3819    164.6591     28.5343
  1283.9000      8.5196      2.4794      0.0561     10.3371    160.8959     28.9177
  1284.0000      8.5164      2.4795      0.0605     10.3354    163.6243     29.0134
  1284.1000      8.5164      2.4795      0.0786     10.3318    166.3595     29.0910
  1284.2000      8.5164      2.4972      0.0753      9.2616    167.3112     28.8216
  1284.3000      8.5156      2.5371      0.1232      6.8410    168.6210     28.2004
  1284.4000      8.5156      2.5778      0.1501      4.3751    170.2976     27.6911
  1284.5000      8.5064      2.5994      0.1733      3.0647    170.1813     27.4215
  1284.6000      8.5064      2.6023      0.1470      2.8918    167.8989     27.3556
  1284.7000      8.5064      2.5921      0.1773      3.5078    165.5697     27.6248
  1284.8000      8.4989      2.5720      0.1088      4.7298    164.2819     28.1172
  1284.9000      8.4989      2.5480      0.0850      6.1824    164.0273     28.5755
  1285.0000      8.4593      2.5283      0.0381      7.3737    164.5218     28.9459
  1285.1000      8.4593      2.5192      0.0548      7.9253    166.0706     29.2519
  1285.2000      8.4593      2.5251      0.0244      7.5699    169.9290     29.4348
  1285.3000      8.4319      2.5500      0.0255      6.0604    174.6872     29.4325
  1285.4000      8.4319      2.5874      0.0686      3.7913    176.6007     29.3864
  1285.5000      8.4086      2.6176      0.1192      1.9659    174.5073     29.4824
  1285.6000      8.4086      2.6222      0.1092      1.6868    170.4939     29.5118
  1285.7000      8.4086      2.6031      0.0876      2.8398    167.3729     29.2224
  1285.8000      8.4151      2.5795      0.0711      4.2731    165.6438     28.9181
  1285.9000      8.4151      2.5662      0.0479      5.0812    164.7103     28.6636
  1286.0000      8.4653      2.5623      0.0874      5.3125    166.0213     28.1023
  1286.1000      8.4653      2.5578      0.0579      5.5875    169.5071     27.4086
  1286.2000      8.4653      2.5528      0.0641      5.8882    172.1221     27.1270
  1286.3000      8.4724      2.5565      0.0896      5.6648    173.2477     27.1807
  1286.4000      8.4724      2.5675      0.1275      4.9976    172.6001     27.3008
  1286.5000      8.4740      2.5741      0.1316      4.5980    169.6111     27.4730
  1286.6000      8.4740      2.5689      0.1284      4.9121    166.7652     27.4262
  1286.7000      8.4740      2.5634      0.0880      5.2503    162.9500     27.1420
  1286.8000      8.4682      2.5756      0.1310      4.5097    154.7220     26.9956
  1286.9000      8.4682      2.6019      0.1911      2.9124    146.2682     27.1081
  1287.0000      8.4733      2.6269      0.1523      1.3976    142.4039     27.3741
  1287.1000      8.4733      2.6548      0.1262     -0.2938    139.2391     27.7303
  1287.2000      8.4733      2.6931      0.1787     -2.6103    134.2329     28.0449
  1287.3000      8.4088      2.7195      0.2314     -4.2134    130.7562     28.1521
  1287.4000      8.4088      2.7131      0.1660     -3.8252    129.7888     28.2753
  1287.5000      8.2826      2.6889      0.1583     -2.3560    129.0432     28.5619
  1287.6000      8.2826      2.6687      0.1308     -1.1318    130.0204     28.5786
  1287.7000      8.2826      2.6529      0.0868     -0.1760    135.4523     28.0589
  1287.8000      8.2095      2.6337      0.0704      0.9855    141.3262     27.2619
  1287.9000      8.2095      2.6157      0.0426      2.0770    142.9695     26.5821
  1288.0000      8.1978      2.6072      0.0837      2.5911    141.0970     26.1415
  1288.1000      8.1978      2.6046      0.0413      2.7531    136.6694     25.6348
  1288.2000      8.1978      2.5994      0.0785      3.0661    131.6766     25.0708
  1288.3000      8.1861      2.5895      0.0596      3.6669    130.5113     25.0023
  1288.4000      8.1861      2.5828      0.0746      4.0756    133.5341     25.5779
  1288.5000      8.1686      2.5864      0.0612      3.8527    136.3515     26.3230
  1288.6000      8.1686      2.5981      0.0835      3.1463    138.4104     26.7665
  1288.7000      8.1686      2.6091      0.0860      2.4784    142.3415     26.9211
  1288.8000      8.1630      2.6145      0.0914      2.1521    145.8284     27.0154
  1288.9000      8.1630      2.6155      0.0783      2.0925    143.9202     27.2419
  1289.0000      8.1622      2.6102      0.0854      2.4116    137.7338     27.6687
  1289.1000      8.1622      2.5958      0.0703      3.2863    131.5841     28.1872
  1289.2000      8.1622      2.5839      0.0092      4.0080    126.4867     28.6135
  1289.3000      8.1292      2.5922      0.0360      3.5006    121.7940     28.6976
  1289.4000      8.1292      2.6177      0.0667      1.9567    117.8789     28.3250
  1289.5000      8.0981      2.6411      0.0826      0.5387    115.2675     27.7777
  1289.6000      8.0981      2.6527      0.0690     -0.1628    114.3239     27.3569
  1289.7000      8.0981      2.6548      0.0695     -0.2897    116.0866     27.1989
  1289.8000      8.0054      2.6441      0.0849      0.3585    119.7396     27.1459
  1289.9000      8.0054      2.6211      0.0480      1.7521    122.7038     26.8458
  1290.0000      8.0039      2.6021      0.0824      2.9019    124.9704     26.3074
  1290.1000      8.0039      2.5957      0.0779      3.2903    127.9267     25.7286
  1290.2000      8.0039      2.5937      0.0812      3.4129    131.3592     25.2579
  1290.3000      8.0299      2.5863      0.0896      3.8599    135.7150     25.0901
  1290.4000      8.0299      2.5751      0.0550      4.5366    141.3740     25.2800
  1290.5000      8.0556      2.5695      0.0709      4.8790    145.2600     25.6801
  1290.6000      8.0556      2.5706      0.0820      4.8107    146.3138     26.2223
  1290.7000      8.0556      2.5710      0.1179      4.7888    148.3276     26.8547
