~Version Information
VERS.                      2.0: CWLS Log ASCII Standard - VERSION 2.0
WRAP.                       NO: One line per depth step
~Well Information Block
STRT.FT               664.0000: 
STOP.FT              1615.5000: 
STEP.FT                 0.2500: 
NULL.                -999.2500: 
COMP.          Petrogulf Corporation: COMPANY
WELL.          Great Plains 22-21R: WELL
FLD.           Purgatorie River: FIELD
LOC.           73' FNL & 1992' FWL: LOCATION
PROV.                 Colorado: PROVINCE
CNTY.               Las Animas: COUNTRY
SRVC.                Patterson: SERVICE COMPANY
DATE.          Thu Sep 08 08:05:26 2005: LOG DATE
UWI.                          : UNIQUE WELL ID
~Curve Information Block
DEPT.FT            0 000 00 00: Depth
SP.mV                         : DIL Spontaneous Potential
RILD.Ohm-m                    : DIL Deep Resistivity
RILM.Ohm-m                    : DIL Medium Resistivity
RLL3.Ohm-m                    : DIL Shallow Resistivity
GR.GAPI                       : Gamma Ray
~Parameter Information Block
~A  Depth        SP         RILD        RILM        RLL3         GR     
# ...
  1336.0000    144.5757     14.2504     19.1368     16.5482   -999.2500
  1336.2500    144.4570     13.3020     19.3494     22.8976   -999.2500
  1336.5000    144.4122     12.4739     18.1417     30.3598   -999.2500
  1336.7500    144.3661     11.8127     16.3152     33.8737   -999.2500
  1337.0000    144.4117     11.2345     14.4222     24.6357   -999.2500
  1337.2500    144.5177     10.5532     12.6320     14.5416   -999.2500
  1337.5000    144.5437      9.9475     11.2471     10.8373   -999.2500
  1337.7500    144.6461      9.6115     10.2601     10.0966   -999.2500
  1338.0000    144.7739      9.3048      9.5185      9.5162   -999.2500
  1338.2500    145.0757      8.9074      8.9342      9.0231   -999.2500
  1338.5000    145.4504      8.6768      8.4552      8.5180   -999.2500
  1338.7500    145.8196      8.5149      8.0959      8.1276   -999.2500
  1339.0000    146.2388      8.3148      7.8193      8.0871   -999.2500
  1339.2500    146.6863      8.0128      7.5973      8.0739   -999.2500
  1339.5000    147.0390      7.8953      7.4755      7.7323   -999.2500
  1339.7500    147.2670      7.8402      7.4517      7.9891   -999.2500
  1340.0000    147.3520      7.9392      7.4491      8.9976   -999.2500
  1340.2500    147.3778      8.0625      7.4831      9.7325   -999.2500
  1340.5000    147.3655      8.1719      7.6432      9.2883   -999.2500
  1340.7500    147.3017      8.4157      7.9346      8.2983   -999.2500
  1341.0000    147.0857      8.6224      8.2951      8.2971   -999.2500
  1341.2500    146.7939      9.0067      8.9320      9.8462   -999.2500
  1341.5000    146.5582      9.2840      9.6737     13.1857   -999.2500
  1341.7500    146.2595      9.6110     10.5672     17.6507   -999.2500
  1342.0000    146.0529      9.9415     11.6904     21.5156   -999.2500
  1342.2500    145.9208     10.2609     12.5718     24.1218   -999.2500
  1342.5000    145.8266     10.3936     13.0804     25.3349   -999.2500
  1342.7500    145.7433     10.5827     13.4090     24.3219   -999.2500
  1343.0000    145.6284     10.9237     13.5202     21.1507   -999.2500
  1343.2500    145.4005     11.1166     13.7606     18.3549   -999.2500
  1343.5000    145.1122     11.2215     13.6127     17.0699   -999.2500
  1343.7500    144.9922     11.3688     13.4054     15.9512   -999.2500
  1344.0000    144.8232     11.3724     13.0853     14.6351   -999.2500
  1344.2500    144.5774     11.4026     12.5947     13.5150   -999.2500
  1344.5000    144.2146     11.3571     12.1260     12.6875   -999.2500
  1344.7500    143.8449     11.3460     11.5133     11.7124   -999.2500
  1345.0000    143.5044     11.2701     11.0631     10.9677   -999.2500
  1345.2500    143.1924     11.2572     10.7679     10.3138   -999.2500
  1345.5000    142.8380     11.2874     10.5532     10.1294   -999.2500
  1345.7500    142.5957     11.3328     10.7014     10.3766   -999.2500
  1346.0000    142.4178     11.2854     10.9101     10.2191   -999.2500
  1346.2500    142.3265     11.0109     11.3492     10.5067   -999.2500
  1346.5000    142.2994     10.9329     11.9468     11.8133   -999.2500
  1346.7500    142.4310     10.6533     12.7022     15.0416   -999.2500
  1347.0000    142.6445     10.4667     13.6047     23.1692   -999.2500
  1347.2500    143.0347     10.3192     13.8048     39.4917   -999.2500
  1347.5000    143.4382     10.0539     13.4396     44.9726   -999.2500
  1347.7500    143.8407      9.8989     12.7480     32.1844   -999.2500
  1348.0000    144.2680      9.8733     12.0111     21.0351   -999.2500
  1348.2500    144.5902      9.8760     11.4041     15.3647   -999.2500
  1348.5000    144.7787      9.9336     10.7417     12.1625   -999.2500
  1348.7500    144.8282      9.9957     10.1477     10.0756   -999.2500
  1349.0000    144.7591      9.8849      9.9362      8.8497   -999.2500
  1349.2500    144.6842      9.6476      9.8097      7.9755   -999.2500
  1349.5000    144.5725      9.3337      9.5710      8.4692   -999.2500
  1349.7500    144.4932      9.0851      9.4328      9.5381   -999.2500
  1350.0000    144.4357      8.6412      9.2712     10.4726   -999.2500
  1350.2500    144.2680      8.2978      8.9915     10.5111   -999.2500
  1350.5000    144.1244      7.9428      8.5330     10.1903   -999.2500
  1350.7500    143.9997      7.7090      8.1779      9.6700   -999.2500
  1351.0000    143.8801      7.5443      7.8068      8.9909   -999.2500
  1351.2500    143.8343      7.4660      7.5531      8.3861   -999.2500
  1351.5000    143.9328      7.3970      7.3101      7.9505   -999.2500
  1351.7500    144.1353      7.4225      7.1703      7.6949   -999.2500
  1352.0000    144.3498      7.4517      7.0767      8.0215   -999.2500
  1352.2500    144.5523      7.5361      7.0080      7.9622   -999.2500
  1352.5000    144.9115      7.6561      7.0430      7.7321   -999.2500
  1352.7500    145.3355      7.8139      7.1085      7.9995   -999.2500
  1353.0000    145.6456      7.9853      7.2012      8.0668   -999.2500
  1353.2500    145.7631      8.1546      7.4847      8.0028   -999.2500
  1353.5000    145.6609      8.3539      7.8566      8.1060   -999.2500
  1353.7500    145.4488      8.5275      8.3995      8.8863   -999.2500
  1354.0000    145.2302      8.7086      9.0435     10.8548   -999.2500
  1354.2500    144.9379      8.9571      9.8739     13.6332   -999.2500
  1354.5000    144.5773      9.0422     10.6250     17.2595   -999.2500
  1354.7500    144.2453      9.1616     11.2755     20.1630   -999.2500
  1355.0000    144.0133      9.3396     11.7872     19.2078   -999.2500
  1355.2500    143.8140      9.3304     12.0093     17.0541   -999.2500
  1355.5000    143.7368      9.4068     12.1435     16.9765   -999.2500
  1355.7500    143.7575      9.6252     12.0861     18.7518   -999.2500
  1356.0000    143.7976      9.6129     11.8079     19.1360   -999.2500
  1356.2500    143.8353      9.6971     11.3599     16.1984   -999.2500
  1356.5000    143.9123      9.7597     10.6753     13.4560   -999.2500
  1356.7500    143.9740      9.9132     10.0756     11.3514   -999.2500
  1357.0000    144.0245     10.0119      9.5454      9.4656   -999.2500
  1357.2500    144.1189      9.9988      9.2131      8.3967   -999.2500
  1357.5000    144.2201     10.2469      9.1002      7.7477   -999.2500
  1357.7500    144.1790     10.4385      9.1324      7.8694   -999.2500
  1358.0000    144.0267     10.6083      9.4947      8.6535   -999.2500
  1358.2500    143.7381     10.6538     10.0738     10.0368   -999.2500
  1358.5000    143.3965     10.6814     11.0272     12.7250   -999.2500
  1358.7500    143.0847     10.8128     11.9877     16.4755   -999.2500
  1359.0000    142.6940     11.0624     13.0166     21.7946   -999.2500
  1359.2500    142.3472     11.3289     13.8287     29.3241   -999.2500
  1359.5000    142.1152     11.9521     14.3507     36.1890   -999.2500
  1359.7500    141.9950     12.7928     14.7946     34.9258   -999.2500
  1360.0000    141.9232     13.5607     15.6935     26.2031   -999.2500
  1360.2500    141.9753     14.9469     17.2031     19.4645   -999.2500
  1360.5000    142.0553     16.2328     18.9165     19.4486   -999.2500
  1360.7500    142.1549     17.4647     22.2259     25.6998   -999.2500
  1361.0000    142.2853     18.7436     26.0813     36.0034   -999.2500
  1361.2500    142.4241     20.2391     30.3785     41.9830   -999.2500
  1361.5000    142.5966     20.5073     33.6544     44.6115   -999.2500
  1361.7500    142.7775     19.7653     35.1635     50.5330   -999.2500
  1362.0000    142.9898     19.3745     34.8767     57.9648   -999.2500
  1362.2500    143.2206     18.7227     35.3739     63.7496   -999.2500
  1362.5000    143.4074     18.0673     33.3042     63.0765   -999.2500
  1362.7500    143.4911     17.2059     30.0221     48.5103   -999.2500
  1363.0000    143.5380     16.0579     26.2987     31.5677   -999.2500
  1363.2500    143.5513     15.0547     23.0398     26.5972   -999.2500
  1363.5000    143.5733     14.0637     19.9720     27.2116   -999.2500
  1363.7500    143.5541     13.3380     17.1197     23.0614   -999.2500
