~Version Information
VERS.                      2.0: CWLS Log ASCII Standard - VERSION 2.0
WRAP.                       NO: One line per depth step
~Well Information Block
STRT.FT               846.6000: 
STOP.FT              2609.1000: 
STEP.FT                 0.1000: 
NULL.                -999.2500: 
COMP.          Petrogulf Corporation: COMPANY
WELL.            Lavedure 7-44: WELL
FLD.           Purgatoire River: FIELD
LOC.           969' FSL & 501' FEL: LOCATION
PROV.                 Colorado: PROVINCE
CNTY.               Las Animas: COUNTRY
SRVC.                Patterson: SERVICE COMPANY
DATE.          Sun Dec 07 14:55:17 2003: LOG DATE
UWI.                          : UNIQUE WELL ID
~Curve Information Block
DEPT.FT            0 000 00 00: Depth
DCAL.in                       : CDL Caliper
RHOB.g/cc                     : CDL Bulk Density
RHOC.g/cc                     : CDL Density Correction
DPOR.pu                       : CDL Density Porosity
GR.GAPI                       : Gamma Ray
NPOR.pu                       : Neutron Porosity
~Parameter Information Block
~A  Depth       DCAL        RHOB        RHOC        DPOR         GR         NPOR    
# ...
  1326.6000      8.5547      2.2217      0.1472     25.9582    144.6075     32.5789
  1326.7000      8.5547      2.2200      0.1524     26.0630    140.8366     32.6959
  1326.8000      8.6258      2.2186      0.1594     26.1438    136.5798     32.7814
  1326.9000      8.6258      2.2183      0.1687     26.1649    132.0432     32.8267
  1327.0000      8.7091      2.2195      0.1801     26.0902    127.4372     32.8272
  1327.1000      8.7091      2.2229      0.1936     25.8866    122.9593     32.7827
  1327.2000      8.7091      2.2288      0.2083     25.5274    118.7907     32.6971
  1327.3000      8.7652      2.2376      0.2236     24.9953    115.0795     32.5778
  1327.4000      8.7652      2.2493      0.2386     24.2836    111.9426     32.4346
  1327.5000      8.8660      2.2639      0.2523     23.3975    109.4475     32.2781
  1327.6000      8.8660      2.2812      0.2641     22.3535    107.6187     32.1183
  1327.7000      8.8660      2.3006      0.2734     21.1782    106.4308     31.9640
  1327.8000      9.0045      2.3215      0.2798     19.9065    105.8194     31.8222
  1327.9000      9.0045      2.3435      0.2830     18.5783    105.6866     31.6977
  1328.0000      9.0732      2.3656      0.2831     17.2361    105.9197     31.5937
  1328.1000      9.0732      2.3873      0.2805     15.9217    106.4017     31.5120
  1328.2000      9.0732      2.4079      0.2755     14.6737    107.0241     31.4539
  1328.3000      9.0447      2.4268      0.2690     13.5251    107.7015     31.4194
  1328.4000      9.0447      2.4437      0.2619     12.5023    108.3705     31.4078
  1328.5000      8.9208      2.4582      0.2553     11.6240    108.9944     31.4171
  1328.6000      8.9208      2.4701      0.2501     10.9013    109.5571     31.4442
  1328.7000      8.9208      2.4794      0.2473     10.3389    110.0588     31.4844
  1328.8000      8.7522      2.4861      0.2470      9.9354    110.5138     31.5323
  1328.9000      8.7522      2.4902      0.2490      9.6856    110.9390     31.5822
  1329.0000      8.7176      2.4919      0.2526      9.5810    111.3566     31.6291
  1329.1000      8.7176      2.4914      0.2566      9.6109    111.7847     31.6693
  1329.2000      8.7176      2.4889      0.2599      9.7632    112.2329     31.7015
  1329.3000      8.9188      2.4846      0.2611     10.0238    112.6985     31.7267
  1329.4000      8.9188      2.4788      0.2594     10.3775    113.1640     31.7476
  1329.5000      9.2141      2.4717      0.2545     10.8066    113.5929     31.7683
  1329.6000      9.2141      2.4637      0.2466     11.2911    113.9338     31.7931
  1329.7000      9.2141      2.4551      0.2364     11.8092    114.1240     31.8258
  1329.8000      9.3575      2.4464      0.2254     12.3370    114.0975     31.8681
  1329.9000      9.3575      2.4380      0.2152     12.8503    113.7964     31.9204
  1330.0000      9.3325      2.4301      0.2075     13.3256    113.1786     31.9804
  1330.1000      9.3325      2.4233      0.2037     13.7421    112.2287     32.0443
  1330.2000      9.3325      2.4176      0.2046     14.0829    110.9581     32.1068
  1330.3000      9.2652      2.4134      0.2100     14.3369    109.4014     32.1620
  1330.4000      9.2652      2.4108      0.2193     14.4992    107.6152     32.2037
  1330.5000      9.1416      2.4096      0.2309     14.5714    105.6657     32.2255
  1330.6000      9.1416      2.4097      0.2433     14.5609    103.6226     32.2216
  1330.7000      9.1416      2.4111      0.2548     14.4799    101.5469     32.1866
  1330.8000      8.9572      2.4133      0.2640     14.3434     99.4878     32.1162
  1330.9000      8.9572      2.4162      0.2702     14.1677     97.4797     32.0077
  1331.0000      8.8365      2.4195      0.2730     13.9684     95.5440     31.8606
  1331.1000      8.8365      2.4230      0.2724     13.7594     93.6913     31.6776
  1331.2000      8.8365      2.4264      0.2690     13.5517     91.9290     31.4653
  1331.3000      8.7715      2.4297      0.2634     13.3532     90.2644     31.2341
  1331.4000      8.7715      2.4327      0.2565     13.1687     88.7121     30.9978
  1331.5000      8.7389      2.4355      0.2489     13.0006     87.2884     30.7727
  1331.6000      8.7389      2.4380      0.2411     12.8497     86.0148     30.5755
  1331.7000      8.7389      2.4402      0.2335     12.7155     84.9079     30.4213
  1331.8000      8.8052      2.4421      0.2261     12.5975     83.9784     30.3215
  1331.9000      8.8052      2.4438      0.2190     12.4947     83.2259     30.2826
  1332.0000      8.9869      2.4453      0.2126     12.4067     82.6340     30.3047
  1332.1000      8.9869      2.4465      0.2069     12.3329     82.1740     30.3816
  1332.2000      8.9869      2.4475      0.2023     12.2723     81.8071     30.5019
  1332.3000      9.1894      2.4483      0.1991     12.2236     81.4882     30.6500
  1332.4000      9.1894      2.4490      0.1978     12.1844     81.1731     30.8083
  1332.5000      9.3082      2.4495      0.1983     12.1512     80.8238     30.9597
  1332.6000      9.3082      2.4500      0.2007     12.1196     80.4084     31.0884
  1332.7000      9.3082      2.4506      0.2044     12.0841     79.9070     31.1824
  1332.8000      9.3511      2.4514      0.2091     12.0383     79.3095     31.2334
  1332.9000      9.3511      2.4524      0.2141     11.9757     78.6144     31.2370
  1333.0000      9.2709      2.4538      0.2189     11.8898     77.8294     31.1924
  1333.1000      9.2709      2.4557      0.2230     11.7748     76.9714     31.1010
  1333.2000      9.2709      2.4582      0.2260     11.6254     76.0682     30.9656
  1333.3000      9.0131      2.4613      0.2276     11.4380     75.1558     30.7900
  1333.4000      9.0131      2.4650      0.2277     11.2100     74.2803     30.5781
  1333.5000      8.7757      2.4695      0.2262     10.9402     73.4939     30.3343
  1333.6000      8.7757      2.4746      0.2231     10.6287     72.8500     30.0633
  1333.7000      8.7757      2.4804      0.2185     10.2768     72.3978     29.7703
  1333.8000      8.6764      2.4869      0.2126      9.8864     72.1748     29.4610
  1333.9000      8.6764      2.4939      0.2054      9.4599     72.2031     29.1414
  1334.0000      8.5848      2.5015      0.1974      8.9998     72.4858     28.8173
  1334.1000      8.5848      2.5096      0.1888      8.5084     73.0075     28.4942
  1334.2000      8.5848      2.5182      0.1800      7.9881     73.7374     28.1760
  1334.3000      8.4498      2.5272      0.1716      7.4410     74.6353     27.8658
  1334.4000      8.4498      2.5367      0.1637      6.8693     75.6531     27.5656
  1334.5000      8.3717      2.5464      0.1569      6.2758     76.7373     27.2766
  1334.6000      8.3717      2.5565      0.1512      5.6646     77.8284     27.0001
  1334.7000      8.3717      2.5668      0.1467      5.0412     78.8636     26.7372
  1334.8000      8.3401      2.5772      0.1435      4.4133     79.7801     26.4902
  1334.9000      8.3401      2.5874      0.1411      3.7913     80.5150     26.2620
  1335.0000      8.3060      2.5974      0.1395      3.1875     81.0154     26.0559
  1335.1000      8.3060      2.6068      0.1380      2.6168     81.2482     25.8756
  1335.2000      8.3060      2.6154      0.1364      2.0952     81.2094     25.7248
  1335.3000      8.2885      2.6229      0.1343      1.6396     80.9265     25.6060
  1335.4000      8.2885      2.6291      0.1314      1.2659     80.4608     25.5209
  1335.5000      8.2871      2.6337      0.1276      0.9884     79.9047     25.4694
  1335.6000      8.2871      2.6365      0.1229      0.8186     79.3679     25.4498
  1335.7000      8.2871      2.6374      0.1176      0.7641     78.9668     25.4590
  1335.8000      8.2706      2.6363      0.1118      0.8281     78.8054     25.4931
  1335.9000      8.2706      2.6333      0.1059      1.0093     78.9632     25.5481
  1336.0000      8.2450      2.6285      0.0999      1.3021     79.4845     25.6202
  1336.1000      8.2450      2.6220      0.0940      1.6968     80.3725     25.7069
