~Version Information
 VERS.                                  2.0 : CWLS LAS VERSION
 WRAP.                                   NO : WRAPING MODE
 SWARE .                 MController 2.5.0E : SOFTWARE VERSION
~Well Information
 WELL.                          Patten 22-2 : WELL
 COMP.           Pionneer Natural Resources : COMPANY
 FLD.                      Purgatoire River : FIELD
 LOC.                 SE/NW Sec 2 T35S R65W : LOCATION
 DATE.                             12/09/04 : DATE(S) LOGGED
 SRVC.                Blanco Geological LLC : SERVICE COMPANY
 STAT.                                   CO : STATE
 CNTY.                           Las Aminas : COUNTY
 CTRY.                                  USA : COUNTRY
 API.                          05-071-08168 : API NUMBER
 STRT.FT                             276.00 : START DEPTH
 STOP.FT                            1707.00 : STOP DEPTH
 STEP.FT                               1.00 : DEPTH INCREMENT
 NULL.                                -9999 : NULL VALUE
~Curve information
 DEPTH.FT                                   :
 ROP.MIN/FT                                 :
 GAS.UNITS                                  :
~ASCII Log data
# ...
     1476.00        0.167          1.6 
     1477.00        0.300          1.9 
     1478.00        0.350          2.1 
     1479.00        0.233          1.9 
     1480.00        0.233          2.1 
     1481.00        0.233          2.2 
     1482.00        0.267          2.2 
     1483.00        0.267          2.5 
     1484.00        0.233          2.4 
     1485.00        0.267          2.4 
     1486.00        0.233          2.3 
     1487.00        0.267          2.4 
     1488.00        0.267          2.5 
     1489.00        0.300          2.5 
     1490.00        0.283          2.6 
     1491.00        0.300          2.7 
     1492.00        0.267          2.7 
     1493.00        0.233          2.4 
     1494.00        0.267          2.6 
     1495.00        0.133          2.4 
     1496.00        4.217          3.4 
     1497.00        0.400          3.6 
     1498.00        0.417          3.4 
     1499.00        0.267          3.6 
     1500.00        0.267          3.4 
     1501.00        0.233          3.5 
     1502.00        0.200          3.5 
     1503.00        0.167          3.0 
     1504.00        0.200          3.2 
     1505.00        0.233          3.0 
     1506.00        0.167          3.0 
     1507.00        0.267          3.1 
     1508.00        0.233          3.0 
     1509.00        0.300          2.6 
     1510.00        0.267          2.8 
     1511.00        0.333          2.6 
     1512.00        0.217          2.2 
     1513.00       12.533          3.1 
     1514.00        0.300          2.1 
     1515.00        0.200          2.4 
     1516.00        0.200          2.7 
     1517.00        0.167          2.8 
     1518.00        0.533          3.7 
     1519.00        0.300          6.5 
     1520.00        0.267          9.2 
     1521.00        0.267         12.2 
     1522.00        0.200         16.1 
     1523.00        0.217         17.1 
     1524.00        0.200         16.8 
     1525.00        0.233         15.9 
     1526.00        4.417         29.4 
     1527.00        0.133         30.1 
     1528.00        0.167         29.3 
     1529.00        0.200         27.7 
     1530.00        0.200         26.3 
     1531.00        0.133         28.6 
     1532.00        0.300         40.1 
     1533.00        0.317         59.2 
     1534.00        0.300         83.2 
     1535.00        0.267        105.5 
     1536.00        0.267        125.0 
     1537.00        0.267        140.2 
     1538.00        0.233        147.8 
     1539.00        0.300        149.7 
     1540.00        0.233        149.0 
     1541.00        0.267        144.5 
     1542.00        0.333        136.4 
     1543.00        0.267        122.8 
     1544.00        0.267        112.7 
     1545.00        0.317        103.2 
     1546.00        0.267         94.8 
     1547.00        0.300         89.0 
     1548.00        0.267         86.3 
     1549.00        0.267         84.9 
     1550.00        0.267         85.0 
     1551.00        0.300         87.4 
     1552.00        0.267        119.1 
     1553.00        0.267        135.9 
     1554.00        0.267        136.4 
     1555.00        0.133        131.7 
     1556.00        5.033        223.0 
     1557.00        0.367        208.2 
     1558.00        0.333        177.7 
     1559.00        0.333        158.5 
     1560.00        0.367        147.8 
     1561.00        0.350        137.9 
     1562.00        0.333        128.6 
     1563.00        0.333        121.7 
     1564.00        0.333        113.1 
     1565.00        0.333        102.5 
     1566.00        0.333         92.5 
     1567.00        0.333         83.9 
     1568.00        0.367         76.5 
     1569.00        0.367         71.4 
     1570.00        0.383         67.2 
     1571.00        0.400         63.4 
     1572.00        0.367         60.3 
     1573.00        0.400         58.5 
     1574.00        0.367         56.5 
     1575.00        0.400         54.9 
     1576.00        0.400         53.4 
     1577.00        0.433         52.9 
     1578.00        0.417         51.9 
     1579.00        0.433         50.9 
     1580.00        0.433         49.8 
     1581.00        0.433         48.6 
     1582.00        0.433         60.9 
     1583.00        0.400         64.5 
     1584.00        0.233         63.9 
     1585.00        0.167         59.3 
     1586.00        3.600         63.2 
     1587.00        0.467        103.6 
     1588.00        0.400        117.7 
     1589.00        0.333        117.2 
     1590.00        0.333        108.7 
     1591.00        0.267        102.2 
     1592.00        0.367         97.8 
     1593.00        0.633         85.5 
     1594.00        0.333         63.0 
     1595.00        0.283         56.8 
     1596.00        0.267         53.4 
     1597.00        0.267         50.9 
     1598.00        0.300         48.0 
     1599.00        0.267         46.7 
     1600.00        0.267         45.8 
     1601.00        0.267         44.8 
     1602.00        0.300         43.7 
     1603.00        0.300         41.9 
     1604.00        0.267         39.6 
     1605.00        0.300         37.7 
     1606.00        0.283         36.9 
     1607.00        0.267         36.1 
     1608.00        0.267         34.7 
     1609.00        0.233         34.5 
     1610.00        0.267         34.8 
     1611.00        0.267         35.2 
     1612.00        0.267         42.3 
     1613.00        0.233         44.2 
     1614.00        0.233         43.4 
     1615.00        0.233         38.6 
     1616.00        4.467        157.3 
     1617.00        0.567        245.6 
     1618.00        0.300        257.7 
     1619.00        0.500        255.2 
     1620.00        0.467        200.4 
     1621.00        0.267        133.6 
     1622.00        0.300        102.3 
     1623.00        0.350         75.2 
     1624.00        0.300         54.5 
     1625.00        0.333         45.1 
     1626.00        0.367         38.9 
     1627.00        0.300         34.8 
     1628.00        0.300         33.3 
     1629.00        0.300         32.2 
     1630.00        0.200         31.9 
     1631.00        0.267         31.5 
     1632.00        0.267         30.0 
     1633.00        0.250         28.4 
     1634.00        0.233         27.3 
     1635.00        0.233         27.5 
     1636.00        0.267         27.2 
     1637.00        0.300         27.1 
     1638.00        0.267         27.0 
     1639.00        0.267         26.2 
     1640.00        0.267         25.3 
     1641.00        0.300         25.2 
     1642.00        0.300         26.5 
     1643.00        0.300         25.1 
     1644.00        0.167         23.4 
     1645.00        0.383         22.7 
     1646.00        3.983        143.8 
     1647.00        0.833        140.1 
     1648.00        0.883         81.3 
     1649.00        0.967         39.9 
     1650.00        1.233         30.3 
     1651.00        0.533         23.7 
     1652.00        0.267         22.0 
     1653.00        0.283         21.7 
     1654.00        0.300         21.7 
     1655.00        0.267         20.8 
     1656.00        0.233         20.6 
     1657.00        0.267         20.9 
     1658.00        0.200         21.2 
     1659.00        0.200         21.6 
     1660.00        0.200         21.9 
     1661.00        0.267         22.7 
     1662.00        0.267         22.7 
     1663.00        0.267         23.2 
     1664.00        0.233         23.3 
     1665.00        0.250         23.7 
     1666.00        0.233         24.2 
     1667.00        0.233         23.9 
     1668.00        0.267         22.6 
     1669.00        0.300         21.7 
     1670.00        0.300         23.6 
     1671.00        0.300         24.5 
     1672.00        0.267         22.7 
     1673.00        0.267         20.1 
     1674.00        0.750         19.0 
     1675.00        0.667         14.9 
