~Version Information
VERS.                      2.0: CWLS Log ASCII Standard - VERSION 2.0
WRAP.                       NO: One line per depth step
~Well Information Block
STRT.FT               350.0000: 
STOP.FT              1390.0000: 
STEP.FT                 0.1000: 
NULL.                -999.2500: 
COMP.          Petrogulf Corporation: COMPANY
WELL.             Leier 17-42R: WELL
FLD.           Purgatorie River: FIELD
LOC.           2398' FNL & 1109' FEL: LOCATION
PROV.                 Colorado: PROVINCE
CNTY.               Las Animas: COUNTRY
SRVC.                Patterson: SERVICE COMPANY
DATE.          Tue Oct 18 07:06:44 2005: LOG DATE
UWI.                          : UNIQUE WELL ID
~Curve Information Block
DEPT.FT            0 000 00 00: Depth
DCAL.in                       : CDL Caliper
RHOB.g/cc                     : CDL Bulk Density
RHOC.g/cc                     : CDL Density Correction
DPOR.pu                       : CDL Density Porosity
GR.GAPI                       : Gamma Ray
NPOR.pu                       : Neutron Porosity
~Parameter Information Block
~A  Depth       DCAL        RHOB        RHOC        DPOR         GR         NPOR    
# ...
   964.4000      7.9782      2.4950      0.0281      9.3912     63.4602     22.1268
   964.5000      7.9743      2.4945      0.1201      9.4261     63.4059     22.0100
   964.6000      7.9743      2.4915      0.0667      9.6068     62.0720     21.4389
   964.7000      7.9743      2.4876      0.0905      9.8399     61.0614     20.8250
   964.8000      7.9774      2.4892      0.0593      9.7439     61.2377     20.5476
   964.9000      7.9774      2.4929      0.0544      9.5183     60.9417     20.6422
   965.0000      7.9863      2.4932      0.0462      9.5021     60.0257     20.8701
   965.1000      7.9863      2.4900      0.0673      9.6968     58.9273     20.7135
   965.2000      7.9863      2.4819      0.0978     10.1878     58.2670     19.9983
   965.3000      7.9599      2.4691      0.0362     10.9625     58.8651     19.1334
   965.4000      7.9599      2.4594      0.0451     11.5489     59.6740     18.5051
   965.5000      7.9545      2.4619      0.0180     11.4005     58.6468     18.2605
   965.6000      7.9545      2.4775      0.0604     10.4520     57.0007     18.3623
   965.7000      7.9545      2.4929      0.0590      9.5217     57.1084     18.7835
   965.8000      7.9495      2.4968      0.0463      9.2867     58.2104     19.2450
   965.9000      7.9495      2.4910      0.0730      9.6377     58.6848     19.2991
   966.0000      7.9442      2.4813      0.0352     10.2267     58.3225     19.1624
   966.1000      7.9442      2.4699      0.0424     10.9130     58.0744     19.3496
   966.2000      7.9442      2.4570     -0.0064     11.6940     59.3288     19.7433
   966.3000      7.9461      2.4475      0.0245     12.2708     60.5816     19.9103
   966.4000      7.9461      2.4446      0.0156     12.4498     58.7277     19.8581
   966.5000      7.9418      2.4436     -0.0015     12.5087     55.4072     19.8252
   966.6000      7.9418      2.4376      0.0337     12.8716     53.7651     19.7758
   966.7000      7.9418      2.4272      0.0543     13.5031     54.5768     19.5722
   966.8000      7.9364      2.4184      0.0656     14.0391     56.3259     19.3872
   966.9000      7.9364      2.4167      0.0138     14.1422     56.3774     19.4984
   967.0000      7.9302      2.4282      0.0272     13.4443     55.0073     19.9752
   967.1000      7.9302      2.4501      0.0619     12.1182     54.0785     20.6877
   967.2000      7.9302      2.4699      0.0791     10.9131     53.6639     21.3340
   967.3000      7.9263      2.4788      0.0822     10.3783     54.0151     21.5899
   967.4000      7.9263      2.4745      0.0687     10.6393     54.0294     21.3272
   967.5000      7.9244      2.4616      0.0472     11.4204     52.1472     20.5634
   967.6000      7.9244      2.4501      0.0608     12.1165     51.2365     19.2618
   967.7000      7.9244      2.4517      0.0030     12.0161     54.2120     17.6611
   967.8000      7.9221      2.4653      0.0824     11.1944     58.5613     16.3323
   967.9000      7.9221      2.4728      0.0420     10.7421     60.2818     15.4823
   968.0000      7.9288      2.4700      0.0512     10.9071     58.5193     15.0387
   968.1000      7.9288      2.4683      0.0493     11.0131     55.9409     15.1945
   968.2000      7.9288      2.4721      0.0562     10.7802     55.1279     16.0869
   968.3000      7.9307      2.4718      0.0745     10.7987     55.6789     17.3962
   968.4000      7.9307      2.4593      0.0114     11.5591     56.0881     18.7729
   968.5000      7.9451      2.4465     -0.0075     12.3345     56.4944     19.9865
   968.6000      7.9451      2.4414      0.0415     12.6430     57.0215     20.7554
   968.7000      7.9451      2.4385      0.0369     12.8180     56.2260     20.9214
   968.8000      7.9446      2.4371      0.0354     12.9047     53.8062     20.5051
   968.9000      7.9446      2.4379      0.0125     12.8564     53.4105     19.6333
   969.0000      7.9268      2.4402     -0.0006     12.7162     57.9540     18.7076
   969.1000      7.9268      2.4451     -0.0060     12.4209     64.5506     18.2373
   969.2000      7.9268      2.4490      0.0590     12.1834     68.6518     18.2960
   969.3000      7.9242      2.4496      0.0151     12.1430     68.6119     18.8529
   969.4000      7.9242      2.4583      0.0126     11.6172     64.9688     19.7733
   969.5000      7.9358      2.4817      0.0669     10.1978     60.2319     20.4771
   969.6000      7.9358      2.5021      0.0895      8.9652     57.6983     20.5935
   969.7000      7.9358      2.5000      0.0574      9.0921     57.9337     20.2018
   969.8000      7.9266      2.4847      0.0058     10.0189     59.3468     19.7340
   969.9000      7.9266      2.4775      0.0095     10.4526     62.6888     19.6073
   970.0000      7.9286      2.4828      0.0361     10.1330     69.0453     19.8884
   970.1000      7.9286      2.4915      0.0610      9.6062     75.3953     20.3536
   970.2000      7.9286      2.5007      0.0488      9.0512     77.1406     20.5493
   970.3000      7.9323      2.5160      0.0692      8.1201     76.2141     20.4564
   970.4000      7.9323      2.5374      0.0727      6.8258     77.2732     20.3980
   970.5000      7.9335      2.5563      0.1051      5.6781     79.0365     20.2350
   970.6000      7.9335      2.5693      0.0647      4.8921     79.7809     19.7692
   970.7000      7.9335      2.5803      0.0885      4.2223     82.3406     19.3445
   970.8000      7.9314      2.5938      0.0620      3.4050     88.6775     19.2635
   970.9000      7.9314      2.6093      0.0707      2.4661     96.2851     19.3275
   971.0000      7.9292      2.6190      0.0913      1.8796    101.6646     19.6096
   971.1000      7.9292      2.6195      0.0621      1.8501    103.9310     20.5845
   971.2000      7.9292      2.6192      0.0769      1.8654    105.4938     22.1430
   971.3000      7.9212      2.6261      0.0576      1.4495    109.6702     23.7197
   971.4000      7.9212      2.6355      0.1272      0.8808    114.5086     24.9086
   971.5000      7.9084      2.6390      0.1256      0.6644    114.2972     25.3407
   971.6000      7.9084      2.6372      0.1086      0.7775    109.8189     25.0926
   971.7000      7.9084      2.6284      0.1241      1.3121    106.7095     24.7820
   971.8000      7.9106      2.6127      0.0673      2.2579    106.0195     24.8175
   971.9000      7.9106      2.6016      0.0786      2.9306    107.1531     24.9869
   972.0000      7.9185      2.5969      0.0968      3.2172    109.5566     24.9247
   972.1000      7.9185      2.5947      0.0626      3.3518    110.1010     24.8476
   972.2000      7.9185      2.6022      0.0655      2.8964    108.6155     25.1039
   972.3000      7.9302      2.6210      0.0731      1.7580    108.0468     25.3970
   972.4000      7.9302      2.6353      0.0772      0.8901    108.9168     25.3181
   972.5000      7.9416      2.6376      0.0305      0.7533    109.4656     25.1146
   972.6000      7.9416      2.6389      0.0939      0.6739    109.6967     25.0456
   972.7000      7.9416      2.6378      0.0860      0.7410    109.1206     24.9467
   972.8000      7.9300      2.6232      0.0629      1.6268    106.8587     24.7338
   972.9000      7.9300      2.6035      0.0036      2.8183    105.7962     24.4439
   973.0000      7.9017      2.5970      0.0292      3.2092    108.6658     24.1393
   973.1000      7.9017      2.6039      0.0229      2.7915    111.3331     23.8827
   973.2000      7.9017      2.6156      0.0405      2.0821    109.2757     23.7146
   973.3000      7.9036      2.6283      0.0519      1.3144    104.5666     23.7662
   973.4000      7.9036      2.6391      0.1052      0.6580    101.1452     23.9998
   973.5000      7.8973      2.6472      0.0952      0.1710    100.0191     24.3077
   973.6000      7.8973      2.6506      0.0963     -0.0334    100.0104     24.3957
   973.7000      7.8973      2.6460      0.0837      0.2436     98.9040     24.1665
   973.8000      7.8783      2.6378      0.0633      0.7366     94.0912     23.9757
   973.9000      7.8783      2.6312      0.0803      1.1393     87.4193     23.8853
