~Version Information
VERS.                      2.0: CWLS Log ASCII Standard - VERSION 2.0
WRAP.                       NO: One line per depth step
~Well Information Block
STRT.FT              2983.0000: 
STOP.FT              3214.7500: 
STEP.FT                 0.0500: 
NULL.                -999.2500: 
COMP.          Pioner Natural Resources: COMPANY
WELL.              Vespar 43-7: WELL
FLD.           Purgatoire River: FIELD
LOC.           2338' FSL & 1141' FEL------: LOCATION
PROV.                 Colorado: PROVINCE
CNTY.               Las Animas: COUNTRY
SRVC.                         : SERVICE COMPANY
DATE.          Fri Apr 15 15:31:19 2005: LOG DATE
UWI.                          : UNIQUE WELL ID
~Curve Information Block
DEPT.FT            0 000 00 00: Depth
GR.GAPI                       : Gamma Ray
CCL.                          : Casing Collar Locator
TT3.usec                      : CBL 3' Travel Time
AMP3.mV                       : CBL 3' Amplitude
AMP5.mV                       : CBL 5' Amplitude
~Parameter Information Block
~A  Depth        GR         CCL         TT3         AMP3        AMP5    
# ...
  3011.0000     94.2828      0.0000    509.3442     19.1524      3.1423
  3011.0500     94.2828      0.0000    509.3442     19.1524      3.1423
  3011.1000     94.2828      0.0000    509.3442     19.1524      3.1423
  3011.1500     94.2828      0.0000    509.3442     19.1524      3.1423
  3011.2000     94.2828      0.0000    509.3442     19.1524      3.1423
  3011.2500     96.6620      0.0000    545.4048     15.7686      2.6605
  3011.3000     96.6620      0.0000    545.4048     15.7686      2.6605
  3011.3500     96.6620      0.0000    545.4048     15.7686      2.6605
  3011.4000     96.6620      0.0000    545.4048     15.7686      2.6605
  3011.4500     96.6620      0.0000    545.4048     15.7686      2.6605
  3011.5000     96.1817      0.0000    552.6262     12.9711      2.2351
  3011.5500     96.1817      0.0000    552.6262     12.9711      2.2351
  3011.6000     96.1817      0.0000    552.6262     12.9711      2.2351
  3011.6500     96.1817      0.0000    552.6262     12.9711      2.2351
  3011.7000     96.1817      0.0000    552.6262     12.9711      2.2351
  3011.7500     92.3897      0.0000    535.3405     10.7916      1.8903
  3011.8000     92.3897      0.0000    535.3405     10.7916      1.8903
  3011.8500     92.3897      0.0000    535.3405     10.7916      1.8903
  3011.9000     92.3897      0.0000    535.3405     10.7916      1.8903
  3011.9500     92.3897      0.0000    535.3405     10.7916      1.8903
  3012.0000     86.4686      0.0000    508.4706      9.1793      1.6588
  3012.0500     86.4686      0.0000    508.4706      9.1793      1.6588
  3012.1000     86.4686      0.0000    508.4706      9.1793      1.6588
  3012.1500     86.4686      0.0000    508.4706      9.1793      1.6588
  3012.2000     86.4686      0.0000    508.4706      9.1793      1.6588
  3012.2500     80.3194      0.0000    486.7868      8.0657      1.5706
  3012.3000     80.3194      0.0000    486.7868      8.0657      1.5706
  3012.3500     80.3194      0.0000    486.7868      8.0657      1.5706
  3012.4000     80.3194      0.0000    486.7868      8.0657      1.5706
  3012.4500     80.3194      0.0000    486.7868      8.0657      1.5706
  3012.5000     75.6096      0.0000    474.5811      7.3997      1.6359
  3012.5500     75.6096      0.0000    474.5811      7.3997      1.6359
  3012.6000     75.6096      0.0000    474.5811      7.3997      1.6359
  3012.6500     75.6096      0.0000    474.5811      7.3997      1.6359
  3012.7000     75.6096      0.0000    474.5811      7.3997      1.6359
  3012.7500     73.4941      0.0000    467.1788      7.1655      1.8366
  3012.8000     73.4941      0.0000    467.1788      7.1655      1.8366
  3012.8500     73.4941      0.0000    467.1788      7.1655      1.8366
  3012.9000     73.4941      0.0000    467.1788      7.1655      1.8366
  3012.9500     73.4941      0.0000    467.1788      7.1655      1.8366
  3013.0000     74.3581      0.0000    463.8496      7.3783      2.1403
  3013.0500     74.3581      0.0000    463.8496      7.3783      2.1403
  3013.1000     74.3581      0.0000    463.8496      7.3783      2.1403
  3013.1500     74.3581      0.0000    463.8496      7.3783      2.1403
  3013.2000     74.3581      0.0000    463.8496      7.3783      2.1403
  3013.2500     77.4747      0.0000    475.0259      8.0551      2.5245
  3013.3000     77.4747      0.0000    475.0259      8.0551      2.5245
  3013.3500     77.4747      0.0000    475.0259      8.0551      2.5245
  3013.4000     77.4747      0.0000    475.0259      8.0551      2.5245
  3013.4500     77.4747      0.0000    475.0259      8.0551      2.5245
  3013.5000     81.3302      0.0000    511.9849      9.1875      2.9868
  3013.5500     81.3302      0.0000    511.9849      9.1875      2.9868
  3013.6000     81.3302      0.0000    511.9849      9.1875      2.9868
  3013.6500     81.3302      0.0000    511.9849      9.1875      2.9868
  3013.7000     81.3302      0.0000    511.9849      9.1875      2.9868
  3013.7500     84.6697      0.0000    570.4229     10.7514      3.5379
  3013.8000     84.6697      0.0000    570.4229     10.7514      3.5379
  3013.8500     84.6697      0.0000    570.4229     10.7514      3.5379
  3013.9000     84.6697      0.0000    570.4229     10.7514      3.5379
  3013.9500     84.6697      0.0000    570.4229     10.7514      3.5379
  3014.0000     87.1776      0.0000    627.0757     12.7664      4.1898
  3014.0500     87.1776      0.0000    627.0757     12.7664      4.1898
  3014.1000     87.1776      0.0000    627.0757     12.7664      4.1898
  3014.1500     87.1776      0.0000    627.0757     12.7664      4.1898
  3014.2000     87.1776      0.0000    627.0757     12.7664      4.1898
  3014.2500     89.0928      0.0000    652.7004     15.3552      4.9473
  3014.3000     89.0928      0.0000    652.7004     15.3552      4.9473
  3014.3500     89.0928      0.0000    652.7004     15.3552      4.9473
  3014.4000     89.0928      0.0000    652.7004     15.3552      4.9473
  3014.4500     89.0928      0.0000    652.7004     15.3552      4.9473
  3014.5000     90.4454      0.0000    629.6896     18.6986      5.8067
  3014.5500     90.4454      0.0000    629.6896     18.6986      5.8067
  3014.6000     90.4454      0.0000    629.6896     18.6986      5.8067
  3014.6500     90.4454      0.0000    629.6896     18.6986      5.8067
  3014.7000     90.4454      0.0000    629.6896     18.6986      5.8067
  3014.7500     90.9478      0.0000    562.2677     22.8714      6.7766
  3014.8000     90.9478      0.0000    562.2677     22.8714      6.7766
  3014.8500     90.9478      0.0000    562.2677     22.8714      6.7766
  3014.9000     90.9478      0.0000    562.2677     22.8714      6.7766
  3014.9500     90.9478      0.0000    562.2677     22.8714      6.7766
  3015.0000     90.4179      0.0000    473.4220     27.7414      7.9231
  3015.0500     90.4179      0.0000    473.4220     27.7414      7.9231
  3015.1000     90.4179      0.0000    473.4220     27.7414      7.9231
  3015.1500     90.4179      0.0000    473.4220     27.7414      7.9231
  3015.2000     90.4179      0.0000    473.4220     27.7414      7.9231
  3015.2500     88.9698      0.0000    390.4707     33.0682      9.3776
  3015.3000     88.9698      0.0000    390.4707     33.0682      9.3776
  3015.3500     88.9698      0.0000    390.4707     33.0682      9.3776
  3015.4000     88.9698      0.0000    390.4707     33.0682      9.3776
  3015.4500     88.9698      0.0000    390.4707     33.0682      9.3776
  3015.5000     86.8923      0.0000    329.9826     38.6195     11.2500
  3015.5500     86.8923      0.0000    329.9826     38.6195     11.2500
  3015.6000     86.8923      0.0000    329.9826     38.6195     11.2500
  3015.6500     86.8923      0.0000    329.9826     38.6195     11.2500
  3015.7000     86.8923      0.0000    329.9826     38.6195     11.2500
  3015.7500     84.7364      0.0000    293.6449     44.0959     13.5199
  3015.8000     84.7364      0.0000    293.6449     44.0959     13.5199
  3015.8500     84.7364      0.0000    293.6449     44.0959     13.5199
  3015.9000     84.7364      0.0000    293.6449     44.0959     13.5199
  3015.9500     84.7364      0.0000    293.6449     44.0959     13.5199
  3016.0000     83.4457      0.0000    274.7423     49.0382     16.0543
  3016.0500     83.4457      0.0000    274.7423     49.0382     16.0543
  3016.1000     83.4457      0.0000    274.7423     49.0382     16.0543
  3016.1500     83.4457      0.0000    274.7423     49.0382     16.0543
  3016.2000     83.4457      0.0000    274.7423     49.0382     16.0543
  3016.2500     83.8788      0.0000    265.8806     52.9693     18.7613
  3016.3000     83.8788      0.0000    265.8806     52.9693     18.7613
  3016.3500     83.8788      0.0000    265.8806     52.9693     18.7613
  3016.4000     83.8788      0.0000    265.8806     52.9693     18.7613
  3016.4500     83.8788      0.0000    265.8806     52.9693     18.7613
  3016.5000     85.8420      0.0000    262.1098     55.6171     21.6777
  3016.5500     85.8420      0.0000    262.1098     55.6171     21.6777
