~Version Information
VERS.                      2.0: CWLS Log ASCII Standard - VERSION 2.0
WRAP.                       NO: One line per depth step
~Well Information Block
STRT.FT                -7.5000: 
STOP.FT              1545.0000: 
STEP.FT                 0.2500: 
NULL.                -999.2500: 
COMP.          Pioneer Natural Resources: COMPANY
WELL.          Kristin 22-23 Tr: WELL
FLD.           Purgatorie River: FIELD
LOC.           2273' FNL & 2029' FWL--: LOCATION
PROV.                       CO: PROVINCE
CNTY.               Las Animas: COUNTRY
SRVC.                         : SERVICE COMPANY
DATE.          Tue Jan 25 11:16:36 2005: LOG DATE
UWI.           071-08259      : UNIQUE WELL ID
~Curve Information Block
DEPT.FT            0 000 00 00: Depth
CCL.                          : Casing Collar Locator
TT3.usec                      : CBL 3' Travel Time
AMP3.mV                       : CBL 3' Amplitude
GR.GAPI                       : Gamma Ray
~Parameter Information Block
~A  Depth       CCL         TT3         AMP3         GR     
# ...
   394.5000      0.0000    743.8210      6.1821     57.3400
   394.7500      0.0000    743.8289      6.1552     55.3089
   395.0000      0.0000    744.0359      6.1210     55.0493
   395.2500      0.0000    744.3959      6.0953     56.0581
   395.5000      0.0000    744.8440      6.0842     57.2415
   395.7500      0.0000    745.3331      6.0753     57.9063
   396.0000      0.0000    745.8582      6.0414     58.1076
   396.2500      0.0000    746.5308      5.9588     58.3428
   396.5000      0.0000    747.6885      5.8254     59.0386
   396.7500      0.0000    749.8304      5.6638     60.3367
   397.0000      0.0000    753.2607      5.5089     62.0832
   397.2500      0.0000    757.7035      5.3929     63.6633
   397.5000      0.0000    762.2470      5.3374     64.0920
   397.7500      0.0000    765.6051      5.3495     62.9047
   398.0000      0.0000    766.5121      5.4150     60.9262
   398.2500      0.0000    764.3409      5.4977     59.6466
   398.5000      0.0000    759.7290      5.5551     59.7761
   398.7500      0.0000    754.3720      5.5639     60.6340
   399.0000      0.0000    749.8817      5.5351     60.8490
   399.2500      0.0000    746.8829      5.5041     59.4511
   399.5000      0.0000    745.1247      5.5017     56.5766
   399.7500      0.0000    744.1075      5.5322     53.4914
   400.0000      0.0000    743.5106      5.5783     51.6661
   400.2500      0.0000    743.2398      5.6216     51.6114
   400.5000      0.0000    743.2759      5.6542     52.8954
   400.7500      0.0000    743.5196      5.6724     55.1684
   401.0000      0.0000    743.7567      5.6689     58.5601
   401.2500      0.0000    743.7008      5.6357     62.9366
   401.5000      0.0000    742.9742      5.5745     67.1628
   401.7500      0.0000    741.1264      5.5025     69.4695
   402.0000      0.0000    737.9413      5.4457     68.8116
   402.2500      0.0000    733.9442      5.4234     66.0992
   402.5000      0.0000    730.4974      5.4353     63.9423
   402.7500      0.0000    729.1086      5.4616     64.7432
   403.0000      0.0000    730.4409      5.4754     68.8088
   403.2500      0.0000    733.8622      5.4560     74.3510
   403.5000      0.0000    737.8842      5.3949     79.3150
   403.7500      0.0000    741.1282      5.3037     83.1322
   404.0000      0.0000    743.0247      5.2194     86.7257
   404.2500      0.0000    743.7673      5.1853     91.0692
   404.5000      0.0000    743.8316      5.2136     96.0050
   404.7500      0.0000    743.6093      5.2707    100.4870
   405.0000      0.0000    743.3224      5.3030    103.6362
   405.2500      0.0000    743.0813      5.2788    105.1271
   405.5000      0.0000    742.9442      5.2047    104.8028
   405.7500      0.0000    742.9535      5.1088    102.6972
   406.0000      0.0000    743.1075      5.0127     99.5259
   406.2500      0.0000    743.3098      4.9173     96.4610
   406.5000      0.0000    743.3893      4.8132     94.0443
   406.7500      0.0000    743.2304      4.7025     91.7606
   407.0000      0.0000    742.8802      4.6058     89.1007
   407.2500      0.0000    742.4987      4.5475     86.6151
   407.5000      0.0000    742.2103      4.5356     85.3875
   407.7500      0.0000    742.0659      4.5559     85.8538
   408.0000      0.0000    742.1733      4.5887     87.5747
   408.2500      0.0000    742.8286      4.6305     89.6359
   408.5000      0.0000    744.3911      4.6962     90.9087
   408.7500      0.0000    746.8268      4.7989     90.5778
   409.0000      0.0000    749.2930      4.9316     88.8310
   409.2500      0.0000    750.4546      5.0698     86.6284
   409.5000      0.0000    749.5742      5.1878     84.8177
   409.7500      0.0000    747.2307      5.2681     83.9066
   410.0000      0.0000    744.7549      5.3049     84.3214
   410.2500      0.0000    743.0859      5.3067     86.0608
   410.5000      0.0000    742.2795      5.2966     88.0866
   410.7500      0.0000    741.8502      5.3002     88.7202
   411.0000      0.0000    741.3392      5.3286     87.0632
   411.2500      0.0000    740.6479      5.3716     83.9927
   411.5000      0.0000    740.0246      5.4062     81.6874
   411.7500      0.0000    739.8406      5.4126     81.9866
   412.0000      0.0000    740.4153      5.3823     84.8749
   412.2500      0.0000    742.0913      5.3166     88.4511
   412.5000      0.0000    745.3931      5.2212     90.6375
   412.7500      0.0000    750.8621      5.1018     90.9373
   413.0000      0.0000    758.4544      4.9676     90.4340
   413.2500      0.0000    767.0710      4.8342     90.4779
   413.5000      0.0000    774.9044      4.7180     91.6723
   413.7500      0.0000    780.3697      4.6254     93.6482
   414.0000      0.0000    782.8395      4.5509     95.3772
   414.2500      0.0000    782.9155      4.4866     95.9531
   414.5000      0.0000    782.1952      4.4356     95.2723
   414.7500      0.0000    782.2685      4.4126     93.8160
   415.0000      0.0000    783.3881      4.4297     91.8379
   415.2500      0.0000    784.3486      4.4809     88.8931
   415.5000      0.0000    784.0683      4.5405     84.2398
   415.7500      0.0000    783.0756      4.5781     77.9383
   416.0000      0.0000    783.0023      4.5778     71.6376
   416.2500      0.0000    784.7114      4.5513     67.8485
   416.5000      0.0000    787.2386      4.5304     68.1395
   416.7500      0.0000    788.5853      4.5447     72.0414
   417.0000      0.0000    787.3830      4.6057     77.3722
   417.2500      0.0000    783.9456      4.7094     81.2390
   417.5000      0.0000    779.9821      4.8449     81.3603
   417.7500      0.0000    777.1843      4.9972     77.6420
   418.0000      0.0000    775.8556      5.1487     72.6585
   418.2500      0.0000    774.9440      5.2830     69.7497
   418.5000      0.0000    773.6218      5.3846     69.9942
   418.7500      0.0000    772.6426      5.4400     71.2468
   419.0000      0.0000    773.5515      5.4518     70.5220
   419.2500      0.0000    776.6321      5.4515     67.2626
   419.5000      0.0000    780.3585      5.4882     64.0339
   419.7500      0.0000    782.7679      5.5939     64.1064
   420.0000      0.0000    782.5735      5.7553     68.5900
   420.2500      0.0000    779.1607      5.9219     75.7336
   420.5000      0.0000    772.6438      6.0402     82.4475
   420.7500      0.0000    764.3253      6.0838     86.2466
   421.0000      0.0000    756.3919      6.0602     86.2681
   421.2500      0.0000    750.6642      5.9961     83.2880
   421.5000      0.0000    747.7604      5.9169     79.1638
   421.7500      0.0000    747.4568      5.8317     75.8603
   422.0000      0.0000    749.4281      5.7396     74.3739
   422.2500      0.0000    753.2708      5.6473     74.3704
   422.5000      0.0000    757.8330      5.5776     74.8768
   422.7500      0.0000    761.0338      5.5575     75.2151
   423.0000      0.0000    761.0551      5.6011     75.2033
   423.2500      0.0000    757.8925      5.6959     74.8866
   423.5000      0.0000    753.3494      5.8024     74.4565
   423.7500      0.0000    749.4112      5.8757     74.1786
   424.0000      0.0000    746.9046      5.8929     74.0711
   424.2500      0.0000    745.5665      5.8584     73.7568
   424.5000      0.0000    744.8245      5.7910     72.7152
   424.7500      0.0000    744.3030      5.7142     70.6380
   425.0000      0.0000    743.8853      5.6508     67.8147
   425.2500      0.0000    743.6053      5.6147     65.4006
   425.5000      0.0000    743.5342      5.6040     64.9945
   425.7500      0.0000    743.6835      5.6062     67.4131
   426.0000      0.0000    743.9648      5.6122     71.7262
   426.2500      0.0000    744.2494      5.6258     75.7576
   426.5000      0.0000    744.4691      5.6561     77.8322
   426.7500      0.0000    744.6329      5.6983     78.1556
   427.0000      0.0000    744.7384      5.7283     78.4243
   427.2500      0.0000    744.7047      5.7276     80.0451
   427.5000      0.0000    744.1671      5.7111     82.8818
   427.7500      0.0000    742.0418      5.7228     85.7418
