~Version Information
VERS.                      2.0: CWLS Log ASCII Standard - VERSION 2.0
WRAP.                       NO: One line per depth step
~Well Information Block
STRT.FT               275.0000: 
STOP.FT              1682.2500: 
STEP.FT                 0.2500: 
NULL.                -999.2500: 
COMP.          Pioneer Natural Resources: COMPANY
WELL.               Elmo 14-21: WELL
FLD.           Purgatoire River: FIELD
LOC.           623' FSL & 450' FWL----: LOCATION
PROV.                 Colorado: PROVINCE
CNTY.               Las Animas: COUNTRY
SRVC.                Patterson: SERVICE COMPANY
DATE.          Tue May 17 16:07:31 2005: LOG DATE
UWI.           05 071 08360 00: UNIQUE WELL ID
~Curve Information Block
DEPT.FT            0 000 00 00: Depth
SN.Ohm-m                      : IEL Short Normal
SP.mV                         : IEL Spontaneous Potential
DIR.Ohm-m                     : IEL Induction Resistivity
GR.GAPI                       : Gamma Ray
~Parameter Information Block
~A  Depth        SN          SP         DIR          GR     
# ...
  1112.5000     16.7565    -35.5902     14.5318     59.5792
  1112.7500     19.0447    -35.9326     15.7645     54.7627
  1113.0000     21.5475    -36.2222     17.0511     50.8046
  1113.2500     24.0341    -36.4653     18.3561     49.3753
  1113.5000     26.2478    -36.6709     19.6274     47.6041
  1113.7500     27.9868    -36.8473     20.7976     46.4877
  1114.0000     29.1597    -36.9989     21.7953     45.4020
  1114.2500     29.7810    -37.1242     22.5638     45.3700
  1114.5000     29.9224    -37.2152     23.0733     46.4277
  1114.7500     29.6596    -37.2591     23.3173     47.6602
  1115.0000     29.0348    -37.2413     23.2943     49.7721
  1115.2500     28.0433    -37.1499     22.9911     51.0671
  1115.5000     26.6594    -36.9789     22.3845     52.4873
  1115.7500     24.8995    -36.7318     21.4644     53.0994
  1116.0000     22.8721    -36.4213     20.2633     54.3822
  1116.2500     20.7626    -36.0677     18.8672     56.5506
  1116.5000     18.7589    -35.6948     17.3926     63.7265
  1116.7500     16.9786    -35.3251     15.9474     71.5115
  1117.0000     15.4466    -34.9759     14.6022     86.1866
  1117.2500     14.1221    -34.6566     13.3860     96.2608
  1117.5000     12.9379    -34.3689     12.2994    109.3278
  1117.7500     11.8325    -34.1085     11.3310    116.1682
  1118.0000     10.7728    -33.8674     10.4687    124.1093
  1118.2500      9.7643    -33.6371      9.7049    128.2929
  1118.5000      8.8427    -33.4106      9.0360    132.9388
  1118.7500      8.0531    -33.1836      8.4605    134.6207
  1119.0000      7.4270    -32.9546      7.9760    134.8967
  1119.2500      6.9691    -32.7245      7.5773    134.1549
  1119.5000      6.6566    -32.4961      7.2560    133.1469
  1119.7500      6.4514    -32.2725      7.0015    133.0906
  1120.0000      6.3153    -32.0566      6.8033    133.8858
  1120.2500      6.2191    -31.8502      6.6523    134.6088
  1120.5000      6.1444    -31.6537      6.5420    135.1351
  1120.7500      6.0834    -31.4670      6.4673    134.7044
  1121.0000      6.0383    -31.2909      6.4243    132.6834
  1121.2500      6.0183    -31.1280      6.4100    130.7043
  1121.5000      6.0336    -30.9836      6.4224    127.6906
  1121.7500      6.0904    -30.8658      6.4604    126.0407
  1122.0000      6.1899    -30.7840      6.5246    123.9522
  1122.2500      6.3316    -30.7463      6.6166    122.3658
  1122.5000      6.5142    -30.7568      6.7381    119.1629
  1122.7500      6.7335    -30.8132      6.8895    116.5959
  1123.0000      6.9791    -30.9068      7.0688    112.7084
  1123.2500      7.2342    -31.0233      7.2718    110.3723
  1123.5000      7.4804    -31.1458      7.4940    107.4672
  1123.7500      7.7050    -31.2583      7.7320    105.9454
  1124.0000      7.9066    -31.3489      7.9849    104.0205
  1124.2500      8.0952    -31.4115      8.2533    102.7068
  1124.5000      8.2847    -31.4462      8.5378    100.5175
  1124.7500      8.4838    -31.4579      8.8384     99.1116
  1125.0000      8.6909    -31.4538      9.1540     97.5616
  1125.2500      8.8963    -31.4418      9.4821     97.0302
  1125.5000      9.0880    -31.4286      9.8186     97.0340
  1125.7500      9.2575    -31.4187     10.1554     97.5361
  1126.0000      9.4040    -31.4151     10.4803     98.5594
  1126.2500      9.5353    -31.4190     10.7784     98.8603
  1126.5000      9.6636    -31.4312     11.0378     98.1769
  1126.7500      9.7991    -31.4517     11.2544     97.3745
  1127.0000      9.9437    -31.4803     11.4343     97.0498
  1127.2500     10.0939    -31.5161     11.5905     97.7907
  1127.5000     10.2475    -31.5574     11.7369     99.6516
  1127.7500     10.4050    -31.6018     11.8808    100.7143
  1128.0000     10.5648    -31.6468     12.0201    101.3986
  1128.2500     10.7174    -31.6901     12.1454    101.2044
  1128.5000     10.8513    -31.7306     12.2469    100.0501
  1128.7500     10.9639    -31.7695     12.3207     98.8514
  1129.0000     11.0696    -31.8092     12.3737     97.0198
  1129.2500     11.1938    -31.8535     12.4227     96.2024
  1129.5000     11.3600    -31.9052     12.4905     95.6127
  1129.7500     11.5768    -31.9658     12.5977     95.1615
  1130.0000     11.8370    -32.0340     12.7557     93.7332
  1130.2500     12.1262    -32.1061     12.9654     92.4795
  1130.5000     12.4364    -32.1771     13.2206     91.0605
  1130.7500     12.7712    -32.2419     13.5145     90.6991
  1131.0000     13.1400    -32.2966     13.8425     90.7426
  1131.2500     13.5491    -32.3394     14.2014     90.8357
  1131.5000     13.9938    -32.3698     14.5858     90.8047
  1131.7500     14.4551    -32.3874     14.9831     90.7395
  1132.0000     14.8978    -32.3908     15.3702     90.9841
  1132.2500     15.2783    -32.3766     15.7157     91.6607
  1132.5000     15.5627    -32.3393     15.9898     93.4300
  1132.7500     15.7443    -32.2728     16.1742     94.6454
  1133.0000     15.8459    -32.1723     16.2668     95.6628
  1133.2500     15.9025    -32.0365     16.2789     95.7839
  1133.5000     15.9411    -31.8691     16.2292     95.7335
  1133.7500     15.9711    -31.6792     16.1391     95.7049
  1134.0000     15.9870    -31.4796     16.0284     95.1312
  1134.2500     15.9768    -31.2850     15.9126     93.9356
  1134.5000     15.9295    -31.1093     15.8021     90.7856
  1134.7500     15.8399    -30.9633     15.7039     88.1833
  1135.0000     15.7107    -30.8536     15.6232     84.3487
  1135.2500     15.5569    -30.7821     15.5658     82.0455
  1135.5000     15.4114    -30.7458     15.5409     78.9790
  1135.7500     15.3263    -30.7380     15.5627     77.2300
  1136.0000     15.3566    -30.7489     15.6498     75.2277
  1136.2500     15.5303    -30.7675     15.8190     74.3810
  1136.5000     15.8253    -30.7831     16.0746     73.9228
  1136.7500     16.1733    -30.7872     16.3999     74.2179
  1137.0000     16.4911    -30.7745     16.7553     75.5217
  1137.2500     16.7177    -30.7438     17.0892     76.6676
  1137.5000     16.8362    -30.6972     17.3568     77.8487
  1137.7500     16.8732    -30.6398     17.5373     77.8331
  1138.0000     16.8796    -30.5783     17.6373     76.7169
  1138.2500     16.9059    -30.5201     17.6826     75.7281
  1138.5000     16.9828    -30.4721     17.7041     74.5888
  1138.7500     17.1145    -30.4403     17.7281     74.1022
  1139.0000     17.2852    -30.4288     17.7688     73.4823
  1139.2500     17.4706    -30.4387     17.8266     73.1419
  1139.5000     17.6450    -30.4681     17.8889     73.2394
  1139.7500     17.7803    -30.5116     17.9355     73.8919
  1140.0000     17.8449    -30.5610     17.9424     75.0873
  1140.2500     17.8108    -30.6057     17.8859     75.2400
  1140.5000     17.6656    -30.6345     17.7467     73.7072
  1140.7500     17.4155    -30.6367     17.5143     71.9051
  1141.0000     17.0780    -30.6028     17.1896     69.9625
  1141.2500     16.6694    -30.5264     16.7830     70.2657
  1141.5000     16.1975    -30.4037     16.3078     73.4756
  1141.7500     15.6601    -30.2345     15.7751     76.7667
  1142.0000     15.0506    -30.0211     15.1909     82.0763
  1142.2500     14.3662    -29.7686     14.5582     85.5180
  1142.5000     13.6179    -29.4837     13.8829     90.4276
  1142.7500     12.8351    -29.1754     13.1794     93.4625
  1143.0000     12.0575    -28.8540     12.4705     97.6750
  1143.2500     11.3183    -28.5311     11.7817    100.4610
  1143.5000     10.6353    -28.2185     11.1341    104.9355
  1143.7500     10.0164    -27.9265     10.5400    108.1360
  1144.0000      9.4722    -27.6626     10.0040    113.2365
  1144.2500      9.0203    -27.4299      9.5270    116.8560
  1144.5000      8.6766    -27.2278      9.1093    122.3724
  1144.7500      8.4429    -27.0523      8.7527    125.7186
  1145.0000      8.3041    -26.8994      8.4602    129.4532
  1145.2500      8.2346    -26.7668      8.2347    130.7199
  1145.5000      8.2100    -26.6555      8.0776    130.5066
  1145.7500      8.2168    -26.5696      7.9888    129.1733
