~Version Information
VERS.                      2.0: CWLS Log ASCII Standard - VERSION 2.0
WRAP.                       NO: One line per depth step
~Well Information Block
STRT.FT               494.2500: 
STOP.FT              1992.0000: 
STEP.FT                 0.2500: 
NULL.                -999.2500: 
COMP.          Petrogulf Corporation: COMPANY
WELL.               Furu 6-23R: WELL
FLD.           Purgatoire River: FIELD
LOC.           2211' FSL & 1780' FWL--: LOCATION
CNTY.               Las Animas: COUNTY
SRVC.                Patterson: SERVICE COMPANY
DATE.          Wed Jun 21 14:57:59 2006: LOG DATE
UWI.           05 071 08266 00: UNIQUE WELL ID
STAT.                 Colorado: STATE
~Curve Information Block
DEPT.FT            0 000 00 00: Depth
GR.GAPI                       : Gamma Ray
RILD.Ohm-m                    : DIL Deep Resistivity
RILM.Ohm-m                    : DIL Medium Resistivity
RLL3.Ohm-m                    : DIL Shallow Resistivity
SP.mV                         : DIL Spontaneous Potential
~Parameter Information Block
~A  Depth        GR         RILD        RILM        RLL3         SP     
# ...
  1194.2500    123.7201     17.6765     18.0489     20.7163     65.6593
  1194.5000    122.0456     17.2690     17.0801     18.6416     65.6540
  1194.7500    121.1155     16.9556     16.3278     17.0822     65.6437
  1195.0000    119.8049     16.7201     15.8036     16.0518     65.6870
  1195.2500    118.9384     16.5468     15.5012     15.6174     65.8187
  1195.5000    118.4607     16.4272     15.4023     15.8699     66.0269
  1195.7500    119.2654     16.3590     15.4811     16.7561     66.2658
  1196.0000    122.1467     16.3417     15.7090     18.0116     66.4920
  1196.2500    124.4268     16.3712     16.0578     19.3486     66.6901
  1196.5000    126.4402     16.4388     16.5015     20.7283     66.8713
  1196.7500    125.9087     16.5336     17.0155     22.4126     67.0545
  1197.0000    121.9315     16.6455     17.5722     24.7167     67.2481
  1197.2500    117.7406     16.7674     18.1339     27.6565     67.4437
  1197.5000    111.0134     16.8948     18.6466     30.7406     67.6244
  1197.7500    107.4883     17.0254     19.0436     33.0690     67.7782
  1198.0000    105.2885     17.1558     19.2642     33.7379     67.9022
  1198.2500    106.1552     17.2793     19.2819     32.3363     67.9950
  1198.5000    110.1032     17.3852     19.1213     29.2209     68.0495
  1198.7500    113.4926     17.4607     18.8478     25.3862     68.0543
  1199.0000    117.7353     17.4953     18.5369     21.9970     68.0021
  1199.2500    119.1536     17.4836     18.2433     19.8483     67.8988
  1199.5000    119.1531     17.4262     17.9882     19.0592     67.7672
  1199.7500    118.5830     17.3274     17.7651     19.1551     67.6418
  1200.0000    118.4137     17.1936     17.5563     19.4420     67.5536
  1200.2500    118.9249     17.0307     17.3509     19.4178     67.5165
  1200.5000    119.6864     16.8442     17.1532     18.9794     67.5240
  1200.7500    119.5805     16.6393     16.9809     18.3561     67.5527
  1201.0000    118.1943     16.4196     16.8542     17.8851     67.5689
  1201.2500    116.6392     16.1862     16.7836     17.8092     67.5400
  1201.5000    113.7800     15.9373     16.7611     18.1961     67.4475
  1201.7500    111.6848     15.6713     16.7582     18.9643     67.2951
  1202.0000    108.5545     15.3929     16.7288     19.9497     67.1062
  1202.2500    106.7712     15.1157     16.6197     20.9636     66.9136
  1202.5000    105.1850     14.8593     16.3866     21.8089     66.7429
  1202.7500    105.1188     14.6416     16.0130     22.2388     66.6004
  1203.0000    106.4366     14.4723     15.5208     21.9503     66.4724
  1203.2500    107.8563     14.3500     14.9659     20.7414     66.3298
  1203.5000    109.9591     14.2648     14.4173     18.7560     66.1357
  1203.7500    111.1727     14.2022     13.9349     16.5244     65.8621
  1204.0000    113.1388     14.1464     13.5561     14.6772     65.5089
  1204.2500    114.8386     14.0826     13.2928     13.5952     65.1078
  1204.5000    117.8230     13.9995     13.1361     13.3029     64.7054
  1204.7500    119.6768     13.8927     13.0636     13.6054     64.3429
  1205.0000    121.6924     13.7692     13.0481     14.2569     64.0450
  1205.2500    122.5858     13.6463     13.0647     15.0352     63.8145
  1205.5000    123.8104     13.5469     13.0960     15.7537     63.6300
  1205.7500    124.8273     13.4905     13.1341     16.2761     63.4544
  1206.0000    126.8243     13.4871     13.1804     16.5460     63.2521
  1206.2500    128.4600     13.5373     13.2416     16.6065     63.0059
  1206.5000    130.9637     13.6372     13.3258     16.5880     62.7214
  1206.7500    132.0604     13.7833     13.4376     16.6583     62.4196
  1207.0000    131.8552     13.9736     13.5764     16.9298     62.1213
  1207.2500    130.6345     14.2067     13.7370     17.3633     61.8354
  1207.5000    128.7294     14.4796     13.9148     17.7654     61.5597
  1207.7500    128.1920     14.7891     14.1118     17.9278     61.2947
  1208.0000    128.1795     15.1310     14.3417     17.8108     61.0559
  1208.2500    127.7231     15.5002     14.6291     17.6022     60.8670
  1208.5000    124.8820     15.8884     15.0026     17.6061     60.7330
  1208.7500    121.4485     16.2839     15.4843     18.0888     60.6149
  1209.0000    115.0075     16.6720     16.0802     19.2125     60.4351
  1209.2500    110.6145     17.0363     16.7751     21.0547     60.1264
  1209.5000    104.9009     17.3636     17.5309     23.6261     59.6919
  1209.7500    102.1479     17.6507     18.2894     26.8421     59.2169
  1210.0000     99.9813     17.9112     18.9799     30.4624     58.8165
  1210.2500     99.4946     18.1723     19.5332     34.0043     58.5653
  1210.5000     98.9545     18.4638     19.8990     36.6944     58.4656
  1210.7500     98.4508     18.8058     20.0627     37.6424     58.4623
  1211.0000     98.6849     19.2034     20.0530     36.3291     58.4883
  1211.2500    100.5204     19.6505     19.9367     33.0840     58.5116
  1211.5000    106.0705     20.1372     19.8018     29.0354     58.5526
  1211.7500    110.6529     20.6540     19.7369     25.4778     58.6428
  1212.0000    116.5860     21.1905     19.8152     23.2130     58.7561
  1212.2500    119.0905     21.7343     20.0891     22.4015     58.7837
  1212.5000    120.1623     22.2746     20.5944     22.9609     58.5921
  1212.7500    118.7782     22.8130     21.3564     25.1601     58.1156
  1213.0000    112.7376     23.3711     22.3932     29.9843     57.4006
  1213.2500    105.9927     23.9897     23.7124     38.8953     56.5760
  1213.5000     93.2186     24.7161     25.3041     52.9189     55.7897
  1213.7500     84.3168     25.5906     27.1381     71.5290     55.1526
  1214.0000     72.2499     26.6403     29.1695     92.1712     54.7113
  1214.2500     65.4661     27.8808     31.3521    110.9613     54.4516
  1214.5000     57.1725     29.3245     33.6565    124.3323     54.3258
  1214.7500     52.8884     30.9859     36.0857    130.7844     54.2800
  1215.0000     48.4307     32.8788     38.6819    131.7527     54.2638
  1215.2500     46.7094     35.0004     41.5170    130.9603     54.2232
  1215.5000     45.4186     37.3057     44.6621    132.4963     54.0930
  1215.7500     44.8960     39.6908     48.1460    138.8131     53.8003
  1216.0000     43.9630     42.0086     51.9170    149.9404     53.2941
  1216.2500     43.2357     44.1185     55.8292    164.1709     52.6200
  1216.5000     42.3406     45.9367     59.6635    179.2685     52.0004
  1216.7500     41.9231     47.4425     63.1843    193.1458     51.8174
  1217.0000     41.2166     48.6434     66.1973    203.9283     52.4032
  1217.2500     40.5111     49.5432     68.5770    210.0758     53.7243
  1217.5000     39.2576     50.1485     70.2592    210.8196     55.2650
  1217.7500     38.6360     50.4924     71.2357    206.3344     56.3357
  1218.0000     38.6381     50.6401     71.5687    197.3167     56.5817
  1218.2500     39.3297     50.6665     71.4053    184.6773     56.1899
  1218.5000     40.7233     50.6230     70.9513    169.9363     55.6219
  1218.7500     41.2509     50.5094     70.4017    155.5530     55.2237
  1219.0000     40.7563     50.2577     69.8672    144.1526     55.0930
  1219.2500     39.6425     49.7379     69.3343    137.0770     55.1959
  1219.5000     37.5796     48.7949     68.6838    133.7408     55.5021
  1219.7500     36.5703     47.3139     67.7316    132.5027     56.0110
  1220.0000     36.5332     45.2825     66.2580    132.2280     56.7160
  1220.2500     37.7049     42.8165     64.0135    133.0248     57.5849
  1220.5000     41.0104     40.1265     60.7641    135.3048     58.5772
  1220.7500     44.0740     37.4429     56.4280    137.9078     59.6750
  1221.0000     50.2153     34.9444     51.2162    137.2720     60.8969
  1221.2500     55.7369     32.7240     45.6136    129.1416     62.2753
  1221.5000     66.5566     30.8013     40.1788    111.8725     63.8096
  1221.7500     75.2254     29.1545     35.3367     88.2934     65.4315
  1222.0000     89.1136     27.7490     31.3013     64.1289     67.0164
