~Version Information
VERS.                      2.0: CWLS Log ASCII Standard - VERSION 2.0
WRAP.                       NO: One line per depth step
~Well Information Block
STRT.FT               275.0000: 
STOP.FT              1682.2500: 
STEP.FT                 0.2500: 
NULL.                -999.2500: 
COMP.          Pioneer Natural Resources: COMPANY
WELL.               Elmo 14-21: WELL
FLD.           Purgatoire River: FIELD
LOC.           623' FSL & 450' FWL----: LOCATION
PROV.                 Colorado: PROVINCE
CNTY.               Las Animas: COUNTRY
SRVC.                Patterson: SERVICE COMPANY
DATE.          Tue May 17 16:07:31 2005: LOG DATE
UWI.           05 071 08360 00: UNIQUE WELL ID
~Curve Information Block
DEPT.FT            0 000 00 00: Depth
SN.Ohm-m                      : IEL Short Normal
SP.mV                         : IEL Spontaneous Potential
DIR.Ohm-m                     : IEL Induction Resistivity
GR.GAPI                       : Gamma Ray
~Parameter Information Block
~A  Depth        SN          SP         DIR          GR     
# ...
   744.0000   2000.0000   2000.0000 100000.0000    108.7168
   744.2500   2000.0000   2000.0000 100000.0000    106.8847
   744.5000   2000.0000   2000.0000 100000.0000    105.2233
   744.7500   2000.0000   2000.0000 100000.0000    105.3577
   745.0000   2000.0000   2000.0000 100000.0000    107.6828
   745.2500   2000.0000   2000.0000 100000.0000    110.3235
   745.5000   2000.0000   2000.0000 100000.0000    114.8435
   745.7500   2000.0000   2000.0000 100000.0000    117.5814
   746.0000   2000.0000   2000.0000 100000.0000    120.6056
   746.2500   2000.0000   2000.0000 100000.0000    121.9623
   746.5000   2000.0000   2000.0000 100000.0000    123.6808
   746.7500   2000.0000   2000.0000 100000.0000    124.7216
   747.0000   2000.0000   2000.0000 100000.0000    124.6378
   747.2500   2000.0000   2000.0000 100000.0000    121.8758
   747.5000   2000.0000   2000.0000 100000.0000    111.8472
   747.7500   2000.0000   2000.0000 100000.0000    101.7684
   748.0000   2000.0000   2000.0000 100000.0000     84.9053
   748.2500   2000.0000   2000.0000 100000.0000     74.7186
   748.5000   2000.0000   2000.0000 100000.0000     63.3757
   748.7500   2000.0000   2000.0000 100000.0000     58.6995
   749.0000   2000.0000   2000.0000 100000.0000     55.1062
   749.2500   2000.0000   2000.0000 100000.0000     54.0917
   749.5000   2000.0000   2000.0000 100000.0000     53.1767
   749.7500   2000.0000   2000.0000 100000.0000     52.5008
   750.0000   2000.0000   2000.0000      8.0067     51.5723
   750.2500   2000.0000   2000.0000      1.9041     51.5584
   750.5000   2000.0000   2000.0000      1.0179     53.4413
   750.7500   2000.0000   2000.0000      0.7354     56.2531
   751.0000   2000.0000   2000.0000      0.6480     62.6866
   751.2500   2000.0000   2000.0000      0.6366     68.1387
   751.5000   2000.0000   2000.0000      0.6149     77.2863
   751.7500   2000.0000   2000.0000      0.5270     83.5459
   752.0000   2000.0000   2000.0000      0.4067     92.5850
   752.2500   2000.0000   2000.0000      0.3175     98.2407
   752.5000   2000.0000   2000.0000      0.2891    106.1668
   752.7500   2000.0000   2000.0000      0.3399    111.1770
   753.0000   2000.0000   2000.0000      0.5296    118.5865
   753.2500   2000.0000   2000.0000      1.1365    123.4844
   753.5000   2000.0000   2000.0000      5.8307    130.0515
   753.7500   2000.0000   2000.0000 100000.0000    133.2162
   754.0000   2000.0000   2000.0000 100000.0000    135.4660
   754.2500   2000.0000   2000.0000 100000.0000    135.4025
   754.5000   2000.0000   2000.0000 100000.0000    133.3863
   754.7500   2000.0000   2000.0000      4.1013    130.8571
   755.0000   2000.0000   2000.0000      2.1381    125.0724
   755.2500   2000.0000   2000.0000      1.9287    119.5079
   755.5000   2000.0000   2000.0000      2.5641    107.8416
   755.7500   2000.0000   2000.0000      5.6918     97.9213
   756.0000   2000.0000   2000.0000 100000.0000     81.6279
   756.2500   2000.0000   2000.0000 100000.0000     71.5872
   756.5000   2000.0000   2000.0000 100000.0000     60.6921
   756.7500   2000.0000   2000.0000 100000.0000     57.2953
   757.0000   2000.0000   2000.0000 100000.0000     58.3910
   757.2500   2000.0000   2000.0000 100000.0000     62.6585
   757.5000   2000.0000   2000.0000 100000.0000     72.2695
   757.7500   2000.0000   2000.0000     10.2913     79.2029
   758.0000   2000.0000   2000.0000      1.8496     87.6479
   758.2500   2000.0000   2000.0000      0.7337     90.8415
   758.5000   2000.0000   2000.0000      0.3425     91.2972
   758.7500   2000.0000   2000.0000      0.1611     88.9026
   759.0000   2000.0000   2000.0000      0.0756     82.1858
   759.2500   2000.0000   2000.0000      0.0377     76.5450
   759.5000   2000.0000   2000.0000      0.0207     68.7668
   759.7500   2000.0000   2000.0000      0.0126     65.6618
   760.0000   2000.0000   2000.0000      0.0086     66.0468
   760.2500   2000.0000   2000.0000      0.0067     69.7917
   760.5000   2000.0000   2000.0000      0.0063     79.3468
   760.7500   2000.0000   2000.0000      0.0074     87.1778
   761.0000   2000.0000   2000.0000      0.0113     99.1483
   761.2500   2000.0000   2000.0000      0.0230    106.3705
   761.5000   2000.0000   2000.0000      0.0588    115.2253
   761.7500   2000.0000   2000.0000      0.1642    119.7278
   762.0000   2000.0000   2000.0000      0.4226    124.5239
   762.2500   2000.0000   2000.0000      1.0576    126.4243
   762.5000   2000.0000   2000.0000      3.2443    127.0896
   762.7500   2000.0000   2000.0000     19.7784    125.9766
   763.0000   2000.0000   2000.0000 100000.0000    122.5787
   763.2500   2000.0000   2000.0000     31.2758    120.1596
   763.5000   2000.0000   2000.0000      8.1343    118.2066
   763.7500   2000.0000   2000.0000      4.5105    118.4050
   764.0000   2000.0000   2000.0000      3.4373    119.8302
   764.2500   2000.0000   2000.0000      3.2366    120.4741
   764.5000   2000.0000   2000.0000      3.6449    120.0615
   764.7500   2000.0000   2000.0000      4.9577    119.1748
   765.0000   2000.0000   2000.0000      8.8881    118.2708
   765.2500   2000.0000   2000.0000     37.8751    118.6793
   765.5000   2000.0000   2000.0000 100000.0000    121.5119
   765.7500   2000.0000   2000.0000 100000.0000    124.9677
   766.0000   2000.0000   2000.0000 100000.0000    131.8439
   766.2500   2000.0000   2000.0000 100000.0000    136.5156
   766.5000   2000.0000   2000.0000 100000.0000    141.3989
   766.7500   2000.0000   2000.0000 100000.0000    142.4916
   767.0000   2000.0000   2000.0000 100000.0000    141.3822
   767.2500   2000.0000   2000.0000 100000.0000    139.7216
   767.5000   2000.0000   2000.0000 100000.0000    137.2027
   767.7500   2000.0000   2000.0000 100000.0000    135.7908
   768.0000   2000.0000   2000.0000 100000.0000    133.7144
   768.2500   2000.0000   2000.0000 100000.0000    131.8650
   768.5000   2000.0000   2000.0000     48.0615    127.6512
   768.7500   2000.0000   2000.0000     17.2455    123.8764
   769.0000   2000.0000   2000.0000     12.1560    118.0045
   769.2500   2000.0000   2000.0000     10.5949    115.2675
   769.5000   2000.0000   2000.0000     10.2900    114.8988
   769.7500   2000.0000   2000.0000     10.6508    117.2716
   770.0000   2000.0000   2000.0000     11.4550    122.7716
   770.2500   2000.0000   2000.0000     12.5760    125.8743
   770.5000   2000.0000   2000.0000     13.8886    126.9826
   770.7500   2000.0000   2000.0000     15.2453    124.6866
   771.0000   2000.0000   2000.0000     16.5063    117.3206
   771.2500   2000.0000   2000.0000     17.5957    110.9547
   771.5000   2000.0000   2000.0000     18.5302    101.7146
   771.7500   2000.0000   2000.0000     19.3918     96.8914
   772.0000   2000.0000   2000.0000     20.2684     92.1229
   772.2500   2000.0000   2000.0000     21.1995     89.9949
   772.5000   2000.0000   2000.0000     22.1516     86.8582
   772.7500   2000.0000   2000.0000     23.0344     84.2646
   773.0000   2000.0000   2000.0000     23.7528     79.8811
   773.2500   2000.0000   2000.0000     24.2556     77.3257
   773.5000   2000.0000   2000.0000     24.5429     75.2412
   773.7500   2000.0000   2000.0000     24.6429     75.2877
   774.0000   2000.0000   2000.0000     24.5986     77.1179
   774.2500   2000.0000   2000.0000     24.4765     78.9472
   774.5000   2000.0000   2000.0000     24.3707     81.3984
   774.7500   2000.0000   2000.0000     24.3823     82.2197
   775.0000   2000.0000   2000.0000     24.5800     81.7759
   775.2500   2000.0000   2000.0000     24.9648     80.5174
   775.5000   2000.0000   2000.0000     25.4569     77.8347
   775.7500   2000.0000   2000.0000     25.9212     75.8621
   776.0000   2000.0000   2000.0000     26.2301     72.9867
   776.2500   2000.0000   2000.0000     26.3271     71.3140
   776.5000   2000.0000   2000.0000     26.2415     69.6363
   776.7500   2000.0000   2000.0000     26.0508     69.2684
   777.0000   2000.0000   2000.0000     25.8286     69.5837
   777.2500   2000.0000   2000.0000     25.6166     69.8812
