~Version Information
VERS.                      2.0: CWLS Log ASCII Standard - VERSION 2.0
WRAP.                       NO: One line per depth step
~Well Information Block
STRT.FT               946.8000: 
STOP.FT              2134.5000: 
STEP.FT                 0.1000: 
NULL.                -999.2500: 
COMP.          Petrogulf Corporation: COMPANY
WELL.             Valejo 8-12R: WELL
FLD.           Purgatorie River: FIELD
LOC.           1351'' FNL & 1562' FWL: LOCATION
CNTY.               Las Animas: COUNTY
SRVC.                         : SERVICE COMPANY
DATE.          Wed Apr 28 13:22:45 2004: LOG DATE
UWI.           05 071 08038 00: UNIQUE WELL ID
STAT.                 Colorado: STATE
~Curve Information Block
DEPT.FT            0 000 00 00: Depth
DCAL.in                       : CDL Caliper
RHOB.g/cc                     : CDL Bulk Density
RHOC.g/cc                     : CDL Density Correction
DPOR.pu                       : CDL Density Porosity
NPOR.pu                       : Neutron Porosity
GR.GAPI                       : Gamma Ray
~Parameter Information Block
~A  Depth       DCAL        RHOB        RHOC        DPOR        NPOR         GR     
# ...
  1868.4000      8.0032      2.6332      0.0661      1.0175     25.4938    121.2718
  1868.5000      8.0030      2.6304      0.0229      1.1898     25.5508    117.2509
  1868.6000      8.0030      2.6305      0.0577      1.1793     25.3233    111.9906
  1868.7000      8.0030      2.6329      0.0686      1.0394     25.2254    112.0459
  1868.8000      8.0022      2.6291      0.0495      1.2665     25.4386    121.7752
  1868.9000      8.0022      2.6203      0.0499      1.8009     25.5328    134.6983
  1869.0000      8.0052      2.6086      0.0620      2.5105     25.6282    141.3129
  1869.1000      8.0052      2.5891      0.0847      3.6916     25.9461    140.0916
  1869.2000      8.0052      2.5643      0.0331      5.1963     26.1629    135.5456
  1869.3000      8.0057      2.5495      0.0254      6.0937     26.4322    133.8916
  1869.4000      8.0057      2.5522      0.0570      5.9281     27.2310    136.7519
  1869.5000      8.0061      2.5628      0.0744      5.2855     28.2678    136.0643
  1869.6000      8.0061      2.5658      0.0648      5.1042     29.0163    131.3521
  1869.7000      8.0061      2.5525      0.0614      5.9089     29.3765    133.5447
  1869.8000      8.0060      2.5280      0.0504      7.3926     29.3541    143.0179
  1869.9000      8.0060      2.5089     -0.0005      8.5535     28.9715    148.6439
  1870.0000      8.0166      2.5068      0.0478      8.6764     28.4926    146.1095
  1870.1000      8.0166      2.5203      0.0436      7.8633     28.0427    143.5339
  1870.2000      8.0166      2.5372      0.0716      6.8380     27.6046    147.8635
  1870.3000      8.0048      2.5342      0.0908      7.0204     27.3239    154.1606
  1870.4000      8.0048      2.5050      0.0540      8.7866     27.1019    155.9895
  1870.5000      8.0084      2.4789      0.0199     10.3707     26.9323    154.1096
  1870.6000      8.0084      2.4751      0.0567     10.6020     27.3274    149.4929
  1870.7000      8.0084      2.4807      0.0735     10.2601     28.3177    142.3071
  1870.8000      8.0212      2.4879      0.0600      9.8250     29.0510    137.9461
  1870.9000      8.0212      2.5051      0.0631      8.7808     29.1169    141.5176
  1871.0000      8.0256      2.5303      0.1209      7.2557     28.9545    152.2123
  1871.1000      8.0256      2.5541      0.1024      5.8104     28.8329    160.4664
  1871.2000      8.0256      2.5769      0.1614      4.4275     28.7013    156.7049
  1871.3000      8.0305      2.5929      0.1751      3.4595     28.6278    144.9626
  1871.4000      8.0305      2.5938      0.2032      3.4073     28.7591    135.1765
  1871.5000      7.9501      2.5855      0.1344      3.9097     28.8401    130.3023
  1871.6000      7.9501      2.5773      0.1450      4.4078     28.6627    128.7309
  1871.7000      7.9501      2.5682      0.1336      4.9583     28.3526    129.2088
  1871.8000      7.9365      2.5617      0.1008      5.3495     27.7992    132.2638
  1871.9000      7.9365      2.5654      0.0922      5.1300     27.0358    136.0730
  1872.0000      7.9137      2.5751      0.1212      4.5406     26.5042    135.2242
  1872.1000      7.9137      2.5841      0.0967      3.9943     26.2795    127.4766
  1872.2000      7.9137      2.5929      0.0937      3.4585     25.9270    115.4630
  1872.3000      7.9078      2.6071      0.1233      2.6016     25.0499    106.9380
  1872.4000      7.9078      2.6282      0.1021      1.3197     24.1170    107.7173
  1872.5000      7.9091      2.6446      0.1354      0.3252     24.0056    112.3511
  1872.6000      7.9091      2.6406      0.1028      0.5724     24.4295    114.3535
  1872.7000      7.9091      2.6197      0.1097      1.8382     24.5861    114.4694
  1872.8000      7.9081      2.5955      0.0586      3.3040     24.4606    118.2778
  1872.9000      7.9081      2.5732      0.0673      4.6554     24.3376    124.4667
  1873.0000      7.9087      2.5543      0.0414      5.7991     24.4439    125.0232
  1873.1000      7.9087      2.5405      0.0406      6.6385     24.7912    121.2266
  1873.2000      7.9087      2.5321      0.0287      7.1449     25.2037    117.4535
  1873.3000      7.9093      2.5371      0.0065      6.8427     25.6159    113.7861
  1873.4000      7.9093      2.5552      0.0666      5.7450     25.8804    112.4984
  1873.5000      7.9094      2.5685      0.0772      4.9400     25.9753    113.5504
  1873.6000      7.9094      2.5661      0.1018      5.0856     26.2258    112.6394
  1873.7000      7.9094      2.5527      0.0634      5.8957     26.5692    108.8162
  1873.8000      7.9133      2.5381      0.0516      6.7819     26.8671    104.9359
  1873.9000      7.9133      2.5204      0.0733      7.8560     27.2256    101.0536
  1874.0000      7.9107      2.4852      0.0794      9.9896     27.4151     97.6755
  1874.1000      7.9107      2.4335      0.0335     13.1198     27.3568    100.1801
  1874.2000      7.9107      2.3868      0.0088     15.9537     27.3184    109.0100
  1874.3000      7.9096      2.3475      0.0727     18.3316     27.2490    116.4511
  1874.4000      7.9096      2.3041     -0.0068     20.9636     27.0956    117.3588
  1874.5000      7.9094      2.2679      0.0351     23.1575     26.8417    113.5679
  1874.6000      7.9094      2.2531      0.0462     24.0572     26.4768    110.2258
  1874.7000      7.9094      2.2600      0.1047     23.6391     26.2314    109.6856
  1874.8000      7.9089      2.2965      0.1135     21.4261     26.0853    110.5014
  1874.9000      7.9089      2.3715      0.2590     16.8799     25.6674    112.3113
  1875.0000      7.9092      2.4688      0.3709     10.9828     25.0469    118.1563
  1875.1000      7.9092      2.5571      0.4150      5.6276     24.5169    127.7275
  1875.2000      7.9092      2.6116      0.4013      2.3269     24.0005    132.2283
  1875.3000      7.9085      2.6308      0.3632      1.1665     23.4257    127.8612
  1875.4000      7.9085      2.6363      0.3173      0.8297     22.9048    120.4117
  1875.5000      7.9111      2.6410      0.2606      0.5464     22.5887    114.2433
  1875.6000      7.9111      2.6358      0.1627      0.8623     22.4775    110.6915
  1875.7000      7.9111      2.6134      0.1332      2.2161     22.2837    109.9816
  1875.8000      7.9047      2.5838      0.0637      4.0114     21.8134    109.0371
  1875.9000      7.9047      2.5618      0.0528      5.3470     21.1657    106.8306
  1876.0000      7.8716      2.5550     -0.0117      5.7547     20.6790    108.7475
  1876.1000      7.8716      2.5604      0.0423      5.4290     20.5059    117.0208
  1876.2000      7.8716      2.5609      0.0344      5.3977     20.4405    126.5589
  1876.3000      7.8613      2.5476      0.0411      6.2038     20.3491    131.3728
  1876.4000      7.8613      2.5329      0.0374      7.0954     20.2309    128.6686
  1876.5000      7.8528      2.5335     -0.0070      7.0581     20.0346    119.9788
  1876.6000      7.8528      2.5520      0.0525      5.9411     19.7838    111.5778
  1876.7000      7.8528      2.5796      0.0507      4.2665     19.4534    109.0971
  1876.8000      7.8418      2.6140      0.0927      2.1791     19.2776    114.1949
  1876.9000      7.8418      2.6462      0.1506      0.2331     19.8923    124.1271
  1877.0000      7.8363      2.6544      0.1423     -0.2688     21.2912    129.5149
  1877.1000      7.8363      2.6374      0.0939      0.7628     22.8579    124.6028
  1877.2000      7.8363      2.6144      0.0664      2.1604     24.2247    116.1131
  1877.3000      7.8340      2.5948      0.1204      3.3437     25.1059    114.9824
  1877.4000      7.8340      2.5831      0.0936      4.0539     25.0221    124.9177
  1877.5000      7.8404      2.5803      0.0855      4.2216     24.2211    139.4621
  1877.6000      7.8404      2.5750      0.0629      4.5426     23.7368    148.2407
  1877.7000      7.8404      2.5587      0.0664      5.5352     24.0361    144.9254
  1877.8000      7.8484      2.5369      0.0464      6.8544     24.7282    132.6000
  1877.9000      7.8484      2.5181      0.0525      7.9941     25.5681    120.8689
