~Version Information
VERS.                      2.0: CWLS Log ASCII Standard - VERSION 2.0
WRAP.                       NO: One line per depth step
~Well Information Block
STRT.FT               -16.5000: 
STOP.FT              1695.5000: 
STEP.FT                 0.2500: 
NULL.                -999.2500: 
COMP.          Pioneer Natural Resources: COMPANY
WELL.          Rancher 12-35 Tr: WELL
FLD.           Purgatorie River: FIELD
LOC.           2242' FNL & 308' FWL SWNW 35 32S 67W: LOCATION
PROV.                       CO: PROVINCE
CNTY.               Las Animas: COUNTRY
SRVC.                         : SERVICE COMPANY
DATE.         Fri Jul 08 09:39:00 2005: LOG DATE
UWI.                071 08430 : UNIQUE WELL ID
~Curve Information Block
DEPT.FT            0 000 00 00: Depth
CCL.                          : Casing Collar Locator
TT3.usec                      : CBL 3' Travel Time
AMP3.mV                       : CBL 3' Amplitude
GR.GAPI                       : Gamma Ray
~Parameter Information Block
~A  Depth       CCL         TT3         AMP3         GR     
# ...
   419.0000      0.0000    875.9974      6.4686     56.8815
   419.2500      0.0000    875.9802      6.3667     57.0964
   419.5000      0.0000    875.8953      6.3140     57.0162
   419.7500      0.0000    875.5667      6.3178     56.3377
   420.0000      0.0000    874.5888      6.3525     55.6473
   420.2500      0.0000    872.3786      6.3891     56.1936
   420.5000      0.0000    868.6680      6.4198     58.6481
   420.7500      0.0000    864.2740      6.4581     62.3425
   421.0000      0.0000    861.1734      6.5212     65.9043
   421.2500      0.0000    861.1712      6.6110     68.1922
   421.5000      0.0000    864.2690      6.7084     68.4322
   421.7500      0.0000    868.6628      6.7818     66.2773
   422.0000      0.0000    872.3751      6.8082     62.3736
   422.2500      0.0000    874.5871      6.7928     58.3885
   422.5000      0.0000    875.5588      6.7669     55.9876
   422.7500      0.0000    875.8400      6.7613     55.7542
   423.0000      0.0000    875.6820      6.7821     56.9837
   423.2500      0.0000    874.7449      6.8097     58.3743
   423.5000      0.0000    871.8305      6.8183     58.9539
   423.7500      0.0000    864.9542      6.7990     58.4921
   424.0000      0.0000    852.5945      6.7702     57.2778
   424.2500      0.0000    836.1285      6.7620     55.8001
   424.5000      0.0000    821.0560      6.7851     54.5711
   424.7500      0.0000    814.1859      6.8147     53.9148
   425.0000      0.0000    817.9695      6.8110     53.8256
   425.2500      0.0000    827.6577      6.7561     54.1268
   425.5000      0.0000    834.8516      6.6665     54.7465
   425.7500      0.0000    833.8920      6.5749     55.8192
   426.0000      0.0000    824.6482      6.5029     57.4708
   426.2500      0.0000    810.4348      6.4515     59.5269
   426.5000      0.0000    795.1112      6.4144     61.6180
   426.7500      0.0000    781.9677      6.3959     63.5890
   427.0000      0.0000    773.3483      6.4054     65.5383
   427.2500      0.0000    770.3082      6.4373     67.4778
   427.5000      0.0000    772.7430      6.4713     69.2016
   427.7500      0.0000    779.5872      6.4964     70.3823
   428.0000      0.0000    788.8610      6.5196     70.6365
   428.2500      0.0000    798.7736      6.5402     69.7588
   428.5000      0.0000    809.5101      6.5338     68.1060
   428.7500      0.0000    822.7432      6.4735     66.5681
   429.0000      0.0000    838.5139      6.3647     66.0136
   429.2500      0.0000    853.8672      6.2499     66.7783
   429.5000      0.0000    865.3571      6.1783     68.6145
   429.7500      0.0000    871.9012      6.1679     70.8888
   430.0000      0.0000    874.7456      6.1945     72.6383
   430.2500      0.0000    875.6840      6.2217     72.6036
   430.5000      0.0000    875.8682      6.2453     69.8880
   430.7500      0.0000    875.6978      6.2997     65.0045
   431.0000      0.0000    875.0873      6.4162     59.8974
   431.2500      0.0000    873.7890      6.5821     56.5434
   431.5000      0.0000    871.7595      6.7515     55.8117
   431.7500      0.0000    869.3956      6.8850     57.8302
   432.0000      0.0000    867.1780      6.9575     62.7377
   432.2500      0.0000    865.0043      6.9321     70.3617
   432.5000      0.0000    862.4450      6.7614     79.5396
   432.7500      0.0000    860.0179      6.4410     88.5938
   433.0000      0.0000    859.4490      6.0508     96.5304
   433.2500      0.0000    861.9000      5.7124    103.3076
   433.5000      0.0000    866.4373      5.4976    109.1862
   433.7500      0.0000    870.9066      5.3929    114.6405
   434.0000      3.0000    873.8802      5.3487    120.8715
   434.2500      0.0000    875.3108      5.3352    129.3826
   434.5000     -1.7120    875.8188      5.3492    140.3677
   434.7500      0.0000    875.9358      5.4071    151.5614
   435.0000      0.0000    875.8851      5.5604    158.9241
   435.2500      0.0000    875.6028      5.8838    158.9287
   435.5000      0.0000    874.6168      6.3887    150.9180
   435.7500      0.0000    871.7516      6.9555    137.6715
   436.0000      0.0000    865.1541      7.4079    123.6840
   436.2500      0.0000    853.5587      7.6637    112.6035
   436.5000      0.0000    838.5531      7.7787    105.7012
   436.7500      0.0000    825.3219      7.8534    102.0734
   437.0000      0.0000    819.4159      7.9421    100.0691
   437.2500      0.0000    821.8775      8.0472     98.7582
   437.5000      0.0000    828.4700      8.1507     98.4780
   437.7500      0.0000    834.1071      8.2245    100.3491
   438.0000      0.0000    836.6322      8.2403    105.2159
   438.2500      0.0000    835.8907      8.1940    112.7124
   438.5000      0.0000    831.5970      8.1109    121.1287
   438.7500      0.0000    823.9896      8.0188    128.1502
   439.0000      0.0000    815.1464      7.9255    131.8513
   439.2500      0.0000    807.8575      7.8294    131.4393
   439.5000      0.0000    803.5721      7.7368    127.4392
   439.7500      0.0000    802.0684      7.6585    121.0899
   440.0000      0.0000    802.6306      7.5967    113.4609
   440.2500      0.0000    805.0297      7.5424    105.2929
   440.5000      0.0000    809.3934      7.4793     97.4791
   440.7500      0.0000    815.2155      7.3893     91.0776
   441.0000      0.0000    820.5460      7.2714     86.6671
   441.2500      0.0000    822.5391      7.1565     83.9816
   441.5000      0.0000    819.4061      7.0900     82.3687
   441.7500      0.0000    812.2336      7.0890     81.4040
   442.0000      0.0000    804.7762      7.1279     80.9130
   442.2500      0.0000    800.9514      7.1677     80.5828
   442.5000      0.0000    802.2205      7.1857     79.9187
   442.7500      0.0000    807.0637      7.1815     78.6298
   443.0000      0.0000    812.3497      7.1666     76.8084
   443.2500      0.0000    815.3274      7.1524     74.6940
   443.5000      0.0000    815.2783      7.1415     72.6301
   443.7500      0.0000    813.6420      7.1352     71.3550
   444.0000      0.0000    812.4404      7.1423     71.8531
   444.2500      0.0000    812.9730      7.1729     74.5080
   444.5000      0.0000    815.7964      7.2273     78.4826
   444.7500      0.0000    820.6647      7.2992     82.2473
   445.0000      0.0000    826.1322      7.3807     84.8704
   445.2500      0.0000    830.1479      7.4580     86.6195
   445.5000      0.0000    831.3710      7.5138     88.2812
   445.7500      0.0000    829.7515      7.5430     90.3286
   446.0000      0.0000    826.4072      7.5589     92.9146
   446.2500      0.0000    823.4000      7.5792     95.9899
   446.5000      0.0000    822.9485      7.6073     99.0206
   446.7500      0.0000    825.9067      7.6274    101.3127
   447.0000      0.0000    831.1719      7.6176    103.2077
   447.2500      0.0000    837.0266      7.5679    106.4550
   447.5000      0.0000    842.6827      7.4881    112.8415
   447.7500      0.0000    848.1793      7.4029    122.4371
   448.0000      0.0000    853.3141      7.3372    133.2531
   448.2500      0.0000    857.2751      7.2993    142.6313
   448.5000      0.0000    859.2963      7.2778    148.9960
   448.7500      0.0000    859.6055      7.2587    152.4185
   449.0000      0.0000    859.7061      7.2399    153.9394
   449.2500      0.0000    861.3387      7.2288    154.6681
   449.5000      0.0000    864.8932      7.2321    155.2213
   449.7500      0.0000    869.1026      7.2499    155.5929
   450.0000      0.0000    872.2767      7.2731    155.5504
   450.2500      0.0000    873.3947      7.2888    155.0284
   450.5000      0.0000    872.0659      7.2942    153.9109
   450.7500      0.0000    868.1625      7.3036    151.6720
   451.0000      0.0000    862.0236      7.3377    147.6770
   451.2500      0.0000    854.7659      7.4060    142.1223
   451.5000      0.0000    847.7733      7.5012    136.6922
   451.7500      0.0000    841.4993      7.6062    133.8519
   452.0000      0.0000    834.8448      7.7023    134.9662
   452.2500      0.0000    826.0234      7.7760    139.1306
