~Version Information
VERS.                      2.0: CWLS Log ASCII Standard - VERSION 2.0
WRAP.                       NO: One line per depth step
~Well Information Block
STRT.FT               768.0000: 
STOP.FT              2637.5000: 
STEP.FT                 0.2500: 
NULL.                -999.2500: 
COMP.          Pioneer Natural Resources: COMPANY
WELL.               Zink 44-10: WELL
FLD.           Purgatoire River: FIELD
LOC.           548' FSL & 473' FEL: LOCATION
PROV.                 Colorado: PROVINCE
CNTY.               Las Animas: COUNTRY
SRVC.                Patterson: SERVICE COMPANY
DATE.          Mon May 30 05:59:42 2005: LOG DATE
UWI.           05 071 08380 00: UNIQUE WELL ID
~Curve Information Block
DEPT.FT            0 000 00 00: Depth
SN.Ohm-m                      : IEL Short Normal
SP.mV                         : IEL Spontaneous Potential
DIR.Ohm-m                     : IEL Induction Resistivity
GR.GAPI                       : Gamma Ray
~Parameter Information Block
~A  Depth        SN          SP         DIR          GR     
# ...
   902.0000   2000.0000   2000.0000     30.0722     86.5873
   902.2500   2000.0000   2000.0000     29.4852     87.4368
   902.5000   2000.0000   2000.0000     28.8859     91.0452
   902.7500   2000.0000   2000.0000     28.2652     94.8167
   903.0000   2000.0000   2000.0000     27.5629    101.7153
   903.2500   2000.0000   2000.0000     26.7294    106.5979
   903.5000   2000.0000   2000.0000     25.7717    113.7661
   903.7500   2000.0000   2000.0000     24.7564    118.4415
   904.0000   2000.0000   2000.0000     23.7737    125.3068
   904.2500   2000.0000   2000.0000     22.8935    129.2352
   904.5000   2000.0000   2000.0000     22.1414    132.3770
   904.7500   2000.0000   2000.0000     21.5052    131.9942
   905.0000   2000.0000   2000.0000     20.9580    128.3688
   905.2500   2000.0000   2000.0000     20.4823    124.8584
   905.5000   2000.0000   2000.0000     20.0816    119.0048
   905.7500   2000.0000   2000.0000     19.7767    114.8828
   906.0000   2000.0000   2000.0000     19.5933    108.6534
   906.2500   2000.0000   2000.0000     19.5503    104.7544
   906.5000   2000.0000   2000.0000     19.6578     99.5053
   906.7500   2000.0000   2000.0000     19.9199     96.2633
   907.0000   2000.0000   2000.0000     20.3328     91.4518
   907.2500   2000.0000   2000.0000     20.8709     88.2120
   907.5000   2000.0000   2000.0000     21.4738     83.3514
   907.7500   2000.0000   2000.0000     22.0514     80.1478
   908.0000   2000.0000   2000.0000     22.5157     75.5547
   908.2500   2000.0000   2000.0000     22.8165     72.8480
   908.5000   2000.0000   2000.0000     22.9545     69.9043
   908.7500   2000.0000   2000.0000     22.9647     69.1170
   909.0000   2000.0000   2000.0000     22.8931     70.4942
   909.2500   2000.0000   2000.0000     22.7815     73.4920
   909.5000   2000.0000   2000.0000     22.6575     81.2320
   909.7500   2000.0000   2000.0000     22.5251     88.1200
   910.0000   2000.0000   2000.0000     22.3636     99.3871
   910.2500   2000.0000   2000.0000     22.1465    106.3289
   910.5000   2000.0000   2000.0000     21.8674    114.3111
   910.7500   2000.0000   2000.0000     21.5463    117.6643
   911.0000   2000.0000   2000.0000     21.2053    120.1194
   911.2500   2000.0000   2000.0000     20.8450    120.5751
   911.5000   2000.0000   2000.0000     20.4531    120.2634
   911.7500   2000.0000   2000.0000     20.0388    119.5676
   912.0000   2000.0000   2000.0000     19.6490    117.8777
   912.2500   2000.0000   2000.0000     19.3492    116.4403
   912.5000   2000.0000   2000.0000     19.1877    114.0354
   912.7500   2000.0000   2000.0000     19.1769    112.2374
   913.0000   2000.0000   2000.0000     19.3008    108.9946
   913.2500   2000.0000   2000.0000     19.5383    106.3748
   913.5000   2000.0000   2000.0000     19.8851    101.8718
   913.7500   2000.0000   2000.0000     20.3635     98.6673
   914.0000   2000.0000   2000.0000     21.0126     93.8602
   914.2500   2000.0000   2000.0000     21.8656     90.7623
   914.5000   2000.0000   2000.0000     22.9289     86.4305
   914.7500   2000.0000   2000.0000     24.1787     83.9058
   915.0000   2000.0000   2000.0000     25.5830     80.9558
   915.2500   2000.0000   2000.0000     27.1345     79.5808
   915.5000   2000.0000   2000.0000     28.8593     77.9557
   915.7500   2000.0000   2000.0000     30.7838     76.6161
   916.0000   2000.0000   2000.0000     32.8796     73.3764
   916.2500   2000.0000   2000.0000     35.0355     70.4676
   916.5000   2000.0000   2000.0000     37.0887     66.3652
   916.7500   2000.0000   2000.0000     38.8968     64.8331
   917.0000   2000.0000   2000.0000     40.3773     65.2556
   917.2500   2000.0000   2000.0000     41.4791     67.2551
   917.5000   2000.0000   2000.0000     42.1267     72.1050
   917.7500   2000.0000   2000.0000     42.2315     76.0049
   918.0000   2000.0000   2000.0000     41.7831     81.8170
   918.2500   2000.0000   2000.0000     40.9270     85.3106
   918.5000   2000.0000   2000.0000     39.9278     90.2806
   918.7500   2000.0000   2000.0000     39.0358     93.9292
   919.0000   2000.0000   2000.0000     38.3679    100.3358
   919.2500   2000.0000   2000.0000     37.8867    104.7977
   919.5000   2000.0000   2000.0000     37.4836    110.0023
   919.7500   2000.0000   2000.0000     37.1033    111.3579
   920.0000   2000.0000   2000.0000     36.7949    109.3072
   920.2500   2000.0000   2000.0000     36.6349    105.5431
   920.5000   2000.0000   2000.0000     36.6040     97.7928
   920.7500   2000.0000   2000.0000     36.5506     92.1026
   921.0000   2000.0000   2000.0000     36.2870     83.8307
   921.2500   2000.0000   2000.0000     35.7340     78.9479
   921.5000   2000.0000   2000.0000     34.9664     73.3734
   921.7500   2000.0000   2000.0000     34.1191     71.2711
   922.0000   2000.0000   2000.0000     33.2660     71.0646
   922.2500   2000.0000   2000.0000     32.3798     73.0808
   922.5000   2000.0000   2000.0000     31.3821     79.6652
   922.7500   2000.0000   2000.0000     30.2312     86.5977
   923.0000   2000.0000   2000.0000     28.9753    100.5446
   923.2500   2000.0000   2000.0000     27.7339    111.3695
   923.5000   2000.0000   2000.0000     26.6292    127.1706
   923.7500   2000.0000   2000.0000     25.7252    135.5142
   924.0000   2000.0000   2000.0000     25.0099    142.4064
   924.2500   2000.0000   2000.0000     24.4178    143.0672
   924.5000   2000.0000   2000.0000     23.8723    139.8521
   924.7500   2000.0000   2000.0000     23.3238    136.3562
   925.0000   2000.0000   2000.0000     22.7638    130.8389
   925.2500   2000.0000   2000.0000     22.2152    127.3711
   925.5000   2000.0000   2000.0000     21.7095    122.8137
   925.7500   2000.0000   2000.0000     21.2664    120.5208
   926.0000   2000.0000   2000.0000     20.8837    118.7831
   926.2500   2000.0000   2000.0000     20.5369    118.9494
   926.5000   2000.0000   2000.0000     20.1878    121.2205
   926.7500   2000.0000   2000.0000     19.8007    123.8964
   927.0000   2000.0000   2000.0000     19.3636    128.9303
   927.2500   2000.0000   2000.0000     18.9016    132.5208
   927.5000   2000.0000   2000.0000     18.4656    137.8489
   927.7500   2000.0000   2000.0000     18.0986    141.1405
   928.0000   2000.0000   2000.0000     17.8034    144.7614
   928.2500   2000.0000   2000.0000     17.5372    145.6955
   928.5000   2000.0000   2000.0000     17.2383    144.8870
   928.7500   2000.0000   2000.0000     16.8692    143.6449
   929.0000   2000.0000   2000.0000     16.4440    142.3283
   929.2500   2000.0000   2000.0000     16.0179    142.2814
   929.5000   2000.0000   2000.0000     15.6514    143.2394
   929.7500   2000.0000   2000.0000     15.3762    144.0939
   930.0000   2000.0000   2000.0000     15.1848    144.8204
   930.2500   2000.0000   2000.0000     15.0431    144.6431
   930.5000   2000.0000   2000.0000     14.9119    143.7117
   930.7500   2000.0000   2000.0000     14.7643    143.1538
   931.0000   2000.0000   2000.0000     14.5882    142.7094
   931.2500   2000.0000   2000.0000     14.3803    142.1711
   931.5000   2000.0000   2000.0000     14.1433    139.7233
   931.7500   2000.0000   2000.0000     13.8897    136.6939
   932.0000   2000.0000   2000.0000     13.6464    130.7085
   932.2500   2000.0000   2000.0000     13.4513    126.5279
   932.5000   2000.0000   2000.0000     13.3416    121.1111
   932.7500   2000.0000   2000.0000     13.3430    118.2747
   933.0000   2000.0000   2000.0000     13.4679    114.7654
   933.2500   2000.0000   2000.0000     13.7227    112.6723
   933.5000   2000.0000   2000.0000     14.1177    110.1961
   933.7500   2000.0000   2000.0000     14.6676    109.3886
   934.0000   2000.0000   2000.0000     15.3792    109.5177
   934.2500   2000.0000   2000.0000     16.2354    110.0272
   934.5000   2000.0000   2000.0000     17.1880    110.4140
   934.7500   2000.0000   2000.0000     18.1684    110.0552
   935.0000   2000.0000   2000.0000     19.1125    108.4249
   935.2500   2000.0000   2000.0000     19.9881    106.6879
