~Version Information
VERS.                      2.0: CWLS Log ASCII Standard - VERSION 2.0
WRAP.                       NO: One line per depth step
~Well Information Block
STRT.FT               450.0000: 
STOP.FT              1739.2000: 
STEP.FT                 0.1000: 
NULL.                -999.2500: 
COMP.          Pioneer Natural Resources: COMPANY
WELL.            Harlee L 34-9: WELL
FLD.           Purgatoire River: FIELD
LOC.           600' FSL & 2125' FEL: LOCATION
PROV.                 Colorado: PROVINCE
CNTY.               Las Animas: COUNTRY
SRVC.                Patterson: SERVICE COMPANY
DATE.          Wed Jan 26 13:57:24 2005: LOG DATE
UWI.           05 071 08009 00: UNIQUE WELL ID
~Curve Information Block
DEPT.FT            0 000 00 00: Depth
DCAL.in                       : CDL Caliper
RHOB.g/cc                     : CDL Bulk Density
RHOC.g/cc                     : CDL Density Correction
DPOR.pu                       : CDL Density Porosity
NPOR.pu                       : Neutron Porosity
GR.GAPI                       : Gamma Ray
~Parameter Information Block
~A  Depth       DCAL        RHOB        RHOC        DPOR        NPOR         GR     
# ...
  1371.6000      8.8169      2.5573      0.1166      5.6172     25.5847    163.4065
  1371.7000      8.8169      2.5434      0.0870      6.4592     25.9379    161.3506
  1371.8000      8.8169      2.5078      0.0511      8.6191     26.2148    153.3850
  1371.9000      8.8169      2.4794      0.0211     10.3374     26.2529    148.0025
  1372.0000      8.8191      2.4763      0.0326     10.5265     25.9924    150.5777
  1372.1000      8.8191      2.4962      0.0406      9.3191     25.6111    155.9084
  1372.2000      8.8191      2.5219      0.0676      7.7615     25.9306    161.2113
  1372.3000      8.8283      2.5303      0.1099      7.2531     27.0303    169.7323
  1372.4000      8.8283      2.5239      0.0096      7.6450     27.4767    182.5234
  1372.5000      8.8357      2.5287      0.0497      7.3541     26.3511    191.6488
  1372.6000      8.8357      2.5456      0.0615      6.3299     24.7290    183.1598
  1372.7000      8.8357      2.5595      0.0516      5.4874     23.9089    160.5379
  1372.8000      8.8294      2.5668      0.0745      5.0436     23.6058    143.9430
  1372.9000      8.8294      2.5646      0.0669      5.1762     22.9732    141.1190
  1373.0000      8.8216      2.5533      0.0206      5.8594     22.1748    143.5897
  1373.1000      8.8216      2.5396      0.0470      6.6928     21.7476    140.4141
  1373.2000      8.8216      2.5234      0.0314      7.6713     21.3846    132.0363
  1373.3000      8.8180      2.5057     -0.0039      8.7438     20.6884    129.8989
  1373.4000      8.8180      2.4918     -0.0040      9.5856     20.1988    136.8761
  1373.5000      8.8164      2.4897     -0.0575      9.7173     20.0851    142.1558
  1373.6000      8.8164      2.5057      0.0074      8.7446     19.7162    138.8935
  1373.7000      8.8164      2.5295      0.0612      7.3053     19.1838    131.5777
  1373.8000      8.8168      2.5499      0.0386      6.0658     18.9928    127.2017
  1373.9000      8.8168      2.5707      0.0579      4.8080     18.9886    128.0521
  1374.0000      8.8191      2.5876      0.0798      3.7832     19.0610    130.6619
  1374.1000      8.8191      2.5903      0.0642      3.6169     19.3540    130.2216
  1374.2000      8.8191      2.5852      0.0331      3.9302     20.0346    124.5095
  1374.3000      8.8236      2.5845      0.0426      3.9711     20.5457    114.7611
  1374.4000      8.8236      2.5888      0.0635      3.7088     19.9493    107.1315
  1374.5000      8.8252      2.5932      0.0623      3.4446     18.7184    108.1732
  1374.6000      8.8252      2.5993      0.0446      3.0739     17.9281    116.1098
  1374.7000      8.8252      2.6145      0.0467      2.1486     17.6879    122.7234
  1374.8000      8.8201      2.6365      0.0459      0.8202     17.7268    122.9443
  1374.9000      8.8201      2.6392      0.0859      0.6529     17.8084    117.9565
  1375.0000      8.8163      2.6002      0.0579      3.0201     17.7666    115.2700
  1375.1000      8.8163      2.5451     -0.0441      6.3602     17.6227    118.4452
  1375.2000      8.8163      2.5201     -0.0711      7.8735     17.6148    123.3836
  1375.3000      8.8162      2.5273     -0.0215      7.4367     17.7517    125.6697
  1375.4000      8.8162      2.5320      0.0380      7.1540     17.9224    124.5302
  1375.5000      8.8163      2.5182     -0.0119      7.9883     18.3019    120.7866
  1375.6000      8.8163      2.5027     -0.0029      8.9282     18.7245    115.4135
  1375.7000      8.8163      2.5025     -0.0196      8.9388     18.6701    109.8378
  1375.8000      8.8162      2.5157     -0.0007      8.1401     18.1421    104.7103
  1375.9000      8.8162      2.5224      0.0470      7.7333     17.5547    102.1570
  1376.0000      8.8165      2.5085     -0.0353      8.5749     17.0085    104.7633
  1376.1000      8.8165      2.4864     -0.0340      9.9122     16.5727    110.3180
  1376.2000      8.8165      2.4654      0.0142     11.1901     16.5681    111.7138
  1376.3000      8.8187      2.4406     -0.0326     12.6929     16.6424    104.0223
  1376.4000      8.8187      2.4187     -0.0278     14.0164     15.9490     90.9803
  1376.5000      8.8286      2.4040     -0.0228     14.9090     14.9091     84.0073
  1376.6000      8.8286      2.3911     -0.0236     15.6896     14.6727     83.4532
  1376.7000      8.8286      2.3845     -0.0399     16.0908     14.9544     78.9324
  1376.8000      8.8372      2.3895      0.0064     15.7854     14.8076     71.8926
  1376.9000      8.8372      2.3994      0.0048     15.1892     14.3372     69.1242
  1377.0000      8.8292      2.4039      0.0153     14.9177     13.6848     71.0735
  1377.1000      8.8292      2.4056     -0.0128     14.8096     12.5037     75.2146
  1377.2000      8.8292      2.4160     -0.0131     14.1831     11.1531     76.9360
  1377.3000      8.8208      2.4216      0.0625     13.8419     10.3361     73.6011
  1377.4000      8.8208      2.4004      0.0268     15.1263      9.9890     66.9574
  1377.5000      8.8217      2.3652     -0.0047     17.2598      9.7771     62.0086
  1377.6000      8.8217      2.3416     -0.0211     18.6912     10.0632     61.0122
  1377.7000      8.8217      2.3333     -0.0275     19.1960     10.7266     60.0415
  1377.8000      8.8227      2.3309     -0.0294     19.3396     10.8810     54.9911
  1377.9000      8.8227      2.3260     -0.0099     19.6369     10.4914     47.4203
  1378.0000      8.8199      2.3155     -0.0028     20.2703     10.2932     41.8020
  1378.1000      8.8199      2.3081     -0.0207     20.7236     10.8491     42.1098
  1378.2000      8.8199      2.3110      0.0090     20.5478     12.3612     48.6868
  1378.3000      8.8159      2.3156      0.0113     20.2648     14.1654     54.3524
  1378.4000      8.8159      2.3143      0.0215     20.3442     14.9400     54.1329
  1378.5000      8.8139      2.3133      0.0169     20.4085     14.9238     50.3863
  1378.6000      8.8139      2.3127      0.0497     20.4444     15.3282     45.7441
  1378.7000      8.8139      2.2979      0.0227     21.3413     15.9984     42.6808
  1378.8000      8.8136      2.2703      0.0152     23.0148     16.2533     42.9867
  1378.9000      8.8136      2.2546     -0.0093     23.9652     16.0653     44.3227
  1379.0000      8.8131      2.2634      0.0277     23.4332     15.8049     44.6795
  1379.1000      8.8131      2.2793      0.0683     22.4666     15.8924     46.0806
  1379.2000      8.8131      2.2855      0.0210     22.0904     16.0467     48.7542
  1379.3000      8.8131      2.2920     -0.0305     21.6946     15.7002     50.7513
  1379.4000      8.8131      2.3017      0.0740     21.1096     15.2354     50.3254
  1379.5000      8.8137      2.2930      0.0439     21.6380     15.0481     46.9176
  1379.6000      8.8137      2.2685      0.0070     23.1236     15.1325     42.8684
  1379.7000      8.8137      2.2529      0.0337     24.0676     15.8076     38.3071
  1379.8000      8.8145      2.2475      0.0706     24.3945     16.8588     32.9933
  1379.9000      8.8145      2.2403      0.0014     24.8303     17.4310     28.6755
  1380.0000      8.8155      2.2326      0.0104     25.2997     17.1263     25.0520
  1380.1000      8.8155      2.2299     -0.0178     25.4582     16.4670     23.4008
  1380.2000      8.8155      2.2345      0.0098     25.1828     15.9284     26.0199
  1380.3000      8.8163      2.2413      0.0415     24.7686     15.4266     29.5579
  1380.4000      8.8163      2.2470      0.0234     24.4263     14.9491     29.6512
  1380.5000      8.8157      2.2527      0.0369     24.0793     14.8861     28.9232
  1380.6000      8.8157      2.2585      0.0203     23.7292     15.1266     30.9047
  1380.7000      8.8157      2.2650      0.0377     23.3303     15.0804     35.0837
  1380.8000      8.8148      2.2687      0.0374     23.1087     14.4530     40.7575
  1380.9000      8.8148      2.2677      0.0385     23.1668     13.4469     44.8700
  1381.0000      8.8150      2.2651      0.0548     23.3259     12.8295     42.2535
  1381.1000      8.8150      2.2576      0.0359     23.7836     13.0140     34.9844
