~Version Information
VERS.                      2.0: CWLS Log ASCII Standard - VERSION 2.0
WRAP.                       NO: One line per depth step
~Well Information Block
STRT.FT                10.0000: 
STOP.FT              1066.5000: 
STEP.FT                 0.2500: 
NULL.                -999.2500: 
COMP.          Pioneer Natural Resources: COMPANY
WELL.            Redland 23-24: WELL
FLD.           Purgatoire River: FIELD
LOC.           2356' FSL & 1880' FWL----: LOCATION
PROV.                 Colorado: PROVINCE
CNTY.               Las Animas: COUNTRY
SRVC.                         : SERVICE COMPANY
DATE.          Thu Mar 24 10:01:02 2005: LOG DATE
UWI.           05 071 08221   : UNIQUE WELL ID
~Curve Information Block
DEPT.FT            0 000 00 00: Depth
CCL.                          : Casing Collar Locator
TT3.usec                      : CBL 3' Travel Time
AMP3.mV                       : CBL 3' Amplitude
AMP5.mV                       : CBL 5' Amplitude
GR.GAPI                       : Gamma Ray
~Parameter Information Block
~A  Depth       CCL         TT3         AMP3        AMP5         GR     
    10.0000      0.0000    363.7302      8.1974     32.1591     68.8369
    10.2500      0.0000    367.2708      7.3517     27.8068     66.0662
    10.5000      0.0000    371.7193      7.2440     24.0638     63.5488
    10.7500      0.0000    378.0616      7.5107     20.1467     62.4945
    11.0000      0.0000    386.6038      7.8545     14.4016     63.7165
    11.2500      0.0000    397.4990      8.1323     11.6161     66.9726
    11.5000      0.0000    412.3707      8.3269      9.4399     71.0112
    11.7500      0.0000    435.4692      8.4677      7.5249     74.4062
    12.0000      0.0000    471.4967      8.5745      6.3933     76.2765
    12.2500      0.0000    520.1767      8.6575      4.5653     76.2370
    12.5000      0.0000    572.9035      8.7425      3.7819     74.2319
    12.7500      0.0000    616.0801      8.8699      3.2596     70.8568
    13.0000      0.0000    637.9506      9.0593      3.1725     67.4490
    13.2500      0.0000    632.8785      9.2865      3.1725     65.2537
    13.5000      0.0000    603.2126      9.4971      2.5632     64.4084
    13.7500      0.0000    560.6411      9.6340      3.1725     63.9160
    14.0000      0.0000    523.0648      9.6457      4.2171     62.6363
    14.2500      0.0000    504.5210      9.4847      3.3466     60.2630
    14.5000      0.0000    506.5382      9.1195      1.5187     57.5243
    14.7500      0.0000    520.4123      8.5648      1.6057     55.6634
    15.0000      0.0000    536.4602      7.9077      2.3891     55.5295
    15.2500      0.0000    549.0269      7.2901      2.3021     56.7419
    15.5000      0.0000    555.2780      6.8260      1.8668     57.8141
    15.7500      0.0000    554.1044      6.5239      1.9539     57.4897
    16.0000      0.0000    547.0850      6.3156      2.7373     55.9651
    16.2500      0.0000    538.1772      6.1562      3.1725     54.6401
    16.5000      0.0000    531.5853      6.0559      3.1725     54.7771
    16.7500      0.0000    530.3356      6.0188      2.9984     56.5855
    17.0000     -1.0000    536.2657      5.9981      2.8244     59.3123
    17.2500      0.0000    550.6218      5.9348      3.2596     61.7224
    17.5000      0.0000    574.0281      5.8387      3.3466     62.5733
    17.7500      0.0000    604.3332      5.8219      2.9984     61.2704
    18.0000      0.0000    633.9814      6.0153      3.9560     58.3575
    18.2500      0.0000    652.3255      6.4142      4.2171     55.1556
    18.5000      0.0000    653.4750      6.8264      3.0855     52.9026
    18.7500      0.0000    641.0260      7.0285      3.5207     52.4130
    19.0000      0.0000    624.0896      6.9660      1.6927     54.1670
    19.2500      0.0000    610.6416      6.7654      2.5632     57.9946
    19.5000      0.0000    604.9323      6.5762      5.3487     62.6819
    19.7500      0.0000    607.7735      6.4534      5.2617     66.5665
    20.0000      0.0000    616.8928      6.3745      3.1725     68.8731
    20.2500      0.0000    627.9069      6.3111      2.8244     70.3098
    20.5000      0.0000    636.5245      6.2620      3.4337     72.1956
    20.7500      0.0000    640.5700      6.2441      3.8689     75.2005
    21.0000      0.0000    640.8398      6.2737      3.2596     78.9565
    21.2500      0.0000    641.3448      6.3513      3.3466     82.3523
    21.5000      0.0000    648.7021      6.4562      3.5207     83.9231
    21.7500      0.0000    669.6512      6.5586      4.2171     82.6394
    22.0000      0.0000    707.1686      6.6380      3.6078     78.9875
    22.2500      0.0000    757.4478      6.6835      3.0855     75.0362
    22.5000      0.0000    810.4005      6.6792      3.1725     72.9381
    22.7500      0.0000    854.6644      6.6056      3.9560     73.2298
    23.0000      0.0000    883.9285      6.4675      4.5653     74.5280
    23.2500      0.0000    899.1285      6.3132      5.4358     74.9209
    23.5000      0.0000    905.2614      6.2098      5.4358     73.7137
    23.7500      0.0000    906.7984      6.1944      4.9135     71.8596
    24.0000      0.0000    905.1964      6.2486      5.4358     70.9097
    24.2500      0.0000    898.5029      6.3146      5.4358     71.7787
    24.5000      0.0000    882.3932      6.3408      7.4378     74.4305
    24.7500      0.0000    853.2744      6.3285      8.7435     78.4397
    25.0000      0.0000    812.6093      6.3499      8.3083     83.5001
    25.2500      0.0000    767.3762      6.5067      7.8731     89.2181
    25.5000      0.0000    723.5115      6.8455      9.0047     94.7326
    25.7500      0.0000    679.4700      7.3082      8.2213     98.9998
    26.0000      0.0000    629.9513      7.7749      9.7010    101.3432
    26.2500      0.0000    575.9327      8.1585      6.6544    101.4295
    26.5000      0.0000    526.8041      8.4563      8.3953     99.0838
    26.7500      0.0000    492.0339      8.7261      8.4824     94.6801
    27.0000      0.0000    474.3056      9.0319      7.5249     89.4936
    27.2500      0.0000    471.7054      9.3979      7.3508     85.0369
    27.5000      0.0000    482.5132      9.7915      8.8306     81.8977
    27.7500      0.0000    503.8425     10.1504      8.7435     79.4917
    28.0000      0.0000    526.4140     10.4325      8.1342     77.0726
    28.2500      0.0000    536.3953     10.6302      7.6119     74.9381
    28.5000      0.0000    526.6550     10.7377      8.8306     74.4773
    28.7500      0.0000    503.7318     10.7363      8.8306     76.7225
    29.0000      0.0000    480.5528     10.6291      8.7435     80.9231
    29.2500      0.0000    464.7961     10.4614      7.7860     84.8985
    29.5000      0.0000    456.8187     10.2780      8.1342     86.6493
    29.7500      0.0000    455.9018     10.0757      8.4824     85.4402
    30.0000      0.0000    465.5764      9.8220      7.8731     81.9854
    30.2500      0.0000    493.6526      9.5166      6.5674     78.2951
    30.5000      0.0000    546.7758      9.2175      6.4803     76.8631
    30.7500      0.0000    622.0129      9.0032      7.1767     78.9601
    31.0000      0.0000    702.2910      8.9139      6.5674     83.3996
    31.2500      0.0000    763.3674      8.9193      4.9135     87.3908
    31.5000      0.0000    789.2454      8.9308      6.3062     88.9605
    31.7500      0.0000    783.2536      8.8526      4.0430     88.5050
    32.0000      0.0000    765.2197      8.6454      5.4358     87.9963
    32.2500      0.0000    757.6764      8.3525      5.0005     88.9444
    32.5000      0.0000    772.0911      8.0633      4.7394     91.2370
    32.7500      0.0000    803.8356      7.8454      4.6523     93.5919
    33.0000      0.0000    837.6979      7.7065      6.1321     94.6590
    33.2500      0.0000    859.5223      7.6176      5.9580     93.6849
    33.5000      0.0000    865.4374      7.5616      5.0876     90.6496
    33.7500      0.0000    862.0831      7.5427      4.6523     86.3513
    34.0000      0.0000    859.3003      7.5516      4.5653     82.3691
    34.2500      0.0000    861.8685      7.5520      4.9135     80.3521
    34.5000      0.0000    866.0848      7.5201      5.5228     80.6687
    34.7500      0.0000    862.8137      7.4953      6.7415     81.6496
    35.0000      0.0000    844.6266      7.5761      6.4803     80.7209
    35.2500      0.0000    812.8780      7.8456      6.2192     76.7008
    35.5000      0.0000    778.7767      8.2809      6.9156     70.7488
    35.7500      0.0000    755.6892      8.7291      5.6098     64.9707
    36.0000      0.0000    749.4539      9.0007      5.0005     60.5886
    36.2500      0.0000    757.9549      9.0126      6.9156     57.6140
    36.5000      0.0000    777.6686      8.8533      5.8710     55.5631
    36.7500      0.0000    804.3629      8.7150      8.0472     53.9467
    37.0000      0.0000    827.9357      8.7528      7.3508     52.3782
    37.2500      0.0000    833.4003      8.9740      6.3933     50.6338
    37.5000      0.0000    811.2125      9.2399      6.5674     48.6536
    37.7500      0.0000    767.1805      9.3799      7.0026     46.6164
