~Version Information
 VERS.                      2.0: CWLS Log ASCII Standard - VERSION 2.0
 WRAP.                       NO: One line per depth step
 ~Well Information Block
 STRT.FT               130.0000: 
 STOP.FT              1766.9000: 
 STEP.FT                 0.1000: 
 NULL.                -999.2500: 
 COMP.          Petrogulf Corporation: COMPANY
 WELL.           Parsons 23-15V: WELL
 FLD.           Purgatorie River: FIELD
 LOC.           2095' FSL & 1817' FWL--API 05 071 07556 00----: LOCATION
 CNTY.               Las Animas: COUNTY
 SRVC.                         : SERVICE COMPANY
 DATE.          Fri Apr 19 17:40:55 2002: LOG DATE
 UWI.                          : UNIQUE WELL ID
 STAT.                       CO: STATE
 PROV.                         :Province
 ~Curve Information Block
 DEPT.FT            0 000 00 00: Depth
 DCAL.in                       : CDL Caliper
 RHOB.g/cc                     : CDL Bulk Density
 RHOC.g/cc                     : CDL Density Correction
 DPOR.pu                       : CDL Density Porosity
 GR.GAPI                       : Gamma Ray
 NPOR.pu                       : Neutron Porosity
 ~Parameter Information Block
 ~A  Depth       DCAL        RHOB        RHOC        DPOR         GR         NPOR    
# ...
   139.6000   -999.2500   -999.2500   -999.2500   -999.2500    343.8247     61.2673
   139.7000   -999.2500   -999.2500   -999.2500   -999.2500    341.7823     61.2425
   139.8000   -999.2500   -999.2500   -999.2500   -999.2500    338.7982     61.2322
   139.9000   -999.2500   -999.2500   -999.2500   -999.2500    335.1745     61.2367
   140.0000   -999.2500   -999.2500   -999.2500   -999.2500    331.2461     61.2548
   140.1000   -999.2500   -999.2500   -999.2500   -999.2500    327.3563     61.2846
   140.2000   -999.2500   -999.2500   -999.2500   -999.2500    323.8344     61.3233
   140.3000   -999.2500   -999.2500   -999.2500   -999.2500    320.9781     61.3679
   140.4000   -999.2500   -999.2500   -999.2500   -999.2500    319.0354     61.4156
   140.5000      4.0173   -999.2500   -999.2500   -999.2500    318.1966     61.4639
   140.6000      4.0173   -999.2500   -999.2500   -999.2500    318.5850     61.5107
   140.7000      4.0173   -999.2500   -999.2500   -999.2500    320.2562     61.5549
   140.8000      4.0191   -999.2500   -999.2500   -999.2500    323.1956     61.5956
   140.9000      4.0191   -999.2500   -999.2500   -999.2500    327.3211     61.6317
   141.0000      4.0152   -999.2500   -999.2500   -999.2500    332.4838     61.6626
   141.1000      4.0152   -999.2500   -999.2500   -999.2500    338.4726     61.6875
   141.2000      4.0152   -999.2500   -999.2500   -999.2500    345.0230     61.7059
   141.3000      4.0110   -999.2500   -999.2500   -999.2500    351.8215     61.7175
   141.4000      4.0110   -999.2500   -999.2500   -999.2500    358.5202     61.7222
   141.5000      4.0070   -999.2500      0.5700   -999.2500    364.7523     61.7207
   141.6000      4.0070   -999.2500      0.5617   -999.2500    370.1559     61.7136
   141.7000      4.0070   -999.2500      0.5515   -999.2500    374.3951     61.7016
   141.8000      4.0062   -999.2500      0.5399   -999.2500    377.1953     61.6856
   141.9000      4.0062   -999.2500      0.5275   -999.2500    378.3655     61.6661
   142.0000      4.0131   -999.2500      0.5147   -999.2500    377.8336     61.6440
   142.1000      4.0131   -999.2500      0.5020   -999.2500    375.6563     61.6203
   142.2000      4.0131   -999.2500      0.4897   -999.2500    372.0306     61.5970
   142.3000      4.0227   -999.2500      0.4784   -999.2500    367.2811     61.5767
   142.4000      4.0227   -999.2500      0.4684   -999.2500    361.8316     61.5631
   142.5000      4.0284   -999.2500      0.4601   -999.2500    356.1667     61.5597
   142.6000      4.0284   -999.2500      0.4541   -999.2500    350.7842     61.5697
   142.7000      4.0284   -999.2500      0.4506   -999.2500    346.1339     61.5952
   142.8000      4.0281   -999.2500      0.4499   -999.2500    342.5910     61.6361
   142.9000      4.0281   -999.2500      0.4524   -999.2500    340.4133     61.6905
   143.0000      4.0237   -999.2500      0.4579   -999.2500    339.7370     61.7550
   143.1000      4.0237   -999.2500      0.4661   -999.2500    340.5783     61.8246
   143.2000      4.0237   -999.2500      0.4765   -999.2500    342.8386     61.8940
   143.3000      4.0181   -999.2500      0.4882   -999.2500    346.3364     61.9582
   143.4000      4.0181   -999.2500      0.5002   -999.2500    350.8296     62.0126
   143.5000      4.0113      1.8091      0.5114     50.9619    356.0385     62.0533
   143.6000      4.0113      1.8135      0.5207     50.6951    361.6647     62.0771
   143.7000      4.0113      1.8139      0.5275     50.6720    367.4101     62.0812
   143.8000      4.0059      1.8101      0.5311     50.9057    372.9897     62.0634
   143.9000      4.0059      1.8020      0.5314     51.3923    378.1481     62.0226
   144.0000      4.0046      1.7902      0.5287     52.1109    382.6649     61.9581
   144.1000      4.0046      1.7751      0.5234     53.0259    386.3729     61.8708
   144.2000      4.0046      1.7575      0.5159     54.0896    389.1531     61.7631
   144.3000      4.0098      1.7384      0.5067     55.2460    390.9505     61.6385
   144.4000      4.0098      1.7188      0.4965     56.4349    391.7689     61.5018
   144.5000      4.0191      1.6997      0.4855     57.5952    391.6639     61.3588
   144.6000      4.0191      1.6819      0.4744     58.6698    390.7389     61.2150
   144.7000      4.0191      1.6665      0.4635     59.6081    389.1364     61.0758
   144.8000      4.0289      1.6539      0.4532     60.3690    387.0256     60.9453
   144.9000      4.0289      1.6448      0.4439     60.9236    384.5922     60.8267
   145.0000      4.0358      1.6393      0.4362     61.2563    382.0339     60.7220
   145.1000      4.0358      1.6375      0.4303     61.3657    379.5486     60.6324
   145.2000      4.0358      1.6391      0.4267     61.2648    377.3362     60.5586
   145.3000      4.0369      1.6438      0.4257     60.9808    375.5859     60.5009
   145.4000      4.0369      1.6509      0.4275     60.5530    374.4781     60.4599
   145.5000      4.0321      1.6595      0.4320     60.0314    374.1705     60.4358
   145.6000      4.0321      1.6687      0.4389     59.4734    374.7937     60.4285
   145.7000      4.0321      1.6775      0.4478     58.9408    376.4351     60.4371
   145.8000      4.0246      1.6848      0.4579     58.4951    379.1360     60.4598
   145.9000      4.0246      1.6898      0.4682     58.1942    382.8785     60.4936
   146.0000      4.0194      1.6916      0.4776     58.0876    387.5938     60.5342
   146.1000      4.0194      1.6895      0.4853     58.2132    393.1511     60.5767
   146.2000      4.0194      1.6832      0.4903     58.5944    399.3750     60.6163
   146.3000      4.0145      1.6726      0.4921     59.2380    406.0520     60.6488
   146.4000      4.0145      1.6578      0.4903     60.1338    412.9531     60.6720
   146.5000      4.0090      1.6393      0.4852     61.2552    419.8415     60.6851
   146.6000      4.0090      1.6177      0.4768     62.5611    426.4917     60.6901
   146.7000      4.0090      1.5940      0.4658     63.9983    432.6953     60.6901
   146.8000      4.0108      1.5692      0.4528     65.5057    438.2781     60.6891
   146.9000      4.0108      1.5442      0.4385     67.0176    443.0932     60.6914
   147.0000      4.0199      1.5203      0.4235     68.4688    447.0344     60.6995
   147.1000      4.0199      1.4983      0.4088     69.7976    450.0336     60.7145
   147.2000      4.0199      1.4793      0.3950     70.9505    452.0697     60.7352
   147.3000      4.0255      1.4639      0.3827     71.8846    453.1696     60.7583
   147.4000      4.0255      1.4526      0.3727     72.5703    453.4092     60.7790
   147.5000      4.0248      1.4456      0.3654     72.9930    452.9088     60.7923
   147.6000      4.0248      1.4430      0.3610     73.1542    451.8234     60.7933
   147.7000      4.0248      1.4443      0.3597     73.0708    450.3294     60.7780
   147.8000      4.0221      1.4492      0.3614     72.7749    448.6033     60.7441
   147.9000      4.0221      1.4569      0.3660     72.3115    446.8048     60.6911
   148.0000      4.0244      1.4664      0.3729     71.7358    445.0622     60.6196
   148.1000      4.0244      1.4767      0.3816     71.1102    443.4703     60.5321
   148.2000      4.0244      1.4867      0.3913     70.5003    442.0836     60.4317
   148.3000      4.0275      1.4955      0.4013     69.9705    440.9306     60.3222
   148.4000      4.0275      1.5019      0.4105     69.5802    440.0164     60.2077
   148.5000      4.0265      1.5052      0.4182     69.3803    439.3340     60.0923
   148.6000      4.0265      1.5047      0.4236     69.4096    438.8641     59.9801
   148.7000      4.0265      1.5001      0.4264     69.6930    438.5860     59.8756
   148.8000      4.0232      1.4910      0.4262     70.2405    438.4652     59.7832
   148.9000      4.0232      1.4777      0.4230     71.0471    438.4698     59.7075
   149.0000      4.0238      1.4605      0.4169     72.0934    438.5659     59.6532
   149.1000      4.0238      1.4398      0.4081     73.3478    438.7217     59.6237
