~Version Information
VERS.                      2.0: CWLS Log ASCII Standard - VERSION 2.0
WRAP.                       NO: One line per depth step
~Well Information Block
STRT.FT                -1.5000: 
STOP.FT              1317.0000: 
STEP.FT                 0.2500: 
NULL.                -999.2500: 
COMP.          Pioneer Natural Resources: COMPANY
WELL.              Border 21-3: WELL
FLD.           Purgatoire River: FIELD
LOC.           865' FNL & 1415' FWL: LOCATION
PROV.                 Colorado: PROVINCE
CNTY.               Las Animas: COUNTRY
SRVC.                Patterson: SERVICE COMPANY
DATE.          Tue Dec 14 14:08:05 2004: LOG DATE
UWI.           05 071 08169 00: UNIQUE WELL ID
~Curve Information Block
DEPT.FT            0 000 00 00: Depth
GR.GAPI                       : Gamma Ray
CCL.                          : Casing Collar Locator
TT3.usec                      : CBL 3' Travel Time
AMP3.mV                       : CBL 3' Amplitude
~Parameter Information Block
~A  Depth        GR         CCL         TT3         AMP3    
# ...
   266.5000    128.7830      0.0000    785.2479      9.7599
   266.7500    128.6158      0.0000    785.3047      9.8122
   267.0000    130.0580      0.0000    785.4867      9.8294
   267.2500    133.0183      0.0000    785.7748      9.8008
   267.5000    136.0359      0.0000    786.1213      9.7268
   267.7500    136.9206      0.0000    786.4891      9.6240
   268.0000    133.8506      0.0000    786.8672      9.5231
   268.2500    126.9078      0.0000    787.2554      9.4632
   268.5000    118.5870      0.0000    787.6708      9.4768
   268.7500    111.9860      0.0000    788.2402      9.5671
   269.0000    108.3469      0.0000    789.3580      9.6984
   269.2500    106.6842      0.0000    791.6590      9.8137
   269.5000    105.6556      0.0000    795.4720      9.8674
   269.7500    105.2926      0.0000    799.9639      9.8450
   270.0000    106.7476      0.0000    803.0554      9.7618
   270.2500    110.6828      0.0000    802.8401      9.6487
   270.5000    116.2486      0.0000    799.3193      9.5380
   270.7500    121.4215      0.0000    794.4243      9.4536
   271.0000    124.0004      0.0000    790.3413      9.4088
   271.2500    122.6446      0.0000    788.1675      9.4028
   271.5000    117.5843      0.0000    788.0624      9.4187
   271.7500    110.5196      0.0000    790.0447      9.4302
   272.0000    103.7286      0.0000    794.1260      9.4157
   272.2500     99.1170      0.0000    799.7141      9.3730
   272.5000     97.6531      0.0000    805.4257      9.3202
   272.7500     99.1724      0.0000    809.9849      9.2832
   273.0000    102.6205      0.0000    813.2507      9.2774
   273.2500    106.6238      0.0000    816.2415      9.2972
   273.5000    110.0096      0.0000    820.4771      9.3232
   273.7500    112.1844      0.0000    827.1089      9.3393
   274.0000    113.3023      0.0000    835.7166      9.3455
   274.2500    113.9729      0.0000    843.9973      9.3556
   274.5000    114.7672      0.0000    849.8109      9.3822
   274.7500    116.0518      0.0000    853.5993      9.4247
   275.0000    117.9389      0.0000    857.7064      9.4732
   275.2500    119.9633      0.0000    863.3234      9.5160
   275.5000    121.0246      0.0000    869.1031      9.5405
   275.7500    120.1737      0.0000    872.6616      9.5315
   276.0000    117.4963      0.0000    872.4999      9.4784
   276.2500    114.0866      0.0000    868.7466      9.3884
   276.5000    111.3625      0.0000    863.2513      9.2860
   276.7500    110.3591      0.0000    859.1024      9.1934
   277.0000    110.9260      0.0000    858.9113      9.1155
   277.2500    111.2271      0.0000    862.8766      9.0473
   277.5000    108.8850      0.0000    868.7573      8.9928
   277.7500    103.3715      0.0000    873.6870      8.9667
   278.0000     96.7879      0.0000    875.3319      8.9744
   278.2500     91.8135      0.0000    871.3549      8.9963
   278.5000     89.3647      0.0000    859.2714      8.9934
   278.7500     88.4621      0.0000    838.5526      8.9309
   279.0000     87.6472      0.0000    813.0788      8.8034
   279.2500     86.1931      0.0000    790.2910      8.6467
   279.5000     84.4714      0.0000    777.4240      8.5134
   279.7500     83.5872      0.0000    778.6782      8.4187
   280.0000     84.4346      0.0000    794.9724      8.3196
   280.2500     86.7996      0.0000    824.5999      8.1685
   280.5000     89.4888      0.0000    864.6620      7.9732
   280.7500     91.4607      0.0000    912.5071      7.7823
   281.0000     92.6623      2.0000    963.1679      7.6309
   281.2500     93.7540     -2.0000   1004.1182      7.5243
   281.5000     95.2652     -2.0000   1018.4095      7.4620
   281.7500     97.0874      0.0000    998.9279      7.4610
   282.0000     98.5748      0.0000    956.8467      7.5613
   282.2500     98.9295      0.0000    911.9704      7.7981
   282.5000     97.7001      0.0000    877.0541      8.1463
   282.7500     95.2633      0.0000    853.1233      8.5022
   283.0000     92.8314      0.0000    835.6890      8.7556
   283.2500     91.8927      0.0000    821.6752      8.8817
   283.5000     93.6545      0.0000    811.4051      8.9450
   283.7500     98.6489      0.0000    806.4924      9.0243
   284.0000    106.1776      0.0000    806.8857      9.1506
   284.2500    114.1253      0.0000    809.7017      9.2981
   284.5000    119.9926      0.0000    810.8887      9.4152
   284.7500    122.5405      0.0000    808.0714      9.4622
   285.0000    122.4005      0.0000    801.9888      9.4343
   285.2500    121.1722      0.0000    795.2922      9.3594
   285.5000    120.1103      0.0000    790.2052      9.2782
   285.7500    119.5873      0.0000    787.3295      9.2222
   286.0000    119.3178      0.0000    786.0828      9.1970
   286.2500    118.7192      0.0000    785.6516      9.1844
   286.5000    117.3614      0.0000    785.4971      9.1626
   286.7500    115.4868      0.0000    785.3870      9.1287
   287.0000    114.1094      0.0000    785.2872      9.0963
   287.2500    114.5857      0.0000    785.3090      9.0762
   287.5000    117.9920      0.0000    785.7242      9.0669
   287.7500    124.4800      0.0000    787.0126      9.0702
   288.0000    132.9012      0.0000    789.8088      9.1070
   288.2500    141.1311      0.0000    794.5115      9.2067
   288.5000    147.0025      0.0000    800.6655      9.3741
   288.7500    149.3479      0.0000    806.9343      9.5666
   289.0000    148.5752      0.0000    812.0269      9.7119
   289.2500    146.1413      0.0000    815.4457      9.7566
   289.5000    143.1459      0.0000    816.7792      9.7070
   289.7500    139.6891      0.0000    814.7521      9.6199
   290.0000    135.6963      0.0000    808.1485      9.5547
   290.2500    131.6371      0.0000    798.0809      9.5368
   290.5000    127.9290      0.0000    788.6290      9.5573
   290.7500    124.2946      0.0000    784.4783      9.5928
   291.0000    120.3285      0.0000    787.5505      9.6182
   291.2500    116.2357      0.0000    795.6062      9.6142
   291.5000    112.4484      0.0000    803.9870      9.5800
   291.7500    108.8552      0.0000    809.0460      9.5385
   292.0000    105.0141      0.0000    810.1384      9.5221
   292.2500    101.0482      0.0000    808.5947      9.5500
   292.5000     97.8173      0.0000    805.5983      9.6169
   292.7500     95.9668      0.0000    801.5276      9.7010
   293.0000     95.1068      0.0000    796.7355      9.7782
   293.2500     94.4157      0.0000    792.0912      9.8345
   293.5000     94.1315      0.0000    788.5172      9.8691
   293.7500     95.9427      0.0000    786.3658      9.8878
   294.0000    101.3541      0.0000    785.3839      9.8912
   294.2500    109.7206      0.0000    785.1185      9.8697
   294.5000    118.2240      0.0000    785.1964      9.8173
   294.7500    123.8155      0.0000    785.3642      9.7502
   295.0000    125.0961      0.0000    785.4686      9.7050
   295.2500    122.7336      0.0000    785.4739      9.7054
   295.5000    118.6286      0.0000    785.4374      9.7265
   295.7500    114.7966      0.0000    785.4323      9.7022
   296.0000    112.6045      0.0000    785.4752      9.5772
   296.2500    112.2659      0.0000    785.5310      9.3494
   296.5000    112.6474      0.0000    785.5977      9.0617
   296.7500    111.9332      0.0000    785.8202      8.7655
   297.0000    108.9221      0.0000    786.5591      8.5029
   297.2500    103.6751      0.0000    788.2719      8.3139
   297.5000     96.9381      0.0000    791.1244      8.2420
   297.7500     89.3186      0.0000    794.6722      8.3173
   298.0000     81.2810      0.0000    798.2087      8.5332
   298.2500     73.7461      0.0000    801.4813      8.8428
   298.5000     68.2860      0.0000    804.6025      9.1821
   298.7500     66.4343      0.0000    807.1329      9.5001
   299.0000     68.6024      0.0000    807.8321      9.7733
   299.2500     73.5959      0.0000    805.5600     10.0023
   299.5000     79.2814      0.0000    799.9869     10.2031
   299.7500     84.0464      0.0000    791.5350     10.4000
