~Version Information
VERS.                      2.0: CWLS Log ASCII Standard - VERSION 2.0
WRAP.                       NO: One line per depth step
~Well Information Block
STRT.FT                -7.5000: 
STOP.FT              2304.7500: 
STEP.FT                 0.2500: 
NULL.                -999.2500: 
COMP.          Pioneer Natural Resources: COMPANY
WELL.          Foothills 12-36: WELL
FLD.           Purgatorie River: FIELD
LOC.           2450' FNL & 201' FWL--: LOCATION
PROV.                       CO: PROVINCE
CNTY.               Las Animas: COUNTRY
SRVC.          Patterson Wireline: SERVICE COMPANY
DATE.          Tue Apr 26 11:10:08 2005: LOG DATE
UWI.           05 071 08339 00: UNIQUE WELL ID
~Curve Information Block
DEPT.FT            0 000 00 00: Depth
CCL.                          : Casing Collar Locator
TT3.usec                      : CBL 3' Travel Time
AMP3.mV                       : CBL 3' Amplitude
GR.GAPI                       : Gamma Ray
~Parameter Information Block
~A  Depth       CCL         TT3         AMP3         GR     
# ...
  1667.5000      0.0000    751.4973      4.8668     72.3586
  1667.7500      0.0000    748.9585      4.7746     73.8679
  1668.0000      0.0000    745.8389      4.6842     75.4539
  1668.2500      0.0000    742.5315      4.6611     75.9953
  1668.5000      0.0000    738.9096      4.6939     76.1273
  1668.7500      0.0000    734.5923      4.7188     78.0692
  1669.0000      0.0000    730.0275      4.7164     83.8961
  1669.2500      0.0000    726.5222      4.7362     93.9730
  1669.5000      0.0000    724.7680      4.8137    106.4649
  1669.7500      0.0000    724.0940      4.8996    118.0103
  1670.0000      0.0000    723.7482      4.9080    125.5939
  1670.2500      0.0000    724.2923      4.8269    128.7743
  1670.5000      0.0000    727.0342      4.7480    130.1362
  1670.7500      0.0000    732.2260      4.7718    132.9769
  1671.0000      0.0000    738.3246      4.8966    138.4865
  1671.2500      0.0000    743.3004      5.0216    145.2715
  1671.5000      0.0000    746.6080      5.0581    151.0839
  1671.7500      0.0000    749.5683      5.0155    154.4716
  1672.0000      0.0000    753.6770      4.9747    155.4397
  1672.2500      0.0000    758.7572      4.9949    155.6164
  1672.5000      0.0000    762.8175      5.0549    157.5180
  1672.7500      0.0000    763.6056      5.0781    162.2964
  1673.0000      0.0000    760.6924      5.0148    167.8517
  1673.2500      0.0000    756.6009      4.9049    169.9527
  1673.5000      0.0000    755.5797      4.8525    165.6822
  1673.7500      0.0000    760.2849      4.9236    155.8800
  1674.0000      0.0000    769.1907      5.0667    144.4775
  1674.2500      0.0000    777.5076      5.1508    135.6553
  1674.5000      0.0000    780.8286      5.0879    131.3543
  1674.7500      0.0000    777.9388      4.9140    130.8181
  1675.0000      0.0000    770.7372      4.7588    132.0186
  1675.2500      0.0000    762.2689      4.7415    133.4552
  1675.5000      0.0000    754.8043      4.8861    134.7581
  1675.7500      0.0000    748.9441      5.1097    136.0155
  1676.0000      0.0000    743.8392      5.2829    137.1637
  1676.2500      0.0000    738.4688      5.3206    138.1602
  1676.5000      0.0000    733.2108      5.2402    139.3990
  1676.7500      0.0000    730.1489      5.1399    141.7005
  1677.0000      0.0000    731.3853      5.1028    145.7052
  1677.2500      0.0000    736.7303      5.1141    151.0278
  1677.5000      0.0000    743.0629      5.0797    156.0863
  1677.7500      0.0000    746.3197      4.9324    159.1990
  1678.0000      0.0000    744.4198      4.7141    159.9701
  1678.2500      0.0000    738.3568      4.5504    159.4714
  1678.5000      0.0000    730.8641      4.5416    159.2422
  1678.7500      0.0000    724.5551      4.6759    160.2903
  1679.0000      0.0000    721.1788      4.8440    162.5030
  1679.2500      0.0000    722.0795      4.9302    164.2825
  1679.5000      0.0000    728.7724      4.8942    163.1383
  1679.7500      0.0000    742.1694      4.7872    157.7424
  1680.0000      0.0000    760.3179      4.7052    149.6793
  1680.2500      0.0000    777.5042      4.7084    142.5895
  1680.5000      0.0000    787.5599      4.7669    139.3679
  1680.7500      0.0000    788.9724      4.7873    140.2630
  1681.0000      0.0000    785.7214      4.7009    143.3923
  1681.2500      0.0000    782.4858      4.5317    146.6964
  1681.5000      0.0000    779.8580      4.3806    149.3120
  1681.7500      0.0000    774.7110      4.3427    151.3108
  1682.0000      0.0000    764.4872      4.4356    152.8339
  1682.2500      0.0000    750.4128      4.6052    154.2442
  1682.5000      0.0000    736.5657      4.7833    156.7138
  1682.7500      0.0000    726.4100      4.9200    161.2160
  1683.0000      0.0000    720.6288      4.9710    166.2735
  1683.2500      0.0000    717.7198      4.9017    167.6737
  1683.5000      0.0000    715.5811      4.7321    161.8317
  1683.7500      0.0000    712.3924      4.5640    149.7038
  1684.0000      0.0000    706.9330      4.5251    136.6462
  1684.2500      0.0000    699.0527      4.6632    128.1682
  1684.5000      0.0000    689.9758      4.9017    126.1664
  1684.7500      0.0000    681.7329      5.1057    128.9210
  1685.0000      0.0000    676.0377      5.1891    133.6278
  1685.2500      0.0000    673.7719      5.1724    138.5091
  1685.5000      0.0000    675.4850      5.1700    143.0683
  1685.7500      0.0000    681.9786      5.3249    147.1314
  1686.0000      0.0000    694.1995      5.7157    150.3209
  1686.2500      0.0000    712.6948      6.2928    152.5283
  1686.5000      0.0000    736.9785      6.9099    154.1404
  1686.7500      0.0000    764.6201      7.4372    155.1878
  1687.0000      0.0000    790.7766      7.8579    154.7037
  1687.2500      0.0000    809.9375      8.2625    151.6032
  1687.5000      0.0000    819.4336      8.7473    146.1875
  1687.7500      0.0000    821.3206      9.2986    140.4234
  1688.0000      0.0000    820.6014      9.7667    136.3392
  1688.2500      0.0000    821.6595      9.9549    134.0072
  1688.5000      0.0000    825.9117      9.7488    131.5289
  1688.7500      0.0000    831.8576      9.1756    127.2956
  1689.0000      0.0000    836.6478      8.3700    121.6582
  1689.2500      0.0000    837.7167      7.4984    115.9695
  1689.5000      0.0000    833.5421      6.6911    110.7072
  1689.7500      0.0000    823.8431      6.0061    105.2351
  1690.0000      0.0000    810.0682      5.4485     99.0136
  1690.2500      0.0000    795.7290      5.0319     92.3990
  1690.5000      0.0000    785.2241      4.8086     86.4231
  1690.7500      0.0000    781.3878      4.8251     82.1318
  1691.0000      0.0000    784.2927      5.0625     80.0854
  1691.2500      0.0000    792.1877      5.4323     80.4225
  1691.5000      0.0000    802.4760      5.8191     83.3510
  1691.7500      0.0000    812.0652      6.1196     89.3654
  1692.0000      0.0000    818.6075      6.2628     98.7246
  1692.2500      0.0000    822.0800      6.2278    110.8296
  1692.5000      0.0000    824.3583      6.0652    124.2498
  1692.7500      0.0000    826.7571      5.8924    137.2931
  1693.0000      0.0000    828.1610      5.8366    148.5767
  1693.2500      0.0000    825.8510      5.9519    157.4343
  1693.5000      0.0000    818.3531      6.1638    164.0792
  1693.7500      0.0000    807.6880      6.2945    169.0586
  1694.0000      0.0000    798.7480      6.1795    172.0663
  1694.2500      0.0000    796.0625      5.7978    171.7587
  1694.5000      0.0000    800.7599      5.3049    167.6268
  1694.7500      0.0000    810.1743      4.9334    161.7168
  1695.0000      0.0000    819.9921      4.8421    157.5121
  1695.2500      0.0000    827.0275      5.0241    157.0641
  1695.5000      0.0000    830.8065      5.3352    159.6723
  1695.7500      0.0000    832.9637      5.5968    163.1317
  1696.0000      0.0000    834.9791      5.6804    165.6511
  1696.2500      0.0000    836.3079      5.5339    166.5575
  1696.5000      0.0000    834.3445      5.1885    165.7227
  1696.7500      0.0000    825.8851      4.7627    163.1184
  1697.0000      0.0000    809.2477      4.4266    159.2874
  1697.2500      0.0000    786.5577      4.3143    155.6117
  1697.5000      0.0000    764.7819      4.4438    153.2394
  1697.7500      0.0000    753.3707      4.7019    151.7590
  1698.0000      0.0000    758.5632      4.9214    149.3226
  1698.2500      0.0000    778.4916      5.0126    144.0339
  1698.5000      0.0000    804.1906      5.0293    135.3107
  1698.7500      0.0000    826.1632      5.0808    124.5816
  1699.0000     -2.0000    840.0867      5.1969    115.0529
  1699.2500     -2.0000    846.9755      5.3181    110.4306
  1699.5000     -2.0000    849.7685      5.4051    113.1910
  1699.7500      0.0000    850.5907      5.5207    123.2151
  1700.0000      0.0000    850.0873      5.7982    137.3154
  1700.2500      0.0000    847.8804      6.3255    150.3237
  1700.5000      0.0000    843.3328      7.0447    157.8577
  1700.7500      0.0000    836.4539      7.7778    158.8694
