~Version Information
VERS.                      2.0: CWLS Log ASCII Standard - VERSION 2.0
WRAP.                       NO: One line per depth step
~Well Information Block
STRT.FT               450.0000: 
STOP.FT              1739.2000: 
STEP.FT                 0.1000: 
NULL.                -999.2500: 
COMP.          Pioneer Natural Resources: COMPANY
WELL.            Harlee L 34-9: WELL
FLD.           Purgatoire River: FIELD
LOC.           600' FSL & 2125' FEL: LOCATION
PROV.                 Colorado: PROVINCE
CNTY.               Las Animas: COUNTRY
SRVC.                Patterson: SERVICE COMPANY
DATE.          Wed Jan 26 13:57:24 2005: LOG DATE
UWI.           05 071 08009 00: UNIQUE WELL ID
~Curve Information Block
DEPT.FT            0 000 00 00: Depth
DCAL.in                       : CDL Caliper
RHOB.g/cc                     : CDL Bulk Density
RHOC.g/cc                     : CDL Density Correction
DPOR.pu                       : CDL Density Porosity
NPOR.pu                       : Neutron Porosity
GR.GAPI                       : Gamma Ray
~Parameter Information Block
~A  Depth       DCAL        RHOB        RHOC        DPOR        NPOR         GR     
# ...
   536.4000      8.7848      1.8626      0.0135     47.7217     16.9428    118.2642
   536.5000      8.7800      1.8160     -0.0132     50.5451     16.2969    117.5204
   536.6000      8.7800      1.8093      0.0179     50.9505     15.8027    117.0604
   536.7000      8.7800      1.8477      0.0595     48.6237     15.2661    113.3877
   536.8000      8.7644      1.9247      0.1446     43.9600     14.9591    110.2993
   536.9000      8.7644      2.0207      0.2273     38.1383     14.9089    112.4614
   537.0000      8.7397      2.1182      0.2569     32.2304     14.9011    116.8810
   537.1000      8.7397      2.2096      0.3110     26.6895     14.9637    118.5233
   537.2000      8.7397      2.2883      0.3236     21.9240     15.4215    118.8333
   537.3000      8.7244      2.3521      0.2745     18.0563     16.6371    118.6885
   537.4000      8.7244      2.4052      0.2396     14.8351     18.5036    116.6353
   537.5000      8.7208      2.4461      0.1890     12.3557     20.4356    115.4700
   537.6000      8.7208      2.4791      0.0908     10.3557     22.0098    116.5643
   537.7000      8.7208      2.5156      0.1039      8.1431     23.1864    118.2435
   537.8000      8.7207      2.5485      0.0940      6.1516     24.1371    120.7770
   537.9000      8.7207      2.5626      0.0931      5.2963     24.8125    125.0313
   538.0000      8.7225      2.5580      0.0957      5.5763     25.0058    127.7894
   538.1000      8.7225      2.5458      0.0599      6.3131     24.9943    125.0449
   538.2000      8.7225      2.5403      0.0737      6.6455     25.3386    121.0198
   538.3000      8.7254      2.5539      0.0350      5.8262     26.2114    120.6018
   538.4000      8.7254      2.5773      0.1142      4.4052     27.3070    120.1115
   538.5000      8.7270      2.5768      0.1315      4.4346     28.1716    119.2460
   538.6000      8.7270      2.5427      0.0484      6.5018     28.6263    121.0611
   538.7000      8.7270      2.4989      0.0492      9.1569     28.8583    123.0924
   538.8000      8.7258      2.4581      0.0045     11.6282     28.8995    124.7211
   538.9000      8.7258      2.4271     -0.0298     13.5087     28.5787    127.1688
   539.0000      8.7236      2.4171     -0.0044     14.1149     28.1470    129.1750
   539.1000      8.7236      2.4338     -0.0218     13.1044     28.0360    132.2960
   539.2000      8.7236      2.4725      0.0888     10.7597     28.0773    140.0801
   539.3000      8.7221      2.5099      0.1241      8.4892     27.8837    148.0855
   539.4000      8.7221      2.5200      0.1571      7.8811     27.6965    148.7290
   539.5000      8.7184      2.5018      0.1013      8.9811     27.9220    143.0604
   539.6000      8.7184      2.4781      0.0507     10.4175     28.2863    137.2741
   539.7000      8.7184      2.4576      0.1056     11.6603     28.2768    136.8254
   539.8000      8.7162      2.4267      0.0648     13.5314     27.8282    140.6879
   539.9000      8.7162      2.3840      0.0282     16.1206     27.1752    141.4127
   540.0000      8.7172      2.3465      0.0052     18.3956     26.5116    137.3912
   540.1000      8.7172      2.3281      0.0100     19.5115     25.9818    134.2010
   540.2000      8.7172      2.3289      0.0368     19.4604     25.7339    136.0737
   540.3000      8.7173      2.3404      0.0302     18.7660     25.6378    143.7937
   540.4000      8.7173      2.3536      0.0888     17.9619     25.2589    150.4266
   540.5000      8.7140      2.3698      0.0589     16.9818     24.6140    147.1191
   540.6000      8.7140      2.3980      0.0770     15.2751     23.9052    140.0691
   540.7000      8.7140      2.4227      0.1490     13.7751     23.1750    139.0723
   540.8000      8.7109      2.4032      0.1276     14.9573     22.7471    140.1824
   540.9000      8.7109      2.3173      0.1337     20.1633     22.5825    139.6284
   541.0000      8.7094      2.1872      0.0688     28.0465     22.3281    141.2474
   541.1000      8.7094      2.0784     -0.0158     34.6415     22.0997    145.2095
   541.2000      8.7094      2.0605     -0.0060     35.7291     22.1575    146.0533
   541.3000      8.7102      2.1607      0.0469     29.6568     22.7101    140.7090
   541.4000      8.7102      2.3587      0.1481     17.6539     23.8117    132.5880
   541.5000      8.7282      2.6090      0.2522      2.4821     25.1806    126.9815
   541.6000      8.7282      2.8604      0.4226    -12.7514     26.4398    124.9167
   541.7000      8.7282      3.0567      0.5245    -24.6464     27.3542    120.9391
   541.8000      8.7696      3.1609      0.5552    -30.9640     27.9464    112.3690
   541.9000      8.7696      3.1815      0.4854    -32.2101     28.5730    105.1154
   542.0000      8.8076      3.1437      0.3769    -29.9199     29.3912    103.3827
   542.1000      8.8076      3.0635      0.2448    -25.0604     30.0769    104.2758
   542.2000      8.8076      2.9558      0.0795    -18.5362     30.4438    104.8707
   542.3000      8.8302      2.8431     -0.0663    -11.7014     30.4486    106.2911
   542.4000      8.8302      2.7499     -0.1178     -6.0549     30.0667    110.6698
   542.5000      8.8483      2.6780     -0.0729     -1.6961     29.5294    116.9415
   542.6000      8.8483      2.6066     -0.0582      2.6307     28.9781    121.4600
   542.7000      8.8483      2.5347     -0.0558      6.9849     28.1893    124.0540
   542.8000      8.8639      2.4857     -0.0015      9.9552     27.0187    125.5697
   542.9000      8.8639      2.4706      0.0608     10.8698     25.7638    124.8240
   543.0000      8.8717      2.4731      0.0891     10.7200     24.8464    125.0362
   543.1000      8.8717      2.4672      0.0837     11.0797     24.0766    130.4731
   543.2000      8.8717      2.4455      0.0788     12.3927     23.2960    135.4969
   543.3000      8.8682      2.4211      0.1005     13.8748     23.0017    134.9919
   543.4000      8.8682      2.4075      0.0882     14.6978     23.2444    135.6936
   543.5000      8.8644      2.4104      0.0916     14.5218     23.5121    141.3697
   543.6000      8.8644      2.4241      0.1188     13.6879     23.2259    143.0907
   543.7000      8.8644      2.4339      0.0764     13.0951     22.4060    136.8844
   543.8000      8.8661      2.4346      0.0628     13.0568     21.7114    130.4183
   543.9000      8.8661      2.4300      0.0686     13.3316     21.2791    126.7980
   544.0000      8.8665      2.4227      0.0710     13.7780     20.9644    123.3822
   544.1000      8.8665      2.4151      0.0793     14.2379     20.6709    122.4542
   544.2000      8.8665      2.4122      0.0961     14.4099     20.1546    127.5039
   544.3000      8.8619      2.4184      0.0984     14.0342     19.6403    135.0700
   544.4000      8.8619      2.4301      0.1045     13.3285     19.7648    137.9910
   544.5000      8.8605      2.4385      0.0951     12.8165     20.4677    134.2263
   544.6000      8.8605      2.4400      0.0741     12.7247     21.1535    128.0668
   544.7000      8.8605      2.4329      0.0770     13.1547     21.4884    125.5143
   544.8000      8.8624      2.4170      0.0282     14.1212     21.3879    126.8699
   544.9000      8.8624      2.3977      0.0063     15.2924     20.9868    126.3600
   545.0000      8.8623      2.3852      0.0132     16.0486     20.5005    121.7016
   545.1000      8.8623      2.3880      0.0793     15.8762     20.0591    116.1161
   545.2000      8.8623      2.3990      0.1348     15.2115     19.8696    114.5289
   545.3000      8.8607      2.4017      0.1616     15.0476     19.9061    120.6154
   545.4000      8.8607      2.3936      0.1042     15.5403     19.9364    130.0322
   545.5000      8.8593      2.3900      0.0978     15.7561     19.8704    132.5527
   545.6000      8.8593      2.4021      0.0732     15.0248     19.8867    126.7067
   545.7000      8.8593      2.4192      0.1434     13.9893     20.0573    119.5685
   545.8000      8.8584      2.4217      0.1042     13.8385     20.0127    115.7106
   545.9000      8.8584      2.4075      0.0641     14.6968     19.7943    116.6836
