~Version Information
VERS.                      2.0: CWLS Log ASCII Standard - VERSION 2.0
WRAP.                       NO: One line per depth step
~Well Information Block
STRT.FT                -9.0000: 
STOP.FT              2518.0000: 
STEP.FT                 0.2500: 
NULL.                -999.2500: 
COMP.          Petrogulf Corporation: COMPANY
WELL.            Montoya 7-12V: WELL
FLD.           Purgatorie River: FIELD
LOC.           1764' FNL & 728' FWL: LOCATION
CNTY.               Las Animas: COUNTY
SRVC.                         : SERVICE COMPANY
DATE.          Mon Mar 08 16:11:04 2004: LOG DATE
UWI.           05-071-07887-00: UNIQUE WELL ID
STAT.                 Colorado: STATE
~Curve Information Block
DEPT.FT            0 000 00 00: Depth
GR.GAPI                       : Gamma Ray
CCL.                          : Casing Collar Locator
TT3.usec                      : CBL 3' Travel Time
AMP3.mV                       : CBL 3' Amplitude
~Parameter Information Block
~A  Depth        GR         CCL         TT3         AMP3    
# ...
   828.5000    159.4662      0.0000    270.4772     67.2802
   828.7500    155.0255      0.0000    270.8785     67.1677
   829.0000    150.0776      0.0000    271.7551     66.7266
   829.2500    145.0675      0.0000    273.1608     65.1125
   829.5000    139.6711      0.0000    274.7869     61.3754
   829.7500    134.0397      0.0000    276.0972     56.3449
   830.0000    129.1107      0.0000    276.7893     52.5327
   830.2500    125.9292      0.0000    276.9916     51.0401
   830.5000    124.9809      5.0000    276.9803     50.8777
   830.7500    125.9605      0.0000    276.8987     51.0220
   831.0000    128.0244      0.0000    276.8079     51.1657
   831.2500    130.3803      0.0000    276.8180     51.1433
   831.5000    132.5813      0.0000    276.9734     50.8027
   831.7500    134.2764      0.0000    276.9543     50.7295
   832.0000    135.1040      0.0000    276.1123     51.8706
   832.2500    135.1062      0.0000    274.2079     53.5910
   832.5000    134.9042      0.0000    271.9912     54.9779
   832.7500    135.0440      0.0000    270.4886     57.3431
   833.0000    135.4195      0.0000    269.9415     61.3475
   833.2500    135.7044      0.0000    269.9035     65.0784
   833.5000    135.9385      0.0000    269.9614     67.0733
   833.7500    135.9507      0.0000    269.9842     67.7055
   834.0000    134.5237      0.0000    269.9629     67.7781
   834.2500    130.2181      0.0000    269.8906     67.7236
   834.5000    123.3306      0.0000    269.7870     67.7206
   834.7500    116.4175      0.0000    269.7339     67.7990
   835.0000    112.6213      0.0000    269.7860     67.8629
   835.2500    113.5124      0.0000    269.8831     67.7998
   835.5000    118.1435      0.0000    269.9280     67.6032
   835.7500    123.8863      0.0000    269.8831     67.3716
   836.0000    128.4298      0.0000    269.7860     67.1980
   836.2500    131.1887      0.0000    269.7339     67.0809
   836.5000    132.9321      0.0000    269.7860     66.9555
   836.7500    134.4180      0.0000    269.8831     66.8001
   837.0000    135.6030      0.0000    269.9280     66.6760
   837.2500    135.7885      0.0000    269.8830     66.6688
   837.5000    134.1380      0.0000    269.7850     66.8026
   837.7500    130.2235      0.0000    269.7263     66.9979
   838.0000    124.3139      0.0000    269.7510     67.1276
   838.2500    117.1039      0.0000    269.7813     67.1327
   838.5000    109.2150      0.0000    269.7509     67.0590
   838.7500    100.9987      0.0000    269.7254     66.9863
   839.0000     92.6945      0.0000    269.7784     66.9682
   839.2500     84.7126      0.0000    269.8546     67.0133
   839.5000     77.7631      0.0000    269.8547     67.0949
   839.7500     72.5524      0.0000    269.7794     67.1975
   840.0000     69.3523      0.0000    269.7330     67.3212
   840.2500     68.0201      0.0000    269.7870     67.4440
   840.5000     68.3308      0.0000    269.8907     67.5231
   840.7500     70.0377      0.0000    269.9639     67.5243
   841.0000     72.5824      0.0000    269.9914     67.4580
   841.2500     74.9103      0.0000    269.9914     67.3947
   841.5000     75.8636      0.0000    269.9638     67.3930
   841.7500     75.0799      0.0000    269.8896     67.4459
   842.0000     73.4612      0.0000    269.7794     67.5481
   842.2500     72.3323      0.0000    269.6970     67.7278
   842.5000     72.0119      0.0000    269.6701     67.9881
   842.7500     71.6508      0.0000    269.6416     68.2809
   843.0000     70.6443      0.0000    269.5877     68.5293
   843.2500     69.8343      0.0000    269.5588     68.6718
   843.5000     71.1179      0.0000    269.5865     68.7049
   843.7500     76.1080      0.0000    269.6330     68.6739
   844.0000     85.1141      0.0000    269.6264     68.6259
   844.2500     96.8775      0.0000    269.5507     68.5880
   844.5000    108.9770      0.0000    269.4493     68.5694
   844.7500    118.8743      0.0000    269.3736     68.5572
   845.0000    125.1635      0.0000    269.3670     68.5334
   845.2500    128.1898      0.0000    269.4135     68.5182
   845.5000    129.5840      0.0000    269.4412     68.5670
   845.7500    131.0018      0.0000    269.4124     68.7096
   846.0000    133.0611      0.0000    269.3594     68.9000
   846.2500    135.5096      0.0000    269.3376     69.0445
   846.5000    138.1088      0.0000    269.3401     69.1030
   846.7500    140.7799      0.0000    269.3387     69.1133
   847.0000    142.9253      0.0000    269.3680     69.1196
   847.2500    143.3274      0.0000    269.4560     69.1348
   847.5000    141.0411      0.0000    269.5865     69.1479
   847.7500    136.2745      0.0000    269.7357     69.1411
   848.0000    130.3663      0.0000    269.8450     69.1135
   848.2500    124.9754      0.0000    269.8459     69.0863
   848.5000    121.2828      0.0000    269.7433     69.0803
   848.7500    119.9704      0.0000    269.6226     69.0943
   849.0000    121.5864      0.0000    269.5652     69.1148
   849.2500    126.2269      0.0000    269.5801     69.1342
   849.5000    132.7011      0.0000    269.5980     69.1540
   849.7500    138.6574      0.0000    269.5237     69.1855
   850.0000    142.2619      0.0000    269.3671     69.2355
   850.2500    143.8548      0.0000    269.2643     69.2963
   850.5000    145.6021      0.0000    269.3003     69.3485
   850.7500    149.2978      0.0000    269.4210     69.3693
   851.0000    154.4357      0.0000    269.5441     69.3608
   851.2500    158.3545      0.0000    269.6255     69.3548
   851.5000    158.2349      0.0000    269.6330     69.3714
   851.7500    153.2240      0.0000    269.5875     69.3961
   852.0000    145.1507      0.0000    269.5653     69.4114
   852.2500    137.5081      0.0000    269.6160     69.4184
   852.5000    133.4336      0.0000    269.7138     69.4126
   852.7500    133.9610      0.0000    269.7651     69.3886
   853.0000    137.7425      0.0000    269.7063     69.3667
   853.2500    142.3400      0.0000    269.5800     69.3696
   853.5000    145.7934      0.0000    269.4560     69.3983
   853.7500    147.2702      0.0000    269.3745     69.4377
   854.0000    146.9658      0.0000    269.3670     69.4658
   854.2500    145.7512      0.0000    269.4125     69.4827
   854.5000    144.4051      0.0000    269.4347     69.5105
   854.7500    142.7740      0.0000    269.3840     69.5430
   855.0000    140.0936      0.0000    269.2861     69.5502
   855.2500    136.3175      0.0000    269.2340     69.5360
   855.5000    132.5757      0.0000    269.2870     69.5398
   855.7500    130.0598      0.0000    269.3907     69.5819
   856.0000    129.0083      0.0000    269.4640     69.6418
   856.2500    128.9919      0.0000    269.4924     69.6731
   856.5000    129.6424      0.0000    269.4990     69.6300
   856.7500    130.7301      0.0000    269.4999     69.5084
   857.0000    131.8467      0.0000    269.5000     69.3379
   857.2500    132.4789      0.0000    269.5000     69.1450
   857.5000    132.4856      0.0000    269.5000     68.9559
   857.7500    132.1844      0.0000    269.5000     68.7769
   858.0000    131.7905      0.0000    269.5000     68.5626
   858.2500    130.9843      0.0000    269.5001     68.2746
   858.5000    129.2217      0.0000    269.5014     67.9564
   858.7500    126.4200      0.0000    269.5124     67.6999
   859.0000    123.2344      0.0000    269.5742     67.5009
   859.2500    120.5036      0.0000    269.8143     66.9464
   859.5000    118.3805      0.0000    270.4634     65.0449
   859.7500    116.0300      0.0000    271.6972     61.0416
   860.0000    112.2368      0.0000    273.3536     55.5879
   860.2500    106.4848      0.0000    274.9291     50.3815
   860.5000     99.7627      0.0000    276.0120     46.8540
   860.7500     94.3722      0.0000    276.5885     45.4189
   861.0000     92.7784     -5.0000    276.8560     45.3628
   861.2500     96.4359     -5.0000    276.9938     45.6585
   861.5000    105.3682      0.0000    277.2660     45.8411
   861.7500    118.3502      0.0000    278.3513     45.8368
