~Version Information
VERS.                      2.0: CWLS Log ASCII Standard - VERSION 2.0
WRAP.                       NO: One line per depth step
~Well Information Block
STRT.FT               258.0000: 
STOP.FT              1001.0000: 
STEP.FT                 0.2500: 
NULL.                -999.2500: 
COMP.          Pioneer Natural Resources: COMPANY
WELL.          Piggyback 33-25: WELL
FLD.           Purgatoire River: FIELD
LOC.           1600' FSL & 1800' FEL: LOCATION
PROV.                 Colorado: PROVINCE
CNTY.               Las Animas: COUNTRY
SRVC.                Patterson: SERVICE COMPANY
DATE.          Fri Apr 29 14:22:38 2005: LOG DATE
UWI.           05 071 08233 00: UNIQUE WELL ID
~Curve Information Block
DEPT.FT            0 000 00 00: Depth
SN.Ohm-m                      : IEL Short Normal
SP.mV                         : IEL Spontaneous Potential
DIR.Ohm-m                     : IEL Induction Resistivity
GR.GAPI                       : Gamma Ray
~Parameter Information Block
~A  Depth        SN          SP         DIR          GR     
# ...
   358.5000   2000.0000   2000.0000     46.6998     76.9284
   358.7500   2000.0000   2000.0000     46.8157     77.1249
   359.0000   2000.0000   2000.0000     46.8264     77.1099
   359.2500   2000.0000   2000.0000     46.8613     77.0932
   359.5000   2000.0000   2000.0000     46.9865     77.4642
   359.7500   2000.0000   2000.0000     47.2094     78.0134
   360.0000   2000.0000   2000.0000     47.5119     78.9680
   360.2500   2000.0000   2000.0000     47.8674     79.5135
   360.5000   2000.0000   2000.0000     48.2365     80.1606
   360.7500   2000.0000   2000.0000     48.5615     80.4421
   361.0000   2000.0000   2000.0000     48.7840     80.2402
   361.2500   2000.0000   2000.0000     48.8849     79.4259
   361.5000   2000.0000   2000.0000     48.9154     77.2645
   361.7500   2000.0000   2000.0000     48.9763     75.5942
   362.0000   2000.0000   2000.0000     49.1644     73.5354
   362.2500   2000.0000   2000.0000     49.5322     72.7133
   362.5000   2000.0000   2000.0000     50.0874     72.1987
   362.7500   2000.0000   2000.0000     50.8100     72.0460
   363.0000   2000.0000   2000.0000     51.6518     71.6867
   363.2500   2000.0000   2000.0000     52.5224     71.4044
   363.5000   2000.0000   2000.0000     53.2885     71.3301
   363.7500   2000.0000   2000.0000     53.8013     71.6236
   364.0000   2000.0000   2000.0000     53.9242     72.3060
   364.2500   2000.0000   2000.0000     53.5566     72.7392
   364.5000   2000.0000   2000.0000     52.6742     73.3725
   364.7500   2000.0000   2000.0000     51.3786     73.8683
   365.0000   2000.0000   2000.0000     49.8922     74.6432
   365.2500   2000.0000   2000.0000     48.4718     75.0485
   365.5000   2000.0000   2000.0000     47.3061     75.4817
   365.7500   2000.0000   2000.0000     46.4707     75.8054
   366.0000   2000.0000   2000.0000     45.9493     76.4796
   366.2500   2000.0000   2000.0000     45.6784     76.9441
   366.5000   2000.0000   2000.0000     45.5719     77.5048
   366.7500   2000.0000   2000.0000     45.5274     77.8534
   367.0000   2000.0000   2000.0000     45.4380     78.2878
   367.2500   2000.0000   2000.0000     45.2194     78.1597
   367.5000   2000.0000   2000.0000     44.8351     76.7116
   367.7500   2000.0000   2000.0000     44.3069     75.0661
   368.0000   2000.0000   2000.0000     43.7146     72.8050
   368.2500   2000.0000   2000.0000     43.1859     72.1640
   368.5000   2000.0000   2000.0000     42.8572     72.9135
   368.7500   2000.0000   2000.0000     42.8106     74.2917
   369.0000   2000.0000   2000.0000     43.0247     76.7542
   369.2500   2000.0000   2000.0000     43.3790     78.0470
   369.5000   2000.0000   2000.0000     43.7088     78.7068
   369.7500   2000.0000   2000.0000     43.8747     78.2262
   370.0000   2000.0000   2000.0000     43.8066     76.7158
   370.2500   2000.0000   2000.0000     43.5171     75.7552
   370.5000   2000.0000   2000.0000     43.0957     75.0394
   370.7500   2000.0000   2000.0000     42.6762     74.9133
   371.0000   2000.0000   2000.0000     42.3792     74.4427
   371.2500   2000.0000   2000.0000     42.2541     73.6719
   371.5000   2000.0000   2000.0000     42.2674     72.2510
   371.7500   2000.0000   2000.0000     42.3482     71.6293
   372.0000   2000.0000   2000.0000     42.4560     71.5973
   372.2500   2000.0000   2000.0000     42.6108     71.9042
   372.5000   2000.0000   2000.0000     42.8515     71.9071
   372.7500   2000.0000   2000.0000     43.1606     71.2420
   373.0000   2000.0000   2000.0000     43.4208     69.4290
   373.2500   2000.0000   2000.0000     43.4494     68.0970
   373.5000   2000.0000   2000.0000     43.1004     66.5972
   373.7500   2000.0000   2000.0000     42.3465     66.0944
   374.0000   2000.0000   2000.0000     41.2606     65.9438
   374.2500   2000.0000   2000.0000     39.9099     66.1442
   374.5000   2000.0000   2000.0000     38.2885     67.3572
   374.7500   2000.0000   2000.0000     36.3644     69.5095
   375.0000   2000.0000   2000.0000     34.1843     76.1049
   375.2500   2000.0000   2000.0000     31.8973     83.0304
   375.5000   2000.0000   2000.0000     29.6712     96.3871
   375.7500   2000.0000   2000.0000     27.5966    106.2411
   376.0000   2000.0000   2000.0000     25.6673    120.5066
   376.2500   2000.0000   2000.0000     23.8333    128.8416
   376.5000   2000.0000   2000.0000     22.0756    139.1301
   376.7500   2000.0000   2000.0000     20.4381    144.7856
   377.0000   2000.0000   2000.0000     18.9968    152.1489
   377.2500   2000.0000   2000.0000     17.7998    156.4635
   377.5000   2000.0000   2000.0000     16.8328    161.8919
   377.7500   2000.0000   2000.0000     16.0304    164.7214
   378.0000   2000.0000   2000.0000     15.3147    167.8398
   378.2500   2000.0000   2000.0000     14.6349    169.3391
   378.5000   2000.0000   2000.0000     13.9823    171.1165
   378.7500   2000.0000   2000.0000     13.3787    172.0293
   379.0000   2000.0000   2000.0000     12.8541    172.4508
   379.2500   2000.0000   2000.0000     12.4312    171.6844
   379.5000   2000.0000   2000.0000     12.1208    168.8184
   379.7500   2000.0000   2000.0000     11.9207    166.1220
   380.0000   2000.0000   2000.0000     11.8155    162.0128
   380.2500   2000.0000   2000.0000     11.7751    159.9257
   380.5000   2000.0000   2000.0000     11.7606    158.4628
   380.7500   2000.0000   2000.0000     11.7365    158.3852
   381.0000   2000.0000   2000.0000     11.6860    158.0440
   381.2500   2000.0000   2000.0000     11.6158    156.3824
   381.5000   2000.0000   2000.0000     11.5457    150.2964
   381.7500   2000.0000   2000.0000     11.4901    144.1005
   382.0000   2000.0000   2000.0000     11.4461    133.7193
   382.2500   2000.0000   2000.0000     11.4000    127.4995
   382.5000   2000.0000   2000.0000     11.3462    120.7774
   382.7500   2000.0000   2000.0000     11.3046    118.3330
   383.0000   2000.0000   2000.0000     11.3186    117.4742
   383.2500   2000.0000   2000.0000     11.4362    118.3620
   383.5000   2000.0000   2000.0000     11.6896    121.1585
   383.7500   2000.0000   2000.0000     12.0869    123.6819
   384.0000   2000.0000   2000.0000     12.6161    127.8382
   384.2500   2000.0000   2000.0000     13.2552    130.2829
   384.5000   2000.0000   2000.0000     13.9815    132.3399
   384.7500   2000.0000   2000.0000     14.7786    132.2379
   385.0000   2000.0000   2000.0000     15.6432    129.9261
   385.2500   2000.0000   2000.0000     16.5887    127.2099
   385.5000   2000.0000   2000.0000     17.6403    121.6907
   385.7500   2000.0000   2000.0000     18.8175    117.2396
   386.0000   2000.0000   2000.0000     20.1113    110.4084
   386.2500   2000.0000   2000.0000     21.4713    106.8113
   386.5000   2000.0000   2000.0000     22.8136    104.6551
   386.7500   2000.0000   2000.0000     24.0484    105.7308
   387.0000   2000.0000   2000.0000     25.1089    109.8744
   387.2500   2000.0000   2000.0000     25.9669    112.9515
   387.5000   2000.0000   2000.0000     26.6283    116.3563
   387.7500   2000.0000   2000.0000     27.1138    117.8069
   388.0000   2000.0000   2000.0000     27.4346    119.6728
   388.2500   2000.0000   2000.0000     27.5780    120.9517
   388.5000   2000.0000   2000.0000     27.5174    122.1037
   388.7500   2000.0000   2000.0000     27.2475    121.5608
   389.0000   2000.0000   2000.0000     26.8170    118.2595
   389.2500   2000.0000   2000.0000     26.3264    114.9752
   389.5000   2000.0000   2000.0000     25.8831    110.4103
   389.7500   2000.0000   2000.0000     25.5484    108.7858
   390.0000   2000.0000   2000.0000     25.3175    109.6153
   390.2500   2000.0000   2000.0000     25.1456    112.1382
   390.5000   2000.0000   2000.0000     24.9941    117.0881
   390.7500   2000.0000   2000.0000     24.8552    120.0039
   391.0000   2000.0000   2000.0000     24.7343    123.2157
   391.2500   2000.0000   2000.0000     24.6154    125.1089
   391.5000   2000.0000   2000.0000     24.4543    128.4875
   391.7500   2000.0000   2000.0000     24.2122    130.9264
