~Version Information
VERS.                      2.0: CWLS Log ASCII Standard - VERSION 2.0
WRAP.                       NO: One line per depth step
~Well Information Block
STRT.FT               640.0000: 
STOP.FT               927.0000: 
STEP.FT                 0.1000: 
NULL.                -999.2500: 
COMP.          Pioneer Natural Resources: COMPANY
WELL.          Claim Jumper 41-22: WELL
FLD.           Purgatoire River: FIELD
LOC.           1120' FNL & 977' FEL: LOCATION
PROV.                 Colorado: PROVINCE
CNTY.               Las Animas: COUNTRY
SRVC.                Patterson: SERVICE COMPANY
DATE.          Thu Jun 23 08:35:14 2005: LOG DATE
UWI.           05-071-08405-00: UNIQUE WELL ID
~Curve Information Block
DEPT.FT            0 000 00 00: Depth
DCAL.in                       : CDL Caliper
RHOB.g/cc                     : CDL Bulk Density
RHOC.g/cc                     : CDL Density Correction
DPOR.pu                       : CDL Density Porosity
GR.GAPI                       : Gamma Ray
NPOR.pu                       : Neutron Porosity
~Parameter Information Block
~A  Depth       DCAL        RHOB        RHOC        DPOR         GR         NPOR    
   640.0000      5.0974      2.0870     -0.3596     34.1222     54.1031     36.9865
   640.1000      5.0974      2.0660     -0.3531     35.3945     52.8744     36.8349
   640.2000      5.0974      2.0674     -0.2848     35.3090     55.0899     36.5861
   640.3000      5.1000      2.0695     -0.2788     35.1841     55.4620     36.3420
   640.4000      5.1000      2.0668     -0.3205     35.3450     49.0392     36.0390
   640.5000      5.1038      2.0753     -0.3443     34.8280     41.6799     35.8472
   640.6000      5.1038      2.0915     -0.2960     33.8456     39.4656     35.8600
   640.7000      5.1038      2.0984     -0.3126     33.4312     39.6818     36.0275
   640.8000      5.1046      2.0950     -0.3120     33.6340     39.0754     36.3721
   640.9000      5.1046      2.0867     -0.2858     34.1417     40.1919     36.5695
   641.0000      5.0993      2.0788     -0.3406     34.6176     45.8581     36.3233
   641.1000      5.0993      2.0778     -0.2568     34.6813     52.3113     35.8965
   641.2000      5.0993      2.0771     -0.2516     34.7229     55.6837     35.7253
   641.3000      5.0943      2.0723     -0.3208     35.0093     57.7069     35.8944
   641.4000      5.0943      2.0688     -0.3345     35.2252     60.3073     36.1360
   641.5000      5.0929      2.0632     -0.2857     35.5663     60.7611     36.2979
   641.6000      5.0929      2.0514     -0.3248     36.2787     57.0020     36.4775
   641.7000      5.0929      2.0395     -0.3395     37.0002     53.9611     36.5418
   641.8000      5.0953      2.0317     -0.3017     37.4755     52.8948     36.2969
   641.9000      5.0953      2.0326     -0.3580     37.4196     49.6468     36.0687
   642.0000      5.0976      2.0462     -0.2614     36.5914     46.7021     36.1184
   642.1000      5.0976      2.0679     -0.2888     35.2768     49.0537     36.2308
   642.2000      5.0976      2.0981     -0.2800     33.4461     54.0200     36.2632
   642.3000      5.0962      2.1259     -0.2267     31.7609     56.9623     36.3658
   642.4000      5.0962      2.1273     -0.2027     31.6778     54.8768     36.5505
   642.5000      5.0955      2.1036     -0.2918     33.1162     46.9945     36.5500
   642.6000      5.0955      2.0774     -0.2732     34.7058     40.6772     36.2849
   642.7000      5.0955      2.0652     -0.2751     35.4424     41.6403     36.0680
   642.8000      5.0988      2.0617     -0.2388     35.6525     47.0701     36.0920
   642.9000      5.0988      2.0452     -0.2554     36.6530     54.0008     36.5285
   643.0000      5.1007      2.0108     -0.3437     38.7389     58.0170     37.3595
   643.1000      5.1007      1.9768     -0.3359     40.7991     54.9100     37.8500
   643.2000      5.1007      1.9609     -0.3519     41.7662     48.9879     37.6726
   643.3000      5.1015      1.9716     -0.3402     41.1136     46.5775     37.2721
   643.4000      5.1015      1.9983     -0.2933     39.4944     46.1411     36.8579
   643.5000      5.0999      2.0120     -0.2891     38.6653     43.7000     36.5578
   643.6000      5.0999      2.0050     -0.3898     39.0887     41.3560     36.4614
   643.7000      5.0999      1.9973     -0.3113     39.5606     43.7163     36.3407
   643.8000      5.0986      1.9976     -0.3491     39.5408     49.3251     36.2954
   643.9000      5.0986      1.9950     -0.2465     39.6943     51.1316     36.3915
   644.0000      5.1010      1.9856     -0.3899     40.2671     46.5362     36.3226
   644.1000      5.1010      1.9910     -0.3905     39.9402     40.4364     36.0780
   644.2000      5.1010      2.0204     -0.2967     38.1586     39.4034     35.9828
   644.3000      5.1074      2.0460     -0.2651     36.6037     45.2821     36.2454
   644.4000      5.1074      2.0485     -0.3066     36.4517     51.9309     36.4919
   644.5000      5.1136      2.0438     -0.2821     36.7368     54.9111     36.2341
   644.6000      5.1136      2.0490     -0.2919     36.4213     55.9458     35.8775
   644.7000      5.1136      2.0562     -0.2555     35.9889     54.1406     35.8928
   644.8000      5.1105      2.0559     -0.3157     36.0061     48.9572     36.0234
   644.9000      5.1105      2.0691     -0.3395     35.2047     43.6499     36.1106
   645.0000      5.1036      2.1120     -0.2244     32.6039     40.7610     36.2139
   645.1000      5.1036      2.1587     -0.1774     29.7770     41.9170     36.2719
   645.2000      5.1036      2.1785     -0.1720     28.5770     46.1449     36.3300
   645.3000      5.0985      2.1624     -0.2172     29.5492     47.7240     36.3687
   645.4000      5.0985      2.1207     -0.2621     32.0783     44.0386     36.4055
   645.5000      5.0968      2.0879     -0.3201     34.0659     38.7113     36.5970
   645.6000      5.0968      2.0966     -0.3225     33.5390     36.3790     36.8064
   645.7000      5.0968      2.1308     -0.2393     31.4672     37.2603     36.8138
   645.8000      5.0984      2.1526     -0.2526     30.1467     38.4990     36.5486
   645.9000      5.0984      2.1589     -0.2362     29.7608     39.8471     36.0346
   646.0000      5.0995      2.1651     -0.2329     29.3866     42.1177     35.8021
   646.1000      5.0995      2.1709     -0.1826     29.0349     45.5913     36.2259
   646.2000      5.0995      2.1680     -0.1894     29.2122     50.7232     36.7403
   646.3000      5.0981      2.1604     -0.2726     29.6751     56.2725     36.7741
   646.4000      5.0981      2.1541     -0.2540     30.0548     61.2297     36.4738
   646.5000      5.0951      2.1442     -0.2691     30.6521     63.7510     36.2449
   646.6000      5.0951      2.1343     -0.2835     31.2554     61.5373     36.1737
   646.7000      5.0951      2.1262     -0.2238     31.7484     57.2402     36.1465
   646.8000      5.0943      2.1140     -0.2615     32.4847     56.1423     36.1864
   646.9000      5.0943      2.1003     -0.2381     33.3142     58.4901     36.3187
   647.0000      5.0958      2.0823     -0.2277     34.4058     60.1207     36.4404
   647.1000      5.0958      2.0506     -0.2835     36.3280     61.2052     36.6076
   647.2000      5.0958      2.0116     -0.3544     38.6926     64.9605     37.0487
   647.3000      5.0979      1.9807     -0.3062     40.5636     71.1238     37.5713
   647.4000      5.0979      1.9672     -0.3615     41.3817     74.8135     37.7046
   647.5000      5.0980      1.9721     -0.3323     41.0864     73.5178     37.5992
   647.6000      5.0980      1.9834     -0.3239     40.4004     73.2823     37.8091
   647.7000      5.0980      1.9871     -0.2774     40.1772     79.1614     38.2529
   647.8000      5.0965      1.9911     -0.4015     39.9336     88.0440     38.4505
   647.9000      5.0965      2.0120     -0.2878     38.6687     96.5782     38.4862
   648.0000      5.0970      2.0425     -0.3205     36.8160    104.4218     38.5785
   648.1000      5.0970      2.0723     -0.3007     35.0101    106.2363     38.6825
   648.2000      5.0970      2.0901     -0.1877     33.9360     96.9226     38.7775
   648.3000      5.0983      2.0800     -0.2744     34.5466     84.0844     38.6148
   648.4000      5.0983      2.0530     -0.2646     36.1801     78.8396     38.2112
   648.5000      5.1001      2.0428     -0.3418     36.7979     82.6821     38.0502
   648.6000      5.1001      2.0617     -0.2951     35.6567     89.9071     38.1604
   648.7000      5.1001      2.0814     -0.2357     34.4600     92.4262     38.2877
   648.8000      5.1018      2.0858     -0.2901     34.1958     85.5299     38.5103
   648.9000      5.1018      2.0912     -0.2844     33.8654     75.1166     38.7884
   649.0000      5.0982      2.0996     -0.2108     33.3575     69.5472     38.8908
   649.1000      5.0982      2.0958     -0.2447     33.5888     70.8948     38.7551
   649.2000      5.0982      2.0845     -0.3064     34.2717     74.4674     38.5464
   649.3000      5.0945      2.0800     -0.3116     34.5436     74.0557     38.4500
   649.4000      5.0945      2.0820     -0.2665     34.4213     72.6793     38.4581
   649.5000      5.0967      2.0844     -0.2276     34.2785     76.0188     38.4319
