~Version Information
VERS.                      2.0: CWLS Log ASCII Standard - VERSION 2.0
WRAP.                       NO: One line per depth step
~Well Information Block
STRT.FT                -6.7500: 
STOP.FT              2058.2500: 
STEP.FT                 0.2500: 
NULL.                -999.2500: 
COMP.          Petrogulf Corporation: COMPANY
WELL.           Schedler 9-23R: WELL
FLD.           Purgatorie River: FIELD
LOC.           2084' FSL & 2331' FWL--: LOCATION
PROV.                       CO: PROVINCE
CNTY.               Las Animas: COUNTRY
SRVC.                         : SERVICE COMPANY
DATE.          Fri Nov 12 13:22:46 2004: LOG DATE
UWI.       005 071 08040 : UNIQUE WELL ID
~Curve Information Block
DEPT.FT            0 000 00 00: Depth
GR.GAPI                       : Gamma Ray
CCL.                          : Casing Collar Locator
TT3.usec                      : CBL 3' Travel Time
AMP3.mV                       : CBL 3' Amplitude
~Parameter Information Block
~A  Depth        GR         CCL         TT3         AMP3    
# ...
   931.2500     52.3013      0.0000    757.0871      8.3027
   931.5000     48.7931      0.0000    757.3337      8.4316
   931.7500     45.1979      0.0000    757.6437      8.5790
   932.0000     42.4437      0.0000    758.5652      8.7098
   932.2500     41.3796      0.0000    761.1160      8.8186
   932.5000     42.5321      0.0000    766.1672      8.9211
   932.7500     45.9176      0.0000    772.7694      9.0137
   933.0000     51.1682      0.0000    776.8985      9.0578
   933.2500     57.7557      0.0000    773.5999      9.0260
   933.5000     65.0409      0.0000    762.0751      8.9671
   933.7500     72.4710      0.0000    747.9014      9.0085
   934.0000     79.9924      0.0000    738.5862      9.2736
   934.2500     88.0091      0.0000    737.5134      9.7775
   934.5000     96.7107      0.0000    743.0885     10.3993
   934.7500    105.7855      2.0000    751.9450     10.9677
   935.0000    115.0180      1.7194    760.3436     11.3838
   935.2500    124.5279      0.0000    763.7408     11.6647
   935.5000    133.8865      0.0000    758.9750     11.9164
   935.7500    141.7171      0.0000    747.9634     12.3199
   936.0000    147.0135      0.0000    736.9941     13.0980
   936.2500    150.3270      0.0000    731.5300     14.3629
   936.5000    153.0020      0.0000    732.3691     15.9482
   936.7500    155.7955      0.0000    736.0588     17.4715
   937.0000    158.7448      0.0000    737.8560     18.6084
   937.2500    161.7430      0.0000    734.9459     19.2746
   937.5000    164.4116      0.0000    728.0778     19.5684
   937.7500    165.5450      0.0000    720.3222     19.6289
   938.0000    163.6163      0.0000    713.8402     19.5658
   938.2500    158.4809      0.0000    707.8288     19.4544
   938.5000    151.9624      0.0000    699.7974     19.3427
   938.7500    145.8795      0.0000    688.8049     19.2630
   939.0000    140.1161      0.0000    676.7977     19.2461
   939.2500    133.8655      0.0000    666.3641     19.3180
   939.5000    128.2026      0.0000    657.2746     19.4835
   939.7500    125.9432      0.0000    644.7770     19.7243
   940.0000    128.8835      0.0000    620.5739     20.0270
   940.2500    135.8972      0.0000    577.0843     20.3993
   940.5000    143.6181      0.0000    514.2417     20.8424
   940.7500    148.6268      0.0000    443.0954     21.3184
   941.0000    149.6096      0.0000    380.2550     21.7616
   941.2500    148.0947      0.0000    336.9568     22.1252
   941.5000    146.8001      0.0000    313.6521     22.4070
   941.7500    146.9248      0.0000    303.8047     22.6370
   942.0000    147.4588      0.0000    300.4803     22.8476
   942.2500    147.3365      0.0000    299.5270     23.0553
   942.5000    147.2438      0.0000    299.2523     23.2625
   942.7500    148.3202      0.0000    299.1527     23.4658
   943.0000    149.6177      0.0000    299.1094     23.6516
   943.2500    148.4466      0.0000    299.0874     23.7903
   943.5000    143.7644      0.0000    299.0869     23.8522
   943.7500    137.9716      0.0000    299.1108     23.8401
   944.0000    134.3427      0.0000    299.1423     23.8033
   944.2500    133.6149      0.0000    299.1436     23.8071
   944.5000    134.1380      0.0000    299.0901     23.8743
   944.7500    134.5659      0.0000    299.0010     23.9620
   945.0000    135.2003      0.0000    298.9218     24.0046
   945.2500    136.9674      0.0000    298.8768     23.9779
   945.5000    140.1141      0.0000    298.8501     23.9120
   945.7500    144.1459      0.0000    298.8137     23.8474
   946.0000    148.3958      0.0000    298.7637     23.7894
   946.2500    151.9852      0.0000    298.7478     23.7050
   946.5000    153.4951      0.0000    298.9029     23.5529
   946.7500    151.6964      0.0000    299.7229     23.3129
   947.0000    146.9573      0.0000    302.8346     22.9915
   947.2500    141.3336      0.0000    312.0676     22.6077
   947.5000    136.9102      0.0000    333.1465     22.1847
   947.7500    134.4106      0.0000    369.5591     21.7572
   948.0000    133.5641      0.0000    416.2367     21.3718
   948.2500    134.0639      0.0000    460.1448     21.0574
   948.5000    135.3095      0.0000    493.1039     20.7823
   948.7500    135.4699      0.0000    523.3853     20.4516
   949.0000    132.2311      0.0000    567.3613     19.9752
   949.2500    125.4344      0.0000    628.7288     19.3531
   949.5000    118.2070      0.0000    692.5412     18.6923
   949.7500    114.3146      0.0000    740.2498     18.1394
   950.0000    114.5866      0.0000    764.4120     17.7937
   950.2500    116.6893      0.0000    768.5446     17.6765
   950.5000    117.9790      0.0000    759.0947     17.7595
   950.7500    117.5768      0.0000    739.2529     18.0106
   951.0000    115.9808      0.0000    706.1236     18.4101
   951.2500    113.9528      0.0000    652.5414     18.9287
   951.5000    112.2860      0.0000    575.8950     19.4916
   951.7500    111.9747      0.0000    486.9525     19.9772
   952.0000    113.8795      0.0000    406.2060     20.2727
   952.2500    118.0655      0.0000    349.4638     20.3520
   952.5000    123.5592      0.0000    318.6849     20.3007
   952.7500    128.8856      0.0000    305.8603     20.2652
   953.0000    132.9207      0.0000    301.8269     20.3763
   953.2500    135.2540      0.0000    300.8824     20.7023
   953.5000    136.0673      0.0000    300.6094     21.2365
   953.7500    136.0623      0.0000    300.3152     21.9121
   954.0000    136.2507      0.0000    299.9454     22.6443
   954.2500    137.3957      0.0000    299.5804     23.3761
   954.5000    139.5887      0.0000    299.2843     24.0775
   954.7500    142.2955      0.0000    299.0744     24.7102
   955.0000    144.6573      0.0000    298.9503     25.2283
   955.2500    145.9104      0.0000    298.9015     25.6282
   955.5000    145.7868      0.0000    298.9018     25.9688
   955.7500    144.6394      0.0000    298.9175     26.3234
   956.0000    143.3384      0.0000    298.9254     26.7239
   956.2500    143.1271      0.0000    298.9187     27.1625
   956.5000    145.2639      0.0000    298.8989     27.6288
   956.7500    150.3124      0.0000    298.8673     28.1256
   957.0000    157.5963      0.0000    298.8246     28.6561
   957.2500    165.5068      0.0000    298.7739     29.2089
   957.5000    172.3867      0.0000    298.7221     29.7587
   957.7500    177.1142      0.0000    298.6768     30.2861
   958.0000    179.2417      0.0000    298.6398     30.7870
   958.2500    179.0651      0.0000    298.6043     31.2454
   958.5000    177.3982      0.0000    298.5621     31.5933
   958.7500    174.7379      0.0000    298.5133     31.7314
   959.0000    170.5325      0.0000    298.4688     31.6075
   959.2500    163.5101      0.0000    298.4447     31.2684
   959.5000    152.8490      0.0000    298.4536     30.8204
   959.7500    139.1447      0.0000    298.5013     30.3427
   960.0000    124.5655      0.0000    298.5883     29.8387
   960.2500    112.0923      0.0000    298.7112     29.2648
   960.5000    104.0438      0.0000    298.8618     28.6001
   960.7500    100.8839      0.0000    299.0268     27.8794
   961.0000    101.4210      0.0000    299.1889     27.1652
   961.2500    104.1987      0.0000    299.3309     26.5002
   961.5000    108.5785      0.0000    299.4421     25.8911
   961.7500    114.4233      0.0000    299.5204     25.3302
   962.0000    120.9974      0.0000    299.5655     24.8309
   962.2500    126.6683      0.0000    299.5718     24.4363
   962.5000    129.8442      0.0000    299.5316     24.1887
   962.7500    129.9873      0.0000    299.4440     24.0971
   963.0000    127.8637      0.0000    299.3215     24.1403
   963.2500    125.2891      0.0000    299.1857     24.2854
   963.5000    124.3522      0.0000    299.0537     24.4924
   963.7500    126.0535      0.0000    298.9279     24.7091
   964.0000    129.4266      0.0000    298.7987     24.8799
   964.2500    132.2452      0.0000    298.6747     24.9636
   964.5000    132.7336      0.0000    298.6367     24.9379
