~Version Information
VERS.                      2.0: CWLS Log ASCII Standard - VERSION 2.0
WRAP.                       NO: One line per depth step
~Well Information Block
STRT.FT               -12.5000: 
STOP.FT              2742.5000: 
STEP.FT                 0.2500: 
NULL.                -999.2500: 
COMP.          Pioneer Natural Resources: COMPANY
WELL.            Rangely 22-28: WELL
FLD.           Purgatorie River: FIELD
LOC.           720' FSL & 1036' FEL--: LOCATION
PROV.                       CO: PROVINCE
CNTY.               Las Animas: COUNTRY
SRVC.                         : SERVICE COMPANY
DATE.          Wed Nov 10 08:59:10 2004: LOG DATE
UWI.                          : UNIQUE WELL ID
~Curve Information Block
DEPT.FT            0 000 00 00: Depth
GR.GAPI                       : Gamma Ray
CCL.                          : Casing Collar Locator
TT3.usec                      : CBL 3' Travel Time
AMP3.mV                       : CBL 3' Amplitude
~Parameter Information Block
~A  Depth        GR         CCL         TT3         AMP3    
# ...
  1428.0000    128.4977      0.0000    259.5260     73.0725
  1428.2500    125.6556      0.0000    259.4636     73.1610
  1428.5000    122.0680      0.0000    259.3884     72.7277
  1428.7500    118.9830      0.0000    259.3038     71.7317
  1429.0000    118.1192      0.0000    259.2338     70.2314
  1429.2500    120.8477      0.0000    259.2536     68.3641
  1429.5000    126.8794      0.0000    259.6664     66.2988
  1429.7500    133.9025      0.0000    261.3495     64.1206
  1430.0000    139.0020      0.0000    266.1199     61.6770
  1430.2500    140.6066      0.0000    276.1553     58.5834
  1430.5000    139.2701      0.0000    291.5870     54.5629
  1430.7500    137.0681      0.0000    307.9267     49.9154
  1431.0000    136.2163      0.0000    317.5006     45.5946
  1431.2500    137.3447      0.0000    315.4608     42.7098
  1431.5000    138.7040      0.0000    304.0163     41.9060
  1431.7500    137.7730      0.0000    289.8549     43.1401
  1432.0000    134.1778      0.0000    278.4437     45.9025
  1432.2500    130.5766      0.0000    271.4367     49.5545
  1432.5000    130.4130     -2.0000    267.8897     53.4839
  1432.7500    135.1552     -2.0000    266.2781     57.0980
  1433.0000    143.4149      0.0000    265.4964     59.9053
  1433.2500    152.0273      0.0000    264.9458     61.7789
  1433.5000    158.0925      0.0000    264.3369     63.1353
  1433.7500    160.6641      0.0000    263.5205     64.6925
  1434.0000    160.7587      0.0000    262.4846     66.8899
  1434.2500    159.8327      0.0000    261.3575     69.5562
  1434.5000    158.4597      0.0000    260.3526     72.1776
  1434.7500    156.4952      0.0000    259.6348     74.3597
  1435.0000    153.9945      0.0000    259.2290     75.9731
  1435.2500    151.3659      0.0000    259.0450     77.0526
  1435.5000    148.8026      0.0000    258.9676     77.7108
  1435.7500    146.1993      0.0000    258.9203     78.0685
  1436.0000    143.7625      0.0000    258.8751     78.1550
  1436.2500    142.0686      0.0000    258.8322     77.8798
  1436.5000    141.1507      0.0000    258.7993     77.1580
  1436.7500    139.9991      0.0000    258.7773     76.0681
  1437.0000    137.3910      0.0000    258.7601     74.8652
  1437.2500    132.9881      0.0000    258.7418     73.8282
  1437.5000    127.3995      0.0000    258.7197     73.0959
  1437.7500    121.6118      0.0000    258.6932     72.6286
  1438.0000    116.7439      0.0000    258.6633     72.2919
  1438.2500    113.9354      0.0000    258.6332     71.9840
  1438.5000    113.6906      0.0000    258.6065     71.7109
  1438.7500    115.2595      0.0000    258.5837     71.5523
  1439.0000    117.2230      0.0000    258.5611     71.5664
  1439.2500    118.8644      0.0000    258.5331     71.7412
  1439.5000    120.6587      0.0000    258.4951     72.0244
  1439.7500    123.2411      0.0000    258.4437     72.3580
  1440.0000    126.2931      0.0000    258.3766     72.6715
  1440.2500    128.8732      0.0000    258.2967     72.8756
  1440.5000    130.5564      0.0000    258.2151     72.8947
  1440.7500    131.6613      0.0000    258.1473     72.7111
  1441.0000    132.4820      0.0000    258.1022     72.3668
  1441.2500    132.8231      0.0000    258.0752     71.9229
  1441.5000    132.3256      0.0000    258.0542     71.4297
  1441.7500    131.0282      0.0000    258.0304     70.9267
  1442.0000    129.6167      0.0000    258.0032     70.4459
  1442.2500    129.0379      0.0000    257.9771     70.0011
  1442.5000    129.6182      0.0000    257.9566     69.5890
  1442.7500    130.5915      0.0000    257.9430     69.2190
  1443.0000    130.6855      0.0000    257.9363     68.9406
  1443.2500    129.1785      0.0000    257.9369     68.8352
  1443.5000    126.4533      0.0000    257.9440     68.9744
  1443.7500    123.7803      0.0000    257.9541     69.3776
  1444.0000    122.6881      0.0000    257.9640     70.0003
  1444.2500    124.0989      0.0000    257.9756     70.7546
  1444.5000    127.4965      0.0000    257.9947     71.5462
  1444.7500    130.9331      0.0000    258.0256     72.3082
  1445.0000    132.3226      0.0000    258.0665     73.0132
  1445.2500    130.8474      0.0000    258.1107     73.6612
  1445.5000    127.1107      0.0000    258.1523     74.2579
  1445.7500    122.4697      0.0000    258.1924     74.8032
  1446.0000    118.4306      0.0000    258.2383     75.2955
  1446.2500    116.0367      0.0000    258.2956     75.7369
  1446.5000    115.2759      0.0000    258.3611     76.1272
  1446.7500    115.0848      0.0000    258.4250     76.4516
  1447.0000    114.2207      0.0000    258.4802     76.6766
  1447.2500    112.3689      0.0000    258.5276     76.7646
  1447.5000    110.3521      0.0000    258.5732     76.7023
  1447.7500    109.0256      0.0000    258.6214     76.5269
  1448.0000    108.0537      0.0000    258.6711     76.3201
  1448.2500    106.1819      0.0000    258.7188     76.1532
  1448.5000    102.7239      0.0000    258.7643     76.0260
  1448.7500     98.4267      0.0000    258.8126     75.8744
  1449.0000     94.9006      0.0000    258.8682     75.6468
  1449.2500     93.3029      0.0000    258.9288     75.3672
  1449.5000     93.3210      0.0000    258.9845     75.1190
  1449.7500     93.2374      0.0000    259.0219     74.9728
  1450.0000     91.2608      0.0000    259.0291     74.9253
  1450.2500     87.1182      0.0000    258.9995     74.8860
  1450.5000     82.2009      0.0000    258.9356     74.7242
  1450.7500     77.9712      0.0000    258.8475     74.3490
  1451.0000     74.4828      0.0000    258.7487     73.7500
  1451.2500     70.7528      0.0000    258.6520     72.9614
  1451.5000     66.2726      0.0000    258.5685     71.9998
  1451.7500     61.5766      0.0000    258.5058     70.8533
  1452.0000     57.3567      0.0000    258.4639     69.5230
  1452.2500     53.6155      0.0000    258.4337     68.0635
  1452.5000     50.0286      0.0000    258.4012     66.5953
  1452.7500     47.0583      0.0000    258.3544     65.2830
  1453.0000     46.3451      0.0000    258.2911     64.2608
  1453.2500     49.6506      0.0000    258.2210     63.5413
  1453.5000     57.3055      0.0000    258.1608     63.0102
  1453.7500     67.9106      0.0000    258.1266     62.5358
  1454.0000     79.6005      0.0000    258.1266     62.0803
  1454.2500     91.3089      0.0000    258.1553     61.7035
  1454.5000    102.6702      0.0000    258.1954     61.4835
  1454.7500    113.1098      0.0000    258.2281     61.4450
  1455.0000    121.5811      0.0000    258.2423     61.5562
  1455.2500    127.3357      0.0000    258.2372     61.7956
  1455.5000    130.7431      0.0000    258.2185     62.2098
  1455.7500    133.0823      0.0000    258.1969     62.8715
  1456.0000    135.3714      0.0000    258.1841     63.7693
  1456.2500    137.4629      0.0000    258.1882     64.7733
  1456.5000    138.3846      0.0000    258.2087     65.7352
  1456.7500    137.5145      0.0000    258.2353     66.6039
  1457.0000    135.2097      0.0000    258.2530     67.4255
  1457.2500    132.0826      0.0000    258.2505     68.2429
  1457.5000    127.6872      0.0000    258.2254     69.0115
  1457.7500    120.4577      0.0000    258.1827     69.6103
  1458.0000    109.4466      0.0000    258.1320     69.9173
  1458.2500     95.9556      0.0000    258.0851     69.8712
  1458.5000     82.9740      0.0000    258.0520     69.4742
  1458.7500     73.0192      0.0000    258.0349     68.7580
  1459.0000     66.6754      0.0000    258.0268     67.7475
  1459.2500     62.8457      0.0000    258.0179     66.4502
  1459.5000     59.9270      0.0000    258.0008     64.8789
  1459.7500     56.8870      0.0000    257.9757     63.0883
  1460.0000     53.7377      0.0000    257.9528     61.1786
  1460.2500     51.2371      0.0000    257.9501     59.2528
  1460.5000     50.1280      0.0000    257.9828     57.3866
  1460.7500     50.5859      0.0000    258.0527     55.6475
  1461.0000     52.2303      0.0000    258.1472     54.1072
  1461.2500     54.4863      0.0000    258.2495     52.7958
