~Version Information
VERS.                      2.0: CWLS Log ASCII Standard - VERSION 2.0
WRAP.                       NO: One line per depth step
~Well Information Block
STRT.FT               840.0000: 
STOP.FT              2450.0000: 
STEP.FT                 0.1000: 
NULL.                -999.2500: 
COMP.          Petrogulf Corporation: COMPANY
WELL.             Leier 17-42V: WELL
FLD.           Purgatorie River: FIELD
LOC.           2309' FNL & 1062' FEL SENE 17 33S 67W: LOCATION
PROV.                 Colorado: PROVINCE
CNTY.               Las Animas: COUNTRY
SRVC.                Patterson: SERVICE COMPANY
DATE.          Thu Sep 22 09:35:36 2005: LOG DATE
UWI.           071 08409 : UNIQUE WELL ID
~Curve Information Block
DEPT.FT            0 000 00 00: Depth
DCAL.in                       : CDL Caliper
RHOB.g/cc                     : CDL Bulk Density
RHOC.g/cc                     : CDL Density Correction
DPOR.pu                       : CDL Density Porosity
GR.GAPI                       : Gamma Ray
NPOR.pu                       : Neutron Porosity
~Parameter Information Block
~A  Depth       DCAL        RHOB        RHOC        DPOR         GR         NPOR    
# ...
   945.6000      8.2042      2.3751      0.0727     16.6620    154.1136     26.1817
   945.7000      8.2042      2.3911      0.0978     15.6917    153.0373     26.0934
   945.8000      8.2019      2.3861      0.0454     15.9967    152.2508     25.6228
   945.9000      8.2019      2.3635      0.0367     17.3606    153.3607     25.2152
   946.0000      8.1966      2.3270      0.0399     19.5736    155.1388     25.1720
   946.1000      8.1966      2.2709      0.0203     22.9755    155.2173     25.2895
   946.2000      8.1966      2.2005     -0.0114     27.2445    152.6561     25.4000
   946.3000      8.1900      2.1402     -0.0542     30.8977    149.8175     25.5426
   946.4000      8.1900      2.1119     -0.0546     32.6108    149.2874     25.7295
   946.5000      8.1895      2.1177     -0.0507     32.2611    150.3780     25.9453
   946.6000      8.1895      2.1500     -0.0036     30.3033    151.5748     26.2719
   946.7000      8.1895      2.1994      0.0710     27.3105    153.2869     26.7531
   946.8000      8.1853      2.2558      0.1175     23.8904    153.8641     27.2575
   946.9000      8.1853      2.3158      0.1260     20.2575    152.0005     27.6510
   947.0000      8.1894      2.3771      0.2151     16.5371    151.1979     28.0423
   947.1000      8.1894      2.4308      0.2364     13.2867    152.8752     28.5843
   947.2000      8.1894      2.4714      0.1942     10.8271    154.8356     29.0196
   947.3000      8.1791      2.5023      0.1197      8.9505    156.5157     29.0070
   947.4000      8.1791      2.5247      0.0950      7.5933    156.1575     28.7180
   947.5000      8.1726      2.5359      0.0726      6.9124    153.0285     28.6311
   947.6000      8.1726      2.5357      0.0896      6.9268    150.5406     28.9226
   947.7000      8.1726      2.5299      0.0320      7.2772    150.2777     29.4398
   947.8000      8.1793      2.5341      0.0359      7.0238    150.3962     29.9293
   947.9000      8.1793      2.5542      0.0749      5.8040    150.2002     30.1676
   948.0000      8.1745      2.5778      0.0881      4.3730    151.9805     30.2370
   948.1000      8.1745      2.5923      0.1277      3.4993    154.0360     30.4402
   948.2000      8.1745      2.5981      0.0712      3.1447    150.4294     30.7625
   948.3000      8.1676      2.6053      0.0887      2.7120    142.9956     30.9078
   948.4000      8.1676      2.6162      0.1040      2.0457    138.7311     30.7612
   948.5000      8.1582      2.6272      0.0971      1.3812    138.4307     30.3395
   948.6000      8.1582      2.6323      0.0892      1.0757    138.3976     29.7536
   948.7000      8.1582      2.6233      0.0978      1.6168    137.5734     29.1502
   948.8000      8.1545      2.6050      0.0331      2.7246    138.8457     28.5142
   948.9000      8.1545      2.5907      0.0391      3.5928    143.1192     27.9506
   949.0000      8.1576      2.5809      0.0527      4.1896    147.5061     27.5865
   949.1000      8.1576      2.5691      0.0411      4.9005    148.8350     27.1337
   949.2000      8.1576      2.5561      0.0591      5.6902    147.0112     26.4364
   949.3000      8.1539      2.5411      0.0512      6.5994    145.2012     25.9410
   949.4000      8.1539      2.5208      0.0297      7.8300    145.6733     25.9263
   949.5000      8.1514      2.5022     -0.0051      8.9580    148.8282     26.1718
   949.6000      8.1514      2.4982     -0.0165      9.2018    153.2108     26.5334
   949.7000      8.1514      2.5134      0.0088      8.2808    155.8976     26.9876
   949.8000      8.1448      2.5374      0.0464      6.8256    156.1207     27.4230
   949.9000      8.1448      2.5562      0.0265      5.6849    155.4192     27.7831
   950.0000      8.1498      2.5650      0.0608      5.1527    153.8516     28.0515
   950.1000      8.1498      2.5664      0.0557      5.0642    151.7263     28.2412
   950.2000      8.1498      2.5675      0.0208      4.9983    151.3300     28.4950
   950.3000      8.1488      2.5751      0.0105      4.5401    153.1246     28.7295
   950.4000      8.1488      2.5874      0.0365      3.7941    155.8707     28.6950
   950.5000      8.1502      2.5976      0.0411      3.1768    158.1952     28.4718
   950.6000      8.1502      2.6013      0.0262      2.9531    157.8745     28.3355
   950.7000      8.1502      2.5944      0.0316      3.3714    154.8045     28.4878
   950.8000      8.1472      2.5804     -0.0257      4.2208    153.3005     28.9519
   950.9000      8.1472      2.5677      0.0098      4.9892    156.0912     29.5148
   951.0000      8.1452      2.5540      0.0287      5.8193    161.5115     29.7391
   951.1000      8.1452      2.5432     -0.0226      6.4728    167.6018     29.5049
   951.2000      8.1452      2.5522      0.0123      5.9272    171.7845     29.1291
   951.3000      8.1413      2.5787      0.0417      4.3186    172.3181     28.8344
   951.4000      8.1413      2.6050      0.0762      2.7254    170.0353     28.7764
   951.5000      8.1443      2.6243      0.0466      1.5590    165.4368     29.0279
   951.6000      8.1443      2.6376      0.0720      0.7494    162.2624     29.3547
   951.7000      8.1443      2.6382      0.1015      0.7175    164.1782     29.5050
   951.8000      8.1464      2.6212      0.0700      1.7474    167.4144     29.5679
   951.9000      8.1464      2.6038      0.0675      2.8024    166.7988     29.7194
   952.0000      8.1364      2.6003      0.1112      3.0105    163.0843     29.8422
   952.1000      8.1364      2.5956      0.1090      3.2991    161.0620     29.7151
   952.2000      8.1364      2.5793      0.0468      4.2834    160.7807     29.3967
   952.3000      8.1338      2.5718     -0.0038      4.7410    158.2019     29.0628
   952.4000      8.1338      2.5875      0.0264      3.7904    151.7969     28.7660
   952.5000      8.1319      2.6122      0.0463      2.2899    142.2044     28.6842
   952.6000      8.1319      2.6276      0.0513      1.3592    133.7973     28.9073
   952.7000      8.1319      2.6311      0.0117      1.1450    130.5516     29.0526
   952.8000      8.1265      2.6279      0.0371      1.3394    130.4533     28.7926
   952.9000      8.1265      2.6197      0.0298      1.8348    129.3108     28.4939
   953.0000      8.1242      2.6100      0.0289      2.4265    125.7710     28.5722
   953.1000      8.1242      2.6022      0.0118      2.8952    120.7603     28.7118
   953.2000      8.1242      2.5952      0.0569      3.3190    115.5827     28.4555
   953.3000      8.1189      2.5863      0.0063      3.8614    112.5063     27.9181
   953.4000      8.1189      2.5727      0.0387      4.6864    111.6904     27.4454
   953.5000      8.1114      2.5532     -0.0054      5.8686    111.3675     27.0183
   953.6000      8.1114      2.5417     -0.0455      6.5639    109.2505     26.5227
   953.7000      8.1114      2.5469      0.0117      6.2502    103.9842     26.1765
   953.8000      8.1119      2.5530      0.0408      5.8764     99.0308     25.9721
   953.9000      8.1119      2.5518      0.0300      5.9543     97.3898     25.6022
   954.0000      8.1064      2.5498      0.0697      6.0727     96.9242     25.0571
   954.1000      8.1064      2.5447      0.0601      6.3819     95.5250     24.5423
   954.2000      8.1064      2.5333      0.0156      7.0738     93.4144     24.2390
   954.3000      8.0924      2.5248     -0.0020      7.5884     92.0348     24.2998
   954.4000      8.0924      2.5222      0.0109      7.7469     92.1699     24.7667
   954.5000      8.0839      2.5164      0.0132      8.0959     93.4017     25.3819
   954.6000      8.0839      2.5048     -0.0191      8.7985     96.5535     25.6397
   954.7000      8.0839      2.4955     -0.0154      9.3626    100.7945     25.4080
   954.8000      8.0848      2.4893      0.0291      9.7414    103.3586     24.9076
   954.9000      8.0848      2.4786     -0.0186     10.3899    103.5231     24.2523
   955.0000      8.0754      2.4685     -0.0322     10.9986    100.8681     23.6721
   955.1000      8.0754      2.4671      0.0046     11.0847     95.8344     23.3990
