~Version Information
VERS.                      2.0: CWLS Log ASCII Standard - VERSION 2.0
WRAP.                       NO: One line per depth step
~Well Information Block
STRT.FT               430.0000: 
STOP.FT              1910.2500: 
STEP.FT                 0.2500: 
NULL.                -999.2500: 
COMP.          Pioneer Natural Resources: COMPANY
WELL.          Formula 23-11 Tr: WELL
FLD.           Purgatoire River: FIELD
LOC.           1976' FSL & 1935' FWL--: LOCATION
PROV.                 Colorado: PROVINCE
CNTY.               Las Animas: COUNTRY
SRVC.                Patterson: SERVICE COMPANY
DATE.          Fri Jun 10 22:41:39 2005: LOG DATE
UWI.           05 071 08399 00: UNIQUE WELL ID
~Curve Information Block
DEPT.FT            0 000 00 00: Depth
SN.Ohm-m                      : IEL Short Normal
SP.mV                         : IEL Spontaneous Potential
DIR.Ohm-m                     : IEL Induction Resistivity
GR.GAPI                       : Gamma Ray
~Parameter Information Block
~A  Depth        SN          SP         DIR          GR     
   430.0000   2000.0000   2000.0000      3.3991     92.7780
   430.2500   2000.0000   2000.0000      3.7889     93.8947
   430.5000   2000.0000   2000.0000      4.2320     98.4100
   430.7500   2000.0000   2000.0000      4.6517    102.7512
   431.0000   2000.0000   2000.0000      4.9934    108.8503
   431.2500   2000.0000   2000.0000      5.2917    110.9889
   431.5000   2000.0000   2000.0000      5.6447    109.8352
   431.7500   2000.0000   2000.0000      6.1147    106.6937
   432.0000   2000.0000   2000.0000      6.6372    101.0167
   432.2500   2000.0000   2000.0000      6.9885     98.0624
   432.5000   2000.0000   2000.0000      6.9033     96.0239
   432.7500   2000.0000   2000.0000      6.3087     96.1505
   433.0000   2000.0000   2000.0000      5.4025     65.1855
   433.2500   2000.0000   2000.0000      4.4808     66.2084
   433.5000   2000.0000   2000.0000      3.7559     67.7069
   433.7500   2000.0000   2000.0000      3.3228     68.5159
   434.0000   2000.0000   2000.0000      3.2278     69.4695
   434.2500   2000.0000   2000.0000      3.5710     70.1172
   434.5000   2000.0000   2000.0000      4.6859     71.5634
   434.7500   2000.0000   2000.0000      7.8378     73.0619
   435.0000   2000.0000   2000.0000     22.0590     76.1992
   435.2500   2000.0000   2000.0000 100000.0000     78.7201
   435.5000   2000.0000   2000.0000 100000.0000     82.4508
   435.7500   2000.0000   2000.0000 100000.0000     84.2763
   436.0000   2000.0000   2000.0000 100000.0000     85.0368
   436.2500   2000.0000   2000.0000 100000.0000     84.1964
   436.5000   2000.0000   2000.0000 100000.0000     82.2027
   436.7500   2000.0000   2000.0000 100000.0000     81.4576
   437.0000   2000.0000   2000.0000      7.7393     82.2341
   437.2500   2000.0000   2000.0000      3.5083     83.8265
   437.5000   2000.0000   2000.0000      2.5959     86.7995
   437.7500   2000.0000   2000.0000      2.5903     88.6624
   438.0000   2000.0000   2000.0000      3.3657     90.9035
   438.2500   2000.0000   2000.0000      6.0038     91.9658
   438.5000   2000.0000   2000.0000     22.7955     92.7617
   438.7500   2000.0000   2000.0000 100000.0000     92.6842
   439.0000   2000.0000   2000.0000 100000.0000     91.9841
   439.2500   2000.0000   2000.0000 100000.0000     91.7468
   439.5000   2000.0000   2000.0000 100000.0000     93.1464
   439.7500   2000.0000   2000.0000 100000.0000     95.8015
   440.0000   2000.0000   2000.0000 100000.0000    102.2645
   440.2500   2000.0000   2000.0000    364.9928    107.6108
   440.5000   2000.0000   2000.0000     36.1489    115.8423
   440.7500   2000.0000   2000.0000     23.4680    120.8201
   441.0000   2000.0000   2000.0000     20.2450    126.6786
   441.2500   2000.0000   2000.0000     19.4737    129.1170
   441.5000   2000.0000   2000.0000     19.4725    130.4058
   441.7500   2000.0000   2000.0000     19.4956    130.1307
   442.0000   2000.0000   2000.0000     19.1246    129.2814
   442.2500   2000.0000   2000.0000     18.2553    128.8488
   442.5000   2000.0000   2000.0000     17.1710    128.1285
   442.7500   2000.0000   2000.0000     16.3673    127.2487
   443.0000   2000.0000   2000.0000     16.2754    125.2086
   443.2500   2000.0000   2000.0000     17.1648    123.5370
   443.5000   2000.0000   2000.0000     19.1005    120.6264
   443.7500   2000.0000   2000.0000     21.6713    118.1990
   444.0000   2000.0000   2000.0000     23.6086    113.5385
   444.2500   2000.0000   2000.0000     23.4802    110.0545
   444.5000   2000.0000   2000.0000     21.4277    105.6747
   444.7500   2000.0000   2000.0000     18.8373    104.2195
   445.0000   2000.0000   2000.0000     16.6798    104.9776
   445.2500   2000.0000   2000.0000     15.1997    107.3164
   445.5000   2000.0000   2000.0000     14.3215    112.6941
   445.7500   2000.0000   2000.0000     13.9009    116.6977
   446.0000   2000.0000   2000.0000     13.7888    121.5705
   446.2500   2000.0000   2000.0000     13.8336    123.2694
   446.5000   2000.0000   2000.0000     13.8925    123.5062
   446.7500   2000.0000   2000.0000     13.8635    122.9563
   447.0000   2000.0000   2000.0000     13.7107    122.8601
   447.2500   2000.0000   2000.0000     13.4550    123.8774
   447.5000   2000.0000   2000.0000     13.1412    126.8371
   447.7500   2000.0000   2000.0000     12.8098    129.2183
   448.0000   2000.0000   2000.0000     12.4882    132.5375
   448.2500   2000.0000   2000.0000     12.1927    134.2826
   448.5000   2000.0000   2000.0000     11.9331    135.6962
   448.7500   2000.0000   2000.0000     11.7139    135.4213
   449.0000   2000.0000   2000.0000     11.5352    132.7440
   449.2500   2000.0000   2000.0000     11.3956    129.7185
   449.5000   2000.0000   2000.0000     11.2962    124.7210
   449.7500   2000.0000   2000.0000     11.2435    122.0829
   450.0000   2000.0000   2000.0000     11.2496    120.2770
   450.2500   2000.0000   2000.0000     11.3293    120.4215
   450.5000   2000.0000   2000.0000     11.4970    121.2160
   450.7500   2000.0000   2000.0000     11.7656    121.1269
   451.0000   2000.0000   2000.0000     12.1451    119.6364
   451.2500   2000.0000   2000.0000     12.6417    118.3823
   451.5000   2000.0000   2000.0000     13.2567    117.3011
   451.7500   2000.0000   2000.0000     13.9853    117.1154
   452.0000   2000.0000   2000.0000     14.8167    116.5194
   452.2500   2000.0000   2000.0000     15.7349    115.0729
   452.5000   2000.0000   2000.0000     16.7252    110.3586
   452.7500   2000.0000   2000.0000     17.7833    105.5024
   453.0000   2000.0000   2000.0000     18.9206     96.6507
   453.2500   2000.0000   2000.0000     20.1554     90.6065
   453.5000   2000.0000   2000.0000     21.4950     82.6218
   453.7500   2000.0000   2000.0000     22.9222     78.3872
   454.0000   2000.0000   2000.0000     24.3983     73.7014
   454.2500   2000.0000   2000.0000     25.8795     71.5287
   454.5000   2000.0000   2000.0000     27.3273     69.3785
   454.7500   2000.0000   2000.0000     28.7039     68.5793
   455.0000   2000.0000   2000.0000     29.9611     68.3493
   455.2500   2000.0000   2000.0000     31.0471     68.8909
   455.5000   2000.0000   2000.0000     31.9295     70.6273
   455.7500   2000.0000   2000.0000     32.6103     72.1041
   456.0000   2000.0000   2000.0000     33.1119     73.9013
   456.2500   2000.0000   2000.0000     33.4452     74.2879
   456.5000   2000.0000   2000.0000     33.5893     73.4509
   456.7500   2000.0000   2000.0000     33.4956     72.5032
   457.0000   2000.0000   2000.0000     33.1118     72.1626
   457.2500   2000.0000   2000.0000     32.4107     73.4646
   457.5000   2000.0000   2000.0000     31.4087     78.0420
   457.7500   2000.0000   2000.0000     30.1710     82.4619
   458.0000   2000.0000   2000.0000     28.8010     90.1569
   458.2500   2000.0000   2000.0000     27.4176     95.5522
   458.5000   2000.0000   2000.0000     26.1258    103.5738
   458.7500   2000.0000   2000.0000     24.9928    108.5884
   459.0000   2000.0000   2000.0000     24.0428    114.9542
   459.2500   2000.0000   2000.0000     23.2707    118.0844
   459.5000   2000.0000   2000.0000     22.6649    120.7177
   459.7500   2000.0000   2000.0000     22.2221    120.8754
   460.0000   2000.0000   2000.0000     21.9464    118.4497
   460.2500   2000.0000   2000.0000     21.8354    115.3432
   460.5000   2000.0000   2000.0000     21.8668    110.0305
   460.7500   2000.0000   2000.0000     21.9939    107.1573
   461.0000   2000.0000   2000.0000     22.1533    104.7796
   461.2500   2000.0000   2000.0000     22.2773    104.2739
   461.5000   2000.0000   2000.0000     22.3082    104.3299
   461.7500   2000.0000   2000.0000     22.2122    104.6645
   462.0000   2000.0000   2000.0000     21.9915    105.6200
   462.2500   2000.0000   2000.0000     21.6818    106.5832
   462.5000   2000.0000   2000.0000     21.3335    108.4535
   462.7500   2000.0000   2000.0000     20.9874    109.9451
   463.0000   2000.0000   2000.0000     20.6641    112.3559
   463.2500   2000.0000   2000.0000     20.3707    113.7572
