~Version Information
VERS.                      2.0: CWLS Log ASCII Standard - VERSION 2.0
WRAP.                       NO: One line per depth step
~Well Information Block
STRT.FT               450.0000: 
STOP.FT              1642.0000: 
STEP.FT                 0.1000: 
NULL.                -999.2500: 
COMP.          Pioneer Natural Resources: COMPANY
WELL.           Buckhorn 12-21: WELL
FLD.           Purgatoire River: FIELD
LOC.           2450' FNL & 608' FWL: LOCATION
PROV.                 Colorado: PROVINCE
CNTY.               Las Animas: COUNTRY
SRVC.                Patterson: SERVICE COMPANY
DATE.          Wed Dec 01 15:08:21 2004: LOG DATE
UWI.           05 071 08129 00: UNIQUE WELL ID
~Curve Information Block
DEPT.FT            0 000 00 00: Depth
NPOR.pu                       : Neutron Porosity
CCL.                          : Casing Collar Locator
GR.GAPI                       : Gamma Ray
~Parameter Information Block
~A  Depth       NPOR        CCL          GR     
# ...
   917.6000     18.0212      0.0000    124.6776
   917.7000     18.0212      0.0000    124.6776
   917.8000     16.4682      0.0000    122.0623
   917.9000     16.4682      0.0000    122.0623
   918.0000     14.8508      0.0000    117.9833
   918.1000     14.8508      0.0000    117.9833
   918.2000     14.8508      0.0000    117.9833
   918.3000     13.3846      0.0000    113.3173
   918.4000     13.3846      0.0000    113.3173
   918.5000     12.3438      0.0000    109.1633
   918.6000     12.3438      0.0000    109.1633
   918.7000     12.3438      0.0000    109.1633
   918.8000     11.8860      0.0000    105.8668
   918.9000     11.8860      0.0000    105.8668
   919.0000     11.9850      0.0000    102.8651
   919.1000     11.9850      0.0000    102.8651
   919.2000     11.9850      0.0000    102.8651
   919.3000     12.4603      0.0000     99.4446
   919.4000     12.4603      0.0000     99.4446
   919.5000     13.0534      0.0000     95.3627
   919.6000     13.0534      0.0000     95.3627
   919.7000     13.0534      0.0000     95.3627
   919.8000     13.5237      0.0000     90.7689
   919.9000     13.5237      0.0000     90.7689
   920.0000     13.7211      0.0000     85.9414
   920.1000     13.7211      0.0000     85.9414
   920.2000     13.7211      0.0000     85.9414
   920.3000     13.6225      0.0000     81.2432
   920.4000     13.6225      0.0000     81.2432
   920.5000     13.3305      0.0000     76.9958
   920.6000     13.3305      0.0000     76.9958
   920.7000     13.3305      0.0000     76.9958
   920.8000     13.0255      0.0000     73.1774
   920.9000     13.0255      0.0000     73.1774
   921.0000     12.8672      0.0000     69.4299
   921.1000     12.8672      0.0000     69.4299
   921.2000     12.8672      0.0000     69.4299
   921.3000     12.9026      0.0000     65.5504
   921.4000     12.9026      0.0000     65.5504
   921.5000     13.0512      0.0000     61.8266
   921.6000     13.0512      0.0000     61.8266
   921.7000     13.0512      0.0000     61.8266
   921.8000     13.1784      0.0000     58.6921
   921.9000     13.1784      0.0000     58.6921
   922.0000     13.1923      0.0000     56.2270
   922.1000     13.1923      0.0000     56.2270
   922.2000     13.1923      0.0000     56.2270
   922.3000     13.0955      0.0000     54.3114
   922.4000     13.0955      0.0000     54.3114
   922.5000     12.9692      0.0000     53.1162
   922.6000     12.9692      0.0000     53.1162
   922.7000     12.9692      0.0000     53.1162
   922.8000     12.8975      0.0000     53.0142
   922.9000     12.8975      0.0000     53.0142
   923.0000     12.8856      0.0000     53.9718
   923.1000     12.8856      0.0000     53.9718
   923.2000     12.8856      0.0000     53.9718
   923.3000     12.8645      0.0000     55.3247
   923.4000     12.8645      0.0000     55.3247
   923.5000     12.7868      0.0000     56.2756
   923.6000     12.7868      0.0000     56.2756
   923.7000     12.7868      0.0000     56.2756
   923.8000     12.6788      0.0000     56.5883
   923.9000     12.6788      0.0000     56.5883
   924.0000     12.5942      0.0000     56.7930
   924.1000     12.5942      0.0000     56.7930
   924.2000     12.5942      0.0000     56.7930
   924.3000     12.5678      0.0000     57.5559
   924.4000     12.5678      0.0000     57.5559
   924.5000     12.6226      0.0000     58.7911
   924.6000     12.6226      0.0000     58.7911
   924.7000     12.6226      0.0000     58.7911
   924.8000     12.7795      0.0000     59.7170
   924.9000     12.7795      0.0000     59.7170
   925.0000     13.0443      0.0000     59.8296
   925.1000     13.0443      0.0000     59.8296
   925.2000     13.0443      0.0000     59.8296
   925.3000     13.3811      0.0000     59.3072
   925.4000     13.3811      0.0000     59.3072
   925.5000     13.6929      0.0000     58.3785
   925.6000     13.6929      0.0000     58.3785
   925.7000     13.6929      0.0000     58.3785
   925.8000     13.8546      0.0000     57.0746
   925.9000     13.8546      0.0000     57.0746
   926.0000     13.8142      0.0000     55.9226
   926.1000     13.8142      0.0000     55.9226
   926.2000     13.8142      0.0000     55.9226
   926.3000     13.6740      0.0000     56.1463
   926.4000     13.6740      0.0000     56.1463
   926.5000     13.6851      0.0000     58.8121
   926.6000     13.6851      0.0000     58.8121
   926.7000     13.6851      0.0000     58.8121
   926.8000     14.1631      0.0000     64.3517
   926.9000     14.1631      0.0000     64.3517
   927.0000     15.3581      0.0000     72.9755
   927.1000     15.3581      0.0000     72.9755
   927.2000     15.3581      0.0000     72.9755
   927.3000     17.3009      0.0000     84.6240
   927.4000     17.3009      0.0000     84.6240
   927.5000     19.7085      0.0000     98.0481
   927.6000     19.7085      0.0000     98.0481
   927.7000     19.7085      0.0000     98.0481
   927.8000     22.0980      0.0000    110.6709
   927.9000     22.0980      0.0000    110.6709
   928.0000     24.0790      0.0000    120.1506
   928.1000     24.0790      0.0000    120.1506
   928.2000     24.0790      0.0000    120.1506
   928.3000     25.5368      0.0000    126.2607
   928.4000     25.5368      0.0000    126.2607
   928.5000     26.5432      0.0000    131.1420
   928.6000     26.5432      0.0000    131.1420
   928.7000     26.5432      0.0000    131.1420
   928.8000     27.1653      0.0000    137.5671
   928.9000     27.1653      0.0000    137.5671
   929.0000     27.4284      0.0000    146.4819
   929.1000     27.4284      0.0000    146.4819
   929.2000     27.4284      0.0000    146.4819
   929.3000     27.4269      0.0000    155.7242
   929.4000     27.4269      0.0000    155.7242
   929.5000     27.3665      0.0000    161.3967
   929.6000     27.3665      0.0000    161.3967
   929.7000     27.3665      0.0000    161.3967
   929.8000     27.4619      0.0000    161.3287
   929.9000     27.4619      0.0000    161.3287
   930.0000     27.8193      0.0000    157.3457
   930.1000     27.8193      0.0000    157.3457
   930.2000     27.8193      0.0000    157.3457
   930.3000     28.4066      0.0000    153.5523
   930.4000     28.4066      0.0000    153.5523
   930.5000     29.0844      0.0000    152.3900
   930.6000     29.0844      0.0000    152.3900
   930.7000     29.0844      0.0000    152.3900
   930.8000     29.6534      0.0000    153.0583
   930.9000     29.6534      0.0000    153.0583
   931.0000     29.9214      0.0000    153.6331
   931.1000     29.9214      0.0000    153.6331
   931.2000     29.9214      0.0000    153.6331
   931.3000     29.7832      0.0000    153.5480
   931.4000     29.7832      0.0000    153.5480
   931.5000     29.2416      0.0000    153.4079
   931.6000     29.2416      0.0000    153.4079
   931.7000     29.2416      0.0000    153.4079
   931.8000     28.3291      0.0000    153.0681
   931.9000     28.3291      0.0000    153.0681
   932.0000     27.0408      0.0000    150.7770
   932.1000     27.0408      0.0000    150.7770
   932.2000     27.0408      0.0000    150.7770
   932.3000     25.3998      0.0000    144.4954
   932.4000     25.3998      0.0000    144.4954
   932.5000     23.5707      0.0000    133.9378
   932.6000     23.5707      0.0000    133.9378
   932.7000     23.5707      0.0000    133.9378
   932.8000     21.8302      0.0000    121.3290
   932.9000     21.8302      0.0000    121.3290
   933.0000     20.3925      0.0000    110.0776
   933.1000     20.3925      0.0000    110.0776
   933.2000     20.3925      0.0000    110.0776
   933.3000     19.2890      0.0000    102.4221
   933.4000     19.2890      0.0000    102.4221
   933.5000     18.4239      0.0000     98.0369
   933.6000     18.4239      0.0000     98.0369
   933.7000     18.4239      0.0000     98.0369
   933.8000     17.7297      0.0000     94.9381
   933.9000     17.7297      0.0000     94.9381
   934.0000     17.2480      0.0000     91.9098
   934.1000     17.2480      0.0000     91.9098
   934.2000     17.2480      0.0000     91.9098
