~Version Information
VERS.                      2.0: CWLS Log ASCII Standard - VERSION 2.0
WRAP.                       NO: One line per depth step
~Well Information Block
STRT.FT                 0.0000: 
STOP.FT              1390.5000: 
STEP.FT                 0.2500: 
NULL.                -999.2500: 
COMP.          Petrogulf Corporation: COMPANY
WELL.             Leier 17-42R: WELL
FLD.           Purgatorie River: FIELD
LOC.           2398' FNL & 1109' FEL: LOCATION
PROV.                 Colorado: PROVINCE
CNTY.               Las Animas: COUNTRY
SRVC.                Patterson: SERVICE COMPANY
DATE.          Thu Nov 10 14:34:29 2005: LOG DATE
UWI.                          : UNIQUE WELL ID
~Curve Information Block
DEPT.FT            0 000 00 00: Depth
CCL.                          : Casing Collar Locator
TT3.usec                      : CBL 3' Travel Time
AMP3.mV                       : CBL 3' Amplitude
GR.GAPI                       : Gamma Ray
~Parameter Information Block
~A  Depth       CCL         TT3         AMP3         GR     
# ...
   100.5000      0.0000    684.5781     11.7113     55.9937
   100.7500     -2.0000    684.9653     11.9199     52.5353
   101.0000      0.0000    668.3082     12.2411     50.6884
   101.2500      2.0000    647.7207     12.5086     51.4291
   101.5000      0.0000    620.8679     12.6773     54.3961
   101.7500      0.0000    575.9225     12.8130     58.3248
   102.0000      0.0000    517.7388     13.1190     62.3506
   102.2500      0.0000    468.5752     13.8047     66.7098
   102.5000      0.0000    435.1662     14.7875     71.9815
   102.7500      0.0000    406.8682     15.8357     77.8625
   103.0000      0.0000    385.2135     16.9701     82.9883
   103.2500      0.0000    380.4134     18.1721     85.9006
   103.5000      0.0000    384.4203     19.1098     86.0750
   103.7500      0.0000    381.8315     19.5698     84.1165
   104.0000      0.0000    374.1808     19.6741     81.1085
   104.2500      0.0000    367.6871     19.6286     77.7799
   104.5000      0.0000    360.1646     19.5516     74.2634
   104.7500      0.0000    350.3318     19.4752     70.4839
   105.0000      0.0000    341.9113     19.3909     66.5806
   105.2500      0.0000    337.4229     19.3058     62.9733
   105.5000      0.0000    335.8767     19.2481     60.2346
   105.7500      0.0000    335.5051     19.2129     58.8718
   106.0000      0.0000    335.4430     19.1702     58.9531
   106.2500      0.0000    335.4547     19.1261     59.7845
   106.5000      0.0000    335.5484     19.1022     60.1422
   106.7500      0.0000    335.9930     19.0877     59.1846
   107.0000      0.0000    337.6760     19.0473     57.2669
   107.2500      0.0000    342.3427     18.9295     55.6660
   107.5000      0.0000    351.1408     18.6961     55.3278
   107.7500      0.0000    362.0265     18.3844     55.8666
   108.0000      0.0000    370.7783     18.0822     55.8593
   108.2500      0.0000    375.3934     17.8372     54.2238
   108.5000      0.0000    377.0894     17.6358     51.2915
   108.7500      0.0000    377.6324     17.4228     48.3937
   109.0000      0.0000    377.8254     17.1572     46.5732
   109.2500      0.0000    377.8929     16.8742     46.0849
   109.5000      0.0000    378.0151     16.6136     46.9929
   109.7500      0.0000    378.2926     16.3489     49.5920
   110.0000      0.0000    378.6003     16.0678     54.0082
   110.2500      0.0000    378.8882     15.8076     59.7552
   110.5000      0.0000    379.8766     15.6025     65.9297
   110.7500      0.0000    384.1425     15.4898     71.7439
   111.0000      0.0000    397.1356     15.4797     76.7247
   111.2500      0.0000    424.9720     15.4966     80.3746
   111.5000      0.0000    468.7148     15.4611     81.8971
   111.7500      0.0000    521.6237     15.3771     80.6780
   112.0000      0.0000    571.0864     15.2754     77.0095
   112.2500      0.0000    604.4937     15.1773     71.9978
   112.5000      0.0000    616.9148     15.1292     66.8239
   112.7500      0.0000    609.7604     15.1773     62.3774
   113.0000      0.0000    585.8082     15.3049     59.3088
   113.2500      0.0000    553.3027     15.4446     57.9988
   113.5000      0.0000    526.3254     15.5424     58.5953
   113.7500      0.0000    513.6788     15.5792     61.2006
   114.0000      0.0000    515.6057     15.5665     65.8391
   114.2500      0.0000    530.6207     15.5550     72.2825
   114.5000      0.0000    554.3494     15.6010     79.9636
   114.7500      0.0000    573.4233     15.7011     87.8011
   115.0000      0.0000    572.2081     15.7894     94.2498
   115.2500      0.0000    547.8481     15.8177     98.1826
   115.5000      0.0000    509.3064     15.8149     99.8546
   115.7500      0.0000    465.6003     15.8251    100.5683
   116.0000      0.0000    425.4514     15.8277    101.3994
   116.2500      0.0000    397.8892     15.7867    102.5305
   116.5000      0.0000    384.8266     15.7278    103.6284
   116.7500      0.0000    380.7265     15.6914    104.4197
   117.0000      0.0000    379.8724     15.6560    104.8115
   117.2500      0.0000    379.6731     15.5745    104.6605
   117.5000      0.0000    379.5313     15.4513    103.6781
   117.7500      0.0000    379.4699     15.3184    101.7877
   118.0000      0.0000    379.4722     15.1761     99.4826
   118.2500      0.0000    379.3255     15.0082     97.6089
   118.5000      0.0000    378.8460     14.8250     96.8268
   118.7500      0.0000    378.1163     14.6634     97.3066
   119.0000      0.0000    377.3894     14.5455     98.6411
   119.2500      0.0000    376.8461     14.4473     99.8418
   119.5000      0.0000    376.6369     14.3321     99.7353
   119.7500      0.0000    377.4543     14.1999     97.8149
   120.0000      0.0000    381.5901     14.0855     94.7705
   120.2500      0.0000    392.2434     14.0172     92.0558
   120.5000      0.0000    407.1740     13.9898     90.9273
   120.7500      0.0000    414.7695     13.9910     91.7773
   121.0000      0.0000    407.1714     14.0134     94.0994
   121.2500      0.0000    392.3531     14.0276     96.9294
   121.5000      0.0000    381.9321     14.0124     99.4646
   121.7500      0.0000    378.0340     14.0017    101.4925
   122.0000      0.0000    377.3444     14.0339    103.3632
   122.2500      0.0000    377.5594     14.0910    105.5976
   122.5000      0.0000    377.9956     14.1323    108.4582
   122.7500      0.0000    378.4758     14.1593    111.7613
   123.0000      0.0000    378.9251     14.2314    114.7161
   123.2500      0.0000    379.2786     14.4100    115.7142
   123.5000      0.0000    379.4169     14.6812    112.8417
   123.7500      0.0000    379.3534     14.9585    105.5283
   124.0000      0.0000    379.2592     15.1685     95.7511
   124.2500      0.0000    379.1590     15.3064     86.8004
   124.5000      0.0000    378.7607     15.4268     80.5302
   124.7500      0.0000    377.2468     15.6039     76.3401
   125.0000      0.0000    373.0519     15.8572     72.7787
   125.2500      0.0000    365.1966     16.1228     69.2316
   125.5000      0.0000    355.8777     16.3362     65.8818
   125.7500      0.0000    349.8610     16.5078     62.9361
   126.0000      0.0000    350.4103     16.6620     60.5185
   126.2500      0.0000    356.9433     16.7550     58.9674
   126.5000      0.0000    365.0951     16.7213     58.6755
   126.7500      0.0000    368.7617     16.5674     59.5896
   127.0000      0.0000    364.7803     16.3764     61.1722
   127.2500      0.0000    355.8407     16.2277     63.0094
   127.5000      0.0000    347.4820     16.1367     65.1626
   127.7500      0.0000    342.9449     16.0718     67.6117
   128.0000      0.0000    342.6328     15.9970     69.6068
   128.2500      0.0000    347.3110     15.9000     70.0621
   128.5000      0.0000    359.2769     15.8072     68.6573
   128.7500      0.0000    380.4249     15.7481     66.4225
   129.0000      0.0000    409.3882     15.7010     65.2462
   129.2500      0.0000    439.3319     15.6306     66.7140
   129.5000      0.0000    461.2685     15.5596     71.0438
   129.7500      0.0000    471.9778     15.5388     76.8034
   130.0000      0.0000    474.4934     15.5661     81.7902
   130.2500      0.0000    470.7695     15.5981     84.5525
   130.5000      0.0000    458.3907     15.6250     85.1545
   130.7500      0.0000    437.6647     15.6853     84.3671
   131.0000      0.0000    420.7499     15.8236     82.4143
   131.2500      0.0000    422.6612     16.0568     78.9997
   131.5000      0.0000    441.3101     16.3582     74.3417
   131.7500      0.0000    460.6229     16.6702     69.5889
   132.0000      0.0000    470.9182     16.9399     66.2115
   132.2500      0.0000    474.0508     17.1399     65.1388
   132.5000      0.0000    474.6159     17.2661     66.1724
   132.7500      0.0000    474.6809     17.3306     67.9872
   133.0000      0.0000    474.0426     17.3531     68.8817
   133.2500      0.0000    471.6980     17.3565     67.7815
   133.5000      0.0000    467.4707     17.3542     64.6946
   133.7500      0.0000    461.4030     17.3306     60.3614
