~Version Information
VERS.                      2.0: CWLS Log ASCII Standard - VERSION 2.0
WRAP.                       NO: One line per depth step
~Well Information Block
STRT.FT                -7.0000: 
STOP.FT              1329.7500: 
STEP.FT                 0.2500: 
NULL.                -999.2500: 
COMP.          Pioneer Natural Resources: COMPANY
WELL.             Raptor 44-26: WELL
FLD.           Purgatorie River: FIELD
LOC.           180' FSL & 812' FEL--: LOCATION
PROV.                       CO: PROVINCE
CNTY.               Las Animas: COUNTRY
SRVC.          Patterson Wireline: SERVICE COMPANY
DATE.          Wed Mar 30 12:38:23 2005: LOG DATE
UWI.           05 071 08187 00: UNIQUE WELL ID
~Curve Information Block
DEPT.FT            0 000 00 00: Depth
CCL.                          : Casing Collar Locator
TT3.usec                      : CBL 3' Travel Time
AMP3.mV                       : CBL 3' Amplitude
GR.GAPI                       : Gamma Ray
~Parameter Information Block
MINATTN.db/ft           0.8000: Minimum Attenuation
~A  Depth       CCL         TT3         AMP3         GR     
# ...
  1299.5000      0.0000    312.4817     26.7844    111.3564
  1299.7500      0.0000    312.3077     26.4944    109.6653
  1300.0000      0.0000    312.3264     26.1868    109.2133
  1300.2500      0.0000    312.3742     25.9176    110.5224
  1300.5000      0.0000    312.4197     25.6375    112.9863
  1300.7500      0.0000    312.4667     25.2774    115.3548
  1301.0000      0.0000    312.5230     24.8377    117.1475
  1301.2500      0.0000    312.6026     24.3846    118.9465
  1301.5000      0.0000    312.7179     23.9737    121.1522
  1301.7500      0.0000    312.8687     23.5982    123.2853
  1302.0000      0.0000    313.0352     23.2170    124.7675
  1302.2500      0.0000    313.1835     22.8293    125.6642
  1302.5000      0.0000    313.2808     22.5074    126.3807
  1302.7500      0.0000    313.3138     22.3406    127.2125
  1303.0000      0.0000    313.2944     22.3501    128.5547
  1303.2500      0.0000    313.2448     22.4659    131.1275
  1303.5000      0.0000    313.1776     22.5939    135.1374
  1303.7500      0.0000    313.0873     22.7020    138.9778
  1304.0000      0.0000    312.9624     22.8387    139.5928
  1304.2500      0.0000    312.7999     23.0716    135.0198
  1304.5000      0.0000    312.6114     23.4116    126.5759
  1304.7500      0.0000    312.4171     23.7932    118.2222
  1305.0000      0.0000    312.2389     24.1237    113.7525
  1305.2500      0.0000    312.0933     24.3569    114.4188
  1305.5000      0.0000    311.9856     24.5284    118.8483
  1305.7500      0.0000    311.9104     24.7187    124.7792
  1306.0000      0.0000    311.8554     24.9807    130.4882
  1306.2500      0.0000    311.8062     25.3020    134.8912
  1306.5000      0.0000    311.7474     25.6332    137.3423
  1306.7500      0.0000    311.6679     25.9414    137.8414
  1307.0000      0.0000    311.5694     26.2405    136.9326
  1307.2500      0.0000    311.4707     26.5807    135.2119
  1307.5000      0.0000    311.4005     27.0029    133.2966
  1307.7500      0.0000    311.3817     27.4860    132.0706
  1308.0000      0.0000    311.4191     27.9317    132.1979
  1308.2500      0.0000    311.4989     28.2168    133.2792
  1308.5000      0.0000    311.5977     28.2721    134.1615
  1308.7500      0.0000    311.6927     28.1142    134.4913
  1309.0000      0.0000    311.7675     27.8149    135.3597
  1309.2500      0.0000    311.8166     27.4590    137.6004
  1309.5000      0.0000    311.8470     27.1183    139.8616
  1309.7500      0.0000    311.8746     26.8347    139.5163
  1310.0000      0.0000    311.9133     26.6083    135.5258
  1310.2500      0.0000    311.9671     26.4071    129.4265
  1310.5000      0.0000    312.0323     26.1996    123.4828
  1310.7500      0.0000    312.1033     25.9906    118.8461
  1311.0000      0.0000    312.1730     25.8317    115.5372
  1311.2500      0.0000    312.2306     25.7890    113.2621
  1311.5000      0.0000    312.2638     25.8888    111.9473
  1311.7500      0.0000    312.2650     26.0863    111.8027
  1312.0000      0.0000    312.2345     26.2830    112.8394
  1312.2500      0.0000    312.1820     26.3724    114.2506
  1312.5000      0.0000    312.1292     26.2941    114.6262
  1312.7500      0.0000    312.1017     26.0793    113.1679
  1313.0000      0.0000    312.1135     25.8538    110.5964
  1313.2500      0.0000    312.1570     25.7643    108.4520
  1313.5000      0.0000    312.2108     25.8665    107.5027
  1313.7500      0.0000    312.2547     26.0862    107.2829
  1314.0000      0.0000    312.2799     26.2934    107.2618
  1314.2500      0.0000    312.2910     26.4093    107.7873
  1314.5000      0.0000    312.3023     26.4426    109.5174
  1314.7500      0.0000    312.3285     26.4445    112.2518
  1315.0000      0.0000    312.3746     26.4437    114.5316
  1315.2500      0.0000    312.4299     26.4185    113.9870
  1315.5000      0.0000    312.4724     26.3236    107.9149
  1315.7500      0.0000    312.4825     26.1419     94.3032
  1316.0000      0.0000    312.4611     25.9052     73.5603
  1316.2500      0.0000    312.4350     25.6721     49.5718
  1316.5000      0.0000    312.4402     25.5026     28.0637
  1316.7500      0.0000    312.4906     25.4593     13.0597
  1317.0000      0.0000    312.5587     25.5948      4.9174
  1317.2500      0.0000    312.5874     25.9116      1.4809
  1317.5000      0.0000    312.5300     26.3475      0.3536
  1317.7500      0.0000    312.3838     26.8337      0.0659
  1318.0000      0.0000    312.1854     27.3645      0.0090
  1318.2500      0.0000    311.9745     27.9764      0.0000
  1318.5000      0.0000    311.7683     28.6618   -999.2500
  1318.7500      0.0000    311.5711     29.3467   -999.2500
  1319.0000      0.0000    311.3934     29.9630   -999.2500
  1319.2500      0.0000    311.2523     30.4914   -999.2500
  1319.5000      0.0000    311.1577     30.9121   -999.2500
  1319.7500      0.0000    311.0854     31.1680   -999.2500
  1320.0000      0.0000    310.9297     31.2252   -999.2500
  1320.2500      0.0000    310.2389     31.1238   -999.2500
  1320.5000      0.0000    307.5184     30.8758   -999.2500
  1320.7500      0.0000    299.1273     30.2387   -999.2500
  1321.0000      0.0000    278.9865     28.6132   -999.2500
  1321.2500      0.0000    241.3509     25.3431   -999.2500
  1321.5000      0.0000    186.5868     20.3591   -999.2500
  1321.7500      0.0000    124.5285     14.5609   -999.2500
  1322.0000      0.0000     69.7612      9.3667   -999.2500
  1322.2500      0.0000     32.1199      5.7649   -999.2500
  1322.5000      0.0000     11.9718      3.8262   -999.2500
  1322.7500      0.0000      3.5728      3.0150   -999.2500
  1323.0000      0.0000      0.8460      2.7510   -999.2500
  1323.2500      0.0000      0.1566      2.6841   -999.2500
  1323.5000      0.0000      0.0208      2.6709   -999.2500
  1323.7500      0.0000   -999.2500   -999.2500   -999.2500
  1324.0000      0.0000   -999.2500   -999.2500   -999.2500
  1324.2500      0.0000   -999.2500   -999.2500   -999.2500
  1324.5000      0.0000   -999.2500   -999.2500   -999.2500
  1324.7500      0.0000   -999.2500   -999.2500   -999.2500
  1325.0000      0.0000   -999.2500   -999.2500   -999.2500
  1325.2500      0.0000   -999.2500   -999.2500   -999.2500
  1325.5000      0.0000   -999.2500   -999.2500   -999.2500
  1325.7500      0.0000   -999.2500   -999.2500   -999.2500
  1326.0000      0.0000   -999.2500   -999.2500   -999.2500
  1326.2500      0.0000   -999.2500   -999.2500   -999.2500
  1326.5000      0.0000   -999.2500   -999.2500   -999.2500
  1326.7500      0.0000   -999.2500   -999.2500   -999.2500
  1327.0000      0.0000   -999.2500   -999.2500   -999.2500
  1327.2500      0.0000   -999.2500   -999.2500   -999.2500
  1327.5000      0.0000   -999.2500   -999.2500   -999.2500
  1327.7500      0.0000   -999.2500   -999.2500   -999.2500
  1328.0000      0.0000   -999.2500   -999.2500   -999.2500
  1328.2500      0.0000   -999.2500   -999.2500   -999.2500
  1328.5000      0.0000   -999.2500   -999.2500   -999.2500
  1328.7500      0.0000   -999.2500   -999.2500   -999.2500
  1329.0000      0.0000   -999.2500   -999.2500   -999.2500
  1329.2500   -999.2500   -999.2500   -999.2500   -999.2500
  1329.5000   -999.2500   -999.2500   -999.2500   -999.2500
  1329.7500   -999.2500   -999.2500   -999.2500   -999.2500
