~Version Information
VERS.                      2.0: CWLS Log ASCII Standard - VERSION 2.0
WRAP.                       NO: One line per depth step
~Well Information Block
STRT.FT                -4.0000: 
STOP.FT              2638.2500: 
STEP.FT                 0.2500: 
NULL.                -999.2500: 
COMP.          Petrogulf Corporation: COMPANY
WELL.            Montoya 6-14V: WELL
FLD.           Purgatorie River: FIELD
LOC.           318' FSL & 882' FWL--: LOCATION
PROV.                       CO: PROVINCE
CNTY.               Las Animas: COUNTRY
SRVC.                         : SERVICE COMPANY
DATE.          Mon May 02 08:32:04 2005: LOG DATE
UWI.      005 071 08020: UNIQUE WELL ID
~Curve Information Block
DEPT.FT            0 000 00 00: Depth
AMP3.mV                       : CBL 3' Amplitude
CCL.                          : Casing Collar Locator
GR.GAPI                       : Gamma Ray
TT3.usec                      : CBL 3' Travel Time
~Parameter Information Block
~A  Depth       AMP3        CCL          GR         TT3     
# ...
   867.0000     41.7789      0.0000    138.3354    252.7510
   867.2500     43.6242      0.0000    142.3925    252.5796
   867.5000     45.0323      0.0000    144.3668    252.4611
   867.7500     45.6860      0.0000    144.7664    252.4087
   868.0000     45.3677      0.0000    144.7083    252.4366
   868.2500     44.0512      0.0000    144.5422    252.5580
   868.5000     41.9156      0.0000    143.3713    252.7850
   868.7500     39.2617      0.0000    139.8057    253.1339
   869.0000     36.3961      0.0000    133.2735    253.6586
   869.2500     33.5635      0.0000    124.7676    254.5288
   869.5000     30.9311      0.0000    116.3648    256.1474
   869.7500     28.5816      0.0000    109.9331    259.1750
   870.0000     26.5152      0.0000    106.2815    264.2107
   870.2500     24.7016      0.0000    105.4131    271.1311
   870.5000     23.1668      0.0000    106.9203    278.6878
   870.7500     22.0320      0.0000    109.6865    284.9887
   871.0000     21.4667      0.0000    112.0252    288.4727
   871.2500     21.6109      0.0000    113.1608    288.3982
   871.5000     22.5273      0.0000    114.3027    284.7489
   871.7500     24.1878      0.0000    117.3813    278.2458
   872.0000     26.4806      0.0000    122.6610    270.4649
   872.2500     29.2362      0.0000    128.1032    263.3540
   872.5000     32.2568      0.0000    131.2616    258.2275
   872.7500     35.3202      0.0000    131.6595    255.2388
   873.0000     38.1563      0.0000    131.0625    253.7733
   873.2500     40.4328      0.0000    131.4272    253.1531
   873.5000     41.8327      0.0000    132.9167    253.0169
   873.7500     42.2013      0.0000    133.9409    253.3175
   874.0000     41.5703      0.0000    132.6713    254.1803
   874.2500     39.9755      0.0000    128.4441    255.8067
   874.5000     37.3705      0.0000    122.2483    258.5275
   874.7500     33.8503      0.0000    115.9748    263.0311
   875.0000     29.8232      0.0000    110.5933    270.6609
   875.2500     25.7981      0.0000    104.9966    283.7361
   875.5000     22.0917      0.0000     97.3810    305.7415
   875.7500     18.8235     -2.0000     87.9140    340.1576
   876.0000     16.0604      2.0000     79.1834    386.5526
   876.2500     13.8579      0.0000     73.6676    436.5430
   876.5000     12.2159      0.0000     71.5415    476.8268
   876.7500     11.0676      0.0000     71.3838    500.4584
   877.0000     10.3085      0.0000     72.3213    513.5942
   877.2500      9.8358      0.0000     74.7760    526.8484
   877.5000      9.5863      0.0000     79.3689    542.5369
   877.7500      9.5280      0.0000     85.8874    556.4141
   878.0000      9.6168      0.0000     93.5655    568.3479
   878.2500      9.7926      0.0000    101.6952    581.8343
   878.5000     10.0286      0.0000    109.5289    593.1895
   878.7500     10.3464      0.0000    116.0899    589.2160
   879.0000     10.7637      0.0000    120.7773    558.4969
   879.2500     11.2433      0.0000    124.1241    503.1429
   879.5000     11.7088      0.0000    127.5290    438.8966
   879.7500     12.1180      0.0000    132.0456    383.9315
   880.0000     12.5201      0.0000    137.5204    347.0881
   880.2500     13.0304      0.0000    142.9531    325.9277
   880.5000     13.7297      0.0000    147.5586    313.6970
   880.7500     14.5879      0.0000    151.2973    305.7949
   881.0000     15.4834      0.0000    154.5296    300.6173
   881.2500     16.2895      0.0000    157.4741    297.5854
   881.5000     16.9377      0.0000    159.9091    296.0289
   881.7500     17.4121      0.0000    161.1440    295.3006
   882.0000     17.7096      0.0000    160.5824    295.0091
   882.2500     17.8277      0.0000    158.7088    294.9767
   882.5000     17.7921      0.0000    156.9735    295.1005
   882.7500     17.6770      0.0000    155.8226    295.3036
   883.0000     17.5688      0.0000    153.2121    295.5401
   883.2500     17.4886      0.0000    146.2091    295.7946
   883.5000     17.3492      0.0000    134.3815    296.0618
   883.7500     17.0106      0.0000    121.0188    296.3291
   884.0000     16.4093      0.0000    110.6807    296.5731
   884.2500     15.6445      0.0000    105.7431    296.7704
   884.5000     14.9285      0.0000    105.1666    296.9113
   884.7500     14.4400      0.0000    105.9126    296.9993
   885.0000     14.2214      0.0000    105.5339    297.0397
   885.2500     14.1928      0.0000    104.2220    297.0349
   885.5000     14.2292      0.0000    104.5862    296.9978
   885.7500     14.2221      0.0000    108.9641    296.9666
   886.0000     14.1110      0.0000    116.8578    296.9954
   886.2500     13.8981      0.0000    125.0913    297.1229
   886.5000     13.6373      0.0000    130.1713    297.3446
   886.7500     13.3948      0.0000    130.6061    297.6169
   887.0000     13.2072      0.0000    127.6750    297.8913
   887.2500     13.0685      0.0000    124.2278    298.1461
   887.5000     12.9528      0.0000    122.4104    298.3814
   887.7500     12.8507      0.0000    122.3743    298.6102
   888.0000     12.7800      0.0000    123.0648    298.8818
   888.2500     12.7585      0.0000    123.7212    299.5534
   888.5000     12.7705      0.0000    124.3460    301.7910
   888.7500     12.7653      0.0000    125.1051    307.9977
   889.0000     12.6980      0.0000    125.8609    320.8770
   889.2500     12.5709      0.0000    126.4068    340.0635
   889.5000     12.4411      0.0000    126.7765    358.8552
   889.7500     12.3807      0.0000    127.1126    366.8774
   890.0000     12.4225      0.0000    127.2759    358.9059
   890.2500     12.5396      0.0000    126.5595    340.0988
   890.5000     12.6744      0.0000    123.7485    320.7897
   890.7500     12.7843      0.0000    117.5527    307.6810
   891.0000     12.8629      0.0000    107.3915    301.1892
   891.2500     12.9304      0.0000     94.3217    298.7026
   891.5000     13.0047      0.0000     81.2966    297.9015
   891.7500     13.0788      0.0000     71.9895    297.6377
   892.0000     13.1276      0.0000     68.9571    297.5117
   892.2500     13.1458      0.0000     72.6472    297.4310
   892.5000     13.1704      0.0000     81.5634    297.3690
   892.7500     13.2542      0.0000     92.9443    297.3121
   893.0000     13.4130      0.0000    103.8498    297.2462
   893.2500     13.6042      0.0000    112.4553    297.1926
   893.5000     13.7565      0.0000    118.5278    297.2076
   893.7500     13.8217      0.0000    122.5499    297.3249
   894.0000     13.8052      0.0000    124.5190    297.5004
   894.2500     13.7551      0.0000    123.8758    297.6339
   894.5000     13.7263      0.0000    120.6234    297.6496
   894.7500     13.7519      0.0000    116.1365    297.5446
   895.0000     13.8342      0.0000    112.4206    297.3680
   895.2500     13.9498      0.0000    110.6707    297.1810
   895.5000     14.0601      0.0000    110.8998    297.0422
   895.7500     14.1263      0.0000    112.7588    297.0031
   896.0000     14.1204      0.0000    116.0281    297.0944
   896.2500     14.0259      0.0000    120.1024    297.3135
   896.5000     13.8378      0.0000    123.6054    297.6265
   896.7500     13.5753      0.0000    125.0951    297.9855
   897.0000     13.2909      0.0000    124.0562    298.3438
   897.2500     13.0667      0.0000    121.0461    298.6505
   897.5000     12.9959      0.0000    117.0639    298.8327
   897.7500     13.1386      0.0000    113.0304    298.8080
   898.0000     13.4571      0.0000    109.8120    298.5488
   898.2500     13.7985      0.0000    108.3221    298.1324
   898.5000     13.9876      0.0000    109.1557    297.7104
   898.7500     13.9572      0.0000    112.0514    297.4157
   899.0000     13.7783      0.0000    115.9553    297.2920
   899.2500     13.5692      0.0000    119.8730    297.2962
   899.5000     13.3979      0.0000    123.7597    297.3561
   899.7500     13.2701      0.0000    128.4496    297.4499
   900.0000     13.1772      0.0000    134.2929    297.6819
   900.2500     13.1268      0.0000    139.7334    298.5807
