~Version Information
VERS.                      2.0: CWLS Log ASCII Standard - VERSION 2.0
WRAP.                       NO: One line per depth step
~Well Information Block
STRT.FT               546.2500: 
STOP.FT              2496.7500: 
STEP.FT                 0.2500: 
NULL.                -999.2500: 
COMP.          Petrogulf Corporation: COMPANY
WELL.               Egan 9-11V: WELL
FLD.           Purgatorie River: FIELD
LOC.           724' FNL & 1379' FWL: LOCATION
PROV.                 Colorado: PROVINCE
CNTY.               Las Animas: COUNTRY
SRVC.          Patterson Wireline: SERVICE COMPANY
DATE.          Fri Jul 11 23:32:41 2003: LOG DATE
UWI.           05 071 07875 00: UNIQUE WELL ID
~Curve Information Block
DEPT.FT            0 000 00 00: Depth
SP.mV                         : DIL Spontaneous Potential
RILD.Ohm-m                    : DIL Deep Resistivity
RILM.Ohm-m                    : DIL Medium Resistivity
RLL3.Ohm-m                    : DIL Shallow Resistivity
GR.GAPI                       : Gamma Ray
~Parameter Information Block
~A  Depth        SP         RILD        RILM        RLL3         GR     
# ...
   966.2500   2000.0000     13.9994     14.5700   2000.0000    138.0113
   966.5000   2000.0000     13.7369     14.2919   2000.0000    132.5847
   966.7500   2000.0000     13.5003     14.0230   2000.0000    128.5711
   967.0000   2000.0000     13.2932     13.7691   2000.0000    123.2713
   967.2500   2000.0000     13.1176     13.5358   2000.0000    120.4519
   967.5000   2000.0000     12.9734     13.3283   2000.0000    116.8307
   967.7500   2000.0000     12.8592     13.1503   2000.0000    114.5742
   968.0000   2000.0000     12.7723     13.0046   2000.0000    111.7639
   968.2500   2000.0000     12.7097     12.8922   2000.0000    110.7051
   968.5000   2000.0000     12.6674     12.8125   2000.0000    110.5617
   968.7500   2000.0000     12.6401     12.7637   2000.0000    111.0854
   969.0000   2000.0000     12.6223     12.7429   2000.0000    111.7946
   969.2500   2000.0000     12.6101     12.7462   2000.0000    111.7311
   969.5000   2000.0000     12.6043     12.7696   2000.0000    110.7036
   969.7500   2000.0000     12.6104     12.8091   2000.0000    109.7684
   970.0000   2000.0000     12.6355     12.8612   2000.0000    108.7258
   970.2500   2000.0000     12.6847     12.9227   2000.0000    108.4404
   970.5000   2000.0000     12.7579     12.9916   2000.0000    108.7553
   970.7500   2000.0000     12.8506     13.0660   2000.0000    109.7716
   971.0000   2000.0000     12.9552     13.1443   2000.0000    113.3073
   971.2500   2000.0000     13.0622     13.2245   2000.0000    117.1614
   971.5000   2000.0000     13.1606     13.3038   2000.0000    124.4143
   971.7500   2000.0000     13.2383     13.3783   2000.0000    129.4293
   972.0000   2000.0000     13.2850     13.4425   2000.0000    136.2027
   972.2500   2000.0000     13.2959     13.4898   2000.0000    140.0025
   972.5000   2000.0000     13.2728     13.5126   2000.0000    144.3762
   972.7500   2000.0000     13.2210     13.5033   2000.0000    146.0749
   973.0000   2000.0000     13.1455     13.4550   2000.0000    146.2207
   973.2500   2000.0000     13.0472     13.3629   2000.0000    144.7340
   973.5000   2000.0000     12.9240     13.2247   2000.0000    141.0193
   973.7500   2000.0000     12.7735     13.0411   2000.0000    138.3792
   974.0000   2000.0000     12.5947     12.8163   2000.0000    135.5381
   974.2500   2000.0000     12.3884     12.5566   2000.0000    134.9860
   974.5000   2000.0000     12.1564     12.2704   2000.0000    136.7899
   974.7500   2000.0000     11.9009     11.9671   2000.0000    139.8126
   975.0000   2000.0000     11.6268     11.6560   2000.0000    146.4934
   975.2500   2000.0000     11.3431     11.3461   2000.0000    151.6669
   975.5000   2000.0000     11.0626     11.0455   2000.0000    159.0281
   975.7500   2000.0000     10.7986     10.7613   2000.0000    162.9164
   976.0000   2000.0000     10.5623     10.4995   2000.0000    166.3880
   976.2500   2000.0000     10.3610     10.2650   2000.0000    166.9819
   976.5000   2000.0000     10.1972     10.0614   2000.0000    165.7707
   976.7500   2000.0000     10.0697      9.8911   2000.0000    164.2112
   977.0000   2000.0000      9.9732      9.7550   2000.0000    161.8773
   977.2500   2000.0000      9.8998      9.6530   2000.0000    160.7189
   977.5000   2000.0000      9.8407      9.5835   2000.0000    159.8098
   977.7500   2000.0000      9.7893      9.5438   2000.0000    159.5718
   978.0000   2000.0000      9.7434      9.5303   2000.0000    158.6076
   978.2500   2000.0000      9.7044      9.5384   2000.0000    156.7621
   978.5000   2000.0000      9.6766      9.5636   2000.0000    152.2630
   978.7500   2000.0000      9.6644      9.6013   2000.0000    149.1499
   979.0000   2000.0000      9.6706      9.6478   2000.0000    146.0445
   979.2500   2000.0000      9.6963      9.7005   2000.0000    145.1940
   979.5000   2000.0000      9.7411      9.7585   2000.0000    145.2369
   979.7500   2000.0000      9.8048      9.8228   2000.0000    146.0344
   980.0000   2000.0000      9.8893      9.8967   2000.0000    148.5640
   980.2500   2000.0000      9.9990      9.9853   2000.0000    151.0071
   980.5000   2000.0000     10.1400     10.0956   2000.0000    154.7359
   980.7500   2000.0000     10.3195     10.2364   2000.0000    156.3976
   981.0000   2000.0000     10.5447     10.4180   2000.0000    156.7754
   981.2500   2000.0000     10.8250     10.6517   2000.0000    155.8398
   981.5000   2000.0000     11.1726     10.9503   2000.0000    153.9307
   981.7500   2000.0000     11.6000     11.3274   2000.0000    152.9763
   982.0000   2000.0000     12.1134     11.7983   2000.0000    152.0233
   982.2500   2000.0000     12.7064     12.3795   2000.0000    150.9258
   982.5000   2000.0000     13.3607     13.0892   2000.0000    146.5506
   982.7500   2000.0000     14.0585     13.9476   2000.0000    140.9391
   983.0000   2000.0000     14.8020     14.9774   2000.0000    128.4765
   983.2500   2000.0000     15.6244     16.2040   2000.0000    118.2370
   983.5000   2000.0000     16.5846     17.6565   2000.0000    101.9181
   983.7500   2000.0000     17.7502     19.3681   2000.0000     91.8026
   984.0000   2000.0000     19.1847     21.3782   2000.0000     80.4300
   984.2500   2000.0000     20.9410     23.7333   2000.0000     76.5027
   984.5000   2000.0000     23.0583     26.4890   2000.0000     76.0867
   984.7500   2000.0000     25.5528     29.7113   2000.0000     78.2420
   985.0000   2000.0000     28.4046     33.4768   2000.0000     82.0321
   985.2500   2000.0000     31.5502     37.8698   2000.0000     83.4201
   985.5000   2000.0000     34.8889     42.9751   2000.0000     82.6763
   985.7500   2000.0000     38.2939     48.8641   2000.0000     80.2849
   986.0000   2000.0000     41.6148     55.5729   2000.0000     73.9304
   986.2500   2000.0000     44.6845     63.0742   2000.0000     67.8232
   986.5000   2000.0000     47.3595     71.2479   2000.0000     56.4156
   986.7500   2000.0000     49.5932     79.8649   2000.0000     48.3141
   987.0000   2000.0000     51.4802     88.5923   2000.0000     37.8044
   987.2500   2000.0000     53.2291     97.0313   2000.0000     32.9319
   987.5000   2000.0000     55.0877    104.7704   2000.0000     28.9863
   987.7500   2000.0000     57.2619    111.4263   2000.0000     27.8513
   988.0000   2000.0000     59.8316    116.6487   2000.0000     26.8192
   988.2500   2000.0000     62.6531    120.0941   2000.0000     26.0701
   988.5000   2000.0000     65.2876    121.4053   2000.0000     24.9334
   988.7500   2000.0000     67.0534    120.2444   2000.0000     24.4652
   989.0000   2000.0000     67.2603    116.4099   2000.0000     24.4575
   989.2500   2000.0000     65.5450    109.9857   2000.0000     24.8352
   989.5000   2000.0000     62.0790    101.4356   2000.0000     25.7434
   989.7500   2000.0000     57.4870     91.5398   2000.0000     26.4949
   990.0000   2000.0000     52.5329     81.1926   2000.0000     27.7072
   990.2500   2000.0000     47.8157     71.1767   2000.0000     28.5442
   990.5000   2000.0000     43.6487     62.0270   2000.0000     30.4720
   990.7500   2000.0000     40.1072     54.0134   2000.0000     33.1755
   991.0000   2000.0000     37.1344     47.1976   2000.0000     41.4093
   991.2500   2000.0000     34.6280     41.5117   2000.0000     50.3653
   991.5000   2000.0000     32.4814     36.8251   2000.0000     68.3003
   991.7500   2000.0000     30.5952     32.9868   2000.0000     81.8422
   992.0000   2000.0000     28.8767     29.8506   2000.0000    101.5698
   992.2500   2000.0000     27.2420     27.2859   2000.0000    113.0340
   992.5000   2000.0000     25.6249     25.1805   2000.0000    126.6511
   992.7500   2000.0000     23.9917     23.4408   2000.0000    133.1568
   993.0000   2000.0000     22.3475     21.9895   2000.0000    139.2287
   993.2500   2000.0000     20.7242     20.7639   2000.0000    141.4209
   993.5000   2000.0000     19.1533     19.7133   2000.0000    143.8029
   993.7500   2000.0000     17.6420     18.7979   2000.0000    145.7531
   994.0000   2000.0000     16.1641     17.9871   2000.0000    149.3095
