~Version Information
VERS.                      2.0: CWLS Log ASCII Standard - VERSION 2.0
WRAP.                       NO: One line per depth step
~Well Information Block
STRT.FT               -14.5000: 
STOP.FT              2676.5000: 
STEP.FT                 0.1000: 
NULL.                -999.2500: 
COMP.          Petrogulf Corporation: COMPANY
WELL.          Latiluppe 8-13V: WELL
FLD.           Purgatorie River: FIELD
LOC.           1069' FWL & 1647' FSL: LOCATION
CNTY.               Las Animas: COUNTY
SRVC.                         : SERVICE COMPANY
DATE.          Tue Nov 18 16:12:50 2003: LOG DATE
UWI.                          : UNIQUE WELL ID
STAT.                 Colorado: STATE
~Curve Information Block
DEPT.FT            0 000 00 00: Depth
CCL.                          : Casing Collar Locator
TT3.usec                      : CBL 3' Travel Time
AMP3.mV                       : CBL 3' Amplitude
GR.GAPI                       : Gamma Ray
~Parameter Information Block
~A  Depth       CCL         TT3         AMP3         GR     
# ...
  1580.1000      0.0000    711.9396      1.9634     97.7500
  1580.2000      0.0000    711.9396      1.9634     97.7500
  1580.3000      0.0000    718.8211      2.0977     98.3585
  1580.4000      0.0000    718.8211      2.0977     98.3585
  1580.5000      0.0000    728.8116      2.2588    100.0212
  1580.6000      0.0000    728.8116      2.2588    100.0212
  1580.7000      0.0000    728.8116      2.2588    100.0212
  1580.8000      0.0000    738.9186      2.3770    103.8219
  1580.9000      0.0000    738.9186      2.3770    103.8219
  1581.0000      0.0000    744.7156      2.4259    110.4353
  1581.1000      0.0000    744.7156      2.4259    110.4353
  1581.2000      0.0000    744.7156      2.4259    110.4353
  1581.3000      0.0000    744.6284      2.4093    119.3419
  1581.4000      0.0000    744.6284      2.4093    119.3419
  1581.5000      0.0000    742.1228      2.3349    128.8515
  1581.6000      0.0000    742.1228      2.3349    128.8515
  1581.7000      0.0000    742.1228      2.3349    128.8515
  1581.8000      0.0000    742.3625      2.2191    136.5103
  1581.9000      0.0000    742.3625      2.2191    136.5103
  1582.0000      0.0000    747.2043      2.1136    139.8950
  1582.1000      0.0000    747.2043      2.1136    139.8950
  1582.2000      0.0000    747.2043      2.1136    139.8950
  1582.3000      0.0000    754.0754      2.0918    138.2326
  1582.4000      0.0000    754.0754      2.0918    138.2326
  1582.5000      0.0000    758.5480      2.1861    133.6828
  1582.6000      0.0000    758.5480      2.1861    133.6828
  1582.7000      0.0000    758.5480      2.1861    133.6828
  1582.8000      0.0000    757.0774      2.3429    130.1091
  1582.9000      0.0000    757.0774      2.3429    130.1091
  1583.0000      0.0000    748.5087      2.4543    129.9091
  1583.1000      0.0000    748.5087      2.4543    129.9091
  1583.2000      0.0000    748.5087      2.4543    129.9091
  1583.3000      0.0000    734.7153      2.4433    132.2638
  1583.4000      0.0000    734.7153      2.4433    132.2638
  1583.5000      0.0000    719.9021      2.3230    134.6277
  1583.6000      0.0000    719.9021      2.3230    134.6277
  1583.7000      0.0000    719.9021      2.3230    134.6277
  1583.8000      0.0000    708.2408      2.1776    135.5404
  1583.9000      0.0000    708.2408      2.1776    135.5404
  1584.0000      0.0000    701.5981      2.0848    135.7313
  1584.1000      0.0000    701.5981      2.0848    135.7313
  1584.2000      0.0000    701.5981      2.0848    135.7313
  1584.3000      0.0000    699.3304      2.0607    136.8571
  1584.4000      0.0000    699.3304      2.0607    136.8571
  1584.5000      0.0000    699.9028      2.0764    139.8170
  1584.6000      0.0000    699.9028      2.0764    139.8170
  1584.7000      0.0000    699.9028      2.0764    139.8170
  1584.8000      0.0000    702.3743      2.1062    144.2845
  1584.9000      0.0000    702.3743      2.1062    144.2845
  1585.0000      0.0000    706.5765      2.1476    149.1190
  1585.1000      0.0000    706.5765      2.1476    149.1190
  1585.2000      0.0000    706.5765      2.1476    149.1190
  1585.3000      0.0000    712.6425      2.2032    152.9211
  1585.4000      0.0000    712.6425      2.2032    152.9211
  1585.5000      0.0000    721.0456      2.2550    154.7755
  1585.6000      0.0000    721.0456      2.2550    154.7755
  1585.7000      0.0000    721.0456      2.2550    154.7755
  1585.8000      0.0000    732.7366      2.2633    154.7530
  1585.9000      0.0000    732.7366      2.2633    154.7530
  1586.0000      0.0000    747.8970      2.2064    153.3658
  1586.1000      0.0000    747.8970      2.2064    153.3658
  1586.2000      0.0000    747.8970      2.2064    153.3658
  1586.3000      0.0000    764.1321      2.1242    150.7087
  1586.4000      0.0000    764.1321      2.1242    150.7087
  1586.5000      0.0000    777.2280      2.1030    146.5641
  1586.6000      0.0000    777.2280      2.1030    146.5641
  1586.7000      0.0000    777.2280      2.1030    146.5641
  1586.8000      0.0000    784.7043      2.1971    141.1193
  1586.9000      0.0000    784.7043      2.1971    141.1193
  1587.0000      0.0000    787.7277      2.3656    135.2788
  1587.1000      0.0000    787.7277      2.3656    135.2788
  1587.2000      0.0000    787.7277      2.3656    135.2788
  1587.3000      0.0000    788.6555      2.5048    130.4643
  1587.4000      0.0000    788.6555      2.5048    130.4643
  1587.5000      0.0000    787.7094      2.5510    127.9206
  1587.6000      0.0000    787.7094      2.5510    127.9206
  1587.7000      0.0000    787.7094      2.5510    127.9206
  1587.8000      0.0000    783.4540      2.5441    127.3815
  1587.9000      0.0000    783.4540      2.5441    127.3815
  1588.0000      0.0000    775.7729      2.5765    126.2511
  1588.1000      0.0000    775.7729      2.5765    126.2511
  1588.2000      0.0000    775.7729      2.5765    126.2511
  1588.3000      0.0000    766.5383      2.6852    121.0710
  1588.4000      0.0000    766.5383      2.6852    121.0710
  1588.5000      0.0000    757.7010      2.8076    110.5854
  1588.6000      0.0000    757.7010      2.8076    110.5854
  1588.7000      0.0000    757.7010      2.8076    110.5854
  1588.8000      0.0000    750.4299      2.8401     97.1911
  1588.9000      0.0000    750.4299      2.8401     97.1911
  1589.0000      0.0000    745.8587      2.7321     85.1888
  1589.1000      0.0000    745.8587      2.7321     85.1888
  1589.2000      0.0000    745.8587      2.7321     85.1888
  1589.3000      0.0000    745.1487      2.5321     77.8526
  1589.4000      0.0000    745.1487      2.5321     77.8526
  1589.5000      0.0000    748.5912      2.3599     75.9739
  1589.6000      0.0000    748.5912      2.3599     75.9739
  1589.7000      0.0000    748.5912      2.3599     75.9739
  1589.8000      0.0000    755.3868      2.3175     78.2057
  1589.9000      0.0000    755.3868      2.3175     78.2057
  1590.0000      0.0000    764.3785      2.4015     82.1491
  1590.1000      0.0000    764.3785      2.4015     82.1491
  1590.2000      0.0000    764.3785      2.4015     82.1491
  1590.3000      0.0000    774.5001      2.5046     85.6300
  1590.4000      0.0000    774.5001      2.5046     85.6300
  1590.5000      0.0000    784.4268      2.5189     88.0055
  1590.6000      0.0000    784.4268      2.5189     88.0055
  1590.7000      0.0000    784.4268      2.5189     88.0055
  1590.8000      0.0000    792.3046      2.4418     90.7392
  1590.9000      0.0000    792.3046      2.4418     90.7392
  1591.0000      0.0000    796.3997      2.3769     96.2584
  1591.1000      0.0000    796.3997      2.3769     96.2584
  1591.2000      0.0000    796.3997      2.3769     96.2584
  1591.3000      0.0000    796.3870      2.4284    105.4372
  1591.4000      0.0000    796.3870      2.4284    105.4372
  1591.5000      0.0000    794.0065      2.5990    116.0958
  1591.6000      0.0000    794.0065      2.5990    116.0958
  1591.7000      0.0000    794.0065      2.5990    116.0958
  1591.8000      0.0000    792.0114      2.7919    124.5596
  1591.9000      0.0000    792.0114      2.7919    124.5596
  1592.0000      0.0000    791.9387      2.9020    128.8710
  1592.1000      0.0000    791.9387      2.9020    128.8710
  1592.2000      0.0000    791.9387      2.9020    128.8710
  1592.3000      0.0000    792.8538      2.8948    130.2585
  1592.4000      0.0000    792.8538      2.8948    130.2585
  1592.5000      0.0000    792.3777      2.8095    131.6186
  1592.6000      0.0000    792.3777      2.8095    131.6186
  1592.7000      0.0000    792.3777      2.8095    131.6186
  1592.8000      0.0000    788.9076      2.7111    135.0636
  1592.9000      0.0000    788.9076      2.7111    135.0636
  1593.0000      0.0000    782.9038      2.6392    140.7984
  1593.1000      0.0000    782.9038      2.6392    140.7984
  1593.2000      0.0000    782.9038      2.6392    140.7984
  1593.3000      0.0000    776.2255      2.5943    147.5946
  1593.4000      0.0000    776.2255      2.5943    147.5946
