~Version Information
VERS.                      2.0: CWLS Log ASCII Standard - VERSION 2.0
WRAP.                       NO: One line per depth step
~Well Information Block
STRT.FT               745.0000: 
STOP.FT              2945.7500: 
STEP.FT                 0.2500: 
NULL.                -999.2500: 
COMP.          Pioneer Natural Resources: COMPANY
WELL.          Old Yeller 31-32: WELL
FLD.           Purgatoire River: FIELD
LOC.           1832' FEL & 793' FNL--: LOCATION
STAT.                 Colorado: State
CNTY.               Las Animas: COUNTY
CTRY. USA : Country
SECT. 32 : Section
TOWN. 32S : Township
RANG. 67W : Range
SRVC.                Patterson: SERVICE COMPANY
DATE.          Sun Aug 28 20:20:00 2005: LOG DATE
API.           05 071 08356 00: UNIQUE WELL ID
~Curve Information Block
DEPT.FT            0 000 00 00: Depth
SN.Ohm-m                      : IEL Short Normal
SP.mV                         : IEL Spontaneous Potential
DIR.Ohm-m                     : IEL Induction Resistivity
GR.GAPI                       : Gamma Ray
~Parameter Information Block
~A  Depth        SN          SP         DIR          GR     
# ...
  2051.5000     25.9576    -62.6764     22.0954    128.1125
  2051.7500     25.4989    -62.0090     21.6285    129.5034
  2052.0000     24.9476    -61.2704     21.0412    131.8101
  2052.2500     24.3367    -60.5382     20.4046    133.5080
  2052.5000     23.7063    -59.8764     19.7925    135.9543
  2052.7500     23.0874    -59.3272     19.2629    136.8758
  2053.0000     22.4916    -58.9092     18.8470    135.8797
  2053.2500     21.9203    -58.6208     18.5495    133.2666
  2053.5000     21.3882    -58.4475     18.3602    126.9552
  2053.7500     20.9445    -58.3684     18.2695    122.0388
  2054.0000     20.6761    -58.3617     18.2785    115.5571
  2054.2500     20.6825    -58.4062     18.3998    112.8035
  2054.5000     21.0276    -58.4813     18.6478    111.4815
  2054.7500     21.6878    -58.5656     19.0253    111.7958
  2055.0000     22.5340    -58.6359     19.5118    111.9993
  2055.2500     23.3768    -58.6686     20.0601    111.1088
  2055.5000     24.0670    -58.6425     20.6050    108.4659
  2055.7500     24.5849    -58.5431     21.0855    106.6992
  2056.0000     25.0435    -58.3672     21.4703    105.4877
  2056.2500     25.5951    -58.1261     21.7728    105.9827
  2056.5000     26.3175    -57.8470     22.0431    108.2439
  2056.7500     27.1691    -57.5699     22.3428    110.0045
  2057.0000     28.0385    -57.3429     22.7164    111.3261
  2057.2500     28.8317    -57.2144     23.1742    110.5528
  2057.5000     29.5275    -57.2251     23.6944    106.5585
  2057.7500     30.1769    -57.4015     24.2428    102.2846
  2058.0000     30.8703    -57.7513     24.7992     94.2350
  2058.2500     31.6994    -58.2635     25.3732     88.3029
  2058.5000     32.7268    -58.9101     26.0004     79.5881
  2058.7500     33.9712    -59.6520     26.7252     74.3921
  2059.0000     35.4123    -60.4438     27.5833     67.7147
  2059.2500     36.9970    -61.2404     28.5908     63.8343
  2059.5000     38.6367    -62.0010     29.7346     58.7943
  2059.7500     40.2127    -62.6919     30.9617     56.2077
  2060.0000     41.6037    -63.2875     32.1737     53.9377
  2060.2500     42.7183    -63.7710     33.2448     53.4093
  2060.5000     43.5101    -64.1330     34.0601     53.2773
  2060.7500     43.9796    -64.3720     34.5569     53.0897
  2061.0000     44.1712    -64.4927     34.7399     52.4646
  2061.2500     44.1650    -64.5061     34.6710     52.3378
  2061.5000     44.0535    -64.4289     34.4423     53.9971
  2061.7500     43.9110    -64.2828     34.1452     56.8428
  2062.0000     43.7729    -64.0936     33.8449     63.2715
  2062.2500     43.6391    -63.8898     33.5693     68.0620
  2062.5000     43.4926    -63.7002     33.3144     74.1226
  2062.7500     43.3166    -63.5512     33.0613     76.6167
  2063.0000     43.1038    -63.4627     32.7981     77.6392
  2063.2500     42.8565    -63.4449     32.5369     76.8668
  2063.5000     42.5766    -63.4952     32.3142     74.9571
  2063.7500     42.2487    -63.5962     32.1697     74.1896
  2064.0000     41.8309    -63.7165     32.1128     75.0172
  2064.2500     41.2669    -63.8139     32.0942     77.0350
  2064.5000     40.5096    -63.8414     32.0042     81.5913
  2064.7500     39.5395    -63.7551     31.7065     84.9696
  2065.0000     38.3668    -63.5233     31.0994     89.5472
  2065.2500     37.0308    -63.1343     30.1703     92.1803
  2065.5000     35.6034    -62.6011     29.0040     96.3621
  2065.7500     34.1838    -61.9607     27.7438     99.9671
  2066.0000     32.8709    -61.2687     26.5379    106.8674
  2066.2500     31.7221    -60.5889     25.5001    111.8950
  2066.5000     30.7302    -59.9806     24.6904    118.4330
  2066.7500     29.8314    -59.4876     24.1122    121.2068
  2067.0000     28.9364    -59.1299     23.7202    121.8101
  2067.2500     27.9728    -58.9028     23.4354    119.4652
  2067.5000     26.9318    -58.7798     23.1706    112.2724
  2067.7500     25.8986    -58.7219     22.8618    106.2489
  2068.0000     25.0397    -58.6875     22.4934     98.6656
  2068.2500     24.5315    -58.6422     22.0997     96.2853
  2068.5000     24.4649    -58.5656     21.7381     97.7461
  2068.7500     24.7854    -58.4537     21.4526    101.4708
  2069.0000     25.3135    -58.3166     21.2519    109.0663
  2069.2500     25.8283    -58.1736     21.1100    114.1270
  2069.5000     26.1585    -58.0459     20.9840    119.7524
  2069.7500     26.2257    -57.9491     20.8351    121.4268
  2070.0000     26.0316    -57.8883     20.6423    120.4798
  2070.2500     25.6193    -57.8550     20.4032    117.9381
  2070.5000     25.0422    -57.8285     20.1241    112.7186
  2070.7500     24.3493    -57.7787     19.8089    109.3703
  2071.0000     23.5847    -57.6720     19.4525    106.2097
  2071.2500     22.7913    -57.4776     19.0427    105.8527
  2071.5000     22.0112    -57.1727     18.5672    107.6774
  2071.7500     21.2795    -56.7469     18.0175    109.9845
  2072.0000     20.6125    -56.2045     17.3901    114.8612
  2072.2500     19.9980    -55.5642     16.6855    119.4730
  2072.5000     19.3986    -54.8568     15.9146    128.9975
  2072.7500     18.7688    -54.1210     15.1053    136.5007
  2073.0000     18.0771    -53.3982     14.3017    146.6653
  2073.2500     17.3187    -52.7264     13.5528    150.9845
  2073.5000     16.5175    -52.1358     12.8991    153.0354
  2073.7500     15.7166    -51.6449     12.3667    152.5649
  2074.0000     14.9568    -51.2596     11.9680    151.7499
  2074.2500     14.2544    -50.9744     11.7039    151.9328
  2074.5000     13.5915    -50.7754     11.5644    152.7650
  2074.7500     12.9321    -50.6446     11.5292    152.7260
  2075.0000     12.2569    -50.5647     11.5708    150.2841
  2075.2500     11.5974    -50.5229     11.6623    146.9157
  2075.5000     11.0491    -50.5129     11.7859    140.7406
  2075.7500     10.7535    -50.5366     11.9384    137.3871
  2076.0000     10.8530    -50.6021     12.1288    135.3913
  2076.2500     11.4323    -50.7222     12.3705    136.0090
  2076.5000     12.4655    -50.9107     12.6711    138.1294
  2076.7500     13.7993    -51.1782     13.0237    139.2474
  2077.0000     15.1944    -51.5287     13.4042    139.3783
  2077.2500     16.4134    -51.9566     13.7755    138.1424
  2077.5000     17.3064    -52.4456     14.1007    134.1348
  2077.7500     17.8460    -52.9697     14.3574    130.1837
  2078.0000     18.1067    -53.4956     14.5462    123.2061
  2078.2500     18.2109    -53.9873     14.6847    118.6783
  2078.5000     18.2698    -54.4101     14.7941    113.6320
  2078.7500     18.3381    -54.7341     14.8819    112.1000
  2079.0000     18.3965    -54.9363     14.9310    112.8575
  2079.2500     18.3679    -55.0013     14.8992    115.1061
  2079.5000     18.1589    -54.9212     14.7350    120.0545
  2079.7500     17.7010    -54.6947     14.4064    123.6212
  2080.0000     16.9753    -54.3282     13.9220    128.1421
  2080.2500     16.0196    -53.8359     13.3305    130.3335
  2080.5000     14.9156    -53.2408     12.6984    133.0296
  2080.7500     13.7598    -52.5738     12.0854    135.0089
  2081.0000     12.6309    -51.8709     11.5313    138.2725
  2081.2500     11.5773    -51.1694     11.0542    140.0331
  2081.5000     10.6334    -50.5022     10.6559    141.1682
  2081.7500      9.8456    -49.8930     10.3284    140.9536
  2082.0000      9.2780    -49.3536     10.0596    139.8323
  2082.2500      8.9869    -48.8843      9.8381    139.0318
  2082.5000      8.9806    -48.4761      9.6566    138.6169
  2082.7500      9.1973    -48.1154      9.5126    139.1794
  2083.0000      9.5218    -47.7876      9.4073    140.9211
  2083.2500      9.8320    -47.4808      9.3422    141.9345
  2083.5000     10.0464    -47.1867      9.3151    141.8002
  2083.7500     10.1424    -46.9009      9.3169    140.2910
  2084.0000     10.1434    -46.6221      9.3323    136.8964
  2084.2500     10.0913    -46.3507      9.3433    135.0770
  2084.5000     10.0245    -46.0885      9.3366    134.5677
  2084.7500      9.9656    -45.8381      9.3095    135.6249
