~Version Information
 VERS.                                  2.0 : CWLS LAS VERSION
 WRAP.                                   NO : WRAPING MODE
 SWARE .                 MController 2.5.0I : SOFTWARE VERSION
~Well Information
 WELL.                       Montoya 12-41v : WELL
 COMP.                       Petrogulf Corp : COMPANY
 FLD.                      Purgatoire River : FIELD
 LOC.                NE/NE Sec 12 T33S R68W : LOCATION
 DATE.                              8/10/04 : DATE(S) LOGGED
 SRVC.       Blanco Geological Services LLc : SERVICE COMPANY
 STAT.                                   CO : STATE
 CNTY.                           Las Animas : COUNTY
 CTRY.                                  USA : COUNTRY
 API.                       05-071-08139-00 : API NUMBER
 STRT.FT                            698.00 : START DEPTH
 STOP.FT                            2660.00 : STOP DEPTH
 STEP.FT                               1.00 : DEPTH INCREMENT
 NULL.                                 9999 : NULL VALUE
~Curve information
 DEPTH.FT                                   :
 ROP.MIN/FT                                 :
 GAS.UNITS                                  :
~ASCII Log data
# ...
      2290.0          0.4          2.5 
      2291.0          0.4          8.2 
      2292.0          0.5         16.5 
      2293.0          0.4         16.3 
      2294.0          0.4         13.5 
      2295.0          0.4         10.1 
      2296.0          0.4          9.0 
      2297.0          0.4         10.1 
      2298.0          0.4         12.1 
      2299.0          0.4         12.8 
      2300.0          0.4         12.1 
      2301.0          0.4         12.0 
      2302.0          0.4         10.4 
      2303.0          0.5         12.1 
      2304.0          0.4         10.3 
      2305.0          0.5         10.2 
      2306.0          0.5          9.7 
      2307.0          0.5          9.9 
      2308.0          0.3         12.4 
      2309.0          0.2         12.6 
      2310.0          0.2         10.9 
      2312.0          0.3         10.2 
      2312.0          0.3         12.2 
      2313.0          0.4         10.3 
      2314.0          0.8         12.1 
      2315.0          5.0        137.9 
      2316.0          0.4         15.9 
      2317.0          0.4          4.3 
      2318.0          0.4          3.2 
      2319.0          0.4          2.7 
      2320.0          0.5          6.1 
      2321.0          0.4         12.8 
      2322.0          0.7         12.0 
      2323.0          0.5          7.9 
      2324.0          0.6          8.3 
      2325.0          0.5          9.1 
      2326.0          0.5         10.0 
      2327.0          0.5         12.7 
      2328.0          0.6         10.0 
      2329.0          0.6         13.1 
      2330.0          0.5         12.5 
      2331.0          0.5         10.0 
      2332.0          0.5         10.2 
      2333.0          0.5         10.2 
      2334.0          0.6         12.4 
      2335.0          0.6         10.2 
      2336.0          0.6         10.8 
      2337.0          0.5         12.6 
      2338.0          0.6         12.6 
      2339.0          0.6         10.4 
      2340.0          0.6          9.7 
      2341.0          0.5         10.6 
      2342.0          0.5         10.9 
      2343.0          0.5         10.0 
      2344.0          0.6         10.1 
      2345.0          7.4        152.0 
      2346.0          0.4          3.5 
      2347.0          0.3          3.2 
      2348.0          0.4          6.9 
      2349.0          0.3         12.2 
      2350.0          0.4         13.7 
      2351.0          0.4         13.6 
      2352.0          0.4          9.4 
      2353.0          0.4          9.2 
      2354.0          0.4          9.1 
      2355.0          0.3          9.4 
      2356.0          0.4          9.9 
      2357.0          0.4         12.6 
      2358.0          0.5         12.4 
      2359.0          0.5         12.3 
      2360.0          0.4         12.2 
      2361.0          0.4         12.1 
      2362.0          0.4         12.1 
      2363.0          0.5         10.5 
      2364.0          0.4         10.7 
      2365.0          0.5         10.2 
      2366.0          0.4         10.0 
      2367.0          0.4          9.7 
      2368.0          0.6         10.0 
      2369.0          0.5         10.0 
      2370.0          0.7         10.5 
      2371.0          0.3          8.9 
      2372.0          0.2          9.5 
      2373.0          0.2          9.1 
      2374.0          0.2          9.4 
      2375.0          6.3        154.9 
      2376.0          0.2         35.4 
      2377.0          0.2         14.9 
      2378.0          0.3          6.6 
      2379.0          0.3          4.7 
      2380.0          0.2          3.7 
      2381.0          0.3          3.9 
      2382.0          0.4          4.8 
      2383.0          0.3          6.4 
      2384.0          0.2          9.3 
      2385.0          0.2         13.2 
      2386.0          0.3         18.5 
      2387.0          0.4         18.9 
      2388.0          0.4         12.9 
      2389.0          0.4         12.3 
      2390.0          0.3         12.5 
      2391.0          0.2         10.5 
      2392.0          0.2         10.1 
      2393.0          0.3         10.9 
      2394.0          0.3         14.7 
      2395.0          0.4         15.1 
      2396.0          0.4         14.7 
      2397.0          0.3         12.4 
      2398.0          0.3         12.1 
      2399.0          0.4         15.0 
      2400.0          0.4         15.0 
      2401.0          0.4         16.9 
      2402.0          0.4         12.8 
      2403.0          0.3         12.3 
      2404.0          0.3         12.3 
      2405.0          6.9        159.2 
      2406.0          0.6          4.6 
      2407.0          0.5          3.8 
      2408.0          0.4          8.2 
      2409.0          0.5         14.4 
      2410.0          0.4         15.3 
      2412.0          0.5         14.8 
      2412.0          0.6         13.0 
      2413.0          0.5         13.5 
      2414.0          0.5         13.3 
      2415.0          0.7         12.2 
      2416.0          0.6         12.9 
      2417.0          0.5         14.0 
      2418.0          0.5         14.0 
      2419.0          0.6         12.0 
      2420.0          0.6         12.2 
      2421.0          0.6         12.2 
      2422.0          0.5         10.4 
      2423.0          0.4         10.2 
      2424.0          0.6         12.4 
      2425.0          0.7         12.0 
      2426.0          0.3         10.7 
      2427.0          0.4         12.3 
      2428.0          0.5         12.1 
      2429.0          0.5         12.7 
      2430.0          0.5         12.6 
      2431.0          0.5         12.6 
      2432.0          0.5         12.6 
      2433.0          0.5         14.3 
      2434.0          0.3         13.8 
      2435.0          7.2        142.8 
      2436.0          0.4          4.6 
      2437.0          0.4          2.8 
      2438.0          0.4          2.2 
      2439.0          0.4          3.2 
      2440.0          0.4          7.5 
      2441.0          0.4         12.8 
      2442.0          0.4         14.5 
      2443.0          0.4         10.5 
      2444.0          0.5          9.3 
      2445.0          0.4         10.7 
      2446.0          0.4         10.5 
      2447.0          0.4         12.4 
      2448.0          0.4         12.1 
      2449.0          0.4         12.4 
      2450.0          0.5         12.1 
      2451.0          0.5         12.4 
      2452.0          0.5         12.6 
      2453.0          0.3         10.1 
      2454.0          0.4         10.9 
      2455.0          0.5         10.6 
      2456.0          0.4         10.9 
      2457.0          0.4         12.7 
      2458.0          0.4         12.4 
      2459.0          0.4          9.4 
      2460.0          0.5          9.9 
      2461.0          0.5         12.2 
      2462.0          0.4         12.9 
      2463.0          0.2         10.0 
      2464.0          0.2         10.3 
      2465.0          6.4        153.4 
      2466.0          0.1         38.1 
      2467.0          0.3         21.7 
      2468.0          0.4          6.3 
      2469.0          0.3          2.5 
      2470.0          0.4          1.9 
      2471.0          0.4          3.0 
      2472.0          0.3          3.7 
      2473.0          0.4          9.2 
      2474.0          0.4         16.7 
      2475.0          0.4         18.4 
      2476.0          0.5         17.9 
      2477.0          0.4         12.5 
      2478.0          0.3         12.4 
      2479.0          0.3         10.6 
      2480.0          0.4         12.2 
      2481.0          0.4         12.4 
      2482.0          0.4         13.8 
      2483.0          0.4         13.9 
      2484.0          0.4         13.8 
      2485.0          0.4         12.7 
      2486.0          0.4         12.3 
      2487.0          0.4         13.1 
      2488.0          0.4         13.1 
      2489.0          0.4         14.4 
