~Version Information
 VERS.                                  2.0 : CWLS LAS VERSION
 WRAP.                                   NO : WRAPING MODE
 SWARE .                 MController 2.5.0N : SOFTWARE VERSION
~Well Information
 WELL.                          Cluck 21-25 : WELL
 COMP.    PIONEER NATURAL RESOURCES USA INC : COMPANY
 FLD.                      PURGATOIRE RIVER : FIELD
 LOC.                  NE/NW Sec 25 32S 67W : LOCATION
 DATE.                           6/5-6/2005 : DATE(S) LOGGED
 SRVC.       BLANCO GEOLOGICAL SERVICES LLC : SERVICE COMPANY
 STAT.                                   CO : STATE
 CNTY.                           LAS ANIMAS : COUNTY
 CTRY.                                  USA : COUNTRY
 API.                       05-071-08397-00 : API NUMBER
 STRT.FT                             296.00 : START DEPTH
 STOP.FT                            2730.00 : STOP DEPTH
 STEP.FT                               1.00 : DEPTH INCREMENT
 NULL.                                -9999 : NULL VALUE
~Curve information
 DEPTH.FT                                   :
 ROP.MIN/FT                                 :
 GAS.UNITS                                  :
~ASCII Log data
       296.0     -9999.00          2.7 
       297.0         9.87          3.6 
       298.0         0.20          2.7 
       299.0         0.10          3.2 
       300.0         0.30          3.1 
       301.0         0.10          3.1 
       302.0         0.43          2.8 
       303.0        20.63          4.1 
       304.0         0.47          3.1 
       305.0         0.10          3.4 
       306.0         0.33          3.4 
       307.0         1.07          3.4 
       308.0         3.05          3.8 
       309.0         0.10          3.0 
       310.0         0.07          3.0 
       311.0         0.53          3.4 
       312.0        12.87          3.9 
       313.0         6.83          4.8 
       314.0         0.53          4.2 
       315.0         0.27          3.6 
       316.0         0.35          3.5 
       317.0         0.67          3.2 
       318.0         2.33          4.3 
       319.0         1.38          4.3 
       320.0         0.20          4.0 
       321.0         0.17          3.6 
       322.0         0.37          4.1 
       323.0         1.45          4.0 
       324.0         0.43          3.8 
       325.0         0.60          4.6 
       326.0         0.37          3.8 
       327.0         0.13          3.4 
       328.0         0.80          4.4 
       329.0         0.30          3.9 
       330.0         1.12          4.8 
       331.0         0.43          4.3 
       332.0         0.30          4.7 
       333.0         0.87          4.5 
       334.0         5.83          4.7 
       335.0         0.63          4.0 
       336.0         1.27          4.3 
       337.0         0.42          4.0 
       338.0         0.17          4.0 
       339.0         0.13          3.6 
       340.0         4.65          4.7 
       341.0         3.55          5.0 
       342.0         0.10          4.3 
       343.0         0.63          4.6 
       344.0         0.23          4.1 
       345.0         0.07          4.1 
       346.0         0.23          5.5 
       347.0         0.95          4.8 
       348.0         0.40          3.6 
       349.0         0.73          5.2 
       350.0         0.23          4.7 
       351.0         0.27          4.5 
       352.0         1.32          4.7 
       353.0         1.13          4.9 
       354.0         0.27          4.0 
       355.0         1.13          4.5 
       356.0         0.27          4.1 
       357.0         0.35          4.6 
       358.0         0.77          4.7 
       359.0         0.43          3.6 
       360.0         0.73          4.3 
       361.0         0.13          4.3 
       362.0         0.13          4.9 
       363.0         0.43          4.3 
       364.0         0.10          4.3 
       365.0         0.33          4.6 
       366.0         0.32          4.7 
       367.0         0.13          4.5 
       368.0        13.83          5.3 
       369.0        12.35          5.7 
       370.0         0.10          2.0 
       371.0         0.10          1.7 
       372.0         0.12          1.7 
       373.0         0.10          1.7 
       374.0         0.10          0.9 
       375.0         0.13          1.1 
       376.0         0.10          0.5 
       377.0         0.13          0.5 
       378.0         0.13          0.4 
       379.0         0.13          0.4 
       380.0         0.17          0.3 
       381.0         0.13          0.2 
       382.0         0.20          0.1 
       383.0         0.27          0.5 
       384.0         0.37          1.6 
       385.0         0.30          0.9 
       386.0         0.33          0.7 
       387.0         0.27          0.6 
       388.0         0.27          0.9 
       389.0         0.28          0.9 
       390.0         0.27          0.4 
       391.0         0.27          0.6 
       392.0         0.33          0.3 
       393.0         0.27          0.1 
       394.0         0.20          0.2 
       395.0         0.20          0.5 
       396.0         0.17          0.5 
       397.0         0.17          0.5 
       398.0         0.17          0.9 
       399.0         0.10          0.1 
       400.0         0.07          0.1 
       401.0         0.10          0.1 
       402.0         0.13          0.1 
       403.0         0.37          0.5 
       404.0         0.30          0.8 
       405.0         0.32          1.2 
       406.0         0.43          0.6 
       407.0         0.60          0.9 
       408.0         0.53          0.7 
       409.0         0.37          0.7 
       410.0         0.27          0.7 
       411.0         0.33          1.1 
       412.0         0.60          0.8 
       413.0         6.47          2.0 
       414.0         0.28          2.3 
       415.0         0.33          2.3 
       416.0         0.30          1.9 
       417.0         0.57          2.1 
       418.0         0.70          2.5 
       419.0         1.00          2.0 
       420.0         0.82          1.5 
       421.0         0.50          1.7 
       422.0         0.47          2.0 
       423.0         0.47          0.5 
       424.0         0.37          0.9 
       425.0         0.30          1.2 
       426.0         0.30          0.8 
       427.0         0.33          1.1 
       428.0         0.18          1.2 
       429.0         0.10          1.2 
       430.0         0.20          0.8 
       431.0         1.00          1.2 
       432.0         0.90          0.9 
       433.0         0.40          1.4 
       434.0         0.57          2.3 
       435.0         0.45          2.1 
       436.0         0.40          1.9 
       437.0         0.30          1.4 
       438.0         0.37          1.9 
       439.0         0.33          1.2 
       440.0         0.33          1.0 
       441.0         0.37          1.9 
       442.0         0.33          1.6 
       443.0         0.30          1.1 
       444.0         0.30          0.8 
       445.0         0.35          0.8 
       446.0         0.43          1.3 
       447.0         0.37          2.0 
       448.0         0.37          1.4 
       449.0         0.43          1.4 
       450.0         7.03          2.7 
       451.0         0.53          1.4 
       452.0         0.43          1.4 
       453.0         0.52          2.0 
       454.0         0.43          1.4 
       455.0         0.40          2.8 
       456.0         0.37          2.3 
       457.0         0.47          1.9 
       458.0         0.50          1.6 
       459.0         0.43          1.4 
       460.0         0.48          2.3 
       461.0         0.67          1.9 
       462.0         0.70          1.7 
       463.0         0.60          2.4 
       464.0         0.50          1.2 
       465.0         0.50          1.3 
       466.0         0.58          1.3 
       467.0         0.53          2.2 
       468.0         0.57          1.9 
       469.0         0.60          1.6 
       470.0         0.57          1.5 
       471.0         0.47          1.4 
       472.0         0.52          1.2 
       473.0         0.47          2.1 
       474.0         0.43          1.1 
       475.0         0.47          1.7 
       476.0         0.43          2.1 
       477.0         0.43          1.5 
       478.0         0.43          3.2 
       479.0         0.52          1.9 
       480.0         6.80          3.4 
       481.0         0.07          1.2 
       482.0         0.13          1.1 
       483.0         0.37          2.6 
       484.0         0.50          2.3 
       485.0         0.47          2.0 
       486.0         0.40          2.0 
       487.0         0.52          2.3 
       488.0         0.53          2.3 
       489.0         0.47          2.3 
       490.0         0.37          2.2 
       491.0         0.48          3.4 
       492.0         0.53          2.5 
       493.0         0.57          2.3 
       494.0         0.53          2.0 
       495.0         0.67          1.7 
