~Version Information
VERS.                      2.0: CWLS Log ASCII Standard - VERSION 2.0
WRAP.                       NO: One line per depth step
~Well Information Block
STRT.FT               491.0000: 
STOP.FT              1056.0000: 
STEP.FT                 0.2500: 
NULL.                -999.2500: 
COMP.          Evergreen Operating Corporation: COMPANY
WELL.              Sunset 24-3: WELL
FLD.           Purgatorie River: FIELD
LOC.           467' FSL & 2262' FWL: LOCATION
PROV.                 Colorado: PROVINCE
CNTY.               Las Animas: COUNTRY
SRVC.                         : SERVICE COMPANY
DATE.          Wed Sep 22 11:23:45 2004: LOG DATE
UWI.           05 071 08158 00: UNIQUE WELL ID
~Curve Information Block
DEPT.FT            0 000 00 00: Depth
SN.Ohm-m                      : IEL Short Normal
SP.mV                         : IEL Spontaneous Potential
DIR.Ohm-m                     : IEL Induction Resistivity
GR.GAPI                       : Gamma Ray
~Parameter Information Block
~A  Depth        SN          SP         DIR          GR     
# ...
   658.5000     -0.5223   -213.8806      1.2089    102.1935
   658.7500     -0.4363   -208.6510      2.3786    101.5631
   659.0000     -0.5256   -204.0778      6.0449     97.9717
   659.2500     -0.7234   -199.5956     27.1605     94.4203
   659.5000     -0.9259   -194.5571     60.2846     87.5601
   659.7500     -1.0223   -188.3660     10.3369     81.6622
   660.0000     -0.9012   -180.6111      3.6156     70.9151
   660.2500     -0.4449   -171.1496      1.8698     63.4699
   660.5000      0.4537   -160.1329      1.2119     54.6600
   660.7500      1.8440   -147.9633      0.9210     51.7092
   661.0000      3.6708   -135.2013      0.7980     52.2854
   661.2500      5.7718   -122.4483      0.7808     55.4329
   661.5000      7.9303   -110.2439      0.8615     62.6125
   661.7500      9.9483    -98.9886      1.0760     68.0557
   662.0000     11.6953    -88.9164      1.5445     75.7652
   662.2500     13.1159    -80.1004      2.6779     79.9306
   662.5000     14.2119    -72.4946      6.7892     84.1970
   662.7500     15.0239    -65.9785 100000.0000     86.0258
   663.0000     15.6170    -60.4033 100000.0000     88.7516
   663.2500     16.0607    -55.6233 100000.0000     91.5271
   663.5000     16.4014    -51.5099 100000.0000     97.8839
   663.7500     16.6422    -47.9587 100000.0000    103.3036
   664.0000     16.7477    -44.8833 100000.0000    111.9717
   664.2500     16.6805    -42.2117 100000.0000    117.3102
   664.5000     16.4454    -39.8791 100000.0000    123.5537
   664.7500     16.1068    -37.8302 100000.0000    126.0920
   665.0000     15.7640    -36.0153     24.0687    126.9782
   665.2500     15.5045    -34.3927     13.7413    125.4888
   665.5000     15.3731    -32.9315     10.9030    120.3358
   665.7500     15.3729    -31.6072     10.0622    115.3981
   666.0000     15.4853    -30.4053     10.2610    106.9915
   666.2500     15.6908    -29.3169     11.3620    101.5754
   666.5000     15.9785    -28.3393     13.5832     94.9059
   666.7500     16.3457    -27.4714     17.4758     91.6926
   667.0000     16.7934    -26.7128     24.0145     88.4726
   667.2500     17.3235    -26.0624     34.4224     87.1720
   667.5000     17.9365    -25.5162     48.2442     86.4768
   667.7500     18.6296    -25.0673     58.4126     86.8310
   668.0000     19.3926    -24.7051     55.5344     87.7518
   668.2500     20.2051    -24.4160     44.2243     87.7826
   668.5000     21.0379    -24.1840     33.6837     86.2187
   668.7500     21.8594    -23.9923     26.5006     84.5717
   669.0000     22.6412    -23.8246     22.0485     82.8625
   669.2500     23.3614    -23.6657     19.3945     82.8971
   669.5000     24.0050    -23.5030     17.8935     84.5184
   669.7500     24.5637    -23.3265     17.1598     86.0164
   670.0000     25.0387    -23.1295     16.9763     87.8642
   670.2500     25.4414    -22.9087     17.2258     88.4871
   670.5000     25.7909    -22.6644     17.8409     88.2781
   670.7500     26.1058    -22.4002     18.7636     87.4850
   671.0000     26.3975    -22.1227     19.9139     85.8827
   671.2500     26.6663    -21.8399     21.1769     84.7350
   671.5000     26.9045    -21.5605     22.4167     82.3871
   671.7500     27.1024    -21.2919     23.5152     79.9344
   672.0000     27.2536    -21.0392     24.4129     75.0131
   672.2500     27.3570    -20.8041     25.1223     71.6004
   672.5000     27.4165    -20.5852     25.7054     67.6447
   672.7500     27.4411    -20.3789     26.2321     66.2243
   673.0000     27.4455    -20.1803     26.7444     66.0704
   673.2500     27.4493    -19.9855     27.2429     67.2547
   673.5000     27.4761    -19.7933     27.6981     70.8633
   673.7500     27.5489    -19.6056     28.0774     74.2369
   674.0000     27.6864    -19.4283     28.3709     79.7236
   674.2500     27.8973    -19.2705     28.5959     82.8793
   674.5000     28.1794    -19.1424     28.7825     85.7360
   674.7500     28.5226    -19.0538     28.9555     85.9821
   675.0000     28.9137    -19.0121     29.1308     83.6693
   675.2500     29.3401    -19.0213     29.3231     80.6708
   675.5000     29.7875    -19.0818     29.5490     75.3108
   675.7500     30.2364    -19.1907     29.8173     71.9345
   676.0000     30.6623    -19.3442     30.1168     67.7482
   676.2500     31.0407    -19.5381     30.4149     65.5815
   676.5000     31.3561    -19.7694     30.6761     63.4630
   676.7500     31.6064    -20.0364     30.8860     62.9802
   677.0000     31.8014    -20.3376     31.0621     63.5816
   677.2500     31.9576    -20.6707     31.2399     64.5523
   677.5000     32.0922    -21.0313     31.4460     66.1481
   677.7500     32.2209    -21.4122     31.6819     66.9781
   678.0000     32.3574    -21.8035     31.9301     67.6197
   678.2500     32.5124    -22.1938     32.1725     67.5747
   678.5000     32.6924    -22.5719     32.3996     66.4432
   678.7500     32.8974    -22.9282     32.6027     64.6616
   679.0000     33.1217    -23.2564     32.7683     60.3606
   679.2500     33.3576    -23.5539     32.8904     56.9060
   679.5000     33.5982    -23.8216     32.9899     52.2896
   679.7500     33.8395    -24.0639     33.1159     50.2343
   680.0000     34.0801    -24.2866     33.3203     48.8111
   680.2500     34.3199    -24.4961     33.6307     48.6425
   680.5000     34.5595    -24.6979     34.0414     48.9698
   680.7500     34.8006    -24.8950     34.5208     49.3153
   681.0000     35.0450    -25.0872     35.0231     49.6528
   681.2500     35.2943    -25.2709     35.5009     49.6840
   681.5000     35.5509    -25.4389     35.9248     49.6217
   681.7500     35.8179    -25.5820     36.3036     49.5641
   682.0000     36.0986    -25.6894     36.6832     49.2131
   682.2500     36.3945    -25.7509     37.1157     48.7376
   682.5000     36.7043    -25.7578     37.6255     48.2729
   682.7500     37.0254    -25.7041     38.2022     48.7899
   683.0000     37.3587    -25.5873     38.8226     51.4792
   683.2500     37.7118    -25.4085     39.4720     54.2361
   683.5000     38.0975    -25.1723     40.1448     58.2793
   683.7500     38.5280    -24.8872     40.8347     60.0206
   684.0000     39.0054    -24.5646     41.5381     60.6855
   684.2500     39.5161    -24.2185     42.2677     60.1629
   684.5000     40.0304    -23.8653     43.0488     58.8265
   684.7500     40.5085    -23.5227     43.8889     57.8413
   685.0000     40.9072    -23.2086     44.7375     56.0493
   685.2500     41.1863    -22.9402     45.4630     54.3956
   685.5000     41.3103    -22.7324     45.8534     51.1999
   685.7500     41.2475    -22.5972     45.6449     48.9609
   686.0000     40.9675    -22.5425     44.5991     46.2213
   686.2500     40.4381    -22.5715     42.6197     44.9369
   686.5000     39.6247    -22.6821     39.8296     43.4825
   686.7500     38.4926    -22.8671     36.5276     42.7171
   687.0000     37.0168    -23.1142     33.0538     42.3228
   687.2500     35.1946    -23.4066     29.6781     43.0064
   687.5000     33.0567    -23.7246     26.5678     45.8804
   687.7500     30.6700    -24.0476     23.8062     48.9866
   688.0000     28.1289    -24.3564     21.4188     55.1914
   688.2500     25.5411    -24.6355     19.3923     60.2740
   688.5000     23.0138    -24.8755     17.6867     69.1418
   688.7500     20.6442    -25.0735     16.2493     75.6694
   689.0000     18.5113    -25.2330     15.0278     86.0280
   689.2500     16.6692    -25.3628     13.9804     93.1650
   689.5000     15.1414    -25.4746     13.0781    103.6671
   689.7500     13.9196    -25.5798     12.3034    109.9338
   690.0000     12.9712    -25.6881     11.6452    117.3552
   690.2500     12.2508    -25.8049     11.0958    120.8945
   690.5000     11.7134    -25.9307     10.6477    124.3893
   690.7500     11.3235    -26.0621     10.2933    125.6632
   691.0000     11.0577    -26.1924     10.0248    126.2437
   691.2500     10.9010    -26.3133      9.8364    125.9317
   691.5000     10.8431    -26.4164      9.7253    124.6233
   691.7500     10.8735    -26.4941      9.6906    123.2740
