~Version Information
VERS.                      2.0: CWLS Log ASCII Standard - VERSION 2.0
WRAP.                       NO: One line per depth step
~Well Information Block
STRT.FT                 0.6000: 
STOP.FT              2735.2000: 
STEP.FT                 0.1000: 
NULL.                -999.2500: 
COMP.          Pioneer Natural Resources: COMPANY
WELL.              Cluck 21-25: WELL
FLD.           Purgatoire River: FIELD
LOC.           91' FNL & 1834' FWL--: LOCATION
PROV.                 Colorado: PROVINCE
CNTY.               Las Animas: COUNTRY
SRVC.                Patterson: SERVICE COMPANY
DATE.          Mon Jun 06 19:08:34 2005: LOG DATE
UWI.           05 071 08397 00: UNIQUE WELL ID
~Curve Information Block
DEPT.FT            0 000 00 00: Depth
SN.Ohm-m                      : IEL Short Normal
SP.mV                         : IEL Spontaneous Potential
DIR.Ohm-m                     : IEL Induction Resistivity
GR.GAPI                       : Gamma Ray
~Parameter Information Block
~A  Depth        SN          SP         DIR          GR     
# ...
  2546.6000     33.9648     -2.2739     25.9399     79.5648
  2546.7000     33.9648     -2.2739     25.9399     82.9395
  2546.8000     31.9807      3.6583     24.1665     86.0635
  2546.9000     31.9807      3.6583     24.1665     88.8912
  2547.0000     29.8990      9.1980     22.5031     91.3965
  2547.1000     29.8990      9.1980     22.5031     93.5689
  2547.2000     29.8990      9.1980     22.5031     95.4066
  2547.3000     27.9507     14.1362     21.0255     96.9192
  2547.4000     27.9507     14.1362     21.0255     98.1262
  2547.5000     26.3702     18.3192     19.8033     99.0579
  2547.6000     26.3702     18.3192     19.8033     99.7566
  2547.7000     26.3702     18.3192     19.8033    100.2706
  2547.8000     25.3036     21.6444     18.8866    100.6539
  2547.9000     25.3036     21.6444     18.8866    100.9593
  2548.0000     24.7752     24.0540     18.3024    101.2313
  2548.1000     24.7752     24.0540     18.3024    101.4978
  2548.2000     24.7752     24.0540     18.3024    101.7667
  2548.3000     24.7094     25.5296     18.0574    102.0232
  2548.4000     24.7094     25.5296     18.0574    102.2268
  2548.5000     24.9780     26.0892     18.1420    102.3157
  2548.6000     24.9780     26.0892     18.1420    102.2140
  2548.7000     24.9780     26.0892     18.1420    101.8409
  2548.8000     25.4483     25.7878     18.5313    101.1242
  2548.9000     25.4483     25.7878     18.5313    100.0087
  2549.0000     26.0303     24.7169     19.1852     98.4706
  2549.1000     26.0303     24.7169     19.1852     96.5220
  2549.2000     26.0303     24.7169     19.1852     94.2136
  2549.3000     26.7228     23.0032     20.0533     91.6338
  2549.4000     26.7228     23.0032     20.0533     88.9001
  2549.5000     27.6482     20.8018     21.0911     86.1560
  2549.6000     27.6482     20.8018     21.0911     83.5534
  2549.7000     27.6482     20.8018     21.0911     81.2456
  2549.8000     29.0422     18.2843     22.2805     79.3733
  2549.9000     29.0422     18.2843     22.2805     78.0565
  2550.0000     31.1608     15.6214     23.6421     77.3809
  2550.1000     31.1608     15.6214     23.6421     77.3945
  2550.2000     31.1608     15.6214     23.6421     78.1020
  2550.3000     34.1118     12.9650     25.2224     79.4632
  2550.4000     34.1118     12.9650     25.2224     81.4018
  2550.5000     37.7092     10.4329     27.0594     83.8064
  2550.6000     37.7092     10.4329     27.0594     86.5413
  2550.7000     37.7092     10.4329     27.0594     89.4595
  2550.8000     41.4828      8.1005     29.1344     92.4101
  2550.9000     41.4828      8.1005     29.1344     95.2513
  2551.0000     44.8757      6.0015     31.3312     97.8614
  2551.1000     44.8757      6.0015     31.3312    100.1456
  2551.2000     44.8757      6.0015     31.3312    102.0424
  2551.3000     47.4974      4.1366     33.4300    103.5238
  2551.4000     47.4974      4.1366     33.4300    104.5927
  2551.5000     49.2454      2.4881     35.1654    105.2768
  2551.6000     49.2454      2.4881     35.1654    105.6196
  2551.7000     49.2454      2.4881     35.1654    105.6701
  2551.8000     50.2319      1.0342     36.3328    105.4806
  2551.9000     50.2319      1.0342     36.3328    105.1004
  2552.0000     50.6188     -0.2386     36.8667    104.5811
  2552.1000     50.6188     -0.2386     36.8667    103.9784
  2552.2000     50.6188     -0.2386     36.8667    103.3558
  2552.3000     50.5033     -1.3300     36.8249    102.7837
  2552.4000     50.5033     -1.3300     36.8249    102.3379
  2552.5000     49.9022     -2.2250     36.3037    102.0880
  2552.6000     49.9022     -2.2250     36.3037    102.0881
  2552.7000     49.9022     -2.2250     36.3037    102.3676
  2552.8000     48.7871     -2.8993     35.3707    102.9240
  2552.9000     48.7871     -2.8993     35.3707    103.7211
  2553.0000     47.1185     -3.3275     34.0575    104.7003
  2553.1000     47.1185     -3.3275     34.0575    105.7798
  2553.2000     47.1185     -3.3275     34.0575    106.8793
  2553.3000     44.8759     -3.4942     32.3995    107.9234
  2553.4000     44.8759     -3.4942     32.3995    108.8544
  2553.5000     42.1018     -3.4047     30.4734    109.6399
  2553.6000     42.1018     -3.4047     30.4734    110.2724
  2553.7000     42.1018     -3.4047     30.4734    110.7712
  2553.8000     38.9406     -3.0946     28.3981    111.1813
  2553.9000     38.9406     -3.0946     28.3981    111.5634
  2554.0000     35.6253     -2.6339     26.3011    111.9871
  2554.1000     35.6253     -2.6339     26.3011    112.5236
  2554.2000     35.6253     -2.6339     26.3011    113.2304
  2554.3000     32.3883     -2.1232     24.2799    114.1400
  2554.4000     32.3883     -2.1232     24.2799    115.2504
  2554.5000     29.3524     -1.6772     22.3803    116.5151
  2554.6000     29.3524     -1.6772     22.3803    117.8400
  2554.7000     29.3524     -1.6772     22.3803    119.0911
  2554.8000     26.4967     -1.3943     20.5978    120.1040
  2554.9000     26.4967     -1.3943     20.5978    120.7075
  2555.0000     23.7286     -1.3183     18.9013    120.7458
  2555.1000     23.7286     -1.3183     18.9013    120.1055
  2555.2000     23.7286     -1.3183     18.9013    118.7327
  2555.3000     20.9962     -1.4010     17.2680    116.6464
  2555.4000     20.9962     -1.4010     17.2680    113.9446
  2555.5000     18.3485     -1.4807     15.7084    110.7914
  2555.6000     18.3485     -1.4807     15.7084    107.4051
  2555.7000     18.3485     -1.4807     15.7084    104.0335
  2555.8000     15.9104     -1.2895     14.2636    100.9330
  2555.9000     15.9104     -1.2895     14.2636     98.3409
  2556.0000     13.8139     -0.4952     12.9821     96.4614
  2556.1000     13.8139     -0.4952     12.9821     95.4396
  2556.2000     13.8139     -0.4952     12.9821     95.3583
  2556.3000     12.1420      1.2301     11.8957     96.2232
  2556.4000     12.1420      1.2301     11.8957     97.9659
  2556.5000     10.9124      4.1336     11.0105    100.4475
  2556.6000     10.9124      4.1336     11.0105    103.4735
  2556.7000     10.9124      4.1336     11.0105    106.8110
  2556.8000     10.0845      8.3193     10.3108    110.2091
  2556.9000     10.0845      8.3193     10.3108    113.4270
  2557.0000      9.5728     13.7217      9.7683    116.2537
  2557.1000      9.5728     13.7217      9.7683    118.5274
  2557.2000      9.5728     13.7217      9.7683    120.1511
  2557.3000      9.2669     20.1216      9.3519    121.0943
  2557.4000      9.2669     20.1216      9.3519    121.3947
  2557.5000      9.0570     27.1969      9.0346    121.1507
  2557.6000      9.0570     27.1969      9.0346    120.5040
  2557.7000      9.0570     27.1969      9.0346    119.6271
  2557.8000      8.8590     34.5887      8.7969    118.7001
  2557.9000      8.8590     34.5887      8.7969    117.8910
  2558.0000      8.6322     41.9609      8.6272    117.3424
  2558.1000      8.6322     41.9609      8.6272    117.1490
  2558.2000      8.6322     41.9609      8.6272    117.3523
  2558.3000      8.3833     49.0366      8.5189    117.9321
  2558.4000      8.3833     49.0366      8.5189    118.8085
  2558.5000      8.1569     55.6072      8.4677    119.8519
  2558.6000      8.1569     55.6072      8.4677    120.8977
  2558.7000      8.1569     55.6072      8.4677    121.7733
  2558.8000      8.0105     61.5207      8.4692    122.3142
  2558.9000      8.0105     61.5207      8.4692    122.3966
  2559.0000      7.9851     66.6622      8.5184    121.9504
  2559.1000      7.9851     66.6622      8.5184    120.9735
  2559.2000      7.9851     66.6622      8.5184    119.5308
  2559.3000      8.0891     70.9389      8.6099    117.7504
  2559.4000      8.0891     70.9389      8.6099    115.8057
  2559.5000      8.3054     74.2787      8.7383    113.8904
  2559.6000      8.3054     74.2787      8.7383    112.1985
  2559.7000      8.3054     74.2787      8.7383    110.8932
  2559.8000      8.6086     76.6411      8.8962    110.0892
  2559.9000      8.6086     76.6411      8.8962    109.8352
