~Version Information
VERS.                      2.0: CWLS Log ASCII Standard - VERSION 2.0
WRAP.                       NO: One line per depth step
~Well Information Block
STRT.FT                -8.2500: 
STOP.FT              1175.7500: 
STEP.FT                 0.2500: 
NULL.                -999.2500: 
COMP.          Evergreen Operating Corporation: COMPANY
WELL.             Justin 32-10: WELL
FLD.           Purgatorie River: FIELD
LOC.           2994' FNL & 1449' FEL: LOCATION
PROV.                 Colorado: PROVINCE
CNTY.               Las Animas: COUNTRY
SRVC.                         : SERVICE COMPANY
DATE.          Wed Sep 29 10:00:10 2004: LOG DATE
UWI.           05 071 08053 00: UNIQUE WELL ID
~Curve Information Block
DEPT.FT            0 000 00 00: Depth
GR.GAPI                       : Gamma Ray
CCL.                          : Casing Collar Locator
TT3.usec                      : CBL 3' Travel Time
AMP3.mV                       : CBL 3' Amplitude
~Parameter Information Block
~A  Depth        GR         CCL         TT3         AMP3    
# ...
   594.7500     61.6762      0.0000    674.5917      2.4576
   595.0000     64.0671      0.0000    677.4066      2.2902
   595.2500     67.4611      0.0000    683.2376      2.1386
   595.5000     70.2853      0.0000    693.1047      2.0014
   595.7500     71.3313      0.0000    707.1084      1.8708
   596.0000     70.4505      0.0000    722.8882      1.7612
   596.2500     68.2943      0.0000    735.6852      1.6975
   596.5000     65.8971     -0.9988    741.5082      1.6865
   596.7500     64.3984     -2.5909    739.9492      1.7191
   597.0000     64.4880      0.0000    733.1116      1.8016
   597.2500     65.9208      0.0000    723.1707      1.9716
   597.5000     67.8561      0.0000    711.9968      2.2697
   597.7500     69.7293      0.0000    701.6465      2.6786
   598.0000     71.7566      0.0000    693.8253      3.0921
   598.2500     74.7236      0.0000    689.0566      3.3691
   598.5000     79.2374      0.0000    686.7397      3.4404
   598.7500     84.9243      0.0000    685.8739      3.3525
   599.0000     90.2862      0.0000    685.6552      3.2075
   599.2500     93.5740      0.0000    685.6478      3.0815
   599.5000     94.0665      0.0000    685.6609      2.9983
   599.7500     92.6495      0.0000    685.5568      2.9510
   600.0000     91.1515      0.0000    684.9795      2.9270
   600.2500     90.8834      0.0000    682.8043      2.9205
   600.5000     91.5811      0.0000    676.3751      2.9324
   600.7500     91.7485      0.0000    661.4270      2.9617
   601.0000     90.0574      0.0000    634.4609      2.9956
   601.2500     86.3685      0.0000    597.4998      3.0108
   601.5000     81.6172      0.0000    560.8929      2.9917
   601.7500     77.0324      0.0000    539.2211      2.9469
   602.0000     73.4036      0.0000    542.0793      2.9029
   602.2500     70.7846      0.0000    567.6487      2.8823
   602.5000     68.7765      0.0000    604.3975      2.8909
   602.7500     67.2803      0.0000    638.9237      2.9233
   603.0000     67.0463      0.0000    663.5200      2.9758
   603.2500     69.3486      0.0000    678.3430      3.0499
   603.5000     75.0132      0.0000    688.3657      3.1494
   603.7500     83.8429      0.0000    698.8662      3.2754
   604.0000     94.9181      0.0000    712.0386      3.4234
   604.2500    107.1718      0.0000    725.3580      3.5812
   604.5000    119.6220      0.0000    732.5721      3.7306
   604.7500    131.2511      0.0000    728.3611      3.8570
   605.0000    140.8636      0.0000    714.1384      3.9590
   605.2500    147.2769      0.0000    698.5869      4.0451
   605.5000    149.8572      0.0000    689.6625      4.1232
   605.7500    148.8537      0.0000    685.2875      4.1947
   606.0000    145.0673      0.0000    674.7437      4.2576
   606.2500    139.2824      0.0000    650.9393      4.3094
   606.5000    132.2707      0.0000    619.4763      4.3434
   606.7500    125.2845      0.0000    594.2728      4.3469
   607.0000    119.9555      0.0000    586.3732      4.3112
   607.2500    117.3396      0.0000    598.0578      4.2459
   607.5000    117.3028      0.0000    623.8892      4.1796
   607.7500    119.1298      0.0000    653.1532      4.1420
   608.0000    122.4281      0.0000    673.0658      4.1429
   608.2500    127.0916      0.0000    675.2497      4.1669
   608.5000    132.6252      0.0000    662.5109      4.1903
   608.7500    138.0597      0.0000    648.5976      4.2040
   609.0000    142.6019      0.0000    649.0513      4.2189
   609.2500    145.9523      0.0000    670.8611      4.2509
   609.5000    147.8959      0.0000    709.4956      4.3072
   609.7500    148.0421      0.0000    753.4172      4.3831
   610.0000    146.3176      0.0000    790.4374      4.4654
   610.2500    143.6151      0.0000    812.4421      4.5361
   610.5000    141.7433      0.0000    818.0595      4.5797
   610.7500    142.4976      0.0000    812.2556      4.5931
   611.0000    146.4647      0.0000    802.5078      4.5857
   611.2500    152.4124      0.0000    794.2307      4.5692
   611.5000    157.7520      0.0000    788.9726      4.5487
   611.7500    160.1127      0.0000    785.6179      4.5263
   612.0000    159.1520      0.0000    782.5004      4.5117
   612.2500    156.8098      0.0000    778.9385      4.5194
   612.5000    155.2840      0.0000    776.0667      4.5559
   612.7500    154.7997      0.0000    776.6042      4.6117
   613.0000    153.7349      0.0000    782.9935      4.6676
   613.2500    150.8620      0.0000    794.7237      4.7086
   613.5000    147.0416      0.0000    807.3657      4.7310
   613.7500    144.5828      0.0000    814.8433      4.7400
   614.0000    145.1178      0.0000    813.2609      4.7429
   614.2500    148.1201      0.0000    803.3149      4.7459
   614.5000    151.1438      0.0000    789.9607      4.7521
   614.7500    151.3673      0.0000    779.5073      4.7615
   615.0000    147.4274      0.0000    775.0891      4.7703
   615.2500    140.3734      0.0000    773.9961      4.7723
   615.5000    133.2107      0.0000    769.9062      4.7601
   615.7500    129.4248      0.0000    757.8871      4.7247
   616.0000    131.1714      0.0000    737.3846      4.6586
   616.2500    138.0253      0.0000    711.9217      4.5588
   616.5000    147.3817      0.0000    687.9778      4.4287
   616.7500    156.1519      0.0000    673.4929      4.2789
   617.0000    162.0799      0.0000    674.1783      4.1274
   617.2500    164.2403      0.0000    689.1676      3.9913
   617.5000    163.4286      0.0000    710.6675      3.8741
   617.7500    161.8218      0.0000    729.1666      3.7650
   618.0000    161.1984      0.0000    739.9391      3.6531
   618.2500    161.5108      0.0000    744.9740      3.5412
   618.5000    161.6259      0.0000    749.3204      3.4427
   618.7500    160.8518      0.0000    756.4205      3.3677
   619.0000    159.1468      0.0000    766.4303      3.3137
   619.2500    156.5988      0.0000    777.6381      3.2665
   619.5000    153.6012      0.0000    788.2842      3.2049
   619.7500    151.0218      0.0000    796.9486      3.1088
   620.0000    149.2107      0.0000    801.9573      2.9730
   620.2500    146.9967      0.0000    801.6730      2.8151
   620.5000    142.4963      0.0000    796.3753      2.6667
   620.7500    134.9250      0.0000    789.6107      2.5526
   621.0000    125.1832      0.0000    786.2527      2.4776
   621.2500    114.8757      0.0000    788.1602      2.4303
   621.5000    105.3194      0.0000    791.8986      2.3956
   621.7500     97.4355      0.0000    791.1465      2.3660
   622.0000     92.0891      0.0000    781.5981      2.3441
   622.2500     90.2640      0.0000    764.6611      2.3355
   622.5000     92.7524      0.0000    747.5008      2.3425
   622.7500     99.4213      0.0000    738.4966      2.3653
   623.0000    108.6250      0.0000    740.5673      2.4074
   623.2500    117.5187      0.0000    748.5085      2.4769
   623.5000    123.3568      0.0000    753.2179      2.5820
   623.7500    125.0099      0.0000    747.9674      2.7218
   624.0000    123.8039      0.0000    730.7349      2.8821
   624.2500    122.8315      0.0000    703.8029      3.0408
   624.5000    124.5807      0.0000    674.4172      3.1826
   624.7500    128.6554      0.0000    654.5775      3.3119
   625.0000    132.0949      0.0000    655.9140      3.4536
   625.2500    132.2939      0.0000    681.7189      3.6368
   625.5000    129.6604      0.0000    722.9640      3.8655
   625.7500    127.3467      0.0000    762.5499      4.1007
   626.0000    128.3985      0.0000    785.3393      4.2809
   626.2500    133.1907      0.0000    787.0452      4.3728
   626.5000    139.4441      0.0000    776.2726      4.3984
   626.7500    144.3107      0.0000    768.5820      4.4071
   627.0000    146.2827      0.0000    775.4979      4.4285
   627.2500    145.5464      0.0000    795.7330      4.4565
   627.5000    143.1375      0.0000    816.8192      4.4662
   627.7500    140.1308      0.0000    826.7044      4.4352
   628.0000    137.5816      0.0000    823.5765      4.3520
