~Version Information
VERS.                      2.0: CWLS Log ASCII Standard - VERSION 2.0
WRAP.                       NO: One line per depth step
~Well Information Block
STRT.FT               840.0000: 
STOP.FT              2448.5000: 
STEP.FT                 0.2500: 
NULL.                -999.2500: 
COMP.          Petrogulf Corporation: COMPANY
WELL.             Leier 17-42V: WELL
FLD.           Purgatorie River: FIELD
LOC.           2309' FNL & 1062' FEL SENE 17 33S 67W: LOCATION
PROV.                 Colorado: PROVINCE
CNTY.               Las Animas: COUNTRY
SRVC.                Patterson: SERVICE COMPANY
DATE.          Thu Sep 22 09:40:29 2005: LOG DATE
UWI.                 071 08409: UNIQUE WELL ID
~Curve Information Block
DEPT.FT            0 000 00 00: Depth
SP.mV                         : DIL Spontaneous Potential
RILD.Ohm-m                    : DIL Deep Resistivity
RILM.Ohm-m                    : DIL Medium Resistivity
RLL3.Ohm-m                    : DIL Shallow Resistivity
GR.GAPI                       : Gamma Ray
~Parameter Information Block
~A  Depth        SP         RILD        RILM        RLL3         GR     
# ...
  1680.0000    204.2606      9.1249      9.9490     11.0394    127.7321
  1680.2500    203.8770      8.6988      9.4920     12.0371    132.4692
  1680.5000    203.6893      8.4267      8.9551     11.8451    148.4069
  1680.7500    203.6223      8.1716      8.4135     10.8058    143.7343
  1681.0000    203.6318      7.9064      7.8808      9.6271    138.2450
  1681.2500    203.6589      7.7671      7.4746      8.7099    133.8258
  1681.5000    203.7508      7.8173      7.2066      8.1573    155.3635
  1681.7500    203.8564      7.8731      7.1343      7.9058    136.4859
  1682.0000    204.0255      7.9308      7.1241      8.1484    154.9259
  1682.2500    204.4264      8.0448      7.2751      8.1610    168.5570
  1682.5000    205.0928      8.0092      7.5522      7.8101    145.4752
  1682.7500    206.2038      7.9645      7.9048      8.8443    135.7280
  1683.0000    207.6918      7.9850      8.3084     11.7315    143.9279
  1683.2500    209.1683      7.9124      8.6620     14.7320    138.0231
  1683.5000    210.4351      8.0649      8.9192     14.9606    123.2139
  1683.7500    211.2726      8.0711      8.9814     14.7661     99.9869
  1684.0000    211.9326      8.3080      8.8485     14.4645     94.3558
  1684.2500    212.3576      8.4916      8.7345     13.6293    105.3545
  1684.5000    212.7586      8.8296      8.6329     12.2481    117.4359
  1684.7500    213.1718      9.2057      8.7338     10.9769    119.0846
  1685.0000    213.7151      9.6889      8.9397     10.2394    105.8745
  1685.2500    214.2443     10.1945      9.2698     10.0337    118.9210
  1685.5000    214.8421     10.4477      9.6466     10.2986    134.8306
  1685.7500    215.4037     10.7163     10.2525     11.1358    150.2281
  1686.0000    215.8501     10.9338     11.0504     12.2957    138.9904
  1686.2500    216.0211     10.8732     11.7665     14.1353    128.7235
  1686.5000    215.8972     11.0057     12.7097     17.6288    110.4674
  1686.7500    215.6614     11.0618     13.4841     22.1454    121.0832
  1687.0000    215.4650     10.9820     14.2635     23.5196    111.8047
  1687.2500    215.1823     11.0377     14.7237     23.8510    101.3713
  1687.5000    214.9068     11.0929     14.7290     24.2354    108.2749
  1687.7500    214.4675     11.2202     14.1985     22.9964    129.5040
  1688.0000    213.9468     11.3994     13.7333     20.0123    127.6755
  1688.2500    213.1979     11.5602     12.9667     15.0136    121.6431
  1688.5000    212.3803     11.4190     12.5618     11.4410    109.7617
  1688.7500    211.3449     11.2250     12.3183     10.2436    103.3379
  1689.0000    210.3705     10.8413     12.0517     10.2741    112.1381
  1689.2500    209.3642     10.4064     11.8755     11.4358    101.9171
  1689.5000    208.5080     10.0346     11.5476     12.5963    144.8206
  1689.7500    207.8027      9.5886     10.9076     13.3156    158.0330
  1690.0000    207.2975      9.1386     10.2665     12.2600    126.7392
  1690.2500    206.9201      8.6928      9.4996     10.9208    124.5578
  1690.5000    206.6102      8.3933      8.9511     10.3127    123.5418
  1690.7500    206.1252      8.2677      8.3487      9.6724    127.0122
  1691.0000    205.5766      8.1288      7.9489      8.8529    129.8062
  1691.2500    205.0655      8.1186      7.6570      7.9983    120.7214
  1691.5000    204.6634      8.0524      7.4981      7.6149    144.1760
  1691.7500    204.2523      8.0256      7.4578      7.4684    131.3070
  1692.0000    203.8338      8.0527      7.5781      7.5538    145.8914
  1692.2500    203.4814      8.0557      7.7292      8.1709    157.7403
  1692.5000    203.1216      8.0446      7.9350      9.4617    146.1373
  1692.7500    202.8493      8.0411      8.0922     10.5615    159.7208
  1693.0000    202.6120      8.0056      8.2249     11.4701    143.6267
  1693.2500    202.3015      8.0712      8.3859     11.6517    126.7489
  1693.5000    202.0888      8.1485      8.4050     10.6873    128.1198
  1693.7500    201.8722      8.2307      8.4332      9.4354    122.9213
  1694.0000    201.7616      8.2889      8.6050      8.8914    136.4980
  1694.2500    201.5996      8.4338      8.8289      9.4459    132.3543
  1694.5000    201.5744      8.4182      9.1327     10.8165    136.4934
  1694.7500    201.6552      8.4425      9.3644     12.2290    146.9409
  1695.0000    201.7490      8.4750      9.4517     13.2572    128.4860
  1695.2500    201.7880      8.5838      9.2938     14.0402    131.4207
  1695.5000    201.7401      8.5851      8.8352     13.0439    113.9897
  1695.7500    201.7693      8.6166      8.5297      9.4086    100.9930
  1696.0000    201.7618      8.5607      8.4725      7.1980     97.5433
  1696.2500    201.5874      8.6147      8.4716      7.3332    128.3704
  1696.5000    201.2935      8.6032      8.7497      8.1150    122.2416
  1696.7500    200.9021      8.5232      8.9804      9.8572    130.3858
  1697.0000    200.5478      8.4262      9.1438     11.3220    146.9387
  1697.2500    200.1573      8.2629      9.1443     11.3362    136.3925
  1697.5000    199.8677      8.0232      9.0765     10.4794    124.2468
  1697.7500    199.6629      7.8233      8.8675     10.6318    124.2767
  1698.0000    199.5786      7.6703      8.5248     10.9489    146.8993
  1698.2500    199.6031      7.6307      8.1916     10.7274    141.3902
  1698.5000    199.7012      7.5297      7.9580      9.7754    139.5579
  1698.7500    199.7865      7.4311      7.7088      8.7235    142.0530
  1699.0000    199.8512      7.4356      7.4471      8.3771    118.9028
  1699.2500    199.7502      7.4607      7.2417      7.8099    123.6285
  1699.5000    199.3359      7.4302      7.0816      7.3654    137.0972
  1699.7500    198.6499      7.4450      7.0076      7.0620    127.6561
  1700.0000    197.7975      7.5036      6.9808      6.8597    119.5605
  1700.2500    196.9866      7.6433      7.0373      7.0862    122.1257
  1700.5000    196.2646      7.6218      7.1003      7.8989    135.1470
  1700.7500    195.5526      7.6507      7.2247      8.4275    129.1167
  1701.0000    194.6798      7.7258      7.4361      8.2651    123.8858
  1701.2500    193.8038      7.7649      7.6135      8.3766    135.1362
  1701.5000    192.9512      7.8025      7.8575      9.2228    108.6319
  1701.7500    192.0101      7.8819      8.1383      9.9164     98.5259
  1702.0000    191.1927      7.9817      8.3650     10.3891    126.3777
  1702.2500    190.6444      8.0678      8.6015     10.5410    148.8298
  1702.5000    190.3793      8.1357      8.7314     10.4727    139.3953
  1702.7500    190.3452      8.1308      8.8892     10.7188    153.9803
  1703.0000    190.5984      8.1819      9.0350     10.9753    148.9252
  1703.2500    191.0125      8.3474      9.0124     11.0100    142.4179
  1703.5000    191.7018      8.3950      8.7430     11.4154    117.5739
  1703.7500    192.5430      8.2988      8.5055     11.9595    122.5442
  1704.0000    193.2797      8.2785      8.4107      9.9020    123.7177
  1704.2500    193.6429      8.2403      8.2252      8.1083    104.5248
  1704.5000    193.6063      8.2038      8.0715      7.7214    109.0445
  1704.7500    193.3811      8.0894      8.0216      8.1083    129.6787
  1705.0000    193.0950      7.9814      8.0474      8.7342    160.5881
  1705.2500    192.8033      7.8042      7.9977      9.1093    134.0020
  1705.5000    192.4564      7.6646      7.8400      9.1645    123.9626
  1705.7500    192.0428      7.5396      7.7224      9.5019    145.6705
  1706.0000    191.5078      7.4496      7.6191      9.2257    121.5513
  1706.2500    190.9880      7.3979      7.4682      9.0097    132.2905
  1706.5000    190.3422      7.3517      7.3402      8.7781    135.5918
  1706.7500    189.7154      7.3316      7.2534      8.3452    140.5621
  1707.0000    189.1563      7.2953      7.2587      8.3856    123.0789
  1707.2500    188.6027      7.3451      7.2182      8.5808    135.0846
  1707.5000    188.0848      7.3010      7.1587      8.8632    134.2083
  1707.7500    187.6342      7.4075      7.0924      9.0987    141.7576
