~Version Information
VERS.                      2.0: CWLS Log ASCII Standard - VERSION 2.0
WRAP.                       NO: One line per depth step
~Well Information Block
STRT.FT               651.5000: 
STOP.FT              2190.5000: 
STEP.FT                 0.2500: 
NULL.                -999.2500: 
COMP.          Pioneer Natural Resources: COMPANY
WELL.               King 22-13: WELL
FLD.           Purgatoire River: FIELD
LOC.           2419' FNL & 1806' FWL----: LOCATION
PROV.                 Colorado: PROVINCE
CNTY.               Las Animas: COUNTRY
SRVC.                Patterson: SERVICE COMPANY
DATE.          Thu Mar 31 14:33:28 2005: LOG DATE
UWI.           05 071 08318 00: UNIQUE WELL ID
~Curve Information Block
DEPT.FT            0 000 00 00: Depth
SN.Ohm-m                      : IEL Short Normal
SP.mV                         : IEL Spontaneous Potential
DIR.Ohm-m                     : IEL Induction Resistivity
GR.GAPI                       : Gamma Ray
~Parameter Information Block
~A  Depth        SN          SP         DIR          GR     
# ...
  2159.0000     23.3637    314.4371     17.6328    121.0924
  2159.2500     22.9150    314.3495     17.6505    118.8669
  2159.5000     22.7082    314.1337     17.7029    119.7438
  2159.7500     22.6880    313.8289     17.7742    123.8284
  2160.0000     22.6458    313.4906     17.8389    133.8582
  2160.2500     22.4279    313.1640     17.8671    141.4728
  2160.5000     22.0562    312.8675     17.8320    151.7837
  2160.7500     21.6819    312.5995     17.7205    156.8637
  2161.0000     21.4945    312.3610     17.5399    160.5798
  2161.2500     21.6264    312.1775     17.3151    160.6884
  2161.5000     22.0269    312.1030     17.0782    160.2067
  2161.7500     22.4363    312.2004     16.8560    161.6840
  2162.0000     22.5892    312.4967     16.6631    167.8872
  2162.2500     22.4522    312.9410     16.5024    173.1156
  2162.5000     22.1993    313.4008     16.3696    178.3525
  2162.7500     21.9783    313.7129     16.2587    178.7773
  2163.0000     21.7768    313.7586     16.1654    175.6157
  2163.2500     21.4959    313.5099     16.0885    172.2305
  2163.5000     21.0644    313.0235     16.0289    167.0240
  2163.7500     20.4863    312.3996     15.9879    163.9917
  2164.0000     19.8581    311.7311     15.9660    160.1901
  2164.2500     19.3391    311.0703     15.9644    158.2048
  2164.5000     19.0530    310.4277     15.9878    157.4869
  2164.7500     19.0293    309.7991     16.0464    159.7956
  2165.0000     19.2391    309.1911     16.1542    167.3717
  2165.2500     19.6549    308.6201     16.3254    173.0625
  2165.5000     20.2691    308.0934     16.5711    178.1041
  2165.7500     21.0790    307.5900     16.8985    177.9110
  2166.0000     22.0605    307.0463     17.3129    172.9012
  2166.2500     23.1370    306.3577     17.8200    167.6092
  2166.5000     24.1739    305.4162     18.4250    159.7874
  2166.7500     25.0682    304.1741     19.1293    156.7603
  2167.0000     25.8568    302.6837     19.9250    157.6706
  2167.2500     26.6575    301.0684     20.7892    161.5093
  2167.5000     27.5176    299.4471     21.6835    169.3914
  2167.7500     28.4241    297.8841     22.5623    174.3482
  2168.0000     29.4140    296.4032     23.3891    179.3098
  2168.2500     30.5331    295.0361     24.1519    180.2990
  2168.5000     31.7154    293.8493     24.8652    177.1678
  2168.7500     32.7984    292.9242     25.5563    170.7070
  2169.0000     33.6542    292.3083     26.2469    151.1582
  2169.2500     34.2754    291.9743     26.9420    130.3811
  2169.5000     34.7414    291.8220     27.6294     90.5506
  2169.7500     35.1305    291.7250     28.2839     63.1215
  2170.0000     35.4644    291.5917     28.8751     29.8340
  2170.2500     35.7119    291.3987     29.3751     15.5369
  2170.5000     35.8431    291.1859     29.7678      4.5593
  2170.7500     35.8897    291.0222     30.0555      1.6922
  2171.0000     35.9491    290.9623     30.2630      0.2902
  2171.2500     36.1316    291.0155     30.4360      0.0720
  2171.5000     36.4944    291.1401     30.6315      0.0047
  2171.7500     36.9988    291.2633     30.8999   -999.2500
  2172.0000     37.5159    291.3175     31.2661   -999.2500
  2172.2500     37.9054    291.2756     31.7203   -999.2500
  2172.5000     38.1476    291.1615     32.2249   -999.2500
  2172.7500     38.3915    291.0241     32.7333   -999.2500
  2173.0000     38.7998    290.8952     33.2067   -999.2500
  2173.2500     39.3463    290.7685     33.6179   -999.2500
  2173.5000     39.8302    290.6096     33.9421   -999.2500
  2173.7500     40.0912    290.3826     34.1502   -999.2500
  2174.0000     40.1617    290.0723     34.2135   -999.2500
  2174.2500     40.1999    289.6954     34.1172   -999.2500
  2174.5000     40.2930    289.2921     33.8685   -999.2500
  2174.7500     40.3555    288.9006     33.4907   -999.2500
  2175.0000     40.2325    288.5248     33.0084   -999.2500
  2175.2500     39.8464    288.1233     32.4373   -999.2500
  2175.5000     39.2199    287.6336     31.7883   -999.2500
  2175.7500     38.4205    287.0166     31.0835   -999.2500
  2176.0000     37.5111    286.2836     30.3640   -999.2500
  2176.2500     36.5170    285.4894     29.6791   -999.2500
  2176.5000     35.4177    284.7054     29.0635   -999.2500
  2176.7500     34.1960    283.9907     28.5240   -999.2500
  2177.0000     32.9172    283.3731     28.0466   -999.2500
  2177.2500     31.7392    282.8437     27.6171   -999.2500
  2177.5000     30.8107    282.3698     26.3482   -999.2500
  2177.7500     30.1703    281.9156     26.0491   -999.2500
  2178.0000     29.7620    281.4593     25.8131   -999.2500
  2178.2500     29.5293    281.0064     25.6233   -999.2500
  2178.5000     29.4765    280.5985     25.4398   -999.2500
  2178.7500     29.6317    280.3090     25.2164   -999.2500
  2179.0000     29.9604    280.2185     24.9249   -999.2500
  2179.2500     30.3345    280.3821     24.5677   -999.2500
  2179.5000     30.5839    280.8064     24.1726   -999.2500
  2179.7500     30.5691    281.4444     23.7808   -999.2500
  2180.0000     30.2279    282.2102     23.4463   -999.2500
  2180.2500     29.5811    283.0079     23.2518   -999.2500
  2180.5000     28.6893    283.7610     23.3236   -999.2500
  2180.7500     27.6192    284.4340     23.8259   -999.2500
  2181.0000     26.4531    285.0396     25.8851   -999.2500
  2181.2500     25.2987    285.6236     27.8238   -999.2500
  2181.5000     24.2599    286.2249     30.4785   -999.2500
  2181.7500     23.4092    286.8318     33.5535   -999.2500
  2182.0000     22.7819    287.3801     36.5210   -999.2500
  2182.2500     22.3522    287.8088     38.8583   -999.2500
  2182.5000     22.0186    288.1274     40.3466   -999.2500
  2182.7500     21.6793    288.4288     41.1169   -999.2500
  2183.0000     21.3496    288.8258     41.4496   -999.2500
  2183.2500     21.1793    289.3646     41.5893   -999.2500
  2183.5000     21.3302    289.9835     41.6922   -999.2500
  2183.7500     21.8009    290.5490     41.8456   -999.2500
  2184.0000     22.3612    290.9406   2028.6251   -999.2500
  2184.2500     22.7121    291.1225   3164.8022   -999.2500
  2184.5000     22.7303    291.1563   8650.8506   -999.2500
  2184.7500     22.5198    291.1509 100000.0000   -999.2500
  2185.0000     22.2559    291.1785 100000.0000   -999.2500
  2185.2500     22.0402    291.2082 100000.0000   -999.2500
  2185.5000     21.8833    291.0910 100000.0000   -999.2500
  2185.7500     21.7569    290.4500 100000.0000   -999.2500
  2186.0000     21.6366    288.2677 100000.0000   -999.2500
  2186.2500     21.5217    282.1502 100000.0000   -999.2500
  2186.5000     21.4255    268.1082 100000.0000   -999.2500
  2186.7500     21.2482    242.3900 100000.0000   -999.2500
  2187.0000     20.4368    205.3222 100000.0000   -999.2500
  2187.2500     17.7779    163.5249 100000.0000   -999.2500
  2187.5000     12.3972    126.7417 100000.0000   -999.2500
  2187.7500      5.5542    101.5041 100000.0000   -999.2500
  2188.0000      0.0241     88.0103 100000.0000   -999.2500
  2188.2500     -2.8294     82.3895 100000.0000   -999.2500
  2188.5000     -3.7715     80.5656 100000.0000   -999.2500
  2188.7500     -3.9707     80.1046 100000.0000   -999.2500
  2189.0000     -3.9977     80.0139 100000.0000   -999.2500
  2189.2500   -999.2500   -999.2500 100000.0000   -999.2500
  2189.5000   -999.2500   -999.2500 100000.0000   -999.2500
  2189.7500   -999.2500   -999.2500 100000.0000   -999.2500
  2190.0000   -999.2500   -999.2500 100000.0000   -999.2500
  2190.2500   -999.2500   -999.2500 100000.0000   -999.2500
  2190.5000   -999.2500   -999.2500 100000.0000   -999.2500
