~Version Information
VERS.                      2.0: CWLS Log ASCII Standard - VERSION 2.0
WRAP.                       NO: One line per depth step
~Well Information Block
STRT.FT               350.0000: 
STOP.FT              1390.0000: 
STEP.FT                 0.1000: 
NULL.                -999.2500: 
COMP.          Petrogulf Corporation: COMPANY
WELL.             Leier 17-42R: WELL
FLD.           Purgatorie River: FIELD
LOC.           2398' FNL & 1109' FEL: LOCATION
PROV.                 Colorado: PROVINCE
CNTY.               Las Animas: COUNTRY
SRVC.                Patterson: SERVICE COMPANY
DATE.          Tue Oct 18 07:06:44 2005: LOG DATE
UWI.                          : UNIQUE WELL ID
~Curve Information Block
DEPT.FT            0 000 00 00: Depth
DCAL.in                       : CDL Caliper
RHOB.g/cc                     : CDL Bulk Density
RHOC.g/cc                     : CDL Density Correction
DPOR.pu                       : CDL Density Porosity
GR.GAPI                       : Gamma Ray
NPOR.pu                       : Neutron Porosity
~Parameter Information Block
~A  Depth       DCAL        RHOB        RHOC        DPOR         GR         NPOR    
# ...
   628.4000      8.0812      2.4955      0.0250      9.3609    143.1636     28.2514
   628.5000      8.0459      2.4788      0.0237     10.3765    147.8496     28.5875
   628.6000      8.0459      2.4616      0.0146     11.4191    146.5414     28.4665
   628.7000      8.0459      2.4452      0.0219     12.4113    142.7615     28.1491
   628.8000      7.9690      2.4313      0.0515     13.2528    143.1602     27.8705
   628.9000      7.9690      2.4214      0.0769     13.8547    143.3460     27.7130
   629.0000      7.9554      2.4274      0.0547     13.4915    138.8206     27.6981
   629.1000      7.9554      2.4573      0.0898     11.6808    132.7483     27.7815
   629.2000      7.9554      2.4950      0.1229      9.3924    130.3687     27.9316
   629.3000      7.9786      2.5218      0.0897      7.7722    134.4780     28.0744
   629.4000      7.9786      2.5411      0.0489      6.5980    142.7575     28.0444
   629.5000      7.9771      2.5614      0.0593      5.3706    151.4060     27.7133
   629.6000      7.9771      2.5743      0.0690      4.5874    157.3755     27.2305
   629.7000      7.9771      2.5796      0.0193      4.2644    159.2093     26.8633
   629.8000      7.9734      2.5882      0.0838      3.7438    159.1131     26.5400
   629.9000      7.9734      2.5942      0.0814      3.3844    158.0764     26.0168
   630.0000      7.9867      2.5924      0.0418      3.4909    155.3793     25.2974
   630.1000      7.9867      2.5903      0.0546      3.6169    153.5516     24.6483
   630.2000      7.9867      2.5891      0.0331      3.6911    153.0992     24.2913
   630.3000      7.9854      2.5855      0.0378      3.9062    149.5231     24.2789
   630.4000      7.9854      2.5802      0.0019      4.2292    140.8683     24.5479
   630.5000      7.9816      2.5738      0.0052      4.6207    133.0466     24.9317
   630.6000      7.9816      2.5666      0.0032      5.0555    131.0635     25.1027
   630.7000      7.9816      2.5699      0.0157      4.8554    131.3942     24.9882
   630.8000      7.9632      2.6003      0.0191      3.0100    129.7129     24.9270
   630.9000      7.9632      2.6492      0.0706      0.0464    127.7167     24.9741
   631.0000      7.9561      2.6869      0.1122     -2.2364    129.2165     24.8319
   631.1000      7.9561      2.7003      0.0623     -3.0455    133.5348     24.4697
   631.2000      7.9561      2.6948      0.0971     -2.7135    138.5132     24.1114
   631.3000      7.9604      2.6747      0.0774     -1.4943    142.2994     23.9562
   631.4000      7.9604      2.6437      0.0580      0.3788    143.1470     24.0366
   631.5000      7.9785      2.6052      0.0320      2.7125    141.2256     24.1749
   631.6000      7.9785      2.5633      0.0254      5.2542    141.4345     24.2276
   631.7000      7.9785      2.5376     -0.0043      6.8129    148.4966     24.1699
   631.8000      8.0035      2.5465      0.0062      6.2733    157.2192     24.0681
   631.9000      8.0035      2.5771      0.0196      4.4199    159.9286     24.1131
   632.0000      8.0002      2.6087      0.0626      2.5038    157.6197     24.3563
   632.1000      8.0002      2.6381      0.0649      0.7211    155.3275     24.5868
   632.2000      8.0002      2.6590      0.1099     -0.5444    155.3008     24.7491
   632.3000      7.9966      2.6618      0.1121     -0.7124    156.8422     24.9886
   632.4000      7.9966      2.6570      0.0464     -0.4257    156.4513     25.2940
   632.5000      7.9882      2.6583      0.0794     -0.5009    153.5884     25.5162
   632.6000      7.9882      2.6603      0.0678     -0.6246    150.5690     25.6237
   632.7000      7.9882      2.6575      0.0197     -0.4531    146.5590     25.7254
   632.8000      7.9679      2.6463      0.0392      0.2242    142.8279     25.9396
   632.9000      7.9679      2.6232      0.0477      1.6233    143.5054     26.0614
   633.0000      7.9785      2.5978      0.0315      3.1632    146.7824     25.9475
   633.1000      7.9785      2.5860      0.0549      3.8806    147.6325     25.9931
   633.2000      7.9785      2.5939      0.0185      3.3997    145.8159     26.3961
   633.3000      7.9671      2.6129      0.0844      2.2483    144.7699     26.8417
   633.4000      7.9671      2.6220      0.1459      1.6957    145.5316     26.9513
   633.5000      7.9726      2.6126      0.1281      2.2694    146.4855     26.6549
   633.6000      7.9726      2.5983      0.0757      3.1304    146.1275     26.3497
   633.7000      7.9726      2.5859      0.0943      3.8837    141.5030     26.3599
   633.8000      7.9741      2.5666      0.0503      5.0574    132.9015     26.5238
   633.9000      7.9741      2.5423      0.0356      6.5245    128.6630     26.6872
   634.0000      7.9621      2.5257      0.0061      7.5310    133.4318     26.7689
   634.1000      7.9621      2.5238      0.0535      7.6473    141.8122     26.6587
   634.2000      7.9621      2.5324      0.0434      7.1292    147.5140     26.5973
   634.3000      7.9512      2.5456      0.0786      6.3270    148.3768     26.7707
   634.4000      7.9512      2.5653      0.0597      5.1305    148.6620     26.9068
   634.5000      7.9361      2.5917      0.0993      3.5349    152.7980     26.7357
   634.6000      7.9361      2.6086      0.1277      2.5061    156.4430     26.3865
   634.7000      7.9361      2.6002      0.1342      3.0176    156.2043     26.0480
   634.8000      7.9453      2.5716      0.1134      4.7518    155.0501     25.8758
   634.9000      7.9453      2.5428      0.0566      6.4958    155.9377     26.0947
   635.0000      7.9532      2.5332      0.0491      7.0796    160.0988     26.5972
   635.1000      7.9532      2.5399      0.0759      6.6724    163.7908     27.1489
   635.2000      7.9532      2.5429      0.0708      6.4937    162.0592     27.7631
   635.3000      7.9509      2.5392      0.0410      6.7127    157.8555     28.2670
   635.4000      7.9509      2.5411      0.0461      6.6021    154.7338     28.2988
   635.5000      7.9656      2.5465      0.0641      6.2718    152.7279     27.9487
   635.6000      7.9656      2.5474      0.0428      6.2152    152.0959     27.6481
   635.7000      7.9656      2.5434      0.0248      6.4629    153.1540     27.5893
   635.8000      7.9870      2.5325      0.0624      7.1240    153.2685     27.5181
   635.9000      7.9870      2.5188      0.0215      7.9509    149.9985     27.1466
   636.0000      8.0330      2.5136      0.0254      8.2682    146.5410     26.6521
   636.1000      8.0330      2.5163      0.0557      8.1052    147.6742     26.4156
   636.2000      8.0330      2.5281      0.0209      7.3892    151.6470     26.4384
   636.3000      8.0945      2.5559      0.0656      5.7022    152.6863     26.6750
   636.4000      8.0945      2.5858      0.0725      3.8938    151.1767     27.0868
   636.5000      8.1434      2.5982      0.0490      3.1385    151.8577     27.4023
   636.6000      8.1434      2.5958      0.0601      3.2827    154.6476     27.5949
   636.7000      8.1434      2.5923      0.0650      3.4947    155.5312     27.7464
   636.8000      8.1443      2.5979      0.0149      3.1556    152.2949     27.6869
   636.9000      8.1443      2.5988      0.1023      3.1036    148.2266     27.4932
   637.0000      8.1134      2.5678      0.0529      4.9847    148.3329     27.4339
   637.1000      8.1134      2.5125     -0.0672      8.3324    151.7854     27.5510
   637.2000      8.1134      2.4703     -0.0953     10.8938    156.2849     27.8148
   637.3000      7.9803      2.4636     -0.0305     11.2954    161.5055     28.1402
   637.4000      7.9803      2.4848      0.0389     10.0147    164.8634     28.3739
   637.5000      7.9754      2.5133      0.0327      8.2832    164.3950     28.4611
   637.6000      7.9754      2.5248      0.0468      7.5891    162.5106     28.4777
   637.7000      7.9754      2.4995      0.0182      9.1217    161.9443     28.5654
   637.8000      7.9672      2.4483      0.0172     12.2263    162.9464     28.7100
   637.9000      7.9672      2.3992     -0.0226     15.1977    163.3783     28.7997
