~Version Information
VERS.                      2.0: CWLS Log ASCII Standard - VERSION 2.0
WRAP.                       NO: One line per depth step
~Well Information Block
STRT.FT               750.0000: 
STOP.FT              2433.0000: 
STEP.FT                 0.2500: 
NULL.                -999.2500: 
COMP.          Petrogulf Corporation: COMPANY
WELL.           McDaniel 9-34V: WELL
FLD.           Purgatorie River: FIELD
LOC.           620' FSL & 1800' FEL: LOCATION
PROV.                 Colorado: PROVINCE
CNTY.               Las Animas: COUNTRY
SRVC.                Patterson: SERVICE COMPANY
DATE.          Tue Sep 27 19:56:11 2005: LOG DATE
UWI.                          : UNIQUE WELL ID
~Curve Information Block
DEPT.FT            0 000 00 00: Depth
SP.mV                         : DIL Spontaneous Potential
RILD.Ohm-m                    : DIL Deep Resistivity
RILM.Ohm-m                    : DIL Medium Resistivity
RLL3.Ohm-m                    : DIL Shallow Resistivity
GR.GAPI                       : Gamma Ray
~Parameter Information Block
~A  Depth        SP         RILD        RILM        RLL3         GR     
# ...
   862.0000    167.8521     19.5217     19.9700     21.3333    107.2301
   862.2500    168.1537     19.7682     20.2914     21.5859    107.1280
   862.5000    168.4626     20.0353     20.6629     22.1180    108.0858
   862.7500    168.7863     20.2941     21.0776     22.8868    109.2100
   863.0000    169.1310     20.5093     21.5214     23.5617    111.5454
   863.2500    169.4985     20.6536     21.9724     23.7953    113.3000
   863.5000    169.8854     20.7179     22.4011     23.6425    115.3957
   863.7500    170.2833     20.7124     22.7732     23.6143    115.9959
   864.0000    170.6812     20.6566     23.0533     24.2337    115.1352
   864.2500    171.0678     20.5684     23.2106     25.5405    113.1229
   864.5000    171.4349     20.4582     23.2247     27.0490    108.1319
   864.7500    171.7782     20.3294     23.0900     28.1631    104.2970
   865.0000    172.0979     20.1800     22.8164     28.5877    100.1147
   865.2500    172.3969     20.0044     22.4276     28.3396     99.5793
   865.5000    172.6788     19.7930     21.9550     27.4860    102.2905
   865.7500    172.9453     19.5345     21.4312     26.0171    105.1799
   866.0000    173.1950     19.2202     20.8836     23.9862    108.5925
   866.2500    173.4234     18.8482     20.3306     21.6790    109.9250
   866.5000    173.6241     18.4254     19.7807     19.5574    112.1055
   866.7500    173.7915     17.9661     19.2353     18.0050    114.6820
   867.0000    173.9230     17.4881     18.6922     17.1343    120.3227
   867.2500    174.0201     17.0088     18.1493     16.8210    124.5082
   867.5000    174.0898     16.5419     17.6070     16.8406    129.6733
   867.7500    174.1428     16.0981     17.0695     16.9369    131.4902
   868.0000    174.1925     15.6854     16.5437     16.8632    131.3881
   868.2500    174.2529     15.3098     16.0385     16.4913    130.2533
   868.5000    174.3365     14.9739     15.5623     15.9121    129.3781
   868.7500    174.4526     14.6752     15.1222     15.3772    130.3929
   869.0000    174.6061     14.4079     14.7226     15.0929    134.4742
   869.2500    174.7960     14.1651     14.3646     15.0572    138.2208
   869.5000    175.0155     13.9426     14.0457     15.0973    143.8781
   869.7500    175.2526     13.7386     13.7613     15.0589    146.9906
   870.0000    175.4923     13.5536     13.5058     14.9443    149.9500
   870.2500    175.7188     13.3889     13.2742     14.8643    150.5896
   870.5000    175.9189     13.2467     13.0642     14.8896    149.8214
   870.7500    176.0840     13.1292     12.8763     14.9936    148.6231
   871.0000    176.2114     13.0383     12.7144     15.1122    146.4924
   871.2500    176.3034     12.9755     12.5841     15.1747    145.0368
   871.5000    176.3661     12.9421     12.4918     15.0781    143.0898
   871.7500    176.4078     12.9382     12.4429     14.7434    142.2094
   872.0000    176.4373     12.9604     12.4406     14.2402    141.7906
   872.2500    176.4639     13.0005     12.4844     13.7984    141.9324
   872.5000    176.4973     13.0464     12.5690     13.6663    141.8497
   872.7500    176.5472     13.0855     12.6837     13.9660    141.0004
   873.0000    176.6228     13.1074     12.8126     14.6582    137.9810
   873.2500    176.7310     13.1060     12.9357     15.6133    134.7258
   873.5000    176.8745     13.0786     13.0314     16.6921    128.1286
   873.7500    177.0506     13.0258     13.0803     17.7053    123.0625
   874.0000    177.2514     12.9515     13.0687     18.3329    116.0085
   874.2500    177.4644     12.8635     12.9910     18.2769    112.6573
   874.5000    177.6752     12.7714     12.8517     17.5765    111.0975
   874.7500    177.8703     12.6841     12.6632     16.6351    112.9470
   875.0000    178.0391     12.6069     12.4441     15.8316    119.6619
   875.2500    178.1756     12.5411     12.2153     15.1888    125.4026
   875.5000    178.2783     12.4849     11.9971     14.4871    132.9531
   875.7500    178.3501     12.4368     11.8067     13.5859    136.2594
   876.0000    178.3967     12.3960     11.6569     12.5420    138.3906
   876.2500    178.4247     12.3623     11.5556     11.5254    138.1598
   876.5000    178.4391     12.3355     11.5066     10.7554    135.9760
   876.7500    178.4410     12.3151     11.5100     10.4615    133.9118
   877.0000    178.4270     12.3027     11.5636     10.7652    131.3025
   877.2500    178.3891     12.3036     11.6636     11.5674    130.5769
   877.5000    178.3179     12.3284     11.8056     12.5933    131.2377
   877.7500    178.2063     12.3905     11.9853     13.5511    132.3623
   878.0000    178.0534     12.5041     12.1992     14.2686    134.1380
   878.2500    177.8668     12.6808     12.4460     14.7474    135.3372
   878.5000    177.6618     12.9291     12.7261     15.1617    137.7791
   878.7500    177.4586     13.2527     13.0432     15.7888    139.9366
   879.0000    177.2773     13.6497     13.4031     16.8184    142.9273
   879.2500    177.1325     14.1114     13.8145     18.1532    143.7882
   879.5000    177.0306     14.6238     14.2878     19.4614    142.5329
   879.7500    176.9681     15.1705     14.8348     20.4800    140.4017
   880.0000    176.9334     15.7376     15.4673     21.2710    136.9291
   880.2500    176.9100     16.3165     16.1959     22.2378    135.1624
   880.5000    176.8808     16.9036     17.0271     23.9407    133.0224
   880.7500    176.8323     17.4989     17.9615     26.7620    131.0453
   881.0000    176.7578     18.1038     18.9918     30.5136    126.1154
   881.2500    176.6586     18.7192     20.1020     34.3183    121.6788
   881.5000    176.5444     19.3423     21.2690     37.0771    114.3969
   881.7500    176.4307     19.9653     22.4644     38.3361    109.5576
   882.0000    176.3364     20.5767     23.6573     38.7601    102.7325
   882.2500    176.2805     21.1650     24.8145     39.5776     99.1414
   882.5000    176.2794     21.7212     25.8998     41.4507     96.9904
   882.7500    176.3449     22.2382     26.8735     43.9144     98.1275
   883.0000    176.4826     22.7088     27.6946     45.8436    102.3694
   883.2500    176.6912     23.1277     28.3258     46.3290    105.6702
   883.5000    176.9615     23.4934     28.7428     45.1859    110.1575
   883.7500    177.2770     23.8072     28.9415     42.8494    112.8181
   884.0000    177.6152     24.0664     28.9406     39.9176    116.7785
   884.2500    177.9501     24.2581     28.7779     36.7965    119.5756
   884.5000    178.2563     24.3637     28.5016     33.7295    123.5398
   884.7500    178.5132     24.3717     28.1602     31.0107    125.3663
   885.0000    178.7078     24.2904     27.7948     28.9884    126.0595
   885.2500    178.8367     24.1478     27.4344     27.8371    125.1862
   885.5000    178.9057     23.9779     27.0958     27.4172    122.5040
   885.7500    178.9277     23.8050     26.7862     27.4219    120.4289
   886.0000    178.9198     23.6365     26.5071     27.6217    118.4133
   886.2500    178.9003     23.4707     26.2581     27.9133    118.4161
   886.5000    178.8870     23.3094     26.0396     28.1724    119.9035
   886.7500    178.8948     23.1652     25.8539     28.1919    121.0479
   887.0000    178.9347     23.0552     25.7036     27.8398    122.4963
   887.2500    179.0126     22.9866     25.5900     27.2137    123.7029
   887.5000    179.1295     22.9468     25.5103     26.5668    126.5557
   887.7500    179.2820     22.9042     25.4558     26.1232    129.0499
   888.0000    179.4644     22.8212     25.4105     25.9931    132.6681
   888.2500    179.6708     22.6688     25.3510     26.1713    134.1353
   888.5000    179.8979     22.4345     25.2474     26.5280    133.6902
   888.7500    180.1456     22.1169     25.0658     26.8369    131.5085
   889.0000    180.4168     21.7142     24.7713     26.8957    126.5836
   889.2500    180.7143     21.2180     24.3330     26.6472    123.5116
   889.5000    181.0383     20.6211     23.7290     26.1596    121.5417
   889.7500    181.3842     19.9300     22.9517     25.4858    122.5981
