~Version Information
VERS.                      2.0: CWLS Log ASCII Standard - VERSION 2.0
WRAP.                       NO: One line per depth step
~Well Information Block
STRT.FT               -10.8000: 
STOP.FT              2238.7000: 
STEP.FT                 0.1000: 
NULL.                -999.2500: 
COMP.          Petrogulf Corporation: COMPANY
WELL.             McLeod 9-42V: WELL
FLD.           Purgatorie River: FIELD
LOC.           1658' FNL & 415' FEL----: LOCATION
CNTY.               Las Animas: COUNTY
SRVC.                         : SERVICE COMPANY
DATE.          Wed Nov 17 12:01:16 2004: LOG DATE
UWI.                          : UNIQUE WELL ID
STAT.                       CO: STATE
~Curve Information Block
DEPT.FT            0 000 00 00: Depth
GR.GAPI                       : Gamma Ray
CCL.                          : Casing Collar Locator
TT3.usec                      : CBL 3' Travel Time
AMP3.mV                       : CBL 3' Amplitude
~Parameter Information Block
~A  Depth        GR         CCL         TT3         AMP3    
   -10.8000   -999.2500   -999.2500   -999.2500   -999.2500
   -10.7000   -999.2500   -999.2500   -999.2500   -999.2500
   -10.6000   -999.2500   -999.2500   -999.2500   -999.2500
   -10.5000   -999.2500   -999.2500   -999.2500   -999.2500
   -10.4000   -999.2500   -999.2500   -999.2500   -999.2500
   -10.3000   -999.2500   -999.2500   -999.2500   -999.2500
   -10.2000   -999.2500   -999.2500    921.0000      1.0585
   -10.1000   -999.2500   -999.2500    921.0000      1.0585
   -10.0000   -999.2500   -999.2500    921.0000      1.0585
    -9.9000   -999.2500   -999.2500    921.0000      1.0400
    -9.8000   -999.2500   -999.2500    921.0000      1.0400
    -9.7000   -999.2500   -999.2500    921.0000      0.9947
    -9.6000   -999.2500   -999.2500    921.0000      0.9947
    -9.5000   -999.2500   -999.2500    921.0000      0.9947
    -9.4000   -999.2500   -999.2500    921.0000      0.9293
    -9.3000   -999.2500   -999.2500    921.0000      0.9293
    -9.2000   -999.2500   -999.2500    921.0000      0.8729
    -9.1000   -999.2500   -999.2500    921.0000      0.8729
    -9.0000   -999.2500   -999.2500    921.0000      0.8729
    -8.9000   -999.2500   -999.2500    921.0000      0.8553
    -8.8000   -999.2500   -999.2500    921.0000      0.8553
    -8.7000   -999.2500   -999.2500    921.0000      0.8837
    -8.6000   -999.2500   -999.2500    921.0000      0.8837
    -8.5000   -999.2500   -999.2500    921.0000      0.8837
    -8.4000   -999.2500   -999.2500    921.0000      0.9416
    -8.3000   -999.2500   -999.2500    921.0000      0.9416
    -8.2000   -999.2500   -999.2500    921.0000      1.0057
    -8.1000   -999.2500   -999.2500    921.0000      1.0057
    -8.0000   -999.2500   -999.2500    921.0000      1.0057
    -7.9000   -999.2500   -999.2500    921.0000      1.0584
    -7.8000   -999.2500   -999.2500    921.0000      1.0584
    -7.7000   -999.2500   -999.2500    921.0000      1.0904
    -7.6000   -999.2500   -999.2500    921.0000      1.0904
    -7.5000   -999.2500   -999.2500    921.0000      1.0904
    -7.4000   -999.2500   -999.2500    921.0000      1.0967
    -7.3000   -999.2500   -999.2500    921.0000      1.0967
    -7.2000   -999.2500   -999.2500    921.0000      1.0777
    -7.1000   -999.2500   -999.2500    921.0000      1.0777
    -7.0000   -999.2500   -999.2500    921.0000      1.0777
    -6.9000   -999.2500   -999.2500    921.0000      1.0448
    -6.8000   -999.2500   -999.2500    921.0000      1.0448
    -6.7000   -999.2500   -999.2500    921.0000      1.0208
    -6.6000   -999.2500   -999.2500    921.0000      1.0208
    -6.5000   -999.2500   -999.2500    921.0000      1.0208
    -6.4000   -999.2500   -999.2500    921.0000      1.0229
    -6.3000   -999.2500   -999.2500    921.0000      1.0229
    -6.2000   -999.2500   -999.2500    921.0000      1.0465
    -6.1000   -999.2500   -999.2500    921.0000      1.0465
    -6.0000   -999.2500   -999.2500    921.0000      1.0465
    -5.9000   -999.2500   -999.2500    921.0000      1.0714
    -5.8000   -999.2500   -999.2500    921.0000      1.0714
    -5.7000   -999.2500   -999.2500    921.0000      1.0854
    -5.6000   -999.2500   -999.2500    921.0000      1.0854
    -5.5000   -999.2500   -999.2500    921.0000      1.0854
    -5.4000   -999.2500   -999.2500    921.0000      1.0935
    -5.3000   -999.2500   -999.2500    921.0000      1.0935
    -5.2000   -999.2500   -999.2500    921.0000      1.1011
    -5.1000   -999.2500   -999.2500    921.0000      1.1011
    -5.0000   -999.2500   -999.2500    921.0000      1.1011
    -4.9000   -999.2500   -999.2500    921.0000      1.0985
    -4.8000   -999.2500   -999.2500    921.0000      1.0985
    -4.7000   -999.2500      0.0000    921.0000      1.0722
    -4.6000   -999.2500      0.0000    921.0000      1.0722
    -4.5000   -999.2500      0.0000    921.0000      1.0722
    -4.4000   -999.2500      0.0000    921.0000      1.0274
    -4.3000   -999.2500      0.0000    921.0000      1.0274
    -4.2000   -999.2500      0.0000    921.0000      0.9879
    -4.1000   -999.2500      0.0000    921.0000      0.9879
    -4.0000   -999.2500      0.0000    921.0000      0.9879
    -3.9000   -999.2500      0.0000    921.0000      0.9729
    -3.8000   -999.2500      0.0000    921.0000      0.9729
    -3.7000   -999.2500      0.0000    921.0000      0.9798
    -3.6000   -999.2500      0.0000    921.0000      0.9798
    -3.5000   -999.2500      0.0000    921.0000      0.9798
    -3.4000   -999.2500      0.0000    921.0000      0.9916
    -3.3000   -999.2500      0.0000    921.0000      0.9916
    -3.2000   -999.2500      0.0000    921.0000      0.9960
    -3.1000   -999.2500      0.0000    921.0000      0.9960
    -3.0000   -999.2500      0.0000    921.0000      0.9960
    -2.9000   -999.2500      0.0000    921.0000      0.9939
    -2.8000   -999.2500      0.0000    921.0000      0.9939
    -2.7000   -999.2500      0.0000    921.0000      0.9953
    -2.6000   -999.2500      0.0000    921.0000      0.9953
    -2.5000   -999.2500     -1.8866    921.0000      0.9953
    -2.4000   -999.2500      2.0000    921.0000      1.0102
    -2.3000   -999.2500      2.0000    921.0000      1.0102
    -2.2000   -999.2500     -2.0000    921.0000      1.0400
    -2.1000   -999.2500     -2.0000    921.0000      1.0400
    -2.0000   -999.2500      2.0000    921.0000      1.0400
    -1.9000   -999.2500     -2.0000    921.0000      1.0728
    -1.8000   -999.2500      2.0000    921.0000      1.0728
    -1.7000   -999.2500      2.0000    921.0000      1.0878
    -1.6000   -999.2500     -2.0000    921.0000      1.0878
    -1.5000   -999.2500      0.0000    921.0000      1.0878
    -1.4000   -999.2500      0.0000    921.0000      1.0707
    -1.3000   -999.2500      0.0000    921.0000      1.0707
    -1.2000   -999.2500      0.0000    921.0000      1.0242
    -1.1000   -999.2500      0.0000    921.0000      1.0242
    -1.0000   -999.2500     -2.0000    921.0000      1.0242
    -0.9000   -999.2500      0.0000    921.0000      0.9647
    -0.8000   -999.2500      2.0000    921.0000      0.9647
    -0.7000   -999.2500      0.0000    921.0000      0.9130
    -0.6000   -999.2500     -1.9000    921.0000      0.9130
    -0.5000   -999.2500      0.0000    921.0000      0.9130
    -0.4000   -999.2500     -1.5271    921.0000      0.8850
    -0.3000   -999.2500      1.5070    921.0000      0.8850
    -0.2000   -999.2500      2.0000    921.0000      0.8877
    -0.1000   -999.2500     -1.7792    921.0000      0.8877
     0.0000   -999.2500     -2.0000    921.0000      0.8877
     0.1000   -999.2500      0.0000    921.0000      0.8877
     0.2000   -999.2500      0.0000    921.0000      0.8877
     0.3000     47.3184      0.0000    921.0000      0.9708
     0.4000     47.3184      0.0000    921.0000      0.9708
     0.5000     53.3161      0.0000    921.0000      1.0325
     0.6000     53.3161      0.0000    921.0000      1.0325
     0.7000     53.3161      0.0000    921.0000      1.0325
     0.8000     57.7850      0.0000    921.0000      1.0922
     0.9000     57.7850      0.0000    921.0000      1.0922
     1.0000     61.3429      0.0000    921.0000      1.1398
     1.1000     61.3429      0.0000    921.0000      1.1398
     1.2000     61.3429      0.0000    921.0000      1.1398
     1.3000     65.5819      0.0000    921.0000      1.1692
     1.4000     65.5819      0.0000    921.0000      1.1692
     1.5000     71.7115      0.0000    921.0000      1.1800
     1.6000     71.7115      0.0000    921.0000      1.1800
     1.7000     71.7115      0.0000    921.0000      1.1800
     1.8000     79.3665      0.0000    921.0000      1.1731
     1.9000     79.3665      0.0000    921.0000      1.1731
     2.0000     86.5511      0.0000    921.0000      1.1478
     2.1000     86.5511      0.0000    921.0000      1.1478
     2.2000     86.5511      0.0000    921.0000      1.1478
     2.3000     90.9178      0.0000    921.0000      1.1018
     2.4000     90.9178      0.0000    921.0000      1.1018
     2.5000     91.3060      0.0000    921.0000      1.0380
