~Version Information
VERS.                      2.0: CWLS Log ASCII Standard - VERSION 2.0
WRAP.                       NO: One line per depth step
~Well Information Block
STRT.FT               506.1000: 
STOP.FT              2140.0000: 
STEP.FT                 0.1000: 
NULL.                -999.2500: 
COMP.          Petrogulf Corporation: COMPANY
WELL.            Montoya 1-44R: WELL
FLD.           Purgatorie River: FIELD
LOC.           658' FSL & 1052' FWL: LOCATION
CNTY.               Las Animas: COUNTY
SRVC.                         : SERVICE COMPANY
DATE.          Tue Nov 16 04:33:40 2004: LOG DATE
UWI.           05 071 08239 00: UNIQUE WELL ID
STAT.                 Colorado: STATE
~Curve Information Block
DEPT.FT            0 000 00 00: Depth
DCAL.in                       : CDL Caliper
RHOB.g/cc                     : CDL Bulk Density
RHOC.g/cc                     : CDL Density Correction
DPOR.pu                       : CDL Density Porosity
GR.GAPI                       : Gamma Ray
NPOR.pu                       : Neutron Porosity
~Parameter Information Block
~A  Depth       DCAL        RHOB        RHOC        DPOR         GR         NPOR    
# ...
  1715.7000      7.8515      2.6504      0.1454     -0.0258    100.9656     21.1003
  1715.8000      7.8630      2.6522      0.1255     -0.1347    111.5925     21.3595
  1715.9000      7.8630      2.6334      0.1205      1.0058    115.7657     21.9136
  1716.0000      7.8807      2.6146      0.1094      2.1465    113.0315     22.3839
  1716.1000      7.8807      2.6099      0.0723      2.4293    110.8099     22.0864
  1716.2000      7.8807      2.6107      0.1056      2.3807    111.6574     20.9603
  1716.3000      7.9095      2.5982      0.0692      3.1381    109.8051     19.6768
  1716.4000      7.9095      2.5801      0.0154      4.2356    101.8977     18.6351
  1716.5000      7.9169      2.5858      0.0225      3.8885     94.5418     17.9563
  1716.6000      7.9169      2.6183      0.0471      1.9207     90.5802     17.8332
  1716.7000      7.9169      2.6423      0.0933      0.4672     83.3292     18.0933
  1716.8000      7.9011      2.6346      0.0173      0.9325     74.2925     18.3721
  1716.9000      7.9011      2.6114      0.0381      2.3414     72.0389     18.5769
  1717.0000      7.8904      2.5951     -0.0054      3.3294     76.6061     18.3510
  1717.1000      7.8904      2.5896      0.0389      3.6596     80.0910     17.5658
  1717.2000      7.8904      2.5842      0.0456      3.9892     77.6320     17.0064
  1717.3000      7.8901      2.5766      0.0257      4.4513     72.6214     16.7163
  1717.4000      7.8901      2.5753      0.0356      4.5278     69.5935     15.9732
  1717.5000      7.8938      2.5761      0.0817      4.4794     70.6092     15.1840
  1717.6000      7.8938      2.5703      0.0629      4.8332     75.0497     14.9043
  1717.7000      7.8938      2.5665      0.0617      5.0584     76.7656     15.0016
  1717.8000      7.8950      2.5739      0.0795      4.6130     72.6959     15.1289
  1717.9000      7.8950      2.5783      0.0699      4.3435     66.3846     15.3230
  1718.0000      7.8885      2.5586      0.0495      5.5404     61.8435     15.7972
  1718.1000      7.8885      2.5202      0.0336      7.8673     63.6069     16.1878
  1718.2000      7.8885      2.4927      0.0318      9.5328     71.2270     16.1279
  1718.3000      7.8879      2.4943     -0.0152      9.4351     76.5730     15.9490
  1718.4000      7.8879      2.5131      0.0729      8.2988     74.8707     16.2661
  1718.5000      7.9002      2.5249      0.0550      7.5806     70.8935     16.7371
  1718.6000      7.9002      2.5267      0.0475      7.4755     71.8521     16.7181
  1718.7000      7.9002      2.5327      0.0775      7.1083     77.0814     16.5143
  1718.8000      7.9076      2.5509      0.0862      6.0050     80.9222     17.0811
  1718.9000      7.9076      2.5761      0.0850      4.4761     84.5926     18.6444
  1719.0000      7.8998      2.6041      0.1220      2.7826     93.2446     19.8510
  1719.1000      7.8998      2.6321      0.1390      1.0871    105.4180     19.7510
  1719.2000      7.8998      2.6455      0.1612      0.2721    113.8658     18.9281
  1719.3000      7.8978      2.6287      0.1490      1.2924    114.2992     18.3071
  1719.4000      7.8978      2.5920      0.0882      3.5145    110.3339     18.3530
  1719.5000      7.9059      2.5668      0.0564      5.0451    106.4840     18.8467
  1719.6000      7.9059      2.5710      0.0569      4.7864    103.8055     19.4092
  1719.7000      7.9059      2.5932      0.0939      3.4440    103.0337     19.8893
  1719.8000      7.9109      2.6076      0.1013      2.5713    103.8942     19.9939
  1719.9000      7.9109      2.6057      0.0751      2.6842    105.4218     19.9258
  1720.0000      7.9112      2.5963      0.1233      3.2552    106.8209     20.5498
  1720.1000      7.9112      2.5840      0.1069      4.0003    108.0133     21.9493
  1720.2000      7.9112      2.5725      0.1277      4.6945    108.6123     22.9832
  1720.3000      7.9079      2.5655      0.0962      5.1184    108.9112     22.6504
  1720.4000      7.9079      2.5618      0.0803      5.3475    109.9234     21.2944
  1720.5000      7.9084      2.5603      0.0522      5.4373    112.0425     19.7982
  1720.6000      7.9084      2.5623      0.0729      5.3129    115.2062     18.3445
  1720.7000      7.9084      2.5694      0.0761      4.8860    117.3160     17.1918
  1720.8000      7.9125      2.5818      0.1023      4.1331    117.4508     17.2090
  1720.9000      7.9125      2.5908      0.1051      3.5868    116.4052     18.9319
  1721.0000      7.9094      2.5864      0.1560      3.8566    114.7867     21.1278
  1721.1000      7.9094      2.5756      0.0954      4.5075    113.4449     21.9059
  1721.2000      7.9094      2.5724      0.0806      4.7012    113.6417     21.2209
  1721.3000      7.9108      2.5719      0.0957      4.7353    115.7786     20.4562
  1721.4000      7.9108      2.5671      0.0582      5.0243    117.8693     20.6722
  1721.5000      7.9201      2.5681      0.0769      4.9654    118.0719     21.1232
  1721.6000      7.9201      2.5782      0.0626      4.3524    116.4408     20.5794
  1721.7000      7.9201      2.5899      0.0869      3.6398    111.8482     19.4390
  1721.8000      7.9207      2.6006      0.0752      2.9965    107.1678     18.9985
  1721.9000      7.9207      2.6118      0.0935      2.3145    106.1451     19.5741
  1722.0000      7.9205      2.6198      0.1007      1.8275    106.1245     20.1440
  1722.1000      7.9205      2.6165      0.1092      2.0285    104.3600     19.9441
  1722.2000      7.9205      2.5999      0.0963      3.0364    104.7817     19.5445
  1722.3000      7.9263      2.5786      0.0482      4.3252    108.1943     19.3389
  1722.4000      7.9263      2.5622      0.0475      5.3201    110.5053     19.3694
  1722.5000      7.9253      2.5523      0.0430      5.9226    114.6242     19.9576
  1722.6000      7.9253      2.5531      0.0094      5.8753    125.9285     20.9455
  1722.7000      7.9253      2.5672      0.0518      5.0200    137.4932     21.7058
  1722.8000      7.9199      2.5806      0.1303      4.2067    138.4271     22.3981
  1722.9000      7.9199      2.5806      0.0674      4.2067    130.7442     23.3486
  1723.0000      7.9191      2.5770      0.0471      4.4228    124.4260     23.8546
  1723.1000      7.9191      2.5833      0.0765      4.0454    125.1827     23.4546
  1723.2000      7.9191      2.5980      0.0865      3.1504    131.6963     22.6798
  1723.3000      7.9296      2.6086      0.1063      2.5094    137.2322     22.0316
  1723.4000      7.9296      2.6026      0.0739      2.8701    134.6343     21.7322
  1723.5000      7.9409      2.5842      0.0792      3.9901    126.0185     21.8891
  1723.6000      7.9409      2.5677      0.0608      4.9886    120.2566     22.4738
  1723.7000      7.9409      2.5608      0.0518      5.4078    117.3201     23.1565
  1723.8000      7.9296      2.5650      0.0462      5.1535    110.6219     23.0810
  1723.9000      7.9296      2.5804      0.0565      4.2194     98.8538     21.8758
  1724.0000      7.9090      2.5988      0.0845      3.1024     86.2230     19.9312
  1724.1000      7.9090      2.6110      0.0669      2.3665     76.7824     17.7930
  1724.2000      7.9090      2.6139      0.0705      2.1882     70.8710     16.1630
  1724.3000      7.8874      2.6053      0.0720      2.7119     67.3294     15.5450
  1724.4000      7.8874      2.5915      0.0570      3.5444     64.9909     15.7873
  1724.5000      7.8587      2.5873      0.0686      3.7979     62.4304     16.3541
  1724.6000      7.8587      2.5927      0.0847      3.4715     59.3689     16.8221
  1724.7000      7.8587      2.5940      0.1019      3.3921     56.6634     17.1701
  1724.8000      7.8469      2.5848      0.0918      3.9504     54.3626     17.1598
  1724.9000      7.8469      2.5727      0.0629      4.6841     52.9417     16.4436
  1725.0000      7.8536      2.5688      0.0440      4.9230     53.4709     15.3329
  1725.1000      7.8536      2.5742      0.0920      4.5951     53.8181     14.6977
  1725.2000      7.8536      2.5859      0.0537      3.8836     53.1429     15.0815
