~Version Information
VERS.                      2.0: CWLS Log ASCII Standard - VERSION 2.0
WRAP.                       NO: One line per depth step
~Well Information Block
STRT.FT                 6.5000: 
STOP.FT              1054.0000: 
STEP.FT                 0.2500: 
NULL.                -999.2500: 
COMP.          Pioneer Natural Resources: COMPANY
WELL.            Galileo 21-11: WELL
FLD.           Purgatoire River: FIELD
LOC.           407' FNL & 2394' FWL: LOCATION
PROV.                 Colorado: PROVINCE
CNTY.               Las Animas: COUNTRY
SRVC.                Patterson: SERVICE COMPANY
DATE.          Sat Apr 16 10:31:00 2005: LOG DATE
UWI.           05 071 08353 00: UNIQUE WELL ID
~Curve Information Block
DEPT.FT            0 000 00 00: Depth
GR.GAPI                       : Gamma Ray
CCL.                          : Casing Collar Locator
TT3.usec                      : CBL 3' Travel Time
AMP3.mV                       : CBL 3' Amplitude
~Parameter Information Block
~A  Depth        GR         CCL         TT3         AMP3    
# ...
   408.5000    117.6488      0.0000   1030.6267     12.6210
   408.7500    118.1023      0.0000   1082.8561     12.6513
   409.0000    117.3078      0.0000   1100.3104     12.6939
   409.2500    114.2726      0.0000   1061.8824     12.7725
   409.5000    109.8180      0.0000    981.5741     12.9038
   409.7500    105.8146      0.0000    899.8526     13.0871
   410.0000    103.3762      0.0000    859.6653     13.2975
   410.2500    102.1450      0.0000    886.0795     13.4934
   410.5000    101.4476      0.0000    974.5484     13.6381
   410.7500    101.5528      0.0000   1091.5476     13.7161
   411.0000    103.2274      0.0000   1191.8809     13.7304
   411.2500    106.4354      0.0000   1242.9252     13.6956
   411.5000    110.0995      0.0000   1236.8833     13.6400
   411.7500    113.2507      0.0000   1186.0149     13.6015
   412.0000    116.0938      0.0000   1110.1102     13.6089
   412.2500    119.5694      0.0000   1026.5283     13.6643
   412.5000    123.7543      0.0000    947.7490     13.7416
   412.7500    127.1189      0.0000    883.3047     13.7995
   413.0000    127.6679      0.0000    839.0925     13.8050
   413.2500    124.3490      0.0000    814.6015     13.7584
   413.5000    117.1383      0.0000    803.9176     13.6934
   413.7500    106.8432      0.0000    800.2963     13.6505
   414.0000     95.6360      0.0000    799.3263     13.6524
   414.2500     86.7313      0.0000    799.0652     13.6996
   414.5000     82.2377      0.0000    798.9377     13.7747
   414.7500     81.4678      0.0000    799.0983     13.8479
   415.0000     81.9145      0.0000    800.2834     13.8864
   415.2500     81.6681      0.0000    803.9594     13.8641
   415.5000     80.6627      0.0000    811.7110     13.7662
   415.7500     80.0956      0.0000    823.2592     13.5920
   416.0000     81.1910      0.0000    834.5829     13.3630
   416.2500     84.4321      0.0000    839.5581     13.1263
   416.5000     89.5759      0.0000    835.1620     12.9424
   416.7500     96.0860      0.0000    824.2628     12.8576
   417.0000    103.4926      0.0000    811.6223     12.8786
   417.2500    111.3833      0.0000    797.2656     12.9696
   417.5000    118.9600      0.0000    774.9705     13.0764
   417.7500    124.7074      0.0000    739.2042     13.1569
   418.0000    127.2201      0.0000    695.6169     13.1916
   418.2500    126.8938      0.0000    662.9412     13.1767
   418.5000    126.0829      0.0000    659.1807     13.1197
   418.7500    126.6539      0.0000    684.2996     13.0411
   419.0000    127.7600      0.0000    719.8304     12.9698
   419.2500    126.8849      0.0000    745.9703     12.9269
   419.5000    122.9794      0.0000    756.1926     12.9115
   419.7500    117.9396      0.0000    756.4585     12.9036
   420.0000    114.9964      0.0000    754.8182     12.8840
   420.2500    116.1049      0.0000    753.4865     12.8530
   420.5000    120.8766      0.0000    749.2758     12.8296
   420.7500    127.2872      0.0000    739.4720     12.8350
   421.0000    132.8090      0.0000    725.2228     12.8747
   421.2500    135.2245      0.0000    709.9639     12.9326
   421.5000    133.4307      0.0000    699.8688     12.9804
   421.7500    128.1059      0.0000    707.7188     12.9978
   422.0000    121.4326      0.0000    748.8813     12.9914
   422.2500    115.7779      0.0000    825.8259     12.9899
   422.5000    112.3280      0.0000    918.9656     13.0170
   422.7500    110.7448      0.0000    999.6365     13.0687
   423.0000    109.8517      0.0000   1054.5455     13.1217
   423.2500    108.5765      0.0000   1092.8285     13.1607
   423.5000    106.5131      0.0000   1127.1973     13.1936
   423.7500    104.0395      0.0000   1156.9291     13.2431
   424.0000    102.0220      0.0000   1175.3041     13.3314
   424.2500    101.2322      0.0000   1182.1991     13.4716
   424.5000    101.8467      0.0000   1177.7301     13.6675
   424.7500    103.3006      0.0000   1152.0016     13.9195
   425.0000    104.5966      0.0000   1095.3705     14.2251
   425.2500    105.1077      0.0000   1017.7721     14.5681
   425.5000    105.2891      0.0000    949.1269     14.9063
   425.7500    106.3567      0.0000    919.1696     15.1797
   426.0000    109.0291      0.0000    937.5950     15.3444
   426.2500    112.5991      0.0000    988.0899     15.3988
   426.5000    115.2031      0.0000   1038.9180     15.3760
   426.7500    115.0711      0.0000   1065.5406     15.3109
   427.0000    111.9408      0.0000   1068.0459     15.2174
   427.2500    107.5161      0.0000   1063.8966     15.0897
   427.5000    104.2504      0.0000   1064.7317     14.9164
   427.7500    103.3221      0.0000   1065.4080     14.6958
   428.0000    103.7820      0.0000   1053.8269     14.4455
   428.2500    103.7237      0.0000   1024.8920     14.2006
   428.5000    102.0003      0.0000    984.8959     13.9959
   428.7500     98.6988      0.0000    947.7077     13.8434
   429.0000     94.4808      0.0000    928.8211     13.7247
   429.2500     90.0064      0.0000    937.6453     13.6111
   429.5000     85.8414      0.0000    969.6754     13.4937
   429.7500     82.4717      0.0000   1007.9097     13.3889
   430.0000     80.2090      0.0000   1036.6624     13.3151
   430.2500     79.1854      0.0000   1053.5447     13.2709
   430.5000     79.5625      0.0000   1066.5370     13.2462
   430.7500     81.7713      0.0000   1081.3760     13.2457
   431.0000     86.3409      0.0000   1092.9188     13.2878
   431.2500     93.0383      0.0000   1088.2234     13.3784
   431.5000    100.1525      0.0000   1058.0060     13.4915
   431.7500    105.3486      0.0000   1004.8055     13.5787
   432.0000    107.7452      0.0000    942.1860     13.5905
   432.2500    108.7892      0.0000    888.9311     13.4898
   432.5000    110.7695      0.0000    862.8589     13.2613
   432.7500    114.8588      0.0000    876.0010     12.9237
   433.0000    120.7173      0.0000    930.1552     12.5336
   433.2500    127.1814      0.0000   1010.8019     12.1654
   433.5000    132.8069      0.0000   1085.9104     11.8766
   433.7500    136.4427      0.0000   1120.5081     11.6796
   434.0000    138.0533      0.0000   1102.1177     11.5375
   434.2500    138.8495      0.0000   1051.6205     11.3899
   434.5000    140.2802      0.0000   1003.4918     11.1936
   434.7500    142.8663      0.0000    974.3333     10.9478
   435.0000    145.7903      0.0000    953.9002     10.6836
   435.2500    147.3236      0.0000    925.4005     10.4344
   435.5000    145.9947      0.0000    886.6045     10.2189
   435.7500    141.9558      0.0000    848.6682     10.0429
   436.0000    137.0651      0.0000    822.0393      9.9077
   436.2500    133.1091      0.0000    809.3513      9.8131
   436.5000    130.1234      0.0000    808.7847      9.7545
   436.7500    126.8575      0.0000    818.6920      9.7182
   437.0000    122.5107      0.0000    837.5969      9.6842
   437.2500    117.4715      0.0000    861.1313      9.6395
   437.5000    112.7375      0.0000    881.2710      9.5887
   437.7500    109.2792      0.0000    890.4350      9.5495
   438.0000    107.7432      0.0000    886.7050      9.5402
   438.2500    108.0055      0.0000    873.9773      9.5722
   438.5000    108.9982      0.0000    857.4025      9.6422
   438.7500    109.5920      0.0000    840.1911      9.7249
   439.0000    109.7133      0.0000    824.3427      9.7838
   439.2500    110.1759      0.0000    811.8281      9.8000
   439.5000    111.3972      0.0000    803.9312      9.7876
   439.7500    112.4855      0.0000    800.8943      9.7700
   440.0000    111.6178      0.0000    803.7646      9.7472
   440.2500    107.3686      0.0000    817.0536      9.6956
   440.5000     99.9216      0.0000    848.8748      9.5928
   440.7500     91.1786      0.0000    904.7327      9.4210
   441.0000     83.6346      0.0000    977.7007      9.1385
   441.2500     78.8891      0.0000   1047.0551      8.6830
   441.5000     76.9906      0.0000   1093.3988      8.0448
   441.7500     76.9753      0.0000   1116.6284      7.3229
