~Version Information
VERS.                      2.0: CWLS Log ASCII Standard - VERSION 2.0
WRAP.                       NO: One line per depth step
~Well Information Block
STRT.FT                -7.5000: 
STOP.FT               978.5000: 
STEP.FT                 0.2500: 
NULL.                -999.2500: 
COMP.          Pioneer Natural Resources: COMPANY
WELL.          Piggyback 33-25: WELL
FLD.           Purgatoire River: FIELD
LOC.           1600' FSL & 1800' FEL: LOCATION
PROV.                 Colorado: PROVINCE
CNTY.               Las Animas: COUNTRY
SRVC.                Patterson: SERVICE COMPANY
DATE.          Mon May 09 09:22:28 2005: LOG DATE
UWI.           05 071 08233 00: UNIQUE WELL ID
~Curve Information Block
DEPT.FT            0 000 00 00: Depth
CCL.                          : Casing Collar Locator
TT3.usec                      : CBL 3' Travel Time
AMP3.mV                       : CBL 3' Amplitude
GR.GAPI                       : Gamma Ray
~Parameter Information Block
~A  Depth       CCL         TT3         AMP3         GR     
# ...
   126.5000      0.0000    770.7662      7.3076     82.0210
   126.7500      0.0000    773.4484      7.3354     84.1756
   127.0000      0.0000    775.2672      7.3977     85.0025
   127.2500      0.0000    776.2172      7.4723     84.3963
   127.5000      0.0000    776.5880      7.5388     82.6713
   127.7500      0.0000    776.4551      7.5999     80.6830
   128.0000      0.0000    775.4135      7.6690     79.6540
   128.2500      0.0000    772.6313      7.7451     80.3610
   128.5000      0.0000    767.3960      7.8095     82.1778
   128.7500      0.0000    760.0762      7.8438     83.1747
   129.0000      0.0000    752.5466      7.8507     81.7096
   129.2500      0.0000    747.1719      7.8576     78.1212
   129.5000      0.0000    745.1750      7.8975     74.6755
   129.7500      0.0000    746.4005      7.9789     73.7314
   130.0000      0.0000    750.5480      8.0764     75.9583
   130.2500      0.0000    757.6118      8.1563     80.0867
   130.5000      0.0000    766.6950      8.2055     83.8088
   130.7500      0.0000    775.3809      8.2320     84.8523
   131.0000      0.0000    781.0638      8.2498     81.9514
   131.2500      0.0000    782.6335      8.2721     75.5627
   131.5000      0.0000    780.6674      8.3098     67.7192
   131.7500      0.0000    776.4022      8.3626     60.7760
   132.0000      0.0000    770.6906      8.4153     55.9061
   132.2500      0.0000    763.4450      8.4440     52.6429
   132.5000      0.0000    753.5743      8.4138     49.8644
   132.7500      0.0000    740.3539      8.2736     47.1430
   133.0000      0.0000    727.0107      7.9739     45.0910
   133.2500      0.0000    723.2381      7.5091     44.4741
   133.5000      0.0000    740.1797      6.9452     45.0967
   133.7500      0.0000    778.7808      6.4034     45.6125
   134.0000      0.0000    824.5144      6.0105     44.5091
   134.2500      0.0000    858.1343      5.8398     41.3368
   134.5000      0.0000    871.6612      5.8791     37.0173
   134.7500      2.0000    870.4937      6.0576     33.0775
   135.0000     -2.0000    862.2734      6.3134     30.6577
   135.2500     -2.0000    850.0439      6.6490     30.0819
   135.5000      0.0000    834.8885      7.1493     31.0020
   135.7500      0.0000    817.8351      7.9337     32.6816
   136.0000      0.0000    798.5031      9.0199     34.2632
   136.2500      0.0000    776.8397     10.2083     35.1065
   136.5000      0.0000    756.0010     11.1736     35.0007
   136.7500      0.0000    740.0683     11.7203     34.0812
   137.0000      0.0000    729.7248     11.9046     32.7082
   137.2500      0.0000    722.3871     11.9089     31.3587
   137.5000      0.0000    715.7223     11.8775     30.3168
   137.7500      0.0000    710.0711     11.8765     29.4449
   138.0000      0.0000    708.0651     11.9265     28.5296
   138.2500      0.0000    711.8770     12.0238     27.8043
   138.5000      0.0000    720.1309     12.1425     27.7930
   138.7500      0.0000    727.8398     12.2349     28.6048
   139.0000      0.0000    730.1503     12.2487     29.7027
   139.2500      0.0000    726.1557     12.1615     30.5154
   139.5000      0.0000    719.1620     12.0000     31.1199
   139.7500      0.0000    713.7899     11.8172     32.1904
   140.0000      0.0000    712.4617     11.6519     34.2863
   140.2500      0.0000    713.7570     11.5167     37.2056
   140.5000      0.0000    714.4205     11.4115     40.0550
   140.7500      0.0000    713.1651     11.3334     42.0092
   141.0000      0.0000    711.2018     11.2749     42.9462
   141.2500      0.0000    709.0101     11.2257     43.2594
   141.5000      0.0000    705.0054     11.1796     43.2199
   141.7500      0.0000    698.3713     11.1347     42.8292
   142.0000      0.0000    691.2513     11.0905     42.2445
   142.2500      0.0000    686.8176     11.0534     41.9139
   142.5000      0.0000    686.2063     11.0486     42.0615
   142.7500      0.0000    688.3464     11.1183     42.3227
   143.0000      0.0000    691.9977     11.2934     42.1407
   143.2500      0.0000    696.8648     11.5551     41.3302
   143.5000      0.0000    702.9637     11.8289     40.0494
   143.7500      0.0000    710.0946     12.0296     38.4533
   144.0000      0.0000    718.1494     12.1219     36.6486
   144.2500      0.0000    727.0725     12.1365     34.9035
   144.5000      0.0000    736.1060     12.1316     33.7059
   144.7500      0.0000    743.2897     12.1468     33.6286
   145.0000      0.0000    746.1164     12.1865     35.1755
   145.2500      0.0000    743.1194     12.2278     38.6590
   145.5000      0.0000    735.0115     12.2360     44.1258
   145.7500      0.0000    724.1508     12.1791     51.3405
   146.0000      0.0000    712.9290     12.0365     59.7038
   146.2500      0.0000    702.6685     11.8050     68.0899
   146.5000      0.0000    693.6826     11.5076     75.0105
   146.7500      0.0000    686.0601     11.1967     79.3691
   147.0000      0.0000    680.3055     10.9306     81.2245
   147.2500      0.0000    677.2946     10.7413     81.6895
   147.5000      0.0000    677.7557     10.6274     82.0812
   147.7500      0.0000    681.6872     10.5713     83.1365
   148.0000      0.0000    687.8090     10.5516     84.6203
   148.2500      0.0000    693.5862     10.5478     85.4376
   148.5000      0.0000    696.4292     10.5532     84.5481
   148.7500      0.0000    695.2443     10.5830     82.0323
   149.0000      0.0000    690.8361     10.6501     78.9575
   149.2500      0.0000    685.1362     10.7294     76.2697
   149.5000      0.0000    680.2961     10.7671     74.3353
   149.7500      0.0000    678.0775     10.7275     73.4531
   150.0000      0.0000    679.5769     10.6212     74.0339
   150.2500      0.0000    685.1657     10.4906     75.9710
   150.5000      0.0000    694.2930     10.3874     78.2576
   150.7500      0.0000    705.1652     10.3596     79.5459
   151.0000      0.0000    714.8275     10.4412     79.0979
   151.2500      0.0000    719.9244     10.6385     77.2590
   151.5000      0.0000    718.0792     10.9193     75.1667
   151.7500      0.0000    709.4819     11.2151     73.9461
   152.0000      0.0000    697.3178     11.4474     73.9686
   152.2500      0.0000    685.9225     11.5685     74.7494
   152.5000      0.0000    678.1023     11.5871     75.4968
   152.7500      0.0000    674.1960     11.5572     75.7628
   153.0000      0.0000    673.2102     11.5409     75.6858
   153.2500      0.0000    674.3223     11.5807     75.7035
   153.5000      0.0000    677.4397     11.6955     76.0318
   153.7500      0.0000    682.7587     11.8854     76.4432
   154.0000      0.0000    689.9030     12.1200     76.6093
   154.2500      0.0000    697.5281     12.3237     76.6413
   154.5000      0.0000    703.9445     12.3969     77.0980
   154.7500      0.0000    708.0728     12.2735     78.2691
   155.0000      0.0000    709.6960     11.9663     79.5658
   155.2500      0.0000    709.1038     11.5574     79.9751
   155.5000      0.0000    706.9662     11.1504     79.2235
   155.7500      0.0000    704.4062     10.8190     78.0825
   156.0000      0.0000    702.4805     10.5865     77.3092
   156.2500      0.0000    701.1819     10.4399     76.6719
   156.5000      0.0000    699.2026     10.3584     75.3861
   156.7500      0.0000    695.1800     10.3225     73.3176
   157.0000      0.0000    689.3254     10.3014     71.3410
   157.2500      0.0000    683.5839     10.2485     70.5495
   157.5000      0.0000    680.0957     10.1268     71.3553
   157.7500      0.0000    679.6183      9.9375     73.1354
   158.0000      0.0000    681.1487      9.7161     74.5810
   158.2500      0.0000    682.6753      9.5024     74.7675
   158.5000      0.0000    682.5283      9.3212     73.9701
   158.7500      0.0000    680.4739      9.1851     73.0707
   159.0000      0.0000    677.6591      9.0987     72.3320
   159.2500      0.0000    675.5607      9.0584     71.1460
   159.5000      0.0000    675.2130      9.0584     68.7389
   159.7500      0.0000    677.2594      9.0991     64.7331
