~Version Information
VERS.                      2.0: CWLS Log ASCII Standard - VERSION 2.0
WRAP.                       NO: One line per depth step
~Well Information Block
STRT.FT               -12.5000: 
STOP.FT              1647.5000: 
STEP.FT                 0.2500: 
NULL.                -999.2500: 
COMP.          Pioneer Natural Resources: COMPANY
WELL.            Harlee L 34-9: WELL
FLD.           Purgatorie River`: FIELD
LOC.           600' FSL & 2125' FEL----: LOCATION
PROV.                       CO: PROVINCE
CNTY.               Las Animas: COUNTRY
SRVC.                Patterson: SERVICE COMPANY
DATE.          Sat Feb 12 09:31:33 2005: LOG DATE
UWI.           05 071 08009 00: UNIQUE WELL ID
~Curve Information Block
DEPT.FT            0 000 00 00: Depth
CCL.                          : Casing Collar Locator
TT3.usec                      : CBL 3' Travel Time
AMP3.mV                       : CBL 3' Amplitude
AMP5.mV                       : CBL 5' Amplitude
GR.GAPI                       : Gamma Ray
~Parameter Information Block
~A  Depth       CCL         TT3         AMP3        AMP5         GR     
# ...
  1191.5000      0.0000    300.4820     24.1366      5.3980    117.6511
  1191.7500      0.0000    308.4741     22.5615      5.8181    116.4923
  1192.0000      0.0000    316.3338     21.0526      5.4744    111.8456
  1192.2500      0.0000    323.7087     19.7871      5.3980    104.8067
  1192.5000      0.0000    331.5485     18.8815      5.5889     97.2689
  1192.7500      0.0000    340.7410     18.3974      5.9326     90.9802
  1193.0000      0.0000    349.9717     18.3572      6.3145     86.9268
  1193.2500      0.0000    355.2371     18.7697      6.7727     85.6106
  1193.5000      0.0000    352.4554     19.6490      7.2310     87.3258
  1193.7500      0.0000    341.0648     21.0085      7.6892     91.7273
  1194.0000      0.0000    324.7834     22.8443      8.4147     97.5413
  1194.2500      0.0000    308.8568     25.1273      8.6439    103.2310
  1194.5000      0.0000    296.8380     27.7911      8.9493    108.0790
  1194.7500      0.0000    289.5128     30.6764      8.5675    112.5590
  1195.0000      0.0000    285.8189     33.4523      7.3073    117.5648
  1195.2500      0.0000    284.2563     35.6204      7.4983    123.3406
  1195.5000      0.0000    283.7230     36.6937      8.1856    129.3271
  1195.7500      0.0000    283.6454     36.4839      9.0639    134.7095
  1196.0000      0.0000    283.7694     35.2617      9.9804    138.5755
  1196.2500      0.0000    283.9686     33.5919     10.4768    139.9714
  1196.5000      0.0000    284.1777     31.9564     10.6677    138.6990
  1196.7500      0.0000    284.3893     30.5142     10.5150    136.0848
  1197.0000      0.0000    284.6827     29.1723      9.8658    134.2583
  1197.2500      0.0000    285.2809     27.8010      9.1403    134.3648
  1197.5000      0.0000    286.6427     26.3528      8.2620    135.7056
  1197.7500      0.0000    289.4618     24.8389      7.4983    136.7463
  1198.0000      0.0000    294.3617     23.2808      6.6963    136.8320
  1198.2500      0.0000    301.3153     21.7279      5.8944    136.6991
  1198.5000      0.0000    309.5490     20.2999      5.3598    137.3949
  1198.7500      0.0000    318.7362     19.1390      4.9780    139.1275
  1199.0000      0.0000    331.0898     18.2741      3.6033    141.3487
  1199.2500      0.0000    352.1604     17.5494      3.3360    143.6240
  1199.5000      0.0000    387.9025     16.7275      2.3813    146.2106
  1199.7500      0.0000    438.7056     15.6659      2.4195    149.8803
  1200.0000      0.0000    496.0183     14.3943      2.5340    155.2081
  1200.2500      0.0000    546.7452     13.0522      2.6868    161.7148
  1200.5000      0.0000    582.1255     11.7807      2.5722    167.5356
  1200.7500      0.0000    602.1075     10.6642      2.1140    170.3629
  1201.0000      0.0000    612.0711      9.7283      1.8085    169.0997
  1201.2500      0.0000    617.3172      8.9563      1.4266    164.4155
  1201.5000      0.0000    620.7515      8.3110      1.2739    157.8050
  1201.7500      0.0000    623.7166      7.7643      1.1211    150.6588
  1202.0000      0.0000    626.9617      7.3193      0.8538    143.8149
  1202.2500      0.0000    630.3226      7.0003      0.7393    136.9552
  1202.5000      0.0000    632.3507      6.8262      0.7393    128.6725
  1202.7500      0.0000    631.3015      6.8039      0.7775    118.2215
  1203.0000      0.0000    626.9224      6.9422      1.2739    107.1489
  1203.2500      0.0000    620.9822      7.2600      1.4266     98.5232
  1203.5000      0.0000    615.8388      7.7757      1.4266     94.9251
  1203.7500      0.0000    612.7175      8.4909      1.5030     97.4534
  1204.0000      0.0000    611.2253      9.3879      1.5412    105.4989
  1204.2500      0.0000    609.4702     10.4455      1.7321    116.4857
  1204.5000      0.0000    603.4402     11.6713      1.9231    126.5941
  1204.7500      0.0000    586.4835     13.1208      2.1904    132.8939
  1205.0000      0.0000    551.8242     14.8601      2.4959    135.0859
  1205.2500      0.0000    498.6301     16.8721      2.9159    135.0851
  1205.5000      0.0000    436.0636     18.9822      2.8013    134.9904
  1205.7500      0.0000    379.2538     20.8849      3.2978    135.3100
  1206.0000      0.0000    339.7750     22.2877      6.1999    134.9083
  1206.2500      0.0000    319.9254     23.0788      5.2071    132.7198
  1206.5000      0.0000    315.1239     23.3257      2.9541    129.4311
  1206.7500      0.0000    320.3523     23.0498      3.3360    127.0622
  1207.0000      0.0000    334.0901     22.0988      3.8706    126.8547
  1207.2500      0.0000    357.2123     20.3964      4.0997    128.0027
  1207.5000      0.0000    389.6137     18.2292      4.1761    128.5346
  1207.7500      0.0000    428.8908     16.0966      3.8706    127.1877
  1208.0000      0.0000    471.2447     14.3289      3.6414    124.6475
  1208.2500      0.0000    511.5352     12.9777      3.6414    123.4474
  1208.5000      1.8057    542.1943     11.9986      3.4505    126.4502
  1208.7500      0.0000    554.4565     11.4147      3.2978    134.5157
  1209.0000      0.0000    543.3281     11.3052      3.1832    145.1304
  1209.2500      0.0000    513.1589     11.6727      2.3431    153.7039
  1209.5000      0.0000    477.5079     12.3336      2.4577    156.9078
  1209.7500      0.0000    449.9255     12.9977      2.3813    155.0804
  1210.0000      0.0000    432.8647     13.5191      2.6104    151.4761
  1210.2500      0.0000    417.7291     14.0084      2.3813    149.2510
  1210.5000      0.0000    396.7215     14.6355      2.6104    148.9940
  1210.7500      0.0000    371.6284     15.3934      5.9708    148.7624
  1211.0000      0.0000    349.9463     16.1165      2.3431    146.2785
  1211.2500      0.0000    336.3924     16.6586      2.6486    141.1032
  1211.5000      0.0000    330.6111     16.9880      3.3741    134.8192
  1211.7500      0.0000    330.9882     17.1459      3.4505    129.5754
  1212.0000      0.0000    338.7281     17.1662      3.2978    126.8703
  1212.2500      0.0000    358.7188     17.0416      3.3741    127.2218
  1212.5000      0.0000    396.0822     16.7461      2.5722    130.0319
  1212.7500      0.0000    449.8767     16.2771      2.5722    133.6820
  1213.0000      0.0000    509.8750     15.6732      2.4195    136.5690
  1213.2500      0.0000    561.8913     15.0033      2.4577    138.3826
  1213.5000      0.0000    597.3351     14.3420      2.2286    140.0271
  1213.7500      0.0000    616.8629     13.7446      2.0758    142.3168
  1214.0000      0.0000    625.8322     13.2293      1.9231    145.3228
  1214.2500      0.0000    628.7614     12.7804      2.0376    148.9803
  1214.5000      0.0000    627.9697     12.3717      1.8085    153.6056
  1214.7500      0.0000    624.8073     11.9874      1.6939    159.3892
  1215.0000      0.0000    620.5825     11.6213      1.6558    165.5573
  1215.2500      0.0000    616.5736     11.2640      1.4266    170.4529
  1215.5000      0.0000    613.6637     10.9080      1.3503    172.8939
  1215.7500      0.0000    612.1015     10.5666      1.5412    173.4123
  1216.0000      0.0000    611.7345     10.2757      1.5030    173.4683
  1216.2500      0.0000    612.5140     10.0665      1.5030    173.2573
  1216.5000      0.0000    614.7670      9.9363      1.3503    171.2888
  1216.7500      0.0000    618.8510      9.8483      0.9684    166.7251
  1217.0000      0.0000    624.3671      9.7545      0.9684    161.1756
  1217.2500      0.0000    629.8442      9.6182      0.8920    157.1312
  1217.5000      0.0000    633.7888      9.4254      0.8157    155.0883
  1217.7500      0.0000    636.3900      9.1798      0.8157    153.2462
  1218.0000      0.0000    639.6174      8.8873      0.8157    149.9513
  1218.2500      0.0000    644.8179      8.5495      0.8157    145.3873
  1218.5000      0.0000    650.5095      8.1766      0.7775    140.5312
  1218.7500      0.0000    653.5519      7.8014      0.8920    135.4418
  1219.0000      0.0000    652.4373      7.4668      0.9302    129.3277
  1219.2500      0.0000    648.5610      7.1996      1.0066    121.7075
