~Version Information
 VERS.                                  2.0 : CWLS LAS VERSION
 WRAP.                                   NO : WRAPING MODE
 SWARE .                 MController 2.5.0E : SOFTWARE VERSION
~Well Information
 WELL.                         Burson 8-31r : WELL
 COMP.                      Petrogulf CORP. : COMPANY
 FLD.                       Purgatory River : FIELD
 LOC.                        NWNE 8 33S 67W : LOCATION
 DATE.                         4/28-4/29/04 : DATE(S) LOGGED
 SRVC.                                  BGS : SERVICE COMPANY
 STAT.                             Colorado : STATE
 CNTY.                           Las Animas : COUNTY
 CTRY.                        United States : COUNTRY
 API.                       05-071-08039-00 : API NUMBER
 STRT.FT                              41.00 : START DEPTH
 STOP.FT                            2225.00 : STOP DEPTH
 STEP.FT                               1.00 : DEPTH INCREMENT
 NULL.                                -9999 : NULL VALUE
~Curve information
 DEPTH.FT                                   :
 ROP.MIN/FT                                 :
 GAS.UNITS                                  :
~ASCII Log data
# ...
     1441.00        0.283         11.1 
     1442.00        0.333         11.0 
     1443.00        0.267         10.5 
     1444.00        0.300         12.1 
     1445.00        0.200         13.7 
     1446.00        0.167         15.9 
     1447.00        0.167         16.2 
     1448.00        0.200         15.8 
     1449.00        0.233         13.3 
     1450.00        0.267         12.7 
     1451.00        0.267         10.9 
     1452.00        0.233          9.6 
     1453.00        0.267          8.6 
     1454.00        0.317          8.0 
     1455.00        0.267          7.0 
     1456.00        0.200          7.0 
     1457.00        0.233          6.7 
     1458.00        0.167          6.9 
     1459.00        0.267          6.6 
     1460.00        0.300          5.6 
     1461.00        0.367          4.8 
     1462.00        0.100          3.8 
     1463.00        0.200          3.5 
     1464.00        0.300          3.8 
     1465.00        0.400         11.3 
     1466.00        1.883         34.1 
     1467.00        0.100         10.0 
     1468.00        0.400         13.4 
     1469.00        0.400         12.5 
     1470.00        0.367          9.7 
     1471.00        0.400          6.9 
     1472.00        0.417         65.9 
     1473.00        0.267        275.2 
     1474.00        0.267        443.9 
     1475.00        0.233        872.1 
     1476.00        0.233        923.1 
     1477.00        0.333        923.8 
     1478.00        0.300        895.9 
     1479.00        0.300        804.3 
     1480.00        0.300        692.8 
     1481.00        0.267        539.2 
     1482.00        0.333        450.1 
     1483.00        0.333        440.0 
     1484.00        0.250        189.8 
     1485.00        0.167        186.8 
     1486.00        0.200        203.4 
     1487.00        0.233        205.6 
     1488.00        0.300        203.5 
     1489.00        0.300        188.8 
     1490.00        0.333        176.3 
     1491.00        0.300        170.3 
     1492.00        0.300        159.9 
     1493.00        0.267        130.9 
     1494.00        0.267        116.9 
     1495.00        0.233        109.6 
     1496.00        4.800       1427.0 
     1497.00        0.533         56.2 
     1498.00        0.367         48.3 
     1499.00        0.367         33.7 
     1500.00        0.300         20.3 
     1501.00        0.333         21.0 
     1502.00        0.450         22.6 
     1503.00        0.333         17.3 
     1504.00        0.333         26.9 
     1505.00        0.467         50.9 
     1506.00        0.500         50.3 
     1507.00        0.367         54.7 
     1508.00        0.333         65.8 
     1509.00        0.333         78.0 
     1510.00        0.333         77.0 
     1511.00        0.383         81.8 
     1512.00        0.367         76.5 
     1513.00        0.333         89.8 
     1514.00        0.400        111.4 
     1515.00        0.267        110.0 
     1516.00        0.267         94.9 
     1517.00        0.233         68.9 
     1518.00        0.267         54.5 
     1519.00        0.267         45.1 
     1520.00        0.233         38.6 
     1521.00        0.200         30.4 
     1522.00        0.200         33.5 
     1523.00        0.217         43.4 
     1524.00        0.167         46.4 
     1525.00        0.200         51.5 
     1526.00        0.200         54.0 
     1527.00        4.450        280.4 
     1528.00        0.133        164.8 
     1529.00        0.433        164.8 
     1530.00        0.333         94.4 
     1531.00        0.300         53.1 
     1532.00        0.267         42.8 
     1533.00        0.250         58.1 
     1534.00        0.233         61.8 
     1535.00        0.333         59.7 
     1536.00        0.333         41.7 
     1537.00        0.267         23.4 
     1538.00        0.200         22.9 
     1539.00        0.233         24.2 
     1540.00        0.267         31.5 
     1541.00        0.400         44.0 
     1542.00        0.267         42.8 
     1543.00        0.267         41.6 
     1544.00        0.300         43.4 
     1545.00        0.283         47.4 
     1546.00        0.267         54.2 
     1547.00        0.233         62.7 
     1548.00        0.267         63.7 
     1549.00        0.233         57.3 
     1550.00        0.267         63.5 
     1551.00        0.133         69.8 
     1552.00        0.133         75.0 
     1553.00        0.167         79.4 
     1554.00        0.200         80.2 
     1555.00        0.200         78.6 
     1556.00        3.617        352.4 
     1557.00        0.100        335.0 
     1558.00        0.467        334.8 
     1559.00        0.350        276.8 
     1560.00        0.300        226.0 
     1561.00        0.333        198.6 
     1562.00        0.333        189.7 
     1563.00        0.433        188.8 
     1564.00        0.467        178.8 
     1565.00        0.200        188.4 
     1566.00        0.233        188.8 
     1567.00        0.267        182.5 
     1568.00        0.333        163.9 
     1569.00        0.233        140.7 
     1570.00        0.250        146.5 
     1571.00        0.167        153.7 
     1572.00        0.167        163.2 
     1573.00        0.200        165.5 
     1574.00        0.300        165.1 
     1575.00        0.367        166.4 
     1576.00        0.400        172.9 
     1577.00        0.333        166.1 
     1578.00        0.267        150.8 
     1579.00        0.200        153.8 
     1580.00        0.200        154.0 
     1581.00        0.267        150.4 
     1582.00        0.267        134.4 
     1583.00        0.250        124.5 
     1584.00        0.233        107.7 
     1585.00        0.367         94.9 
     1586.00        3.017        399.8 
     1587.00        0.100        371.5 
     1588.00        0.333        366.5 
     1589.00        0.267        312.2 
     1590.00        0.300        254.3 
     1591.00        0.233        223.8 
     1592.00        0.200        209.6 
     1593.00        0.233        197.5 
     1594.00        0.300        191.0 
     1595.00        0.400        178.3 
     1596.00        0.483        192.5 
     1597.00        0.400        183.7 
     1598.00        0.367        160.7 
     1599.00        0.367        145.7 
     1600.00        0.367        151.9 
     1601.00        0.300        155.3 
     1602.00        0.333        157.0 
     1603.00        0.300        155.6 
     1604.00        0.200        148.7 
     1605.00        0.267        146.2 
     1606.00        0.233        141.3 
     1607.00        0.283        139.6 
     1608.00        0.200        127.7 
     1609.00        0.167        129.8 
     1610.00        0.267        142.4 
     1611.00        0.167        151.3 
     1612.00        0.100        154.4 
     1613.00        0.167        154.5 
     1614.00        0.267        138.5 
     1615.00        0.233         97.0 
     1616.00        3.883        372.6 
     1617.00        0.200        319.7 
     1618.00        0.433        280.2 
     1619.00        0.300        207.7 
     1620.00        0.450        180.2 
     1621.00        0.400        159.8 
     1622.00        0.333        167.6 
     1623.00        0.300        187.4 
     1624.00        0.267        188.2 
     1625.00        0.267        177.9 
     1626.00        0.267        164.5 
     1627.00        0.233        147.2 
     1628.00        0.233        141.3 
     1629.00        0.233        137.0 
     1630.00        0.200        131.9 
     1631.00        0.267        129.1 
     1632.00        0.217        122.9 
     1633.00        0.200        120.8 
     1634.00        0.267        120.7 
     1635.00        0.233        121.8 
     1636.00        0.233        121.4 
     1637.00        0.233        122.7 
     1638.00        0.267        129.7 
     1639.00        0.200        130.8 
     1640.00        0.200        128.3 
