~Version Information
VERS.                      2.0: CWLS Log ASCII Standard - VERSION 2.0
WRAP.                       NO: One line per depth step
~Well Information Block
STRT.FT               430.0000: 
STOP.FT              2827.0000: 
STEP.FT                 0.1000: 
NULL.                -999.2500: 
COMP.          Pioneer Natural Resources: COMPANY
WELL.           Ei-ei-oh 31-24: WELL
FLD.           Purgatoire River: FIELD
LOC.           235' FNL & 2001' FEL--: LOCATION
PROV.                 Colorado: PROVINCE
CNTY.               Las Animas: COUNTRY
SRVC.                Patterson: SERVICE COMPANY
DATE.          Thu Jun 16 07:14:41 2005: LOG DATE
UWI.           05 071 08403 00: UNIQUE WELL ID
~Curve Information Block
DEPT.FT            0 000 00 00: Depth
DCAL.in                       : CDL Caliper
DPOR.pu                       : CDL Density Porosity
NPOR.pu                       : Neutron Porosity
RHOB.g/cc                     : CDL Bulk Density
RHOC.g/cc                     : CDL Density Correction
GR.GAPI                       : Gamma Ray
~Parameter Information Block
~A  Depth       DCAL        DPOR        NPOR        RHOB        RHOC         GR     
# ...
  2810.8000      7.7842     10.3732     17.3137      2.4788      0.0524   -999.2500
  2810.9000      7.7842      9.7525     17.1733      2.4891      0.0286   -999.2500
  2811.0000      7.8089      8.9194     17.0577      2.5028      0.0481   -999.2500
  2811.1000      7.8089      8.1812     17.0696      2.5150      0.0308   -999.2500
  2811.2000      7.8089      7.6905     17.2629      2.5231      0.0672   -999.2500
  2811.3000      7.8257      7.9354     17.2305      2.5191      0.0835   -999.2500
  2811.4000      7.8257      9.1661     17.1778      2.4988      0.0719   -999.2500
  2811.5000      7.8324     10.5375     18.0759      2.4761      0.0441   -999.2500
  2811.6000      7.8324     10.9605     19.4786      2.4692      0.0262   -999.2500
  2811.7000      7.8324     10.4001     19.7848      2.4784      0.0437   -999.2500
  2811.8000      7.8348      9.9366     18.8373      2.4860      0.0699   -999.2500
  2811.9000      7.8348     10.4188     17.6299      2.4781      0.0816   -999.2500
  2812.0000      7.8354     11.0353     17.0356      2.4679      0.0169   -999.2500
  2812.1000      7.8354     10.3661     17.4998      2.4790      0.0303   -999.2500
  2812.2000      7.8354      8.8795     18.3156      2.5035      0.1000   -999.2500
  2812.3000      7.8349      8.2613     18.2865      2.5137      0.0658   -999.2500
  2812.4000      7.8349      8.4315     17.2409      2.5109      0.0196   -999.2500
  2812.5000      7.8329      8.3129     16.1674      2.5128      0.0673   -999.2500
  2812.6000      7.8329      7.9839     16.0365      2.5183      0.0278   -999.2500
  2812.7000      7.8329      7.7347     16.5561      2.5224      0.0571   -999.2500
  2812.8000      7.8299      7.9535     17.0399      2.5188      0.1018   -999.2500
  2812.9000      7.8299      9.1946     17.5005      2.4983      0.0491   -999.2500
  2813.0000      7.8287     10.5483     17.9635      2.4760     -0.0113   -999.2500
  2813.1000      7.8287     10.5810     18.2992      2.4754      0.0482   -999.2500
  2813.2000      7.8287      9.7911     18.4233      2.4884      0.0462   -999.2500
  2813.3000      7.8274      9.5163     18.1539      2.4930      0.0497   -999.2500
  2813.4000      7.8274      9.8283     17.5073      2.4878      0.0554   -999.2500
  2813.5000      7.8261      9.8195     16.8477      2.4880      0.0382   -999.2500
  2813.6000      7.8261      8.8667     16.3008      2.5037      0.0283   -999.2500
  2813.7000      7.8261      7.4259     16.0264      2.5275      0.0749   -999.2500
  2813.8000      7.8215      6.7207     16.1419      2.5391      0.0802   -999.2500
  2813.9000      7.8215      7.3938     16.3622      2.5280      0.1058   -999.2500
  2814.0000      7.8111      8.7056     16.2327      2.5064      0.0411   -999.2500
  2814.1000      7.8111      9.4254     15.7072      2.4945      0.0589   -999.2500
  2814.2000      7.8111      9.3939     15.2902      2.4950      0.0606   -999.2500
  2814.3000      7.8052      9.2145     15.5968      2.4980      0.0388   -999.2500
  2814.4000      7.8052      9.2923     18.0733      2.4967      0.0514   -999.2500
  2814.5000      7.8055      9.7151     25.9495      2.4897      0.0481   -999.2500
  2814.6000      7.8055     10.4060     38.5335      2.4783      0.0364   -999.2500
  2814.7000      7.8055     10.9389     47.7266      2.4695      0.0138   -999.2500
  2814.8000      7.8072     10.6009     51.0385      2.4751      0.0182   -999.2500
  2814.9000      7.8072      9.3809     51.6862      2.4952      0.0408   -999.2500
  2815.0000      7.8073      8.3001     51.7548      2.5130      0.0483   -999.2500
  2815.1000      7.8073      8.2577     51.7587      2.5137      0.0575   -999.2500
  2815.2000      7.8073      8.9579   -999.2500      2.5022      0.0167   -999.2500
  2815.3000      7.8033      9.6709   -999.2500      2.4904      0.0455   -999.2500
  2815.4000      7.8033     10.2037   -999.2500      2.4816      0.0185   -999.2500
  2815.5000      7.7962     10.2004   -999.2500      2.4817      0.0368   -999.2500
  2815.6000      7.7962      9.1523   -999.2500      2.4990      0.0370   -999.2500
  2815.7000      7.7962      7.6306   -999.2500      2.5241      0.0694   -999.2500
  2815.8000      7.7914      7.0453   -999.2500      2.5338      0.1150   -999.2500
  2815.9000      7.7914      7.6465   -999.2500      2.5238      0.0636   -999.2500
  2816.0000      7.7908      7.9351   -999.2500      2.5191      0.0351   -999.2500
  2816.1000      7.7908      6.9717   -999.2500      2.5350      0.0556   -999.2500
  2816.2000      7.7908      5.7259   -999.2500      2.5555      0.0912   -999.2500
  2816.3000      7.7925      5.2442   -999.2500      2.5635      0.0948   -999.2500
  2816.4000      7.7925      5.1723   -999.2500      2.5647      0.0559   -999.2500
  2816.5000      7.7940      5.1372   -999.2500      2.5652      0.0663   -999.2500
  2816.6000      7.7940      5.6257   -999.2500      2.5572      0.0644   -999.2500
  2816.7000      7.7940      6.7357   -999.2500      2.5389      0.0452   -999.2500
  2816.8000      7.7958      7.6606   -999.2500      2.5236      0.0066   -999.2500
  2816.9000      7.7958      7.8066   -999.2500      2.5212      0.0565   -999.2500
  2817.0000      7.7946      7.4974   -999.2500      2.5263      0.0461   -999.2500
  2817.1000      7.7946      7.3455   -999.2500      2.5288      0.0768   -999.2500
  2817.2000      7.7946      7.8487   -999.2500      2.5205      0.0552   -999.2500
  2817.3000      7.7890      8.6994   -999.2500      2.5065      0.0162   -999.2500
  2817.4000      7.7890      9.0641   -999.2500      2.5004      0.0430   -999.2500
  2817.5000      7.7841      8.9301   -999.2500      2.5027      0.0648   -999.2500
  2817.6000      7.7841      8.7136   -999.2500      2.5062      0.0386   -999.2500
  2817.7000      7.7841      8.3202   -999.2500      2.5127      0.0584   -999.2500
  2817.8000      7.7817      7.4939   -999.2500      2.5264      0.0739   -999.2500
  2817.9000      7.7817      6.2219   -999.2500      2.5473      0.0632   -999.2500
  2818.0000      7.7799      4.9217   -999.2500      2.5688      0.0994   -999.2500
  2818.1000      7.7799      4.2899   -999.2500      2.5792      0.1167   -999.2500
  2818.2000      7.7799      4.4851   -999.2500      2.5760      0.0908   -999.2500
  2818.3000      7.7783      5.0979   -999.2500      2.5659      0.0698   -999.2500
  2818.4000      7.7783      5.6948   -999.2500      2.5560      0.0740   -999.2500
  2818.5000      7.7782      6.0834   -999.2500      2.5496      0.0587   -999.2500
  2818.6000      7.7782      6.4671   -999.2500      2.5433      0.0587   -999.2500
  2818.7000      7.7782      7.1475   -999.2500      2.5321      0.0593   -999.2500
  2818.8000      7.7782      8.0171   -999.2500      2.5177      0.0472   -999.2500
  2818.9000      7.7782      8.3298   -999.2500      2.5126      0.0429   -999.2500
  2819.0000      7.7773      7.5784   -999.2500      2.5250      0.0496   -999.2500
  2819.1000      7.7773      6.5426   -999.2500      2.5420      0.0726   -999.2500
  2819.2000      7.7773      6.4415   -999.2500      2.5437      0.0814   -999.2500
  2819.3000      7.7756      7.2275   -999.2500      2.5307      0.0637   -999.2500
  2819.4000      7.7756      7.6245   -999.2500      2.5242      0.0574   -999.2500
  2819.5000      7.7751      7.1074   -999.2500      2.5327      0.0884   -999.2500
  2819.6000      7.7751      6.4806   -999.2500      2.5431      0.0765   -999.2500
  2819.7000      7.7751      6.0304   -999.2500      2.5505      0.0672   -999.2500
  2819.8000      7.7760      5.4766   -999.2500      2.5596      0.0874   -999.2500
  2819.9000      7.7760      5.5209   -999.2500      2.5589      0.1083   -999.2500
  2820.0000      7.7777      6.5825   -999.2500      2.5414      0.0573   -999.2500
  2820.1000      7.7777      7.7572   -999.2500      2.5220      0.0559   -999.2500
  2820.2000      7.7777      8.5909   -999.2500      2.5082      0.0697   -999.2500
  2820.3000      7.7787      9.5393   -999.2500      2.4926      0.0434   -999.2500
