~Version Information
VERS.                      2.0: CWLS Log ASCII Standard - VERSION 2.0
WRAP.                       NO: One line per depth step
~Well Information Block
STRT.FT                -8.5000: 
STOP.FT              1968.0000: 
STEP.FT                 0.2500: 
NULL.                -999.2500: 
COMP.          Pioneer Natural Resources: COMPANY
WELL.           Firehawk 34-26: WELL
FLD.           Purgatorie River: FIELD
LOC.           1196' FSL & 1595' FEL--: LOCATION
STAT.                       CO: State
CNTY.               Las Animas: COUNTY
CTRY. USA : Country
SECT. 26 : Section
TOWN. 32S : Township
RANG. 66W : Range 
SRVC.          Patterson Wireline: SERVICE COMPANY
DATE.          Tue Oct 25 14:45:07 2005: LOG DATE
API.           05 071 08389 00: UNIQUE WELL ID
~Curve Information Block
DEPT.FT            0 000 00 00: Depth
CCL.                          : Casing Collar Locator
TT3.usec                      : CBL 3' Travel Time
AMP3.mV                       : CBL 3' Amplitude
GR.GAPI                       : Gamma Ray
~Parameter Information Block
~A  Depth       CCL         TT3         AMP3         GR     
# ...
  1934.5000      0.0000    279.1390     70.7774     74.8792
  1934.7500      0.0000    279.1153     70.4010     65.4523
  1935.0000      0.0000    279.0981     69.9337     57.7563
  1935.2500      0.0000    279.0853     69.4269     54.1733
  1935.5000      0.0000    279.0749     68.9411     55.0953
  1935.7500      0.0000    279.0655     68.5005     59.5289
  1936.0000      0.0000    279.0567     68.0776     65.7801
  1936.2500      0.0000    279.0509     67.6249     71.6063
  1936.5000      0.0000    279.0529     67.1215     74.9511
  1936.7500      0.0000    279.0659     66.5894     75.3934
  1937.0000      0.0000    279.0856     66.0759     74.5359
  1937.2500      0.0000    279.1007     65.6253     74.5556
  1937.5000      0.0000    279.1017     65.2642     76.4676
  1937.7500      0.0000    279.0909     65.0006     79.6671
  1938.0000      0.0000    279.0807     64.8245     82.6552
  1938.2500      0.0000    279.0814     64.7043     84.0681
  1938.5000      0.0000    279.0913     64.5986     83.4062
  1938.7500      0.0000    279.0996     64.4828     81.2118
  1939.0000      0.0000    279.0973     64.3565     78.6471
  1939.2500      0.0000    279.0834     64.2142     76.7449
  1939.5000      0.0000    279.0617     64.0164     75.9874
  1939.7500      0.0000    279.0349     63.6989     76.4425
  1940.0000      0.0000    279.0047     63.2198     77.8275
  1940.2500      0.0000    278.9732     62.6011     79.4424
  1940.5000      0.0000    278.9453     61.9127     80.7371
  1940.7500      0.0000    278.9284     61.1918     82.1896
  1941.0000      0.0000    278.9336     60.3795     85.0126
  1941.2500      0.0000    278.9733     59.3578     89.6726
  1941.5000      0.0000    279.0541     58.0591     95.1234
  1941.7500      0.0000    279.1677     56.5248     99.5877
  1942.0000      0.0000    279.2946     54.8423    101.5481
  1942.2500      0.0000    279.4206     53.0264    100.0559
  1942.5000      0.0000    279.5507     50.9867     95.0386
  1942.7500      0.0000    279.7073     48.6310     87.6913
  1943.0000      0.0000    279.9123     46.0101     80.0597
  1943.2500      0.0000    280.1665     43.3617     73.9660
  1943.5000      0.0000    280.4438     41.0053     70.3705
  1943.7500      0.0000    280.7086     39.1643     69.3435
  1944.0000      0.0000    280.9510     37.8436     70.1439
  1944.2500      0.0000    281.2338     36.8581     71.5645
  1944.5000      0.0000    281.7587     35.9847     72.7503
  1944.7500      0.0000    282.9708     35.0878     73.6892
  1945.0000      0.0000    285.5843     34.1217     74.6328
  1945.2500      0.0000    290.2637     33.0709     75.1685
  1945.5000      0.0000    296.9523     31.9237     74.3766
  1945.7500      0.0000    304.4874     30.6785     72.1355
  1946.0000      0.0000    311.1652     29.3457     69.7745
  1946.2500      0.0000    315.8519     27.9557     68.9509
  1946.5000      0.0000    318.5179     26.5706     70.1355
  1946.7500      0.0000    319.8352     25.2505     72.4849
  1947.0000      0.0000    320.5107     23.9951     74.8457
  1947.2500      0.0000    321.0003     22.7441     76.5474
  1947.5000      0.0000    321.6186     21.4457     77.5676
  1947.7500      0.0000    323.0493     20.1053     78.3000
  1948.0000      0.0000    327.4415     18.7632     79.0489
  1948.2500      0.0000    340.0805     17.4471     79.6405
  1948.5000      0.0000    369.9348     16.1564     79.6342
  1948.7500      0.0000    425.8509     14.8847     78.8668
  1949.0000      0.0000    508.2391     13.6511     77.5829
  1949.2500      0.0000    603.8458     12.5131     76.0779
  1949.5000      0.0000    691.9040     11.5453     74.5967
  1949.7500      0.0000    757.3629     10.7977     73.6290
  1950.0000      0.0000    797.3241     10.2723     73.8216
  1950.2500      0.0000    816.0262      9.9332     75.3334
  1950.5000      0.0000    817.8397      9.7322     77.4690
  1950.7500      0.0000    806.7100      9.6202     79.0994
  1951.0000      0.0000    789.0013      9.5486     79.5034
  1951.2500      0.0000    772.4721      9.4791     78.9537
  1951.5000      0.0000    761.5919      9.4028     78.5298
  1951.7500      0.0000    755.7036      9.3411     79.2780
  1952.0000      0.0000    752.0915      9.3158     81.5668
  1952.2500      0.0000    749.4161      9.3151     85.1206
  1952.5000      0.0000    748.1323      9.2974     89.3681
  1952.7500      0.0000    749.1827      9.2320     93.7391
  1953.0000      0.0000    752.6834      9.1290     97.7520
  1953.2500      0.0000    757.3553      9.0277    100.7377
  1953.5000      0.0000    761.2239      8.9579    101.2690
  1953.7500      0.0000    762.9301      8.9220     96.9937
  1954.0000      0.0000    762.3420      8.9104     85.7201
  1954.2500      0.0000    760.2460      8.9246     67.5007
  1954.5000      0.0000    757.5495      8.9776     45.8385
  1954.7500      0.0000    754.4555      9.0780     26.1187
  1955.0000      0.0000    750.4534      9.2288     12.2249
  1955.2500      0.0000    745.4790      9.4388      4.6269
  1955.5000      0.0000    741.0293      9.7138      1.4001
  1955.7500      0.0000    739.4475     10.0209      0.3357
  1956.0000      0.0000    741.6902     10.2743      0.0627
  1956.2500      0.0000    746.2556     10.3851      0.0087
  1956.5000      0.0000    750.3663     10.3342   -999.2500
  1956.7500      0.0000    751.1204     10.1910   -999.2500
  1957.0000      0.0000    744.3615     10.0527   -999.2500
  1957.2500      0.0000    723.5031      9.9589   -999.2500
  1957.5000      0.0000    683.8983      9.8432   -999.2500
  1957.7500      0.0000    632.4182      9.5617   -999.2500
  1958.0000      0.0000    590.2341      9.0044   -999.2500
  1958.2500      0.0000    579.1899      8.2259   -999.2500
  1958.5000      0.0000    602.2590      7.4584   -999.2500
  1958.7500      0.0000    638.8587      6.9300   -999.2500
  1959.0000      0.0000    658.1788      6.6329   -999.2500
  1959.2500      0.0000    634.8735      6.2897   -999.2500
  1959.5000      0.0000    557.5552      5.5744   -999.2500
  1959.7500     -2.0000    433.7711      4.3902   -999.2500
  1960.0000      0.0000    290.7343      2.9625   -999.2500
  1960.2500      0.0000    163.6581      1.6692   -999.2500
  1960.5000      0.0000     75.7824      0.7707   -999.2500
  1960.7500      0.0000     28.4163      0.2877   -999.2500
  1961.0000      0.0000      8.5303      0.0859   -999.2500
  1961.2500      0.0000      2.0307      0.0203   -999.2500
  1961.5000      0.0000      0.3775      0.0038   -999.2500
  1961.7500      0.0000   -999.2500   -999.2500   -999.2500
  1962.0000      0.0000   -999.2500   -999.2500   -999.2500
  1962.2500      0.0000   -999.2500   -999.2500   -999.2500
  1962.5000      0.0000   -999.2500   -999.2500   -999.2500
  1962.7500      0.0000   -999.2500   -999.2500   -999.2500
  1963.0000      0.0000   -999.2500   -999.2500   -999.2500
  1963.2500      0.0000   -999.2500   -999.2500   -999.2500
  1963.5000      0.0000   -999.2500   -999.2500   -999.2500
  1963.7500      0.0000   -999.2500   -999.2500   -999.2500
  1964.0000      0.0000   -999.2500   -999.2500   -999.2500
  1964.2500      0.0000   -999.2500   -999.2500   -999.2500
  1964.5000      0.0000   -999.2500   -999.2500   -999.2500
  1964.7500      0.0000   -999.2500   -999.2500   -999.2500
  1965.0000      0.0000   -999.2500   -999.2500   -999.2500
  1965.2500      0.0000   -999.2500   -999.2500   -999.2500
  1965.5000      0.0000   -999.2500   -999.2500   -999.2500
  1965.7500      0.0000   -999.2500   -999.2500   -999.2500
  1966.0000      0.0000   -999.2500   -999.2500   -999.2500
  1966.2500      0.0000   -999.2500   -999.2500   -999.2500
  1966.5000      0.0000   -999.2500   -999.2500   -999.2500
  1966.7500      0.0000   -999.2500   -999.2500   -999.2500
  1967.0000      0.0000   -999.2500   -999.2500   -999.2500
  1967.2500      0.0000   -999.2500   -999.2500   -999.2500
  1967.5000   -999.2500   -999.2500   -999.2500   -999.2500
  1967.7500   -999.2500   -999.2500   -999.2500   -999.2500
