~Version Information
VERS.                      2.0: CWLS Log ASCII Standard - VERSION 2.0
WRAP.                       NO: One line per depth step
~Well Information Block
STRT.FT                -9.5000: 
STOP.FT              2893.0000: 
STEP.FT                 0.2500: 
NULL.                -999.2500: 
COMP.          Pioneer Natural Resources: COMPANY
WELL.          Old Yeller 31-32: WELL
FLD.           Purgatoire River: FIELD
LOC.           1832' FEL & 793' FNL----: LOCATION
STAT.                 Colorado: State
CNTY.               Las Animas: COUNTY
CTRY. USA : Country
SECT. 32 : Section
TOWN. 32S : Township
RANG. 67W : Range
SRVC.                         : SERVICE COMPANY
DATE.          Fri Sep 02 16:45:38 2005: LOG DATE
API. 05-071-08356                         : UNIQUE WELL ID
~Curve Information Block
DEPT.FT            0 000 00 00: Depth
CCL.                          : Casing Collar Locator
TT3.usec                      : CBL 3' Travel Time
AMP5.mV                       : CBL 5' Amplitude
GR.GAPI                       : Gamma Ray
~Parameter Information Block
~A  Depth       CCL         TT3         AMP5         GR     
# ...
   962.0000      0.0000    774.9713      3.3466    152.4662
   962.2500      0.0000    779.7367      3.8689    151.7701
   962.5000      0.0000    783.1835      3.4337    150.9854
   962.7500      0.0000    783.5212      3.7819    150.3970
   963.0000      0.0000    780.6318      4.2171    149.9216
   963.2500      0.0000    773.8246      3.6078    149.8639
   963.5000      0.0000    759.5901      4.1300    150.7028
   963.7500      0.0000    732.5664      3.8689    152.1320
   964.0000      0.0000    690.1043      3.9559    152.8389
   964.2500      0.0000    636.7398      4.3912    151.5396
   964.5000      0.0000    582.5479      3.8689    148.1493
   964.7500      0.0000    534.9894      3.9559    143.9491
   965.0000      0.0000    493.0631      4.3041    140.8317
   965.2500      0.0000    451.2421      4.0430    140.3574
   965.5000      0.0000    408.7950      3.6948    142.9216
   965.7500      0.0000    373.8327      4.0430    147.1690
   966.0000      0.0000    358.5440      5.4357    150.4094
   966.2500      0.0000    371.3722      3.4337    150.4447
   966.5000      0.0000    411.9871      2.0409    147.2672
   966.7500      0.0000    470.0446      2.0409    142.6944
   967.0000      0.0000    528.6907      2.9114    138.4956
   967.2500      0.0000    573.7136      2.6503    135.3439
   967.5000      0.0000    602.4662      2.6503    133.3082
   967.7500      0.0000    623.1098      2.6503    132.6352
   968.0000     -2.0000    643.7217      2.3891    133.8860
   968.2500      2.0000    663.2469      3.0855    137.5534
   968.5000      0.0000    673.5757      2.4762    143.5721
   968.7500      0.0000    667.8947      2.7373    151.0816
   969.0000      0.0000    645.8277      2.8243    158.6131
   969.2500      0.0000    612.4848      2.2150    164.5373
   969.5000      0.0000    574.1078      2.6503    167.4355
   969.7500      0.0000    535.2520      2.3891    166.4430
   970.0000      0.0000    500.3391      2.5632    161.7586
   970.2500      0.0000    476.5439      2.2150    154.9213
   970.5000      0.0000    472.3746      1.1705    148.3107
   970.7500      0.0000    492.0155      2.9114    144.1141
   971.0000      0.0000    531.5488      2.7373    143.3688
   971.2500      0.0000    580.2385      2.5632    145.3578
   971.5000      0.0000    625.3111      4.2171    147.8894
   971.7500      0.0000    657.8267      3.3466    148.7833
   972.0000      0.0000    676.1031      3.6078    147.3666
   972.2500      0.0000    683.8268      3.6948    144.4893
   972.5000      0.0000    685.3754      3.5207    141.4851
   972.7500      0.0000    682.6331      4.2171    139.4583
   973.0000      0.0000    675.3344      3.8689    139.2198
   973.2500      0.0000    663.9999      3.6948    141.3632
   973.5000      0.0000    652.6763      4.3041    146.1624
   973.7500      0.0000    647.6979      3.5207    153.1582
   974.0000      0.0000    652.3215      3.7819    160.7451
   974.2500      0.0000    663.4777      3.4337    166.6295
   974.5000      0.0000    674.9045      3.5207    169.1677
   974.7500      0.0000    682.5477      3.9559    168.3340
   975.0000      0.0000    686.2184      3.0855    165.3853
   975.2500      0.0000    687.5756      3.3466    161.6942
   975.5000      0.0000    688.0272      3.6948    157.9956
   975.7500      0.0000    688.1851      2.9114    154.6113
   976.0000      0.0000    688.2110      3.3466    152.0676
   976.2500      0.0000    688.1703      3.2596    151.1776
   976.5000      0.0000    688.1549      3.6078    152.3203
   976.7500      0.0000    688.2092      3.1725    154.7054
   977.0000      0.0000    688.2861      3.7819    156.7309
   977.2500      0.0000    688.2998      2.9984    157.2661
   977.5000      0.0000    688.2162      2.9114    156.4036
   977.7500      0.0000    688.0654      3.2596    154.8902
   978.0000      0.0000    687.8881      2.8243    153.3333
   978.2500      0.0000    687.7076      3.6948    152.2798
   978.5000      0.0000    687.5409      2.9114    152.3849
   978.7500      0.0000    687.4037      3.1725    153.7193
   979.0000      0.0000    687.3106      3.4337    155.1725
   979.2500      0.0000    687.2908      3.2596    155.3710
   979.5000      0.0000    687.3775      3.3466    154.2669
   979.7500      0.0000    687.5505      2.7373    153.2388
   980.0000      0.0000    687.7130      3.6948    153.4064
   980.2500      0.0000    687.7622      2.9114    154.3906
   980.5000      0.0000    687.6849      3.4337    154.9516
   980.7500      0.0000    687.5389      2.9114    154.1975
   981.0000      0.0000    687.3413      3.1725    151.9255
   981.2500      0.0000    686.7420      3.1725    148.5558
   981.5000      0.0000    684.4951      2.8243    145.0682
   981.7500      0.0000    677.9554      3.5207    142.3949
   982.0000      0.0000    664.0350      3.0855    140.7327
   982.2500      0.0000    642.9612      3.1725    139.8986
   982.5000      0.0000    622.0677      3.8689    140.1553
   982.7500      0.0000    612.9466      3.0855    141.8648
   983.0000      0.0000    621.5318      3.7819    144.2176
   983.2500      0.0000    642.0688      3.3466    145.1098
   983.5000      0.0000    662.5400      4.1300    142.7927
   983.7500      0.0000    673.6548      3.6078    137.3705
   984.0000      0.0000    670.4841      3.8689    130.4980
   984.2500      0.0000    648.4877      3.5207    123.8611
   984.5000      0.0000    603.2150      4.0430    118.0340
   984.7500      0.0000    536.3888      3.7819    112.5746
   985.0000      0.0000    460.4755      3.9559    106.8671
   985.2500      0.0000    393.4051      4.0430    100.5987
   985.5000      0.0000    347.2054      4.0430     93.5897
   985.7500      0.0000    322.2911      4.1300     85.7316
   986.0000      0.0000    311.6354      4.0430     77.3584
   986.2500      0.0000    307.8677      4.3912     69.3424
   986.5000      0.0000    306.6797      3.6948     62.5563
   986.7500      0.0000    306.5081      4.4782     57.2794
   987.0000      0.0000    307.5174      3.6948     53.1338
   987.2500      0.0000    311.6447      4.4782     49.5754
   987.5000      0.0000    323.5532      3.8689     46.4687
   987.7500      0.0000    350.5785      3.8689     44.1357
   988.0000      0.0000    398.9702      3.6948     42.9135
   988.2500      0.0000    467.2142      3.2596     42.8732
   988.5000      0.0000    543.0864      3.6948     44.0975
   988.7500      0.0000    610.0834      2.9984     46.9914
   989.0000      0.0000    658.2088      3.3466     51.9712
   989.2500      0.0000    688.2541      2.5632     58.7935
   989.5000      0.0000    707.0763      3.1725     66.3983
   989.7500      0.0000    721.0009      2.4762     73.6672
   990.0000      0.0000    732.9959      2.8243     80.5041
   990.2500      0.0000    743.1282      2.6503     88.0503
   990.5000      0.0000    750.0515      2.4762     97.6045
   990.7500      0.0000    752.4694      2.3891    109.2695
   991.0000      0.0000    750.3018      2.1280    121.5751
   991.2500      0.0000    745.2977      2.1280    132.2010
   991.5000      0.0000    740.4604      2.6503    139.2406
   991.7500      0.0000    737.7793      1.8668    142.3786
   992.0000      0.0000    736.1269      2.2150    143.0384
   992.2500      0.0000    732.4103      2.3021    143.0738
   992.5000      0.0000    725.3698      2.8243    143.2830
   992.7500      0.0000    717.2535      2.3891    143.3567
   993.0000      0.0000    711.1628      2.7373    142.8772
   993.2500      0.0000    707.5402      3.1725    141.6832
   993.5000      0.0000    703.7978      2.6503    139.4170
   993.7500      0.0000    696.1740      3.2596    135.6090
   994.0000      0.0000    681.5666      2.9984    130.5317
   994.2500      0.0000    660.2193      3.0855    125.5459
   994.5000      0.0000    638.9788      3.4337    122.3398
   994.7500      0.0000    628.7985      3.7819    121.8081
   995.0000      0.0000    634.0078      3.1725    123.4987
   995.2500      0.0000    644.3950      3.3466    126.0284
