~Version Information
 VERS.                                  2.0 : CWLS LAS VERSION
 WRAP.                                   NO : WRAPING MODE
 SWARE .                 MController 2.5.0E : SOFTWARE VERSION
~Well Information
 WELL.                                  N/A : WELL
 COMP.                                  N/A : COMPANY
 FLD.                                   N/A : FIELD
 LOC.                                   N/A : LOCATION
 DATE.                                  N/A : DATE(S) LOGGED
 SRVC.                                  N/A : SERVICE COMPANY
 STAT.                                  N/A : STATE
 CNTY.                                  N/A : COUNTY
 CTRY.                                  N/A : COUNTRY
 API.                                   N/A : API NUMBER
 STRT.FT                              94.00 : START DEPTH
 STOP.FT                            1931.00 : STOP DEPTH
 STEP.FT                               1.00 : DEPTH INCREMENT
 NULL.                                -9999 : NULL VALUE
~Curve information
 DEPTH.FT                                   :
 ROP.MIN/FT                                 :
 GAS.UNITS                                  :
~ASCII Log data
# ...
      294.00        0.233          4.9 
      295.00        0.067          4.9 
      296.00        0.200          5.3 
      297.00        0.267          5.7 
      298.00        0.133          5.4 
      299.00        0.133          5.4 
      300.00        0.167          5.8 
      301.00        0.200          5.7 
      302.00        0.200          5.6 
      303.00        0.200          5.3 
      304.00        0.233          5.4 
      305.00        0.167          5.2 
      306.00        0.217          5.4 
      307.00        0.233          5.9 
      308.00        0.233          6.0 
      309.00        0.200          5.6 
      310.00        0.200          5.9 
      311.00        0.167          6.0 
      312.00        0.133          5.7 
      313.00        0.133          5.7 
      314.00        0.200          6.2 
      315.00        0.200          6.4 
      316.00        0.200          6.2 
      317.00        0.233          5.9 
      318.00        0.267          6.0 
      319.00        0.200          5.9 
      320.00        0.200          6.4 
      321.00        0.200          5.9 
      322.00        0.283          6.6 
      323.00        0.200          6.1 
      324.00        0.233          7.0 
      325.00        0.333          6.5 
      326.00        0.267          6.5 
      327.00        1.367          6.9 
      328.00        0.467          6.1 
      329.00        0.233          6.2 
      330.00        0.283          5.9 
      331.00        0.267          6.9 
      332.00        0.200          6.9 
      333.00        0.267          6.3 
      334.00        0.267          6.2 
      335.00        0.267          6.2 
      336.00        0.233          6.8 
      337.00        0.267          6.3 
      338.00        0.233          6.3 
      339.00        0.233          6.2 
      340.00        0.233          6.4 
      341.00        0.200          6.7 
      342.00        0.133          6.7 
      343.00        0.200          6.0 
      344.00        0.233          6.4 
      345.00        0.217          6.4 
      346.00        0.233          6.5 
      347.00        0.267          6.8 
      348.00        0.200          7.0 
      349.00        0.233          6.4 
      350.00        0.267          7.2 
      351.00        0.267          6.9 
      352.00        0.267          6.6 
      353.00        0.200          6.4 
      354.00        0.233          7.1 
      355.00        0.200          6.7 
      356.00        0.233          6.7 
      357.00        1.583          7.3 
      358.00        0.267          6.5 
      359.00        0.233          6.8 
      360.00        0.233          6.9 
      361.00        0.233          6.6 
      362.00        0.233          6.4 
      363.00        0.267          6.9 
      364.00        0.233          6.4 
      365.00        0.267          6.7 
      366.00        0.300          6.9 
      367.00        0.250          6.9 
      368.00        0.233          7.0 
      369.00        0.233          6.5 
      370.00        0.233          6.6 
      371.00        0.200          6.7 
      372.00        0.167          7.4 
      373.00        0.133          6.9 
      374.00        0.200          6.8 
      375.00        0.300          6.7 
      376.00        0.200          6.9 
      377.00        0.167          6.8 
      378.00        0.167          6.6 
      379.00        0.167          7.4 
      380.00        0.133          7.2 
      381.00        0.133          7.2 
      382.00        0.133          7.3 
      383.00        0.200          7.3 
      384.00        0.217          7.2 
      385.00        0.133          7.3 
      386.00        0.200          7.8 
      387.00        4.317          8.0 
      388.00        0.233          7.3 
      389.00        0.233          7.3 
      390.00        0.267          7.6 
      391.00        0.233          6.6 
      392.00        0.167          6.9 
      393.00        0.100          7.0 
      394.00        0.133          7.0 
      395.00        0.100          7.2 
      396.00        0.100          7.2 
      397.00        0.100          6.4 
      398.00        0.133          6.4 
      399.00        0.133          6.2 
      400.00        0.150          6.2 
      401.00        0.100          5.6 
      402.00        0.100          5.6 
      403.00        0.233          5.2 
      404.00        0.200          5.0 
      405.00        0.267          4.7 
      406.00        0.267          4.7 
      407.00        0.233          4.1 
      408.00        0.267          3.8 
      409.00        0.300          4.0 
      410.00        0.167          3.3 
      411.00        0.200          3.7 
      412.00        0.200          3.7 
      413.00        0.200          3.4 
      414.00        0.200          2.9 
      415.00        0.200          2.9 
      416.00        0.283          2.5 
      417.00        1.833          2.7 
      418.00        0.167          2.4 
      419.00        0.267          2.9 
      420.00        0.300          2.3 
      421.00        0.233          2.4 
      422.00        0.233          2.9 
      423.00        0.317          2.5 
      424.00        0.367          2.9 
      425.00        0.300          2.5 
      426.00        0.300          2.5 
      427.00        0.267          2.5 
      428.00        0.333          3.0 
      429.00        0.267          2.6 
      430.00        0.200          2.6 
      431.00        0.167          2.8 
      432.00        0.133          3.0 
      433.00        0.133          3.7 
      434.00        0.100          3.7 
      435.00        0.167          3.5 
      436.00        0.133          4.3 
      437.00        0.133          4.4 
      438.00        0.133          3.8 
      439.00        0.150          4.0 
      440.00        0.133          4.0 
      441.00        0.167          4.0 
      442.00        0.133          4.0 
      443.00        0.100          4.3 
      444.00        0.133          4.3 
      445.00        0.100          4.8 
      446.00        0.100          4.8 
      447.00        1.967          5.2 
      448.00        0.233          3.7 
      449.00        0.317          3.8 
      450.00        0.267          3.5 
      451.00        0.233          4.2 
      452.00        0.233          4.0 
      453.00        0.267          3.2 
      454.00        0.200          3.6 
      455.00        0.233          3.3 
      456.00        0.200          3.3 
      457.00        0.233          3.1 
      458.00        0.233          3.5 
      459.00        0.233          3.3 
      460.00        0.233          3.8 
      461.00        0.233          3.6 
      462.00        0.233          3.9 
      463.00        0.200          4.0 
      464.00        0.283          4.1 
      465.00        0.200          3.8 
      466.00        0.233          3.8 
      467.00        0.167          3.7 
      468.00        0.133          3.9 
      469.00        0.167          3.9 
      470.00        0.167          4.1 
      471.00        0.200          4.3 
      472.00        0.333          4.0 
      473.00        0.233          3.9 
      474.00        0.333          4.0 
      475.00        0.233          4.1 
      476.00        0.433          4.1 
      477.00        1.350          4.3 
      478.00        0.267          4.2 
      479.00        0.267          4.2 
      480.00        0.267          4.6 
      481.00        0.267          4.6 
      482.00        0.267          4.7 
      483.00        0.533          4.7 
      484.00        0.550          4.6 
      485.00        0.267          4.6 
      486.00        0.267          4.6 
      487.00        0.267          4.7 
      488.00        0.533          5.5 
      489.00        0.267          5.5 
      490.00        0.267          5.5 
      491.00        0.533          5.3 
      492.00        0.267          5.3 
      493.00        0.550          5.2 
