~Version Information
VERS.                      2.0: CWLS Log ASCII Standard - VERSION 2.0
WRAP.                       NO: One line per depth step
~Well Information Block
STRT.FT               710.0000: 
STOP.FT              2304.5000: 
STEP.FT                 0.2500: 
NULL.                -999.2500: 
COMP.          Pioneer Natural Resources: COMPANY
WELL.           Ogallela 44-12: WELL
FLD.           Purgatoire River: FIELD
LOC.           610' FSL & 671' FEL: LOCATION
PROV.                 Colorado: PROVINCE
CNTY.               Las Animas: COUNTRY
SRVC.                Patterson: SERVICE COMPANY
DATE.          Wed Feb 23 00:14:59 2005: LOG DATE
UWI.           05 071 08283 00: UNIQUE WELL ID
~Curve Information Block
DEPT.FT            0 000 00 00: Depth
SN.Ohm-m                      : IEL Short Normal
SP.mV                         : IEL Spontaneous Potential
DIR.Ohm-m                     : IEL Induction Resistivity
GR.GAPI                       : Gamma Ray
~Parameter Information Block
~A  Depth        SN          SP         DIR          GR     
# ...
  1447.0000     11.7238    -53.9839      9.5258    153.6638
  1447.2500     14.1246    -53.7678     10.3506    150.3850
  1447.5000     18.0945    -53.4633     11.2769    136.8128
  1447.7500     24.5052    -53.0818     12.3336    122.4907
  1448.0000     33.7336    -52.6368     13.5571     96.7406
  1448.2500     44.8800    -52.1406     14.9848     79.6298
  1448.5000     55.8907    -51.6020     16.6447     58.5451
  1448.7500     64.6410    -51.0233     18.5453     49.2186
  1449.0000     69.9348    -50.3972     20.6694     43.1711
  1449.2500     71.7294    -49.7116     22.9766     43.8569
  1449.5000     70.7800    -48.9616     25.4108     49.6976
  1449.7500     68.1632    -48.1606     27.8970     55.1955
  1450.0000     64.9081    -47.3438     30.3087     63.5837
  1450.2500     61.7983    -46.5617     32.4201     68.4139
  1450.5000     59.2956    -45.8655     33.9021     73.4986
  1450.7500     57.5245    -45.2902     34.4382     75.0273
  1451.0000     56.3513    -44.8464     33.9168     74.6163
  1451.2500     55.5394    -44.5207     32.5083     73.2373
  1451.5000     54.9027    -44.2859     30.5399     71.2464
  1451.7500     54.3496    -44.1138     28.3262     70.8175
  1452.0000     53.7176    -43.9838     26.0982     72.3256
  1452.2500     52.6350    -43.8800     24.0116     74.9082
  1452.5000     50.6841    -43.7795     22.1627     80.9558
  1452.7500     47.6479    -43.6464     20.5901     86.1825
  1453.0000     43.5761    -43.4404     19.2781     95.3758
  1453.2500     38.7565    -43.1349     18.1695    102.1490
  1453.5000     33.6695    -42.7313     17.1898    112.5323
  1453.7500     28.8375    -42.2615     16.2771    118.9294
  1454.0000     24.6209    -41.7761     15.4009    126.5420
  1454.2500     21.1561    -41.3236     14.5600    129.9446
  1454.5000     18.4346    -40.9318     13.7646    132.8338
  1454.7500     16.3735    -40.6000     13.0200    133.7262
  1455.0000     14.8545    -40.3071     12.3254    133.9493
  1455.2500     13.7583    -40.0282     11.6802    133.2623
  1455.5000     12.9646    -39.7501     11.0881    130.7238
  1455.7500     12.3428    -39.4775     10.5564    128.2166
  1456.0000     11.7833    -39.2294     10.0943    124.3104
  1456.2500     11.2455    -39.0298      9.7096    122.3557
  1456.5000     10.7642    -38.8979      9.4081    121.1787
  1456.7500     10.4041    -38.8393      9.1909    121.6123
  1457.0000     10.1974    -38.8424      9.0528    123.5746
  1457.2500     10.1030    -38.8834      8.9814    125.1876
  1457.5000     10.0244    -38.9379      8.9576    127.1078
  1457.7500      9.8797    -38.9888      8.9585    127.7911
  1458.0000      9.6491    -39.0289      8.9621    127.9589
  1458.2500      9.3697    -39.0560      8.9527    127.5945
  1458.5000      9.1233    -39.0701      8.9226    126.4123
  1458.7500      9.0046    -39.0717      8.8723    125.0424
  1459.0000      9.0602    -39.0630      8.8074    121.0977
  1459.2500      9.2467    -39.0489      8.7352    116.5075
  1459.5000      9.4547    -39.0376      8.6605    106.9785
  1459.7500      9.6000    -39.0390      8.5838    100.3665
  1460.0000      9.6936    -39.0602      8.5018     93.4689
  1460.2500      9.7807    -39.1013      8.4114     92.0239
  1460.5000      9.8292    -39.1521      8.3139     94.0698
  1460.7500      9.7459    -39.1868      8.2155     97.1831
  1461.0000      9.4881    -39.1687      8.1239    103.2742
  1461.2500      9.1137    -39.0677      8.0421    108.2829
  1461.5000      8.7325    -38.8795      7.9664    117.4807
  1461.7500      8.4116    -38.6262      7.8883    124.4073
  1462.0000      8.1232    -38.3407      7.7974    134.4973
  1462.2500      7.8035    -38.0494      7.6856    140.1255
  1462.5000      7.4495    -37.7656      7.5497    146.2953
  1462.7500      7.1291    -37.4942      7.3930    149.0739
  1463.0000      6.9037    -37.2386      7.2257    151.6804
  1463.2500      6.7627    -37.0018      7.0623    152.3608
  1463.5000      6.6468    -36.7858      6.9179    151.5334
  1463.7500      6.5260    -36.5912      6.8039    149.8999
  1464.0000      6.4168    -36.4192      6.7263    147.0252
  1464.2500      6.3321    -36.2766      6.6851    145.7577
  1464.5000      6.2621    -36.1793      6.6752    145.7010
  1464.7500      6.1965    -36.1483      6.6865    146.7070
  1465.0000      6.1460    -36.1949      6.7056    148.7847
  1465.2500      6.1371    -36.3080      6.7190    149.9217
  1465.5000      6.1784    -36.4547      6.7183    150.3219
  1465.7500      6.2523    -36.5952      6.7036    149.3319
  1466.0000      6.3470    -36.7019      6.6819    145.9604
  1466.2500      6.4605    -36.7695      6.6624    142.9713
  1466.5000      6.5757    -36.8123      6.6518    138.7997
  1466.7500      6.6728    -36.8534      6.6531    136.9610
  1467.0000      6.7467    -36.9143      6.6674    136.1314
  1467.2500      6.7941    -37.0132      6.6952    136.7331
  1467.5000      6.8056    -37.1672      6.7359    138.7908
  1467.7500      6.7786    -37.3970      6.7864    140.5380
  1468.0000      6.7267    -37.7270      6.8391    143.0084
  1468.2500      6.6742    -38.1775      6.8828    144.1948
  1468.5000      6.6417    -38.7529      6.9056    144.9960
  1468.7500      6.6411    -39.4321      6.8999    144.8636
  1469.0000      6.6705    -40.1687      6.8654    143.5408
  1469.2500      6.7044    -40.9037      6.8098    141.7436
  1469.5000      6.7114    -41.5835      6.7456    137.6360
  1469.7500      6.6796    -42.1736      6.6855    134.3369
  1470.0000      6.6124    -42.6616      6.6370    129.8967
  1470.2500      6.5256    -43.0544      6.6005    128.1373
  1470.5000      6.4579    -43.3721      6.5709    128.0502
  1470.7500      6.4448    -43.6368      6.5424    129.5233
  1471.0000      6.4762    -43.8595      6.5121    133.1231
  1471.2500      6.4991    -44.0351      6.4823    135.9111
  1471.5000      6.4650    -44.1478      6.4593    139.9684
  1471.7500      6.3559    -44.1843      6.4497    142.2793
  1472.0000      6.1757    -44.1456      6.4553    144.7041
  1472.2500      5.9492    -44.0525      6.4698    145.3412
  1472.5000      5.7314    -43.9403      6.4801    144.3735
  1472.7500      5.5941    -43.8472      6.4745    142.4606
  1473.0000      5.5914    -43.7978      6.4504    138.5052
  1473.2500      5.7361    -43.7907      6.4170    135.8462
  1473.5000      5.9892    -43.7984      6.3894    132.8360
  1473.7500      6.2649    -43.7802      6.3800    131.9282
  1474.0000      6.4705    -43.7010      6.3947    132.6918
  1474.2500      6.5558    -43.5435      6.4348    134.4550
  1474.5000      6.5123    -43.3125      6.5014    137.8223
  1474.7500      6.3538    -43.0347      6.5971    139.8141
  1475.0000      6.1309    -42.7511      6.7238    141.8370
  1475.2500      5.9403    -42.5052      6.8793    142.4785
  1475.5000      5.8902    -42.3313      7.0558    142.2917
  1475.7500      6.0575    -42.2543      7.2431    141.4647
  1476.0000      6.4702    -42.2964      7.4322    139.8559
  1476.2500      7.0987    -42.4780      7.6189    139.0614
  1476.5000      7.8354    -42.8051      7.8039    138.4680
  1476.7500      8.5124    -43.2541      7.9913    138.0777
  1477.0000      8.9971    -43.7707      8.1867    136.9420
  1477.2500      9.2776    -44.2877      8.3950    135.9293
  1477.5000      9.4458    -44.7514      8.6209    134.3094
  1477.7500      9.6147    -45.1386      8.8706    132.8932
  1478.0000      9.8481    -45.4536      9.1535    129.4207
  1478.2500     10.1420    -45.7103      9.4803    126.1073
  1478.5000     10.4657    -45.9183      9.8562    120.5263
  1478.7500     10.8084    -46.0781     10.2745    117.1882
  1479.0000     11.1915    -46.1819     10.7156    113.7760
  1479.2500     11.6560    -46.2181     11.1522    112.6755
  1479.5000     12.2248    -46.1748     11.5588    111.9256
  1479.7500     12.8643    -46.0440     11.9202    111.1410
  1480.0000     13.5084    -45.8245     12.2327    108.3562
  1480.2500     14.1027    -45.5250     12.4967    105.3386
