~Version Information
 VERS.                2.0:  CWLS LOG ASCII STANDARD -VERSION 2.0
 WRAP.                 NO:  ONE LINE PER DEPTH STEP
~WELL INFORMATION BLOCK
#MNEM.UNIT       DATA		            DESCRIPTION OF MNEMONIC
#---------    -------------            ------------------------
 STRT.FT  0.500                          :START DEPTH
 STOP.FT  1812.700                       :STOP DEPTH
 STEP.FT  0.100                          :STEP    UP_HOLE  
 NULL.    -999.25                        :NULL VALUE
 COMP.              EL PASO PRODUCTIONS  :COMPANY
 WELL.                     COREHOLE #38  :WELL
 FLD .                 PURGATOIRE RIVER  :FIELD
 LOC .      15   35S   65W               :LOCATION
 CNTY.                           COLFAX  :COUNTY
 STAT.                     NM            :STATE
 CTRY.                                   :
 SRVC.     O'DRISCOLL                    :SERVICE COMPANY
 DATE.   04/28/05                        :LOG DATE
 API .                                   :API NUMBER
 LIC .                                   :LICENSE NUMBER
~Curve Information Block
#MNEM.UNIT      API CODE     Curve Description
#---------    -------------  ------------------------
 DEPT     .FT        00 001 00 00          :  1  DEPTH   
 GAMMA    .API-GR    00 310 00 00          :  2                GAMMA
 TEMP     .DEG F     00 660 00 00          :  3                 TEMP
 RES(16N) .OHM-M     00 040 00 00          :  4             RES(16N)
 RES(64N) .OHM-M     00 060 00 00          :  5             RES(64N)
 RES      .OHM       00 000 00 00          :  6                  RES
 LATERAL  .OHM-M     00 070 00 00          :  7              LATERAL
 NEUTRON  .API-N     00 000 00 00          :  8              NEUTRON
 POR(NEU) .PERCENT   00 330 00 00          :  9             POR(NEU)
 SANGB    .DEG       00 631 00 00          : 10                SANGB
 DEL_TEMP .DEG F     00 000 00 00          : 11             DEL_TEMP
 SANG     .DEG       00 620 00 00          : 12                 SANG
 SP       .MV        00 010 00 00          : 13                   SP
 TIME     .MINUTES   00 000 00 00          : 14                 TIME
~Parameter Information Block
#MNEM.UNIT   Information     Description
#---------- ---------------  ------------------------
 FILE.      ORIGINAL           :File Type
 FIID.      9057A              :File Type Identifier
 VERS.      3.58G              :System Version
 SER .      1                  :System Serial Number
 TRUK.      .498775            :Truck Calibration Number
 TOOL.        1061             :Tool Serial Number
 TIME.      1335               :Time    HrHrMinMin
 LAT .       36 59'            :Latitude
 LON .       104 39'           :Longitude
 LMF .            GL           :Log Measured From
 DMF .            GL           :Driller Measured From
 PD  .            GL           :Permanent Data
 PDEV.                         :Elevation Permanent Data
 EKB .M                        :Elevation Kelly Bushing
 ELEV.DF                       :Elevation DF
 EGL .M        7777            :Elevation Ground Level
 DRDP.          1825           :Driller's Depth
 CASD.       10.               :Casing Diameter
 CASB.           300           :Casing Bottom
 CASX.         STEEL           :Casing Type
 CAST.                         :Casing Thickness
 TNOC.                         :Time Circulation Stopped
 LOGU.        108              :Logging Unit
 RECB.           R.SIPES       :Recorded By
 OSR1.          9139           :Other Services
 OSR2.                         :Other Services
 OSR3.                         :Other Services
 BS  .MM         3.5           :Bit Size
 MST .                         :Mean Surface Temperature
 TGRD.                         :Temperature Gradiant
 MAGN.            12           :Magnetic Declination
 MDEN.       2.7               :Density Matrix
 MATR.      SANDSTONE          :Neutron Matrix
 DTMT.            54           :Delta T Matrix
 DTFL.                         :Delta T Fluid
 MUDS.                         :Mud Sample Source
 MRS .                         :Mud Resistivity
 MTP .                         :Mud Temperature
 MFRS.                         :Resistivity Mud Filtrate
 MFTP.                         :Temperature Mud Filtrate
 MCRS.                         :Resistivity Mud Cake
 MCTP.                         :Temperature Mud Cake
 FTYP.                         :Fluid Type
 FD  .K/M3                     :Fluid Density
 DFV .S                        :Fluid Viscosity
 FPH .                         :Fuild PH
 ELCO.       50000             :Electron Cutoff
~Other Information
#MNEM.UNIT  Information      Description
#---------- ---------------  ------------------------
# -------------------------- 
~A DEPTH  GAMMA    TEMP  RES(16N) RES(64N) RES      LATERAL  NEUTRON  POR(NEU) SANGB  DEL_TEMP SANG   SP    TIME    
# ...
 244.700     78.9  55.2     -0.3     10.9     11.5     -2.6    450.4  74.2  230.13 0.04  2.39  -1320.3 0.20000 
 244.800     85.2  55.2     -0.5     11.3     11.7     -2.8    455.1  73.3  227.69 -0.10  2.42  -1320.3 0.20000 
 244.900     86.8  55.2     -1.5     10.7     11.8     -4.8    433.2  74.8  226.96 -0.01  2.42  -1320.3 0.10000 
 245.000     84.7  55.2      0.0     10.0     11.0     -3.6    436.3  74.2  226.44 0.04  2.42  -1320.3 0.20000 
 245.100     82.6  55.2      2.0      9.0     11.5     -1.3    442.5  72.9  229.44 0.04  2.33  -1320.2 0.20000 
 245.200     83.6  55.2      0.3      7.8     10.7     -4.3    450.4  72.6  227.44 -0.05  2.36  -1320.2 0.20000 
 245.300     86.8  55.2     -0.5      6.9     10.9     -4.7    420.7  72.6  226.98 0.03  2.36  -1320.2 0.20000 
 245.400     94.2  55.2     -0.2      6.4     10.8     -4.6    408.1  69.8  330.42 -0.03  2.36  -1320.2 0.20000 
 245.500     98.5  55.2      3.0      6.7     10.8     -0.2    405.0  68.8  11.10  0.05  2.34  -1320.2 0.20000 
 245.600    101.1  55.2      3.2      7.0     11.2      2.2    422.2  65.4   9.29  -0.02  2.35  -1320.1 0.20000 
 245.700     95.8  55.2      2.7      7.0     11.2      3.1    476.9  65.5   9.29  -0.01  2.35  -1320.1 0.20000 
 245.800     96.9  55.2      0.5      6.9     11.0      1.3    509.8  64.7  12.13  -0.07  2.35  -1320.1 0.10000 
 245.900     97.9  55.2      1.5      6.7     11.0      3.8    547.3  63.0  321.86 0.04  2.31  -1320.3 0.20000 
 246.000     97.9  55.2      0.9      6.3     10.8      2.7    589.5  62.4  319.59 0.00  2.30  -1320.5 0.20000 
 246.100     96.9  55.2      2.0      5.9     11.0      1.4    595.8  60.0  319.59 -0.01  2.30  -1320.5 0.20000 
 246.200     93.2  55.2     -0.2      5.5     11.8     -3.5    583.3  57.3  306.42 0.02  2.30  -1320.5 0.20000 
 246.300     92.1  55.2      1.6      5.3     11.6     -1.5    578.6  54.7  291.59 0.04  2.30  -1320.5 0.20000 
 246.400     84.2  55.2      3.0      5.6     11.1      1.2    577.0  52.0  291.72 0.00  2.30  -1320.3 0.20000 
 246.500     74.1  55.2      2.3      6.0     10.7     -0.3    556.7  51.6  291.72 -0.15  2.30  -1320.3 0.20000 
 246.600     67.8  55.2      0.3      6.6     10.6     -2.4    553.6  52.1  291.64 0.07  2.30  -1320.3 0.20000 
 246.700     61.9  55.2     -0.4      7.9     12.1     -3.3    563.0  52.1  158.96 0.04  2.30  -1320.3 0.20000 
 246.800     53.5  55.2      1.6      8.9     11.1     -0.1    572.3  51.8  132.54 0.04  2.28  -1320.2 0.10000 
 246.900     49.2  55.2      1.3      9.5     11.4     -0.5    586.4  52.0  132.44 -0.13  2.28  -1320.2 0.20000 
 247.000     47.1  55.2      0.1      9.8     11.6     -3.0    603.6  52.5  132.38 0.05  2.28  -1320.2 0.20000 
 247.100     41.8  55.2      0.2      9.8     11.5     -3.3    617.7  52.8  139.71 0.08  2.28  -1320.2 0.20000 
 247.200     39.7  55.2      3.2      9.9     11.7      1.4    597.4  52.0  160.16 -0.08  2.27  -1320.2 0.20000 
 247.300     40.8  55.2      2.8      9.8     11.2      1.5    594.2  52.0  159.49 0.01  2.28  -1320.2 0.20000 
 247.400     40.2  55.2      1.4      9.9     11.1     -2.7    594.2  51.3  159.49 0.00  2.28  -1320.2 0.20000 
 247.500     39.7  55.2     -0.7     10.4     11.9     -4.5    588.0  51.1  157.18 0.00  2.28  -1320.2 0.20000 
 247.600     39.2  55.2     -0.9     10.8     12.3     -5.5    559.8  51.2  225.27 0.06  2.27  -1320.5 0.20000 
 247.700     40.2  55.2     -1.3     10.9     11.9     -6.3    556.7  50.8  226.03 -0.06  2.26  -1320.8 0.10000 
 247.800     37.6  55.2     -1.6     10.9     12.6     -6.1    584.8  50.5  226.03 0.04  2.26  -1320.8 0.20000 
 247.900     37.1  55.2     -4.5     11.1     13.3     -9.2    570.8  50.0  242.77 -0.04  2.26  -1320.8 0.20000 
 248.000     38.6  55.2     -1.7     11.0     13.0     -5.2    581.7  50.1  266.83 0.02  2.22  -1320.8 0.20000 
 248.100     34.4  55.2      0.8     11.1     13.1     -2.3    605.2  50.1  264.87 -0.07  2.21  -1320.1 0.20000 
 248.200     33.9  55.2      2.0     11.0     12.5     -2.1    623.9  49.9  264.87 0.10  2.21  -1320.1 0.20000 
 248.300     33.4  55.2      0.0     11.1     13.2     -4.5    614.6  49.8  263.03 -0.08  2.21  -1320.1 0.20000 
 248.400     39.7  55.2     -0.7     10.8     13.0     -3.8    641.1  49.0  128.80 0.06  2.21  -1320.1 0.20000 
 248.500     45.5  55.2      1.9     10.9     12.7     -0.3    659.9  48.1  105.56 -0.03  2.24  -1320.1 0.20000 
 248.600     52.9  55.2      1.0     11.4     13.2     -3.2    659.9  47.2  105.47 0.03  2.24  -1320.1 0.20000 
 248.700     56.1  55.2     -0.9     11.6     13.2     -3.9    645.8  47.2  105.27 0.03  2.24  -1320.1 0.10000 
 248.800     58.2  55.2     -1.0     12.0     14.7     -4.0    633.3  46.3  114.84 -0.10  2.24  -1320.1 0.20000 
 248.900     63.5  55.2      1.2     12.4     14.9     -2.6    627.1  45.9  146.58 0.04  2.28  -1320.5 0.20000 
 249.000     66.7  55.2      1.4     12.5     14.2     -1.8    633.3  45.3  146.48 -0.01  2.28  -1320.5 0.20000 
 249.100     70.9  55.2      1.0     13.0     15.3     -1.4    644.3  44.7  146.86 0.03  2.28  -1320.5 0.20000 
 249.200     74.6  55.2     -1.5     13.8     15.1     -7.3    684.9  44.2  118.70 -0.02  2.28  -1320.5 0.20000 
 249.300     74.1  55.3     -0.4     14.2     14.7     -7.2    703.7  43.9  229.39 -0.01  2.27  -1320.3 0.20000 
 249.400     67.2  55.3      2.7     14.5     13.9     -0.4    735.0  43.7  228.42 -0.06  2.27  -1320.2 0.20000 
 249.500     64.6  55.3      1.2     14.7     13.7     -3.3    724.0  43.1  228.42 0.02  2.27  -1320.2 0.20000 
 249.600     68.8  55.3      0.3     14.9     14.1     -5.1    752.2  42.2  238.97 0.04  2.27  -1320.2 0.10000 
 249.700     67.2  55.3      2.9     14.7     13.3     -1.3    753.7  41.8  251.17 -0.04  2.25  -1320.2 0.20000 
 249.800     64.6  55.3      2.3     14.6     12.8     -3.7    777.2  41.5  249.69 0.10  2.25  -1320.2 0.20000 
 249.900     62.5  55.3      1.0     14.3     12.3     -5.6    774.1  41.2  249.69 -0.11  2.25  -1320.2 0.20000 
 250.000     63.0  55.3     -0.1     13.4     12.5     -5.3    791.3  41.5  249.86 0.01  2.25  -1320.2 0.20000 
 250.100     62.5  55.3      0.5     12.4     12.5     -5.2    783.4  42.2  273.17 -0.22  2.25  -1320.2 0.20000 
 250.200     61.9  55.3      4.2     12.0     12.6      1.8    785.0  42.1  272.59 0.29  2.26  -1320.3 0.20000 
 250.300     61.4  55.3      1.9     11.4     12.8     -0.8    760.0  42.3  272.59 -0.07  2.26  -1320.3 0.20000 
 250.400     57.7  55.3     -0.9     10.9     12.3     -4.5    747.5  42.2  272.35 0.05  2.26  -1320.3 0.10000 
 250.500     49.8  55.2     -0.7     10.4     12.2     -4.4    764.7  42.7  291.47 0.00  2.26  -1320.3 0.20000 
 250.600     45.5  55.3      1.9      9.9     13.0      1.5    731.8  43.1  297.23 0.06  2.21  -1320.1 0.20000 
 250.700     43.9  55.2      0.8      9.4     11.8     -0.0    691.2  43.8  296.48 -0.12  2.23  -1320.1 0.20000 
 250.800     41.3  55.3      0.4      9.0     12.5     -0.8    697.4  44.5  296.47 0.12  2.23  -1320.1 0.20000 
 250.900     33.9  55.3      0.2      8.1     14.0     -1.8    700.6  44.6  290.87 -0.12  2.23  -1320.1 0.20000 
 251.000     33.4  55.3      2.8      7.4     14.9      1.8    670.9  45.1  282.49 0.06  2.16  -1320.1 0.20000 
 251.100     28.6  55.3      2.4      6.8     14.4      0.5    680.2  45.3  279.61 -0.01  2.14  -1320.1 0.20000 
 251.200     27.0  55.3      1.5      6.2     15.8     -0.9    695.9  45.7  279.61 -0.04  2.14  -1320.1 0.20000 
 251.300     27.5  55.3      1.3      5.8     14.6     -2.7    677.1  45.7  248.29 0.02  2.14  -1320.1 0.10000 
 251.400     26.5  55.3      1.9      5.9     14.3     -1.4    650.5  46.7  223.25 0.02  2.09  -1320.3 0.20000 
 251.500     26.5  55.3      2.8      6.6     13.7      0.3    658.3  47.8  221.34 0.01  2.07  -1320.4 0.20000 
 251.600     26.5  55.3      1.7      7.3     13.6      0.7    650.5  47.7  221.34 -0.02  2.07  -1320.4 0.20000 
 251.700     28.1  55.3     -0.3      7.9     14.1     -0.3    664.6  47.9  231.59 -0.01  2.07  -1320.4 0.20000 
 251.800     28.6  55.3      1.6      8.1     15.7      1.7    659.9  48.9  242.12 -0.04  2.07  -1320.4 0.20000 
