~Version Information
 VERS.                                  2.0 : CWLS LAS VERSION
 WRAP.                                   NO : WRAPING MODE
 SWARE .                 MController 2.5.0E : SOFTWARE VERSION
~Well Information
 WELL.                          Chase 21-10 : WELL
 COMP.             Evergreen Operating Corp : COMPANY
 FLD.                      Purgatorie River : FIELD
 LOC.                NE/NW Sec 10 t32S R65W : LOCATION
 DATE.                              5/23/04 : DATE(S) LOGGED
 SRVC.       Blanco Geological Services LLC : SERVICE COMPANY
 STAT.                                   CO : STATE
 CNTY.                           Las Animas : COUNTY
 CTRY.                                  USA : COUNTRY
 API.                        05 071 08006 00: API NUMBER
 UWI.                        05 071 08006 00: UNIQUE WELL ID
 STRT.FT                             481.00 : START DEPTH
 STOP.FT                            1525.00 : STOP DEPTH
 STEP.FT                               1.00 : DEPTH INCREMENT
 NULL.                                -9999 : NULL VALUE
~Curve information
 DEPTH.FT                                   :
 ROP.MIN/FT                                 :
 GAS.UNITS                                  :
~ASCII Log data
# ...
     1281.00        0.200        193.1 
     1282.00        0.167        193.8 
     1283.00        0.200        193.0 
     1284.00        0.167        173.9 
     1285.00        0.133        173.9 
     1286.00        1.233        391.3 
     1287.00        0.433       1243.0 
     1288.00        0.333       1192.2 
     1289.00        0.267       1025.1 
     1290.00        0.250        894.7 
     1291.00        0.267        807.7 
     1292.00        0.300        751.1 
     1293.00        0.267        679.4 
     1294.00        0.233        643.0 
     1295.00        0.167        627.5 
     1296.00        0.233        614.0 
     1297.00        0.167        606.6 
     1298.00        0.167        588.1 
     1299.00        0.167        578.3 
     1300.00        0.200        568.2 
     1301.00        0.200        563.8 
     1302.00        0.200        559.8 
     1303.00        0.200        558.1 
     1304.00        0.167        556.4 
     1305.00        0.233        555.4 
     1306.00        0.183        553.7 
     1307.00        0.200        549.0 
     1308.00        0.100        549.0 
     1309.00        0.167        550.0 
     1310.00        0.200        559.8 
     1311.00        0.167        571.9 
     1312.00        0.200        574.9 
     1313.00        0.167        577.0 
     1314.00        0.167        577.0 
     1315.00        0.200        538.9 
     1316.00        2.517       1019.3 
     1317.00        0.267        678.0 
     1318.00        0.233        720.1 
     1319.00        0.233        726.2 
     1320.00        0.200        702.6 
     1321.00        0.233        667.3 
     1322.00        0.233        634.6 
     1323.00        0.233        625.8 
     1324.00        0.233        622.1 
     1325.00        0.267        625.8 
     1326.00        0.383        618.7 
     1327.00        0.233        596.5 
     1328.00        0.233        565.5 
     1329.00        0.200        553.0 
     1330.00        0.233        553.0 
     1331.00        0.200        544.3 
     1332.00        0.200        538.6 
     1333.00        0.233        531.8 
     1334.00        0.200        517.7 
     1335.00        0.200        510.6 
     1336.00        0.200        505.2 
     1337.00        0.200        505.2 
     1338.00        0.200        493.4 
     1339.00        0.233        488.0 
     1340.00        0.233        484.6 
     1341.00        0.267        477.2 
     1342.00        0.250        475.9 
     1343.00        0.233        470.8 
     1344.00        0.233        462.1 
     1345.00        0.267        462.4 
     1346.00        1.733        440.2 
     1347.00        0.600       1275.0 
     1348.00        0.417       1274.7 
     1349.00        0.400        942.5 
     1350.00        0.300        803.4 
     1351.00        0.300        636.3 
     1352.00        0.300        628.8 
     1353.00        0.267        562.5 
     1354.00        0.233        524.4 
     1355.00        0.233        502.2 
     1356.00        0.267        502.5 
     1357.00        0.267        511.6 
     1358.00        0.200        518.7 
     1359.00        0.283        528.8 
     1360.00        0.200        528.8 
     1361.00        0.233        524.7 
     1362.00        0.200        525.7 
     1363.00        0.233        518.7 
     1364.00        0.233        504.9 
     1365.00        0.267        495.1 
     1366.00        0.267        486.0 
     1367.00        0.200        477.9 
     1368.00        0.233        470.8 
     1369.00        0.233        465.4 
     1370.00        0.200        463.8 
     1371.00        0.233        462.4 
     1372.00        0.233        461.1 
     1373.00        0.267        461.4 
     1374.00        0.417        462.1 
     1375.00        0.533        465.1 
     1376.00        2.167        470.5 
     1377.00        0.517        318.3 
     1378.00        0.267        288.3 
     1379.00        0.267        276.7 
     1380.00        0.233        231.2 
     1381.00        0.233        194.2 
     1382.00        0.233        167.4 
     1383.00        0.233        150.0 
     1384.00        0.267        138.6 
     1385.00        0.200        130.9 
     1386.00        0.200        118.9 
     1387.00        0.200        118.7 
     1388.00        0.200        118.7 
     1389.00        0.167        120.4 
     1390.00        0.233        121.6 
     1391.00        0.317        120.6 
     1392.00        0.200        117.7 
     1393.00        0.200        116.3 
     1394.00        0.200        116.4 
     1395.00        0.233        116.3 
     1396.00        0.200        114.1 
     1397.00        0.200        109.8 
     1398.00        0.200        106.7 
     1399.00        0.200        103.9 
     1400.00        0.233         95.8 
     1401.00        0.200         94.7 
     1402.00        0.233         85.8 
     1403.00        0.233         83.4 
     1404.00        0.267         80.6 
     1405.00        0.200         80.0 
     1406.00        1.350         68.0 
     1407.00        0.467        195.0 
     1408.00        0.400        282.8 
     1409.00        0.400        306.7 
     1410.00        0.367        251.3 
     1411.00        0.333        172.6 
     1412.00        0.250        152.2 
     1413.00        0.267        144.3 
     1414.00        0.267        120.1 
     1415.00        0.267        107.7 
     1416.00        0.200        106.2 
     1417.00        0.200        101.6 
     1418.00        0.200        101.3 
     1419.00        0.233        102.8 
     1420.00        0.200        105.1 
     1421.00        0.200        107.5 
     1422.00        0.200        109.5 
     1423.00        0.233        110.6 
     1424.00        0.200        110.0 
     1425.00        0.233        108.0 
     1426.00        0.200        106.0 
     1427.00        0.217        103.0 
     1428.00        0.200         99.4 
     1429.00        0.233         96.6 
     1430.00        0.200         92.1 
     1431.00        0.167         90.8 
     1432.00        0.167         90.9 
     1433.00        0.167         90.9 
     1434.00        0.167         93.2 
     1435.00        0.167         96.3 
     1436.00        2.083        223.2 
     1437.00        0.400        314.4 
     1438.00        0.333        289.0 
     1439.00        0.267        240.2 
     1440.00        0.333        224.3 
     1441.00        0.267        175.8 
     1442.00        0.300        149.5 
     1443.00        0.233        128.7 
     1444.00        0.233        114.1 
     1445.00        0.267        103.7 
     1446.00        0.267         95.8 
     1447.00        0.250         95.1 
     1448.00        0.267         97.7 
     1449.00        0.167         99.1 
     1450.00        0.267         99.0 
     1451.00        0.200         97.8 
     1452.00        0.200         96.6 
     1453.00        0.200         95.8 
     1454.00        0.233         94.9 
     1455.00        0.167         93.6 
     1456.00        0.267         92.3 
     1457.00        0.200         90.0 
     1458.00        0.233         88.9 
     1459.00        0.167         88.1 
     1460.00        0.200         87.4 
     1461.00        0.133         87.1 
     1462.00        0.200         87.6 
     1463.00        0.217         90.3 
     1464.00        0.200         90.6 
     1465.00        0.200         91.7 
     1466.00        1.667        167.4 
     1467.00        0.600        315.9 
     1468.00        0.333        313.9 
     1469.00        0.383        266.4 
     1470.00        0.333        193.0 
     1471.00        0.233        156.1 
     1472.00        0.300        134.5 
     1473.00        0.267        116.9 
     1474.00        0.300        106.6 
     1475.00        0.300         95.0 
     1476.00        0.300         90.7 
     1477.00        0.267         91.9 
     1478.00        0.233         93.4 
     1479.00        0.133         94.1 
     1480.00        0.200         93.1 
