~Version Information
VERS.                      2.0: CWLS Log ASCII Standard - VERSION 2.0
WRAP.                       NO: One line per depth step
~Well Information Block
STRT.FT                 0.0000: 
STOP.FT              2006.5000: 
STEP.FT                 0.2500: 
NULL.                -999.2500: 
COMP.          Petrogulf Corporation: COMPANY
WELL.           Lavedure 7-44R: WELL
FLD.           Purgatorie River: FIELD
LOC.           946' FSL & 521' FEL: LOCATION
STAT.                 Colorado: State
CNTY.               Las Animas: COUNTY
CTRY. USA : Country
SECT. 7 : Section
TOWN. 33S : Township
RANG. 67W : Range
SRVC.                Patterson: SERVICE COMPANY
DATE.          Thu Nov 10 15:49:38 2005: LOG DATE
API. 05-071-08090       : UNIQUE WELL ID
~Curve Information Block
DEPT.FT            0 000 00 00: Depth
CCL.                          : Casing Collar Locator
TT3.usec                      : CBL 3' Travel Time
AMP3.mV                       : CBL 3' Amplitude
GR.GAPI                       : Gamma Ray
~Parameter Information Block
~A  Depth       CCL         TT3         AMP3         GR     
# ...
  1306.5000      0.0000    630.0440      6.0397    112.4612
  1306.7500      0.0000    645.0815      6.4578    110.0175
  1307.0000      0.0000    662.8613      6.9083    106.9165
  1307.2500      0.0000    671.3600      7.3865    104.3657
  1307.5000      0.0000    667.6299      7.8696    103.1952
  1307.7500      0.0000    657.8895      8.3476    103.5853
  1308.0000      0.0000    650.4351      8.8274    105.5651
  1308.2500      0.0000    647.0123      9.2947    109.1126
  1308.5000      0.0000    643.0891      9.6939    113.6673
  1308.7500      0.0000    637.4370      9.9777    118.1807
  1309.0000      0.0000    633.7731     10.1694    122.0999
  1309.2500      0.0000    632.8849     10.3355    126.0070
  1309.5000      0.0000    633.6617     10.5144    130.7814
  1309.7500      0.0000    638.2906     10.7063    135.9999
  1310.0000      0.0000    647.2546     10.9019    139.3681
  1310.2500      0.0000    655.6850     11.0737    138.1834
  1310.5000      0.0000    659.2947     11.1394    131.8121
  1310.7500      0.0000    658.8369     11.0041    122.6351
  1311.0000      0.0000    658.2238     10.6655    114.1436
  1311.2500      0.0000    659.8276     10.2490    108.1063
  1311.5000      0.0000    662.2910      9.9297    103.7036
  1311.7500      0.0000    663.6126      9.7999     99.0267
  1312.0000      0.0000    663.7182      9.7918     93.0163
  1312.2500      0.0000    663.3358      9.7369     86.2588
  1312.5000      0.0000    662.8112      9.5138     80.5268
  1312.7500      0.0000    662.2883      9.1393     77.7445
  1313.0000      0.0000    662.0056      8.7005     79.0447
  1313.2500      0.0000    662.5811      8.2386     84.3037
  1313.5000      0.0000    665.8923      7.7598     92.2740
  1313.7500      0.0000    674.7133      7.2997    101.2966
  1314.0000      0.0000    687.2783      6.9270    110.2368
  1314.2500      0.0000    693.4705      6.7013    118.8794
  1314.5000      0.0000    685.4028      6.6068    127.2769
  1314.7500      0.0000    667.6612      6.5525    134.7315
  1315.0000      0.0000    649.0010      6.4687    139.7705
  1315.2500      0.0000    634.6220      6.3513    141.3173
  1315.5000      0.0000    628.7122      6.2288    139.6494
  1315.7500      0.0000    633.1790      6.1333    136.0700
  1316.0000      0.0000    643.8143      6.0899    131.8899
  1316.2500      0.0000    653.2214      6.1074    127.9196
  1316.5000      0.0000    656.9859      6.1440    124.5459
  1316.7500      0.0000    654.7523      6.1296    121.6833
  1317.0000      0.0000    648.5148      6.0540    118.6842
  1317.2500      0.0000    642.2377      5.9722    114.9723
  1317.5000      0.0000    639.7080      5.9210    111.0120
  1317.7500      0.0000    642.2242      5.8803    108.1591
  1318.0000      0.0000    648.5392      5.8156    107.3519
  1318.2500      0.0000    655.2487      5.7153    108.4419
  1318.5000      0.0000    659.5001      5.5791    111.0107
  1318.7500      0.0000    661.2355      5.4367    115.2680
  1319.0000      0.0000    661.6742      5.3525    121.6463
  1319.2500      0.0000    661.6346      5.3354    129.6816
  1319.5000      0.0000    661.3939      5.3144    137.7358
  1319.7500      0.0000    660.7406      5.2498    143.9927
  1320.0000      0.0000    659.1644      5.2073    147.5094
  1320.2500      0.0000    656.9655      5.3304    148.1575
  1320.5000      0.0000    655.8628      5.7884    146.0257
  1320.7500      0.0000    656.6733      6.7005    141.4971
  1321.0000      0.0000    657.5201      8.0159    135.7393
  1321.2500      0.0000    656.9672      9.4879    130.4677
  1321.5000      0.0000    656.7498     10.8428    126.8735
  1321.7500      0.0000    658.7255     11.9495    124.8554
  1322.0000      0.0000    661.5443     12.8250    123.4724
  1322.2500      0.0000    661.5816     13.5830    122.0088
  1322.5000      0.0000    652.3892     14.3794    120.2579
  1322.7500      0.0000    623.2645     15.3250    118.1164
  1323.0000      0.0000    572.2490     16.3657    115.7906
  1323.2500      0.0000    527.0280     17.1850    114.3498
  1323.5000      0.0000    526.9080     17.3212    115.0276
  1323.7500      0.0000    571.8162     16.4912    117.5543
  1324.0000      0.0000    621.9917     14.8081    119.8264
  1324.2500      0.0000    649.0374     12.7128    119.6548
  1324.5000      0.0000    655.0288     10.7185    116.6461
  1324.7500      0.0000    651.6492      9.1721    112.2747
  1325.0000      0.0000    644.9824      8.1682    108.2697
  1325.2500      0.0000    638.2797      7.5956    105.0793
  1325.5000      0.0000    637.1908      7.2707    102.0357
  1325.7500      0.0000    644.2044      7.0737     98.8704
  1326.0000      0.0000    653.7696      6.9668     96.4640
  1326.2500      0.0000    659.8853      6.9550     95.8524
  1326.5000      0.0000    662.2049      7.0885     96.9947
  1326.7500      0.0000    662.9513      7.4175     98.7992
  1327.0000      0.0000    663.4583      7.8918     99.8715
  1327.2500      0.0000    663.9277      8.3541     99.0497
  1327.5000      0.0000    663.8820      8.6528     95.8682
  1327.7500      0.0000    662.0074      8.7639     91.1118
  1328.0000      0.0000    656.4791      8.7870     86.7103
  1328.2500      0.0000    647.9045      8.8351     84.4936
  1328.5000      0.0000    641.1495      8.9357     84.8616
  1328.7500      0.0000    639.4853      9.0017     86.8552
  1329.0000      0.0000    640.1193      8.9120     89.4033
  1329.2500      0.0000    639.9518      8.6490     92.1995
  1329.5000      0.0000    638.9434      8.2848     95.5576
  1329.7500      0.0000    636.1780      7.8534     99.9087
  1330.0000      0.0000    629.4951      7.3434    105.3248
  1330.2500      0.0000    620.5110      6.7883    110.8882
  1330.5000      0.0000    614.1898      6.2949    114.5554
  1330.7500      0.0000    612.1800      5.9794    114.4992
  1331.0000      0.0000    612.2213      5.8731    110.9827
  1331.2500      0.0000    612.4390      5.9008    106.4717
  1331.5000      0.0000    612.0496      5.9567    103.6781
  1331.7500      0.0000    610.1721      5.9833    103.6589
  1332.0000      0.0000    606.4747      5.9867    105.6344
  1332.2500      0.0000    601.9934      6.0194    108.1491
  1332.5000      0.0000    597.6669      6.1385    110.3174
  1332.7500      0.0000    594.1810      6.3342    112.3491
  1333.0000      0.0000    594.9025      6.4689    115.1539
  1333.2500      0.0000    605.1508      6.3361    119.3430
  1333.5000      0.0000    624.0261      5.9189    124.4707
  1333.7500      0.0000    638.5266      5.4969    129.1657
  1334.0000      0.0000    635.9850      5.3165    131.9257
  1334.2500      0.0000    622.7495      5.3391    131.8505
  1334.5000      2.0000    618.7833      5.4034    129.0343
  1334.7500      2.0000    634.1214      5.4404    124.7206
  1335.0000      0.0000    659.5714      5.4761    121.0073
  1335.2500      0.0000    680.0294      5.5402    119.8534
  1335.5000      0.0000    687.2825      5.6316    121.9373
  1335.7500      0.0000    680.1423      5.6975    126.3167
  1336.0000      0.0000    659.7397      5.6555    131.1144
  1336.2500      0.0000    627.3079      5.5502    134.5809
  1336.5000      0.0000    588.6230      5.5457    135.8296
  1336.7500      0.0000    558.9099      5.6667    134.8929
  1337.0000      0.0000    553.3915      5.7968    132.1850
  1337.2500      0.0000    570.2927      5.8811    128.0581
  1337.5000      0.0000    594.1069      5.9367    123.1052
  1337.7500      0.0000    615.0023      5.9738    118.6144
  1338.0000      0.0000    631.2150      5.9886    116.0572
  1338.2500      0.0000    640.1306      5.9801    115.9712
  1338.5000      0.0000    641.0245      5.9400    117.6751
  1338.7500      0.0000    638.3887      5.8292    119.8823
  1339.0000      0.0000    636.6824      5.5960    121.2207
  1339.2500      0.0000    636.9700      5.2763    120.6523
  1339.5000      0.0000    637.6211      5.0117    118.0629
  1339.7500      0.0000    635.7448      4.8891    114.3991
