~Version Information
VERS.                      2.0: CWLS Log ASCII Standard - VERSION 2.0
WRAP.                       NO: One line per depth step
~Well Information Block
STRT.FT                30.0000: 
STOP.FT              2789.0000: 
STEP.FT                 0.1000: 
NULL.                -999.2500: 
COMP.          Pioneer Natural Resources: COMPANY
WELL.          Rabbit Bush Federal 44-19: WELL
FLD.           Purgatorie River: FIELD
LOC.           826' FSL & 1127' FEL: LOCATION
CNTY.               Las Animas: COUNTY
SRVC.                Patterson: SERVICE COMPANY
DATE.          Mon Aug 28 10:56:57 2006: LOG DATE
UWI.           05-071-08149-00: UNIQUE WELL ID
STAT.                 Colorado: STATE
~Curve Information Block
DEPT.FT            0 000 00 00: Depth
DCAL.in                       : CDL Caliper
RHOB.g/cc                     : CDL Bulk Density
RHOC.g/cc                     : CDL Density Correction
DPOR.pu                       : CDL Density Porosity
GR.GAPI                       : Gamma Ray
NPOR.pu                       : Neutron Porosity
~Parameter Information Block
~A  Depth       DCAL        RHOB        RHOC        DPOR         GR         NPOR    
# ...
   212.4000     17.1052      2.2597      2.0000     -0.0078    104.1315     20.3927
   212.5000     17.1046      2.2464      2.0000     -0.0081    103.2229     20.3255
   212.6000     17.1046      2.2366      2.0000     -0.0083     99.1482     20.0797
   212.7000     17.1046      2.2419      2.0000     -0.0082     96.9201     19.8759
   212.8000     17.1042      2.2472      2.0000     -0.0081     98.4718     19.9034
   212.9000     17.1042      2.2416      2.0000     -0.0082    101.2833     19.9761
   213.0000     17.1060      2.2375      2.0000     -0.0083    102.1364     19.9963
   213.1000     17.1060      2.2430      2.0000     -0.0081    100.1854     20.0881
   213.2000     17.1060      2.2538      2.0000     -0.0079     97.1807     20.3182
   213.3000     17.1075      2.2628      2.0000     -0.0077     96.6825     20.5394
   213.4000     17.1075      2.2681      2.0000     -0.0076    100.8201     20.6484
   213.5000     17.1084      2.2747      2.0000     -0.0075    106.0645     20.6297
   213.6000     17.1084      2.2777      2.0000     -0.0074    108.5969     20.4798
   213.7000     17.1084      2.2728      2.0000     -0.0075    111.6274     20.7597
   213.8000     17.1114      2.2717      2.0000     -0.0076    116.0542     21.8610
   213.9000     17.1114      2.2857      2.0000     -0.0073    116.0404     22.7686
   214.0000     17.1127      2.3078      2.0000     -0.0068    110.5902     22.7291
   214.1000     17.1127      2.3233      2.0000     -0.0065    104.6674     22.3621
   214.2000     17.1127      2.3353      2.0000     -0.0063    101.9830     22.0364
   214.3000     17.1116      2.3508      2.0000     -0.0060    103.3949     21.5303
   214.4000     17.1116      2.3551      2.0000     -0.0059    104.8461     20.9311
   214.5000     17.1118      2.3364      2.0000     -0.0063    103.9636     20.5865
   214.6000     17.1118      2.3080      2.0000     -0.0068    104.9004     20.6659
   214.7000     17.1118      2.2903      2.0000     -0.0072    108.0648     21.0515
   214.8000     17.1109      2.2903      2.0000     -0.0072    108.6508     21.4896
   214.9000     17.1109      2.2990      2.0000     -0.0070    106.6282     21.6857
   215.0000     17.1084      2.3063      2.0000     -0.0069    105.5203     21.6780
   215.1000     17.1084      2.3135      2.0000     -0.0067    107.0406     21.5985
   215.2000     17.1084      2.3204      2.0000     -0.0066    110.0949     21.4336
   215.3000     17.1079      2.3219      2.0000     -0.0066    110.0596     21.5209
   215.4000     17.1079      2.3191      2.0000     -0.0066    106.4722     22.0502
   215.5000     17.1114      2.3211      2.0000     -0.0066    105.8859     22.5034
   215.6000     17.1114      2.3329      2.0000     -0.0063    110.2477     22.2745
   215.7000     17.1114      2.3463      2.0000     -0.0061    113.7087     21.5947
   215.8000     17.1141      2.3553      2.0000     -0.0059    114.2971     21.1693
   215.9000     17.1141      2.3673      2.0000     -0.0057    115.1073     21.0856
   216.0000     17.1137      2.3846      2.0000     -0.0053    115.9095     21.1556
   216.1000     17.1137      2.3936      2.0000     -0.0051    115.7760     21.2598
   216.2000     17.1137      2.3821      2.0000     -0.0054    115.1270     21.1395
   216.3000     17.1141      2.3602      2.0000     -0.0058    115.2275     20.9639
   216.4000     17.1141      2.3456      2.0000     -0.0061    116.7225     21.1098
   216.5000     17.1154      2.3328      2.0000     -0.0063    116.2854     21.3760
   216.6000     17.1154      2.3087      2.0000     -0.0068    113.6242     21.4705
   216.7000     17.1154      2.2783      2.0000     -0.0074    110.9602     21.5241
   216.8000     17.1162      2.2538      2.0000     -0.0079    107.6385     21.5915
   216.9000     17.1162      2.2444      2.0000     -0.0081    104.2860     21.4960
   217.0000     17.1171      2.2512      2.0000     -0.0080    103.3187     21.2791
   217.1000     17.1171      2.2662      2.0000     -0.0077    103.6136     21.3378
   217.2000     17.1171      2.2817      2.0000     -0.0074    102.9160     21.8372
   217.3000     17.1158      2.2906      2.0000     -0.0072    102.1316     22.1769
   217.4000     17.1158      2.2873      2.0000     -0.0073    101.4486     21.9016
   217.5000     17.1145      2.2792      2.0000     -0.0074    100.4875     21.4999
   217.6000     17.1145      2.2791      2.0000     -0.0074    100.8858     21.3341
   217.7000     17.1145      2.2815      2.0000     -0.0074    102.9717     21.1008
   217.8000     17.1151      2.2730      2.0000     -0.0075    103.5792     20.7668
   217.9000     17.1151      2.2657      2.0000     -0.0077    101.6499     20.7907
   218.0000     17.1155      2.2756      2.0000     -0.0075    100.9680     20.9493
   218.1000     17.1155      2.2955      2.0000     -0.0071    103.0610     20.6578
   218.2000     17.1155      2.3107      2.0000     -0.0068    105.6133     20.2477
   218.3000     17.1159      2.3147      2.0000     -0.0067    106.2435     20.3105
   218.4000     17.1159      2.3127      2.0000     -0.0067    102.9499     20.4854
   218.5000     17.1163      2.3116      2.0000     -0.0068     98.9139     20.1465
   218.6000     17.1163      2.3094      2.0000     -0.0068     99.9990     19.4562
   218.7000     17.1163      2.3001      2.0000     -0.0070    105.1535     19.0682
   218.8000     17.1162      2.2845      2.0000     -0.0073    109.8606     19.4209
   218.9000     17.1162      2.2680      2.0000     -0.0076    112.4113     20.0695
   219.0000     17.1160      2.2602      2.0000     -0.0078    112.3644     20.2731
   219.1000     17.1160      2.2655      2.0000     -0.0077    109.6178     20.1077
   219.2000     17.1160      2.2761      2.0000     -0.0075    105.6023     19.9018
   219.3000     17.1163      2.2808      2.0000     -0.0074    102.0835     19.8506
   219.4000     17.1163      2.2756      2.0000     -0.0075    102.0721     20.0090
   219.5000     17.1173      2.2703      2.0000     -0.0076    106.9938     20.0996
   219.6000     17.1173      2.2799      2.0000     -0.0074    110.5421     19.9739
   219.7000     17.1173      2.3017      2.0000     -0.0070    109.0741     19.7716
   219.8000     17.1192      2.3136      2.0000     -0.0067    104.9800     19.6210
   219.9000     17.1192      2.3053      2.0000     -0.0069     99.5602     19.6701
   220.0000     17.1214      2.2901      2.0000     -0.0072     95.9624     19.8926
   220.1000     17.1214      2.2816      2.0000     -0.0074     98.5301     20.1826
   220.2000     17.1214      2.2850      2.0000     -0.0073    103.4024     20.4671
   220.3000     17.1220      2.2987      2.0000     -0.0070    104.7755     20.6529
   220.4000     17.1220      2.3074      2.0000     -0.0069    104.9964     20.6507
   220.5000     17.1210      2.3014      2.0000     -0.0070    107.9197     20.5851
   220.6000     17.1210      2.2959      2.0000     -0.0071    111.3531     20.6762
   220.7000     17.1210      2.2986      2.0000     -0.0070    111.5110     20.8342
   220.8000     17.1209      2.3002      2.0000     -0.0070    110.9935     20.8855
   220.9000     17.1209      2.2989      2.0000     -0.0070    113.2979     21.0304
   221.0000     17.1211      2.3017      2.0000     -0.0070    113.7005     21.3472
   221.1000     17.1211      2.3083      2.0000     -0.0068    108.1749     21.5309
   221.2000     17.1211      2.3052      2.0000     -0.0069    101.3881     21.6787
   221.3000     17.1205      2.2857      2.0000     -0.0073     99.3250     22.0022
   221.4000     17.1205      2.2660      2.0000     -0.0077    101.6850     22.5059
   221.5000     17.1204      2.2691      2.0000     -0.0076    104.5540     23.2080
   221.6000     17.1204      2.2954      2.0000     -0.0071    104.2391     24.1866
   221.7000     17.1204      2.3311      2.0000     -0.0064    100.6937     25.4052
   221.8000     17.1213      2.3722      2.0000     -0.0056     98.5807     26.8241
   221.9000     17.1213      2.4150      2.0000     -0.0047     99.2648     28.4837
