~Version Information
VERS.                      2.0: CWLS Log ASCII Standard - VERSION 2.0
WRAP.                       NO: One line per depth step
~Well Information Block
STRT.FT               757.3000: 
STOP.FT              2418.0000: 
STEP.FT                 0.1000: 
NULL.                -999.2500: 
COMP.          Petrogulf Corporation: COMPANY
WELL.            Montoya 7-21V: WELL
FLD.           Purgatorie River: FIELD
LOC.           738' FSL & 2070' FWL: LOCATION
CNTY.               Las Animas: COUNTY
SRVC.                         : SERVICE COMPANY
DATE.          Fri Aug 20 14:08:15 2004: LOG DATE
UWI.           05 071 08018 00: UNIQUE WELL ID
STAT.                 Colorado: STATE
~Curve Information Block
DEPT.FT            0 000 00 00: Depth
DCAL.in                       : CDL Caliper
RHOB.g/cc                     : CDL Bulk Density
RHOC.g/cc                     : CDL Density Correction
DPOR.pu                       : CDL Density Porosity
GR.GAPI                       : Gamma Ray
NPOR.pu                       : Neutron Porosity
~Parameter Information Block
~A  Depth       DCAL        RHOB        RHOC        DPOR         GR         NPOR    
# ...
  1870.9000      7.9789      2.4913      0.0138      9.6211     51.8229     13.2082
  1871.0000      7.9902      2.4891      0.0528      9.7507     58.0432     12.6157
  1871.1000      7.9902      2.4794      0.0420     10.3416     66.0616     11.9135
  1871.2000      7.9902      2.4639      0.0187     11.2816     75.0200     11.3550
  1871.3000      7.9968      2.4522     -0.0101     11.9891     81.8915     11.1178
  1871.4000      7.9968      2.4518     -0.0366     12.0134     79.1584     11.2601
  1871.5000      7.9867      2.4622      0.0263     11.3811     69.5234     11.6907
  1871.6000      7.9867      2.4744      0.0222     10.6427     64.6940     12.2839
  1871.7000      7.9867      2.4752      0.0455     10.5948     70.2150     12.8689
  1871.8000      7.9740      2.4622      0.0273     11.3829     79.4970     13.4116
  1871.9000      7.9740      2.4522     -0.0294     11.9899     84.0852     13.9853
  1872.0000      7.9696      2.4544      0.0232     11.8534     83.1305     14.4305
  1872.1000      7.9696      2.4603      0.0004     11.4945     78.7668     14.5903
  1872.2000      7.9696      2.4713      0.0146     10.8275     73.4890     14.5179
  1872.3000      7.9631      2.4907      0.0677      9.6558     67.2841     14.3141
  1872.4000      7.9631      2.5050      0.0987      8.7867     60.3097     14.1116
  1872.5000      7.9531      2.5045      0.0729      8.8158     57.2511     13.8246
  1872.6000      7.9531      2.4913      0.1077      9.6188     58.9091     13.6208
  1872.7000      7.9531      2.4677      0.0517     11.0468     60.4497     13.8563
  1872.8000      7.9522      2.4418      0.0643     12.6157     58.3493     14.5403
  1872.9000      7.9522      2.4291      0.0227     13.3868     54.6890     15.2085
  1873.0000      7.9610      2.4367      0.0631     12.9243     53.7900     15.2059
  1873.1000      7.9610      2.4522      0.0373     11.9883     53.9982     14.7002
  1873.2000      7.9610      2.4589      0.0717     11.5825     51.5057     14.5906
  1873.3000      7.9759      2.4532      0.0591     11.9274     47.8445     14.8465
  1873.4000      7.9759      2.4424      0.0674     12.5841     46.9900     14.8521
  1873.5000      7.9884      2.4358      0.0416     12.9809     49.3889     14.8391
  1873.6000      7.9884      2.4377      0.0492     12.8662     51.0790     15.4940
  1873.7000      7.9884      2.4360      0.0729     12.9719     49.0204     16.5155
  1873.8000      7.9897      2.4167      0.0419     14.1417     46.4149     17.0591
  1873.9000      7.9897      2.3934     -0.0129     15.5519     46.1909     17.4811
  1874.0000      7.9761      2.3921      0.0087     15.6311     47.5653     18.1594
  1874.1000      7.9761      2.4106      0.0498     14.5104     50.8845     18.3368
  1874.2000      7.9761      2.4289      0.0603     13.3975     53.5051     17.9213
  1874.3000      7.9590      2.4394      0.0563     12.7615     50.6422     17.7801
  1874.4000      7.9590      2.4405      0.0408     12.6999     46.1862     17.9042
  1874.5000      7.9541      2.4329      0.0348     13.1559     47.1645     17.3519
  1874.6000      7.9541      2.4252      0.0210     13.6212     51.8786     16.1771
  1874.7000      7.9541      2.4252      0.0357     13.6216     52.2903     15.4482
  1874.8000      7.9509      2.4297      0.0643     13.3505     46.9955     15.6925
  1874.9000      7.9509      2.4293      0.0450     13.3732     43.4320     16.3914
  1875.0000      7.9463      2.4190      0.0511     14.0010     45.5435     16.7585
  1875.1000      7.9463      2.4010      0.0063     15.0910     48.4700     16.6302
  1875.2000      7.9463      2.3881      0.0043     15.8710     47.9663     16.3455
  1875.3000      7.9493      2.3898      0.0099     15.7722     46.2512     16.3606
  1875.4000      7.9493      2.4002      0.0269     15.1409     45.4906     16.9092
  1875.5000      7.9618      2.4096      0.0100     14.5713     43.5860     17.3388
  1875.6000      7.9618      2.4103      0.0277     14.5267     40.4270     17.0027
  1875.7000      7.9618      2.3986     -0.0114     15.2364     39.4035     16.5549
  1875.8000      7.9793      2.3828      0.0052     16.1964     41.6081     16.5213
  1875.9000      7.9793      2.3704      0.0243     16.9470     43.6907     16.5176
  1876.0000      7.9881      2.3605     -0.0239     17.5453     43.0369     16.2889
  1876.1000      7.9881      2.3544      0.0052     17.9143     40.7070     15.9519
  1876.2000      7.9881      2.3558      0.0136     17.8319     39.2478     15.4392
  1876.3000      7.9911      2.3693     -0.0067     17.0095     39.9922     14.9810
  1876.4000      7.9911      2.3964      0.0107     15.3668     42.2025     14.8570
  1876.5000      7.9964      2.4291      0.0141     13.3865     43.5402     14.8898
  1876.6000      7.9964      2.4567      0.0605     11.7143     43.6651     14.7978
  1876.7000      7.9964      2.4672      0.0624     11.0790     44.1569     14.7826
  1876.8000      7.9825      2.4583      0.0464     11.6168     45.0747     15.2299
  1876.9000      7.9825      2.4450      0.0241     12.4229     45.9223     15.7345
  1877.0000      7.9345      2.4374      0.0652     12.8827     45.7724     15.4137
  1877.1000      7.9345      2.4337      0.0332     13.1097     44.8047     14.7996
  1877.2000      7.9345      2.4294      0.0565     13.3714     43.5367     15.0579
  1877.3000      7.8978      2.4200      0.0348     13.9383     43.2453     15.4048
  1877.4000      7.8978      2.4135      0.0226     14.3308     46.4903     14.9463
  1877.5000      7.9124      2.4219      0.0183     13.8270     52.4111     14.5356
  1877.6000      7.9124      2.4353      0.0344     13.0143     58.6269     14.8419
  1877.7000      7.9124      2.4412      0.0375     12.6520     64.4992     15.4275
  1877.8000      7.9423      2.4530      0.0138     11.9399     68.7912     15.7470
  1877.9000      7.9423      2.4830      0.0560     10.1191     71.3899     15.9307
  1878.0000      7.9532      2.5169      0.0968      8.0645     72.7362     15.8191
  1878.1000      7.9532      2.5372      0.1000      6.8350     72.9120     15.0256
  1878.2000      7.9532      2.5419      0.0929      6.5532     73.9068     14.1935
  1878.3000      7.9560      2.5355      0.0735      6.9368     77.7028     14.1286
  1878.4000      7.9560      2.5233      0.0626      7.6786     81.1837     14.9776
  1878.5000      7.9575      2.5093      0.0329      8.5257     80.2214     15.9920
  1878.6000      7.9575      2.4933      0.0609      9.4969     74.3597     16.2726
  1878.7000      7.9575      2.4760      0.0271     10.5458     65.9900     15.7288
  1878.8000      7.9665      2.4673     -0.0147     11.0720     57.7977     14.6699
  1878.9000      7.9665      2.4683      0.0668     11.0114     52.6538     13.7428
  1879.0000      7.9834      2.4685      0.0442     11.0018     53.0448     13.4361
  1879.1000      7.9834      2.4657      0.0394     11.1692     56.8544     13.6772
  1879.2000      7.9834      2.4598      0.0132     11.5263     58.8156     14.2205
  1879.3000      7.9895      2.4486     -0.0007     12.2090     56.0467     14.6559
  1879.4000      7.9895      2.4384     -0.0420     12.8214     48.9900     14.7541
  1879.5000      7.9916      2.4399     -0.0097     12.7363     42.4228     14.9301
  1879.6000      7.9916      2.4487      0.0485     12.1982     40.7440     15.3101
  1879.7000      7.9916      2.4534      0.0208     11.9123     41.7709     15.2114
  1879.8000      7.9929      2.4456      0.0678     12.3878     40.7359     14.7268
  1879.9000      7.9929      2.4223      0.0245     13.8029     37.9911     14.5918
  1880.0000      7.9860      2.3954      0.0277     15.4302     35.9690     14.7724
  1880.1000      7.9860      2.3836     -0.0160     16.1471     35.1870     14.7112
  1880.2000      7.9860      2.3896      0.0345     15.7807     36.8638     14.1613
  1880.3000      7.9775      2.3971      0.0406     15.3267     40.0253     13.6158
  1880.4000      7.9775      2.3961      0.0394     15.3858     42.3826     13.4286
