~Version Information
VERS.                      2.0: CWLS Log ASCII Standard - VERSION 2.0
WRAP.                       NO: One line per depth step
~Well Information Block
STRT.FT                 0.0000: 
STOP.FT              1390.5000: 
STEP.FT                 0.2500: 
NULL.                -999.2500: 
COMP.          Petrogulf Corporation: COMPANY
WELL.             Leier 17-42R: WELL
FLD.           Purgatorie River: FIELD
LOC.           2398' FNL & 1109' FEL: LOCATION
PROV.                 Colorado: PROVINCE
CNTY.               Las Animas: COUNTRY
SRVC.                Patterson: SERVICE COMPANY
DATE.          Thu Nov 10 14:34:29 2005: LOG DATE
UWI.                          : UNIQUE WELL ID
~Curve Information Block
DEPT.FT            0 000 00 00: Depth
CCL.                          : Casing Collar Locator
TT3.usec                      : CBL 3' Travel Time
AMP3.mV                       : CBL 3' Amplitude
GR.GAPI                       : Gamma Ray
~Parameter Information Block
~A  Depth       CCL         TT3         AMP3         GR     
# ...
   167.5000      0.0000    353.1750     10.3862     97.1291
   167.7500      0.0000    362.6908     10.3407     93.4963
   168.0000      0.0000    369.3311     10.3265     90.0971
   168.2500      0.0000    369.8675     10.3672     88.2156
   168.5000      0.0000    365.1112     10.4359     88.6251
   168.7500      0.0000    360.0663     10.4987     91.2725
   169.0000      0.0000    360.3253     10.5246     95.3119
   169.2500      0.0000    366.0071     10.5061     99.3623
   169.5000      0.0000    372.1981     10.4620    101.9780
   169.7500      0.0000    375.3729     10.4220    102.3231
   170.0000      0.0000    375.2060     10.4214    100.5676
   170.2500      0.0000    371.5466     10.4742     97.6729
   170.5000      0.0000    364.0138     10.5530     94.8765
   170.7500      0.0000    354.7337     10.6244     93.1464
   171.0000      0.0000    348.3117     10.6797     92.6702
   171.2500      0.0000    348.2498     10.7286     92.7154
   171.5000      0.0000    354.6205     10.7823     92.1823
   171.7500      0.0000    363.9588     10.8404     90.5543
   172.0000      0.0000    371.5388     10.8839     88.4125
   172.2500      0.0000    375.3010     10.8905     87.0454
   172.5000      0.0000    376.4419     10.8695     87.5277
   172.7500      0.0000    376.6555     10.8598     89.9857
   173.0000      0.0000    376.6420     10.8548     93.4915
   173.2500      0.0000    376.5479     10.7980     96.6758
   173.5000      0.0000    376.4012     10.6919     98.6897
   173.7500      0.0000    376.4831     10.6075     99.5788
   174.0000      0.0000    379.5162     10.5409     99.7126
   174.2500      0.0000    393.5377     10.3265     99.2827
   174.5000      0.0000    424.9547      9.8182     98.5060
   174.7500      0.0000    459.6486      9.2729     97.7520
   175.0000      0.0000    467.2948      9.2136     97.0613
   175.2500      0.0000    442.3384      9.6337     95.8423
   175.5000      0.0000    417.9866     10.0721     93.3812
   175.7500      0.0000    430.6324     10.4392     89.5963
   176.0000      0.0000    488.1488     10.8092     85.2637
   176.2500      2.0000    559.9296     11.0049     81.7480
   176.5000     -2.0000    600.6136     10.9548     80.4176
   176.7500      0.0000    596.6060     10.8419     81.7140
   177.0000      0.0000    562.8696     10.8061     84.6140
   177.2500      0.0000    510.2123     10.8719     87.4128
   177.5000      0.0000    449.5445     11.1774     89.0635
   177.7500      0.0000    399.0901     11.8322     89.3959
   178.0000      0.0000    371.5025     12.3948     88.4095
   178.2500      0.0000    365.6178     12.3023     86.1794
   178.5000      0.0000    370.1632     11.7273     83.2891
   178.7500      0.0000    374.9237     11.1066     80.5196
   179.0000      0.0000    377.0067     10.5262     78.0775
   179.2500      0.0000    377.5078      9.9905     75.7195
   179.5000      0.0000    377.5746      9.5921     73.5384
   179.7500      0.0000    377.6622      9.3677     72.2001
   180.0000      0.0000    377.8214      9.2797     72.4908
   180.2500      0.0000    377.9290      9.2901     74.7985
   180.5000      0.0000    377.9059      9.3647     78.7525
   180.7500      0.0000    377.8316      9.4485     83.1414
   181.0000      0.0000    377.7944      9.4905     86.2959
   181.2500      0.0000    377.7020      9.4979     86.8759
   181.5000      0.0000    377.1943      9.5348     84.7379
   181.7500      0.0000    375.3328      9.6522     81.2440
   182.0000      0.0000    370.4063      9.8456     78.4815
   182.2500      0.0000    361.3998     10.0711     77.8287
   182.5000      0.0000    350.4317     10.2695     79.1532
   182.7500      0.0000    341.7007     10.3888     81.3513
   183.0000      0.0000    337.4215     10.4121     83.5253
   183.2500      0.0000    337.3175     10.3692     85.5113
   183.5000      0.0000    341.3685     10.3037     87.4307
   183.7500      0.0000    349.7477     10.2367     89.1818
   184.0000      0.0000    360.1024     10.1786     90.5789
   184.2500      0.0000    368.1357     10.1506     91.7545
   184.5000      0.0000    371.3689     10.1729     93.0811
   184.7500      0.0000    369.9817     10.2458     94.5287
   185.0000      0.0000    365.6036     10.3376     95.1698
   185.2500      0.0000    361.1273     10.3906     93.5815
   185.5000      0.0000    359.2669     10.3674     89.1396
   185.7500      0.0000    360.9566     10.2890     83.1409
   186.0000      0.0000    365.3360     10.2133     78.3240
   186.2500      0.0000    370.0021     10.1885     76.8521
   186.5000      0.0000    372.9660     10.2308     78.7486
   186.7500      0.0000    374.2449     10.3258     82.2792
   187.0000      0.0000    374.6944     10.4379     85.5149
   187.2500      0.0000    374.8486     10.5323     87.3959
   187.5000      0.0000    374.9360     10.5966     87.8229
   187.7500      0.0000    375.0121     10.6305     87.2194
   188.0000      0.0000    375.0391     10.6285     86.0431
   188.2500      0.0000    375.0090     10.5800     84.6950
   188.5000      0.0000    374.9594     10.4810     83.7834
   188.7500      0.0000    374.9171     10.3561     84.0628
   189.0000      0.0000    374.8735     10.2603     85.9759
   189.2500      0.0000    374.8007     10.2338     89.4394
   189.5000      0.0000    374.7220     10.2600     93.9969
   189.7500      0.0000    374.7415     10.2872     98.9296
   190.0000      0.0000    374.8693     10.2681    103.2748
   190.2500      0.0000    374.8640     10.1800    106.0601
   190.5000      0.0000    374.5021     10.0424    106.7921
   190.7500      0.0000    373.8946      9.9140    105.7296
   191.0000      0.0000    373.2950      9.8447    103.6016
   191.2500      0.0000    372.8151      9.8256    101.1900
   191.5000      0.0000    372.4675      9.8179     99.2984
   191.7500      0.0000    372.2992      9.8173     98.6742
   192.0000      0.0000    372.3717      9.8290     99.4792
   192.2500      0.0000    372.6594      9.8348    101.0176
   192.5000      0.0000    373.0527      9.8207    102.3358
   192.7500      0.0000    373.4522      9.7926    102.9082
   193.0000      0.0000    373.8078      9.7594    102.4941
   193.2500      0.0000    374.0713      9.7177    100.7466
   193.5000      0.0000    374.1720      9.6671     97.5544
   193.7500      0.0000    374.0924      9.6301     93.6578
   194.0000      0.0000    373.9420      9.6350     90.3885
   194.2500      0.0000    373.8794      9.6836     88.6659
   194.5000      0.0000    373.9813      9.7403     88.3785
   194.7500      0.0000    374.2455      9.7637     88.7226
   195.0000      0.0000    374.6413      9.7635     89.0956
   195.2500      0.0000    375.0815      9.7995     89.7187
   195.5000      0.0000    375.4402      9.9083     91.4930
   195.7500      0.0000    375.6790     10.0642     95.0305
   196.0000      0.0000    375.8864     10.2214     99.5366
   196.2500      0.0000    376.1983     10.3614    102.8790
   196.5000      0.0000    377.0237     10.4817    103.2890
   196.7500      0.0000    380.3160     10.5685    101.0379
   197.0000      0.0000    391.9387     10.6124     98.0339
   197.2500      0.0000    421.1707     10.6359     95.7688
   197.5000      0.0000    470.1535     10.6893     94.1770
   197.7500      0.0000    520.2411     10.8323     92.4633
   198.0000      0.0000    539.6573     11.1095     90.3449
   198.2500      0.0000    513.4095     11.5081     88.1834
   198.5000      0.0000    460.3262     11.9299     86.2944
   198.7500      0.0000    413.6801     12.2472     84.4684
   199.0000      0.0000    389.3442     12.4190     82.2082
   199.2500      0.0000    381.4839     12.5067     79.4239
   199.5000      0.0000    379.8660     12.5691     76.8075
   199.7500      0.0000    379.4302     12.6131     75.3835
   200.0000      0.0000    378.9594     12.6284     75.6870
   200.2500      0.0000    378.5212     12.6045     77.3832
   200.5000      0.0000    378.3498     12.5365     79.4960
   200.7500      0.0000    378.3723     12.4396     80.9844
