~Version Information
 VERS.                      2.0: CWLS Log ASCII Standard - VERSION 2.0
 WRAP.                       NO: One line per depth step
 ~Well Information Block
 STRT.FT               465.6000: 
 STOP.FT              1777.2000: 
 STEP.FT                 0.1000: 
 NULL.                -999.2500: 
 COMP.          Petrogulf Corporation: COMPANY
 WELL.          Alexander 9-43R: WELL
 FLD.           Purgatorie River: FIELD
 LOC.           1652' FSL & 1049' FEL: LOCATION
 CNTY.               Las Animas: COUNTY
 SRVC.                         : SERVICE COMPANY
 DATE.          Fri Sep 03 15:08:45 2004: LOG DATE
 UWI.           05 071 08036 00: UNIQUE WELL ID
 STAT.                 Colorado: STATE
 PROV.                         :Province
 ~Curve Information Block
 DEPT.FT            0 000 00 00: Depth
 DCAL.in                       : CDL Caliper
 RHOB.g/cc                     : CDL Bulk Density
 RHOC.g/cc                     : CDL Density Correction
 DPOR.pu                       : CDL Density Porosity
 GR.GAPI                       : Gamma Ray
 NPOR.pu                       : Neutron Porosity
 ~Parameter Information Block
 ~A  Depth       DCAL        RHOB        RHOC        DPOR         GR         NPOR    
# ...
  1512.0000      8.0521      2.4744      0.0640     10.6440     83.0178     22.9641
  1512.1000      8.0521      2.4939      0.0890      9.4613     84.2716     23.5842
  1512.2000      8.0521      2.5119      0.0834      8.3712     84.8185     24.1985
  1512.3000      8.0430      2.5276      0.1133      7.4184     85.1859     24.4841
  1512.4000      8.0430      2.5428      0.0838      6.4940     90.0302     24.6412
  1512.5000      8.0142      2.5605      0.1290      5.4235     98.8229     24.9993
  1512.6000      8.0142      2.5743      0.1296      4.5892    104.9051     25.3826
  1512.7000      8.0142      2.5737      0.1243      4.6212    103.0123     25.1903
  1512.8000      7.9887      2.5567      0.1121      5.6556     96.9665     24.1438
  1512.9000      7.9887      2.5340      0.0656      7.0287     97.6798     22.8961
  1513.0000      7.9864      2.5219      0.0600      7.7649    107.6145     22.3038
  1513.1000      7.9864      2.5193      0.0822      7.9201    119.5681     22.2154
  1513.2000      7.9864      2.5123      0.0562      8.3483    129.3942     22.1119
  1513.3000      8.0002      2.5006      0.0505      9.0530    136.6448     22.0397
  1513.4000      8.0002      2.4957      0.0579      9.3521    143.5071     22.1690
  1513.5000      8.0141      2.5057      0.0951      8.7473    150.8979     22.4480
  1513.6000      8.0141      2.5307      0.1429      7.2332    157.8263     22.6980
  1513.7000      8.0141      2.5541      0.2326      5.8126    164.6516     22.7797
  1513.8000      8.0278      2.5527      0.2294      5.8976    173.0481     22.7062
  1513.9000      8.0278      2.5280      0.1464      7.3925    178.6125     22.7217
  1514.0000      8.0722      2.5019      0.1226      8.9731    175.2268     23.1275
  1514.1000      8.0722      2.4850      0.1455     10.0015    170.6389     23.9238
  1514.2000      8.0722      2.4779      0.1256     10.4333    171.1039     25.0033
  1514.3000      8.1695      2.4822      0.1421     10.1705    169.6753     26.2159
  1514.4000      8.1695      2.4948      0.1314      9.4045    166.1683     27.1558
  1514.5000      8.1556      2.5046      0.1448      8.8145    165.4926     27.4510
  1514.6000      8.1556      2.5021      0.1322      8.9630    162.6900     27.3073
  1514.7000      8.1556      2.4929      0.1284      9.5222    155.9364     27.3269
  1514.8000      8.1243      2.4895      0.1250      9.7283    148.7277     27.7201
  1514.9000      8.1243      2.4926      0.1182      9.5378    143.1993     28.0837
  1515.0000      8.1154      2.4992      0.0786      9.1420    144.8290     28.1028
  1515.1000      8.1154      2.5172      0.0689      8.0477    153.7659     28.1365
  1515.2000      8.1154      2.5482      0.1096      6.1668    161.8867     28.5974
  1515.3000      8.0449      2.5812      0.1240      4.1687    160.2776     29.3405
  1515.4000      8.0449      2.6089      0.1624      2.4889    149.4255     30.0712
  1515.5000      8.0209      2.6246      0.1997      1.5385    142.3582     30.4594
  1515.6000      8.0209      2.6256      0.1942      1.4797    144.3109     30.3680
  1515.7000      8.0209      2.6182      0.1347      1.9277    151.0114     29.9945
  1515.8000      8.0230      2.5992      0.1971      3.0772    159.0742     29.3315
  1515.9000      8.0230      2.5672      0.1075      5.0196    166.2615     28.4562
  1516.0000      8.0177      2.5425      0.0894      6.5154    172.1735     27.9010
  1516.1000      8.0177      2.5297      0.0902      7.2910    173.2015     28.0104
  1516.2000      8.0177      2.5153      0.0563      8.1642    167.0759     28.3661
  1516.3000      8.0125      2.5066      0.0209      8.6881    162.5180     28.3176
  1516.4000      8.0125      2.5170      0.1190      8.0583    163.9657     27.9406
  1516.5000      8.0624      2.5404      0.0675      6.6417    163.2831     27.7273
  1516.6000      8.0624      2.5662      0.1390      5.0804    157.9014     27.7362
  1516.7000      8.0624      2.5861      0.1424      3.8740    156.3127     27.5672
  1516.8000      8.0789      2.5935      0.1680      3.4272    161.8206     27.0710
  1516.9000      8.0789      2.5769      0.2345      4.4300    169.2326     26.4902
  1517.0000      8.0846      2.5349      0.1548      6.9743    172.7815     25.9536
  1517.1000      8.0846      2.4915      0.1396      9.6043    172.4102     25.4809
  1517.2000      8.0846      2.4566      0.1809     11.7214    172.4137     25.2909
  1517.3000      8.0618      2.4208      0.0813     13.8923    172.3571     25.4333
  1517.4000      8.0618      2.3949      0.0607     15.4617    169.2166     25.7312
  1517.5000      8.0567      2.3990      0.0766     15.2130    167.4471     26.1019
  1517.6000      8.0567      2.4290      0.1787     13.3968    171.4180     26.4237
  1517.7000      8.0567      2.4626      0.2542     11.3560    174.1792     26.6011
  1517.8000      8.0561      2.4871      0.2212      9.8748    170.4375     26.8975
  1517.9000      8.0561      2.5034      0.2519      8.8868    164.9636     27.3732
  1518.0000      8.0243      2.5239      0.2228      7.6451    163.8774     27.5937
  1518.1000      8.0243      2.5615      0.2862      5.3632    169.8512     27.3217
  1518.2000      8.0243      2.5970      0.3519      3.2106    177.8401     26.8850
  1518.3000      8.0050      2.6050      0.2793      2.7300    178.3700     26.9706
  1518.4000      8.0050      2.6005      0.2435      3.0011    172.2050     27.8423
  1518.5000      8.0146      2.6153      0.2139      2.1008    166.0761     28.9649
  1518.6000      8.0146      2.6515      0.2785     -0.0923    161.7681     29.6786
  1518.7000      8.0146      2.6799      0.2345     -1.8143    159.9273     29.8196
  1518.8000      8.0454      2.6791      0.2502     -1.7644    159.1697     29.6784
  1518.9000      8.0454      2.6590      0.1769     -0.5468    156.1033     29.5808
  1519.0000      8.0666      2.6438      0.1392      0.3786    153.2229     29.6168
  1519.1000      8.0666      2.6352      0.1650      0.8961    154.6420     29.4665
  1519.2000      8.0666      2.6208      0.1290      1.7710    156.0538     28.9045
  1519.3000      8.0684      2.6012      0.0719      2.9572    151.9712     28.4768
  1519.4000      8.0684      2.5857      0.0746      3.8962    148.3210     28.6951
  1519.5000      8.0514      2.5766      0.1074      4.4475    147.3573     29.1212
  1519.6000      8.0514      2.5768      0.0386      4.4383    142.5928     29.1015
  1519.7000      8.0514      2.5869      0.0443      3.8270    135.6382     28.7264
  1519.8000      8.0536      2.5884      0.1140      3.7313    131.1802     28.5426
  1519.9000      8.0536      2.5734      0.0705      4.6425    129.6301     28.9413
  1520.0000      8.0613      2.5588      0.1087      5.5287    130.3012     29.6043
  1520.1000      8.0613      2.5611      0.0518      5.3890    133.7217     29.9544
  1520.2000      8.0613      2.5817      0.0992      4.1398    140.8793     30.1453
  1520.3000      8.0490      2.6014      0.1097      2.9454    148.7054     30.4259
  1520.4000      8.0490      2.6080      0.1044      2.5446    151.2540     30.5202
  1520.5000      8.0207      2.6139      0.0944      2.1898    146.5867     30.3728
  1520.6000      8.0207      2.6305      0.1276      1.1825    137.7075     30.5019
  1520.7000      8.0207      2.6571      0.1260     -0.4296    131.5736     31.0863
  1520.8000      8.0006      2.6832      0.1413     -2.0122    129.5906     31.5278
  1520.9000      8.0006      2.6905      0.1488     -2.4556    124.9635     31.5724
  1521.0000      8.0151      2.6699      0.1130     -1.2048    116.9223     31.8364
  1521.1000      8.0151      2.6381      0.0356      0.7204    109.6987     32.5168
  1521.2000      8.0151      2.6240      0.0509      1.5750    107.6531     32.8855
  1521.3000      8.0419      2.6327      0.0581      1.0457    112.8920     32.6719
  1521.4000      8.0419      2.6454      0.0246      0.2784    119.5635     32.4410
  1521.5000      8.0564      2.6445      0.0651      0.3321    122.1646     32.3884
