~Version Information
 VERS.                                  2.0 : CWLS LAS VERSION
 WRAP.                                   NO : WRAPING MODE
 SWARE .                 MController 2.5.0E : SOFTWARE VERSION
~Well Information
 WELL.                         Burson 8-31r : WELL
 COMP.                      Petrogulf CORP. : COMPANY
 FLD.                       Purgatory River : FIELD
 LOC.                        NWNE 8 33S 67W : LOCATION
 DATE.                         4/28-4/29/04 : DATE(S) LOGGED
 SRVC.                                  BGS : SERVICE COMPANY
 STAT.                             Colorado : STATE
 CNTY.                           Las Animas : COUNTY
 CTRY.                        United States : COUNTRY
 API.                       05-071-08039-00 : API NUMBER
 STRT.FT                              41.00 : START DEPTH
 STOP.FT                            2225.00 : STOP DEPTH
 STEP.FT                               1.00 : DEPTH INCREMENT
 NULL.                                -9999 : NULL VALUE
~Curve information
 DEPTH.FT                                   :
 ROP.MIN/FT                                 :
 GAS.UNITS                                  :
~ASCII Log data
       41.00    -9999.000          0.0 
       42.00        2.917          0.0 
       43.00        0.300          0.0 
       44.00        0.367          0.0 
       45.00        0.400          0.0 
       46.00        0.450          0.0 
       47.00        0.400          0.0 
       48.00       26.400          0.0 
       49.00        0.333          0.0 
       50.00        0.300          0.0 
       51.00        0.400          0.0 
       52.00        0.300          0.0 
       53.00        0.300          0.0 
       54.00        0.233          0.0 
       55.00        0.267          0.0 
       56.00        6.900          0.0 
       57.00        0.433          0.0 
       58.00        0.317          0.0 
       59.00        0.300          0.0 
       60.00        0.300          0.0 
       61.00        0.267          0.0 
       62.00        0.333          0.0 
       63.00        0.300          0.0 
       64.00        0.333          0.0 
       65.00        0.333          0.0 
       66.00        0.333          0.0 
       67.00        0.333          0.0 
       68.00        0.417          0.0 
       69.00        0.333          0.0 
       70.00        0.300          0.0 
       71.00        0.300          0.0 
       72.00        0.367          0.0 
       73.00        0.467          0.0 
       74.00        0.367          0.0 
       75.00        0.300          0.0 
       76.00        0.233          0.0 
       77.00        0.300          0.0 
       78.00        0.350          0.0 
       79.00        0.300          0.0 
       80.00        0.333          0.0 
       81.00        0.333          0.0 
       82.00        0.333          0.0 
       83.00        0.433          0.0 
       84.00        0.400          0.0 
       85.00        0.600          0.0 
       86.00        1.750          0.0 
       87.00        0.300          0.0 
       88.00        0.267          0.0 
       89.00        0.333          0.0 
       90.00        0.300          0.0 
       91.00        0.300          0.0 
       92.00        0.267          0.0 
       93.00        0.300          0.0 
       94.00        0.283          0.0 
       95.00        0.300          0.0 
       96.00        0.300          0.0 
       97.00        0.300          0.0 
       98.00        0.267          0.0 
       99.00        0.267          0.0 
      100.00        0.333          0.0 
      101.00        0.267          0.0 
      102.00        0.267          0.0 
      103.00        0.300          0.0 
      104.00        0.267          0.0 
      105.00        0.233          0.0 
      106.00        0.283          0.0 
      107.00        0.267          0.0 
      108.00        0.433          0.0 
      109.00        0.233          0.0 
      110.00        0.233          0.0 
      111.00        0.200          0.0 
      112.00        0.200          0.0 
      113.00        0.233          0.0 
      114.00        0.233          0.0 
      115.00        0.500          0.0 
      116.00        1.483          0.0 
      117.00        0.367          0.0 
      118.00        0.267          0.0 
      119.00        0.233          0.0 
      120.00        0.233          0.0 
      121.00        0.267          0.0 
      122.00        0.233          0.0 
      123.00        0.267          0.0 
      124.00        0.300          0.0 
      125.00        0.300          0.0 
      126.00        0.283          0.0 
      127.00        0.233          0.0 
      128.00        0.300          0.0 
      129.00        0.267          0.0 
      130.00        0.267          0.0 
      131.00        0.267          0.0 
      132.00        0.267          0.0 
      133.00        0.300          0.0 
      134.00        0.267          0.0 
      135.00        0.267          0.0 
      136.00        0.233          0.0 
      137.00        0.233          0.0 
      138.00        0.250          0.0 
      139.00        0.267          0.0 
      140.00        0.300          0.0 
      141.00        0.300          0.0 
      142.00        0.300          0.0 
      143.00        0.300          0.0 
      144.00        0.267          0.0 
      145.00        0.300          0.0 
      146.00        2.117          0.0 
      147.00        0.200          0.0 
      148.00        0.200          0.0 
      149.00        0.467          0.0 
      150.00        0.133          0.0 
      151.00        0.300          0.0 
      152.00        0.267          0.0 
      153.00        0.267          0.0 
      154.00        0.267          0.0 
      155.00        0.333          0.0 
      156.00        0.317          0.0 
      157.00        0.267          0.0 
      158.00        0.333          0.0 
      159.00        0.300          0.0 
      160.00        0.300          0.0 
      161.00        0.267          0.0 
      162.00        0.300          0.0 
      163.00        0.300          0.0 
      164.00        0.300          0.0 
      165.00        0.333          0.0 
      166.00        0.417          0.0 
      167.00        0.367          0.0 
      168.00        0.333          0.0 
      169.00        0.367          0.0 
      170.00        0.267          0.0 
      171.00        0.267          0.0 
      172.00        0.300          0.0 
      173.00        0.233          0.0 
      174.00        0.200          0.0 
      175.00        0.500          0.0 
      176.00        1.183          0.0 
      177.00        0.100          0.0 
      178.00        0.300          0.0 
      179.00        0.333          0.0 
      180.00        0.267          0.0 
      181.00        0.300          0.0 
      182.00        0.233          0.0 
      183.00        0.267          0.0 
      184.00        0.233          0.0 
      185.00        0.267          0.0 
      186.00        0.267          0.0 
      187.00        0.283          0.0 
      188.00        0.233          0.0 
      189.00        0.267          0.0 
      190.00        0.233          0.0 
      191.00        0.267          0.0 
      192.00        0.267          0.0 
      193.00        0.267          0.0 
      194.00        0.267          0.0 
      195.00        0.233          0.0 
      196.00        0.233          0.0 
      197.00        0.267          0.0 
      198.00        0.233          0.0 
      199.00        0.233          0.0 
      200.00        0.283          0.0 
      201.00        0.267          0.0 
      202.00        0.233          0.0 
      203.00        0.233          0.0 
      204.00        0.300          0.0 
      205.00        0.233          0.0 
      206.00        1.900          0.0 
      207.00        0.350          0.0 
      208.00        0.367          0.0 
      209.00        0.233          0.0 
      210.00        0.333          0.0 
      211.00        0.267          0.0 
      212.00        0.233          0.0 
      213.00        0.267          0.0 
      214.00        0.233          0.0 
      215.00        0.267          0.0 
      216.00        0.267          0.0 
      217.00        0.267          0.0 
      218.00        0.267          0.0 
      219.00        0.283          0.0 
      220.00        0.233          0.0 
      221.00        0.267          0.0 
      222.00        0.267          0.0 
      223.00        0.300          0.0 
      224.00        0.267          0.0 
      225.00        0.233          0.0 
      226.00        0.267          0.0 
      227.00        0.233          0.0 
      228.00        0.267          0.0 
      229.00        0.200          0.0 
      230.00        0.233          0.0 
      231.00        0.167          0.0 
      232.00        0.250          0.0 
      233.00        0.200          0.0 
      234.00        0.267          0.0 
      235.00        0.267          0.0 
      236.00        1.967          0.0 
      237.00        0.400          0.0 
      238.00        0.283          0.0 
      239.00        0.233          0.0 
      240.00        0.267          0.0 
