~Version Information
VERS.                      2.0: CWLS Log ASCII Standard - VERSION 2.0
WRAP.                       NO: One line per depth step
~Well Information Block
STRT.FT               890.0000: 
STOP.FT              1589.0000: 
STEP.FT                 0.2500: 
NULL.                -999.2500: 
COMP.          Evergreen Operating Corporation: COMPANY
WELL.            Tomahawk 44-9: WELL
FLD.           Purgatorie River: FIELD
LOC.           434' FSL & 491' FEL: LOCATION
PROV.                 Colorado: PROVINCE
CNTY.               Las Animas: COUNTRY
SRVC.                         : SERVICE COMPANY
DATE.          Sat Sep 11 23:05:26 2004: LOG DATE
UWI.           05 071 08133 00: UNIQUE WELL ID
~Curve Information Block
DEPT.FT            0 000 00 00: Depth
LTEN.lb                       : Surface Line Tension
SN.Ohm-m                      : IEL Short Normal
SP.mV                         : IEL Spontaneous Potential
DIR.Ohm-m                     : IEL Induction Resistivity
GR.GAPI                       : Gamma Ray
~Parameter Information Block
~A  Depth       LTEN         SN          SP         DIR          GR     
# ...
   974.0000    853.3104   2000.0000   2040.0000     14.3498    137.5582
   974.2500    851.7480   2000.0000   2040.0000     13.7897    139.1983
   974.5000    849.0016   2000.0000   2040.0000     13.3184    140.8070
   974.7500    847.1693   2000.0000   2040.0000     12.9574    142.1505
   975.0000    847.7114   2000.0000   2040.0000     12.6831    145.7336
   975.2500    850.2340   2000.0000   2040.0000     12.4616    149.2782
   975.5000    853.0630   2000.0000   2040.0000     12.2769    155.5965
   975.7500    854.6367   2000.0000   2040.0000     12.1272    159.8456
   976.0000    854.3465   2000.0000   2040.0000     11.9999    165.4861
   976.2500    852.6498   2000.0000   2040.0000     11.8614    168.5847
   976.5000    850.6088   2000.0000   2040.0000     11.6780    172.2323
   976.7500    849.0189   2000.0000   2040.0000     11.4504    174.0320
   977.0000    847.9091   2000.0000   2040.0000     11.2219    175.9998
   977.2500    846.8647   2000.0000   2040.0000     11.0480    177.0769
   977.5000    845.5223   2000.0000   2040.0000     10.9558    178.5518
   977.7500    843.7153   2000.0000   2040.0000     10.9270    179.2184
   978.0000    841.5883   2000.0000   2040.0000     10.9145    179.0011
   978.2500    839.8608   2000.0000   2040.0000     10.8785    177.6785
   978.5000    839.6080   2000.0000   2040.0000     10.8127    173.8252
   978.7500    841.4129   2000.0000   2040.0000     10.7385    170.5567
   979.0000    844.8876   2000.0000   2040.0000     10.6804    166.9371
   979.2500    849.0624   2000.0000   2040.0000     10.6484    167.0435
   979.5000    852.7661   2000.0000   2040.0000     10.6396    172.2368
   979.7500    854.6996   2000.0000   2040.0000     10.6486    178.1262
   980.0000    854.0777   2000.0000   2040.0000     10.6691    186.9430
   980.2500    851.5743   2000.0000   2040.0000     10.6881    190.6922
   980.5000    849.0953   2000.0000   2040.0000     10.6803    191.4801
   980.7500    848.3294   2000.0000   2040.0000     10.6194    189.2542
   981.0000    849.5345   2000.0000   2040.0000     10.5001    184.0440
   981.2500    851.5540   2000.0000   2040.0000     10.3539    180.6113
   981.5000    852.8795   2000.0000   2040.0000     10.2405    176.7842
   981.7500    852.6308   2000.0000   2040.0000     10.2240    175.3587
   982.0000    850.5177   2000.0000   2040.0000     10.3512    174.8842
   982.2500    846.3858   2000.0000   2040.0000     10.6419    175.4366
   982.5000    840.5379   2000.0000   2040.0000     11.0866    176.6915
   982.7500    834.5061   2000.0000   2040.0000     11.6498    177.0327
   983.0000    830.6405   2000.0000   2040.0000     12.2811    174.9478
   983.2500    830.4915   2000.0000   2040.0000     12.9312    170.6422
   983.5000    833.8541   2000.0000   2040.0000     13.5696    159.0954
   983.7500    839.1754   2000.0000   2040.0000     14.1921    149.1531
   984.0000    844.2158   2000.0000   2040.0000     14.8189    134.8251
   984.2500    846.8227   2000.0000   2040.0000     15.4839    127.6792
   984.5000    846.2597   2000.0000   2040.0000     16.2232    121.4508
   984.7500    843.9144   2000.0000   2040.0000     17.0582    119.2907
   985.0000    842.1307   2000.0000   2040.0000     17.9802    116.1796
   985.2500    842.4185   2000.0000   2040.0000     18.9458    112.8574
   985.5000    844.8311   2000.0000   2040.0000     19.8983    105.6571
   985.7500    848.3649   2000.0000   2040.0000     20.8048    100.3830
   986.0000    851.6136   2000.0000   2040.0000     21.6742     94.3464
   986.2500    853.4739   2000.0000   2040.0000     22.5340     92.6693
   986.5000    853.6722   2000.0000   2040.0000     23.3979     93.7972
   986.7500    852.8728   2000.0000   2040.0000     24.2515     96.0920
   987.0000    852.2612   2000.0000   2040.0000     25.0504     99.6933
   987.2500    852.6813   2000.0000   2040.0000     25.7132    101.1200
   987.5000    853.8412   2000.0000   2040.0000     26.1233    100.7949
   987.7500    854.4318   2000.0000   2040.0000     26.1749     98.9945
   988.0000    853.2668   2000.0000   2040.0000     25.8518     95.1720
   988.2500    850.4832   2000.0000   2040.0000     25.2556     92.9701
   988.5000    847.4626   2000.0000   2040.0000     24.5557     91.5751
   988.7500    845.5289   2000.0000   2040.0000     23.9037     92.0182
   989.0000    845.0898   2000.0000   2040.0000     23.3917     93.7990
   989.2500    846.1064   2000.0000   2040.0000     23.0625     94.8926
   989.5000    848.4325   2000.0000   2040.0000     22.9307     95.1318
   989.7500    851.1322   2000.0000   2040.0000     22.9743     93.9841
   990.0000    852.5077   2000.0000   2040.0000     23.0942     90.4987
   990.2500    851.7678   2000.0000   2040.0000     23.0999     87.5243
   990.5000    849.9244   2000.0000   2040.0000     22.7926     83.3436
   990.7500    848.3620   2000.0000   2040.0000     22.1151     81.4680
   991.0000    847.3034   2000.0000   2040.0000     21.2016     80.7293
   991.2500    846.0538   2000.0000   2040.0000     20.2664     81.6012
   991.5000    843.8508   2000.0000   2040.0000     19.4665     84.7372
   991.7500    840.2695   2000.0000   2040.0000     18.8550     88.2199
   992.0000    835.6216   2000.0000   2040.0000     18.4107     96.1726
   992.2500    831.3572   2000.0000   2040.0000     18.0818    103.2651
   992.5000    829.6359   2000.0000   2040.0000     17.8279    115.0862
   992.7500    831.9194   2000.0000   2040.0000     17.6469    122.2867
   993.0000    837.6116   2000.0000   2040.0000     17.5758    129.8549
   993.2500    844.1074   2000.0000   2040.0000     17.6584    132.1732
   993.5000    848.5641   2000.0000   2040.0000     17.9033    131.8779
   993.7500    849.8864   2000.0000   2040.0000     18.2578    129.7931
   994.0000    849.0544   2000.0000   2040.0000     18.6142    124.9729
   994.2500    847.8165   2000.0000   2040.0000     18.8568    121.0761
   994.5000    847.1041   2000.0000   2040.0000     18.9321    114.5589
   994.7500    846.4573   2000.0000   2040.0000     18.8909    109.9356
   995.0000    845.0820   2000.0000   2040.0000     18.8588    103.1881
   995.2500    843.4481   2000.0000   2040.0000     18.9574     99.3076
   995.5000    843.2651   2000.0000   2040.0000     19.2370     95.0751
   995.7500    845.7033   2000.0000   2040.0000     19.6626     93.4047
   996.0000    849.9640   2000.0000   2040.0000     20.1593     92.1670
   996.2500    853.6921   2000.0000   2040.0000     20.6861     91.6749
   996.5000    854.8660   2000.0000   2040.0000     21.2740     90.6502
   996.7500    853.5043   2000.0000   2040.0000     21.9924     89.6499
   997.0000    851.3920   2000.0000   2040.0000     22.8683     88.0312
   997.2500    850.0005   2000.0000   2040.0000     23.8209     87.1757
   997.5000    849.2460   2000.0000   2040.0000     24.6552     86.5984
   997.7500    848.4318   2000.0000   2040.0000     25.1349     86.8662
   998.0000    847.4598   2000.0000   2040.0000     25.1322     88.3539
   998.2500    846.5779   2000.0000   2040.0000     24.7580     89.6628
   998.5000    845.6002   2000.0000   2040.0000     24.3393     90.4972
   998.7500    843.9078   2000.0000   2040.0000     24.2486     89.4446
   999.0000    841.1036   2000.0000   2040.0000     24.7352     85.2976
   999.2500    837.6768   2000.0000   2040.0000     25.8411     81.4737
   999.5000    835.0378   2000.0000   2040.0000     27.3686     75.5698
   999.7500    834.6277   2000.0000   2040.0000     28.9247     72.1032
  1000.0000    836.9468   2000.0000   2040.0000     30.1145     68.0887
  1000.2500    841.3569   2000.0000   2040.0000     30.7912     66.3150
  1000.5000    846.3646   2000.0000   2040.0000     31.1012     65.0418
  1000.7500    850.2092   2000.0000   2040.0000     31.2802     65.0721
  1001.0000    851.9825   2000.0000   2040.0000     31.4437     66.3635
  1001.2500    852.2993   2000.0000   2040.0000     31.5254     68.0073
  1001.5000    852.4680   2000.0000   2040.0000     31.3575     71.2982
  1001.7500    853.1891   2000.0000   2040.0000     30.8396     73.5532
