~Version Information
VERS.                      2.0: CWLS Log ASCII Standard - VERSION 2.0
WRAP.                       NO: One line per depth step
~Well Information Block
STRT.FT               492.8000: 
STOP.FT              1992.0000: 
STEP.FT                 0.1000: 
NULL.                -999.2500: 
COMP.          Petrogulf Corporation: COMPANY
WELL.               Furu 6-23R: WELL
FLD.           Purgatoire River: FIELD
LOC.           2211' FSL & 1780' FWL--: LOCATION
CNTY.               Las Animas: COUNTY
SRVC.                Patterson: SERVICE COMPANY
DATE.          Thu Jun 22 14:21:35 2006: LOG DATE
UWI.           05 071 08266 00: UNIQUE WELL ID
STAT.                 Colorado: STATE
~Curve Information Block
DEPT.FT            0 000 00 00: Depth
DCAL.in                       : CDL Caliper
RHOB.g/cc                     : CDL Bulk Density
RHOC.g/cc                     : CDL Density Correction
DPOR.pu                       : CDL Density Porosity
NPOR.pu                       : Neutron Porosity
GR.GAPI                       : Gamma Ray
~Parameter Information Block
~A  Depth       DCAL        RHOB        RHOC        DPOR        NPOR         GR     
# ...
   790.4000      7.8159      2.5706      0.0624      4.8098     29.9554    135.2890
   790.5000      7.8122      2.5621      0.0670      5.3267     29.4129    132.3699
   790.6000      7.8122      2.5578      0.0692      5.5906     28.6801    133.9765
   790.7000      7.8122      2.5661      0.0739      5.0864     27.8775    137.6171
   790.8000      7.8104      2.5756      0.1556      4.5061     27.2626    141.0126
   790.9000      7.8104      2.5712      0.1008      4.7763     27.1423    144.5599
   791.0000      7.8116      2.5635      0.0773      5.2439     27.5527    146.9486
   791.1000      7.8116      2.5650      0.1033      5.1506     28.1007    143.9625
   791.2000      7.8116      2.5679      0.0993      4.9779     28.3478    137.5909
   791.3000      7.8131      2.5677      0.0643      4.9907     28.2929    133.8647
   791.4000      7.8131      2.5716      0.1095      4.7527     28.1790    133.5016
   791.5000      7.8137      2.5788      0.1203      4.3160     28.2976    130.9124
   791.6000      7.8137      2.5807      0.0573      4.1975     28.7124    122.8945
   791.7000      7.8137      2.5710      0.0894      4.7894     29.0748    115.9867
   791.8000      7.8141      2.5487      0.0678      6.1424     29.1223    118.9854
   791.9000      7.8141      2.5237      0.0204      7.6529     29.0776    128.3437
   792.0000      7.8126      2.5050      0.0673      8.7854     29.1079    133.0735
   792.1000      7.8126      2.4975      0.0239      9.2426     29.0445    131.2963
   792.2000      7.8126      2.5035      0.0703      8.8815     28.7742    128.3218
   792.3000      7.8107      2.4996      0.1140      9.1144     28.4633    126.1100
   792.4000      7.8107      2.4601      0.0917     11.5104     28.2036    124.0767
   792.5000      7.8105      2.3977      0.0601     15.2905     27.8669    124.2071
   792.6000      7.8105      2.3436      0.0368     18.5716     27.4608    126.3661
   792.7000      7.8105      2.3162      0.0378     20.2274     27.0750    126.8551
   792.8000      7.8106      2.3091      0.1146     20.6618     26.5586    124.5090
   792.9000      7.8106      2.3021      0.0985     21.0822     25.6448    120.6989
   793.0000      7.8074      2.2937      0.1512     21.5958     24.3144    118.9867
   793.1000      7.8074      2.2972      0.1419     21.3793     22.8460    121.4026
   793.2000      7.8074      2.3249      0.1973     19.7054     21.7751    126.6523
   793.3000      7.8028      2.3743      0.1875     16.7071     21.3424    132.8613
   793.4000      7.8028      2.4300      0.2179     13.3322     21.1531    136.8421
   793.5000      7.8013      2.4784      0.2408     10.4010     21.0858    134.6697
   793.6000      7.8013      2.5213      0.2000      7.8021     21.6357    127.3036
   793.7000      7.8013      2.5642      0.2121      5.2008     22.7900    123.3284
   793.8000      7.8018      2.6001      0.1916      3.0247     23.7955    128.7605
   793.9000      7.8018      2.6229      0.1659      1.6447     24.5550    135.9808
   794.0000      7.8018      2.6299      0.2018      1.2182     25.5100    135.6432
   794.1000      7.8018      2.6177      0.1766      1.9599     26.5697    129.6613
   794.2000      7.8018      2.5974      0.1060      3.1850     27.4349    124.3924
   794.3000      7.8035      2.5881      0.0785      3.7525     28.0939    121.5269
   794.4000      7.8035      2.5898      0.0655      3.6497     28.5243    120.1696
   794.5000      7.8086      2.5955      0.0401      3.3034     28.5757    119.1696
   794.6000      7.8086      2.6089      0.0227      2.4884     28.3400    117.6823
   794.7000      7.8086      2.6280      0.0895      1.3345     28.2237    116.8092
   794.8000      7.8130      2.6430      0.0926      0.4223     28.4271    118.3064
   794.9000      7.8130      2.6534      0.0902     -0.2045     28.6704    121.4629
   795.0000      7.8137      2.6617      0.0756     -0.7091     28.5791    125.3994
   795.1000      7.8137      2.6690      0.0647     -1.1539     28.3103    128.2695
   795.2000      7.8137      2.6682      0.1344     -1.1049     28.3256    130.2278
   795.3000      7.8159      2.6441      0.1156      0.3546     28.5966    132.4109
   795.4000      7.8159      2.6049      0.0801      2.7356     28.8855    132.2206
   795.5000      7.8196      2.5744      0.0835      4.5814     29.0987    129.0107
   795.6000      7.8196      2.5609      0.0811      5.4017     29.1530    124.6321
   795.7000      7.8196      2.5583      0.0653      5.5588     29.1789    120.7467
   795.8000      7.8194      2.5492      0.1226      6.1083     29.2941    120.1539
   795.9000      7.8194      2.5231      0.0416      7.6930     29.3918    124.6605
   796.0000      7.8182      2.4980      0.0693      9.2148     29.5752    130.8567
   796.1000      7.8182      2.4911      0.0094      9.6277     30.0402    132.8007
   796.2000      7.8182      2.5032      0.0592      8.8967     30.5132    132.0781
   796.3000      7.8189      2.5200      0.0832      7.8793     30.5232    134.2501
   796.4000      7.8189      2.5228      0.1009      7.7099     30.0773    136.7731
   796.5000      7.8186      2.5080      0.0621      8.6036     29.6078    134.9390
   796.6000      7.8186      2.4778      0.1104     10.4345     29.4810    131.8756
   796.7000      7.8186      2.4238      0.0752     13.7062     29.4056    133.7453
   796.8000      7.8177      2.3427      0.0486     18.6236     28.7488    137.5089
   796.9000      7.8177      2.2399      0.0486     24.8538     27.5114    134.3580
   797.0000      7.8201      2.1148      0.0217     32.4391     26.0329    125.2344
   797.1000      7.8201      1.9708     -0.0478     41.1661     24.4271    116.2716
   797.2000      7.8201      1.8299     -0.1098     49.7054     22.7618    106.6245
   797.3000      7.8270      1.7047     -0.1062     57.2927     21.0767     96.9278
   797.4000      7.8270      1.5869     -0.0813     64.4332     19.2751     91.0844
   797.5000      7.8367      1.4799     -0.1010     70.9149     17.3118     86.8396
   797.6000      7.8367      1.4037     -0.0359     75.5336     15.3346     82.9886
   797.7000      7.8367      1.3700      0.0565     77.5787     13.6106     82.3656
   797.8000      7.8423      1.3775      0.1742     77.1182     12.3158     82.1004
   797.9000      7.8423      1.4147      0.2586     74.8661     11.4504     77.9375
   798.0000      7.8425      1.4633      0.2864     71.9237     10.9652     71.7043
   798.1000      7.8425      1.5130      0.2789     68.9090     10.9093     68.1190
   798.2000      7.8425      1.5598      0.3046     66.0731     11.1650     69.9020
   798.3000      7.8328      1.5982      0.2996     63.7467     11.4761     75.1028
   798.4000      7.8328      1.6370      0.2786     61.3967     11.7899     78.8144
   798.5000      7.7860      1.6956      0.2627     57.8408     12.0675     80.4219
   798.6000      7.7860      1.7797      0.2975     52.7454     12.1755     85.1938
   798.7000      7.7860      1.8816      0.2584     46.5727     12.3038     92.1286
   798.8000      7.7070      1.9953      0.2720     39.6768     12.7369     97.1138
   798.9000      7.7070      2.1120      0.3286     32.6033     13.2865    101.9836
   799.0000      7.6483      2.2167      0.3682     26.2605     13.6477    106.9394
   799.1000      7.6483      2.3033      0.3343     21.0151     14.0408    110.1149
   799.2000      7.6483      2.3751      0.3049     16.6625     14.8552    111.4012
   799.3000      7.6251      2.4322      0.2821     13.1991     15.9966    112.1827
   799.4000      7.6251      2.4748      0.2412     10.6164     17.1090    114.6523
   799.5000      7.6213      2.5065      0.2059      8.6963     18.2093    119.8643
   799.6000      7.6213      2.5251      0.1371      7.5710     19.5003    124.4660
   799.7000      7.6213      2.5253      0.1447      7.5556     20.8293    120.8875
   799.8000      7.6241      2.5118      0.0973      8.3728     21.9446    109.5662
   799.9000      7.6241      2.5019      0.0505      8.9748     22.8466    100.5551
