~Version Information
VERS.                      2.0: CWLS Log ASCII Standard - VERSION 2.0
WRAP.                       NO: One line per depth step
~Well Information Block
STRT.FT               964.2000: 
STOP.FT              2596.7000: 
STEP.FT                 0.1000: 
NULL.                -999.2500: 
COMP.          Petrogulf Corporation: COMPANY
WELL.             Valejo 8-12V: WELL
FLD.           Purgatorie River: FIELD
LOC.           1510' FNL & 1460' FWL: LOCATION
CNTY.               Las Animas: COUNTY
SRVC.                         : SERVICE COMPANY
DATE.          Sat Nov 15 12:30:37 2003: LOG DATE
UWI.                          : UNIQUE WELL ID
STAT.                 Colorado: STATE
~Curve Information Block
DEPT.FT            0 000 00 00: Depth
DCAL.in                       : CDL Caliper
RHOB.g/cc                     : CDL Bulk Density
RHOC.g/cc                     : CDL Density Correction
DPOR.pu                       : CDL Density Porosity
GR.GAPI                       : Gamma Ray
NPOR.pu                       : Neutron Porosity
~Parameter Information Block
~A  Depth       DCAL        RHOB        RHOC        DPOR         GR         NPOR    
# ...
  2269.8000      8.1777      2.4957      0.0264      9.3504    124.0048     25.7186
  2269.9000      8.1777      2.5068      0.0484      8.6799    128.4392     25.5928
  2270.0000      8.1782      2.5200      0.0886      7.8764    117.2608     25.1166
  2270.1000      8.1782      2.5219      0.0633      7.7624    103.6841     24.8434
  2270.2000      8.1782      2.5166      0.0335      8.0839    100.3221     24.7609
  2270.3000      8.1797      2.5145      0.0533      8.2129    102.8771     24.7800
  2270.4000      8.1797      2.5140      0.0684      8.2423    105.7167     25.0722
  2270.5000      8.1814      2.5078      0.0648      8.6173    107.6822     25.2891
  2270.6000      8.1814      2.4978      0.0635      9.2218    108.3673     25.1293
  2270.7000      8.1814      2.4973      0.0274      9.2549    106.5765     25.2161
  2270.8000      8.1832      2.5075      0.0810      8.6337    103.2339     25.8785
  2270.9000      8.1832      2.5126      0.0529      8.3297    103.7955     26.4175
  2271.0000      8.1853      2.5086      0.0397      8.5696    114.2695     26.3183
  2271.1000      8.1853      2.5072      0.0531      8.6526    133.9369     26.0970
  2271.2000      8.1853      2.5104      0.0696      8.4591    148.7109     25.9111
  2271.3000      8.1875      2.5083      0.0462      8.5877    145.3817     25.3890
  2271.4000      8.1875      2.5067     -0.0022      8.6829    129.2745     24.7611
  2271.5000      8.1896      2.5168      0.0670      8.0752    117.3608     24.3492
  2271.6000      8.1896      2.5288      0.0679      7.3483    116.1165     23.9011
  2271.7000      8.1896      2.5337      0.0623      7.0480    115.1747     23.5928
  2271.8000      8.1914      2.5303      0.0537      7.2554    107.6931     23.9540
  2271.9000      8.1914      2.5196      0.0645      7.9056    100.3240     24.6812
  2272.0000      8.1927      2.5153      0.0257      8.1616     99.9748     24.9807
  2272.1000      8.1927      2.5284      0.0579      7.3668    101.8342     24.6504
  2272.2000      8.1927      2.5471      0.0757      6.2393     98.6110     24.2042
  2272.3000      8.1933      2.5579      0.0719      5.5813     93.9266     24.2536
  2272.4000      8.1933      2.5618      0.0858      5.3453     95.4641     24.7739
  2272.5000      8.1932      2.5617      0.0707      5.3531     98.5711     25.0207
  2272.6000      8.1932      2.5582      0.0878      5.5621     98.0216     24.7212
  2272.7000      8.1932      2.5542      0.0581      5.8068     99.7872     24.3290
  2272.8000      8.1929      2.5520      0.0490      5.9392    105.5997     24.0143
  2272.9000      8.1929      2.5491      0.0493      6.1140    108.6122     23.9391
  2273.0000      8.1929      2.5423      0.0673      6.5296    104.1935     24.0630
  2273.1000      8.1929      2.5319      0.0427      7.1573     95.5085     23.9453
  2273.2000      8.1929      2.5277      0.0231      7.4092     87.8369     23.4873
  2273.3000      8.1934      2.5378      0.0509      6.8011     83.7544     23.2351
  2273.4000      8.1934      2.5499      0.0824      6.0654     85.4897     23.7801
  2273.5000      8.1943      2.5509      0.0669      6.0052     92.3320     24.5453
  2273.6000      8.1943      2.5455      0.0736      6.3325     99.1808     24.5059
  2273.7000      8.1943      2.5370      0.0873      6.8470    102.8932     24.2816
  2273.8000      8.1951      2.5216      0.0548      7.7822    104.5223     24.6983
  2273.9000      8.1951      2.5004      0.0508      9.0689    103.0299     25.2693
  2274.0000      8.1957      2.4812      0.0236     10.2331    101.6388     25.3859
  2274.1000      8.1957      2.4776     -0.0127     10.4502    103.7071     24.9705
  2274.2000      8.1957      2.4925      0.0441      9.5444    103.1099     24.2544
  2274.3000      8.1961      2.5126      0.0385      8.3282     95.5451     23.7305
  2274.4000      8.1961      2.5284      0.0673      7.3680     86.4520     23.4748
  2274.5000      8.1964      2.5375      0.0379      6.8152     81.7900     23.2182
  2274.6000      8.1964      2.5405      0.0674      6.6375     82.5031     22.9071
  2274.7000      8.1964      2.5401      0.0937      6.6627     88.7252     22.3941
  2274.8000      8.1966      2.5390      0.0989      6.7256     97.2543     21.8379
  2274.9000      8.1966      2.5397      0.0945      6.6857    100.3958     21.5480
  2275.0000      8.1965      2.5443      0.0795      6.4034     94.0556     20.9908
  2275.1000      8.1965      2.5535      0.0859      5.8510     82.6781     19.6055
  2275.2000      8.1965      2.5622      0.0734      5.3204     74.6851     17.8170
  2275.3000      8.1961      2.5654      0.0763      5.1273     72.3446     16.5340
  2275.4000      8.1961      2.5681      0.0336      4.9616     69.2968     16.0360
  2275.5000      8.1954      2.5777      0.0598      4.3839     65.7298     15.9300
  2275.6000      8.1954      2.5872      0.0725      3.8088     66.0960     16.2265
  2275.7000      8.1954      2.5900      0.0452      3.6366     66.0591     17.0117
  2275.8000      8.1943      2.5865      0.0911      3.8487     62.9341     18.0195
  2275.9000      8.1943      2.5758      0.0435      4.4980     60.4268     18.8464
  2276.0000      8.1930      2.5639      0.0555      5.2211     59.9260     19.3866
  2276.1000      8.1930      2.5582      0.0326      5.5631     61.1231     19.9916
  2276.2000      8.1930      2.5607      0.0384      5.4105     63.8567     20.8286
  2276.3000      8.1918      2.5644      0.0519      5.1871     66.4071     21.4180
  2276.4000      8.1918      2.5576      0.0490      5.6012     67.5943     21.5486
  2276.5000      8.1910      2.5364      0.0506      6.8855     65.0415     21.8811
  2276.6000      8.1910      2.5102      0.0120      8.4699     60.5742     22.4633
  2276.7000      8.1910      2.4990      0.0105      9.1536     63.0761     22.7407
  2276.8000      8.1907      2.5073      0.0656      8.6474     75.3850     22.9821
  2276.9000      8.1907      2.5096      0.0797      8.5088     86.9474     23.2361
  2277.0000      8.1903      2.4863      0.0363      9.9188     86.6247     23.0515
  2277.1000      8.1903      2.4528      0.0286     11.9517     76.6774     22.8094
  2277.2000      8.1903      2.4308      0.0411     13.2859     67.5328     23.3215
  2277.3000      8.1899      2.4247      0.0373     13.6529     66.5659     24.7615
  2277.4000      8.1899      2.4290      0.0485     13.3917     71.8732     26.3612
  2277.5000      8.1894      2.4313      0.0850     13.2564     78.4448     27.4583
  2277.6000      8.1894      2.4218      0.0673     13.8282     86.6028     28.2174
  2277.7000      8.1894      2.4061      0.0635     14.7836     92.9301     28.7573
  2277.8000      8.1893      2.3892      0.0769     15.8057     92.0663     29.0361
  2277.9000      8.1893      2.3647      0.0642     17.2888     87.1279     29.3637
  2278.0000      8.1894      2.3266      0.0434     19.5973     84.3212     30.1256
  2278.1000      8.1894      2.2789      0.0203     22.4900     85.5627     31.3262
  2278.2000      8.1894      2.2299     -0.0329     25.4590     87.1645     32.4613
  2278.3000      8.1897      2.1844     -0.0382     28.2207     88.0943     32.9155
  2278.4000      8.1897      2.1428     -0.0344     30.7364     90.2555     32.5553
  2278.5000      8.1897      2.1076     -0.0154     32.8728     90.0812     32.2123
  2278.6000      8.1897      2.0791      0.0076     34.6030     84.5298     32.4627
  2278.7000      8.1897      2.0537      0.0417     36.1418     80.4553     32.7860
  2278.8000      8.1895      2.0390      0.0223     37.0315     83.8483     32.5775
  2278.9000      8.1895      2.0534      0.0540     36.1598     88.8779     31.8846
  2279.0000      8.1895      2.0952      0.1155     33.6267     90.2566     30.8567
  2279.1000      8.1895      2.1479      0.1189     30.4293     89.4381     29.7848
  2279.2000      8.1895      2.2116      0.1078     26.5669     84.1893     28.9650
  2279.3000      8.1907      2.2843      0.1464     22.1634     72.7631     28.0077
