~Version Information
VERS.                      2.0: CWLS Log ASCII Standard - VERSION 2.0
WRAP.                       NO: One line per depth step
~Well Information Block
STRT.FT               250.0000: 
STOP.FT               894.7000: 
STEP.FT                 0.1000: 
NULL.                -999.2500: 
COMP.          Pioneer Natural Resources: COMPANY
WELL.          Santisteven 13-22: WELL
FLD.           Purgatoire River: FIELD
LOC.           1861' FSL & 992' FWL----: LOCATION
PROV.                 Colorado: PROVINCE
CNTY.               Las Animas: COUNTRY
SRVC.                Patterson: SERVICE COMPANY
DATE.          Mon Apr 04 11:05:36 2005: LOG DATE
UWI.           05 071 08337 00: UNIQUE WELL ID
~Curve Information Block
DEPT.FT            0 000 00 00: Depth
DCAL.in                       : CDL Caliper
RHOB.g/cc                     : CDL Bulk Density
RHOC.g/cc                     : CDL Density Correction
DPOR.pu                       : CDL Density Porosity
NPOR.pu                       : Neutron Porosity
GR.GAPI                       : Gamma Ray
~Parameter Information Block
~A  Depth       DCAL        RHOB        RHOC        DPOR        NPOR         GR     
# ...
   778.0000      7.8470      2.3834     -0.0017     16.1559     21.5681    107.7965
   778.1000      7.8470      2.3734     -0.0145     16.7610     21.8147    111.8969
   778.2000      7.8470      2.3637      0.0039     17.3539     22.1759    118.3040
   778.3000      7.8462      2.3534     -0.0062     17.9741     22.2701    125.1762
   778.4000      7.8462      2.3468     -0.0201     18.3756     22.1147    130.6476
   778.5000      7.8465      2.3481      0.0174     18.2995     22.0778    133.4923
   778.6000      7.8465      2.3490      0.0188     18.2454     22.3287    134.8366
   778.7000      7.8465      2.3485      0.0069     18.2714     22.5640    135.5364
   778.8000      7.8447      2.3532      0.0424     17.9905     22.4183    134.5628
   778.9000      7.8447      2.3623      0.0206     17.4359     22.1059    130.6537
   779.0000      7.8410      2.3743      0.0291     16.7075     21.9014    126.1105
   779.1000      7.8410      2.3909      0.0339     15.7017     21.4790    122.5266
   779.2000      7.8410      2.4155      0.0236     14.2099     20.9363    116.9717
   779.3000      7.8388      2.4423      0.0705     12.5884     20.6992    112.2310
   779.4000      7.8388      2.4484      0.0938     12.2170     20.6915    113.8239
   779.5000      7.8392      2.4219      0.0289     13.8246     20.8183    115.8513
   779.6000      7.8392      2.3861     -0.0156     15.9952     20.9300    113.7161
   779.7000      7.8392      2.3664     -0.0001     17.1867     20.7460    112.4258
   779.8000      7.8396      2.3627     -0.0303     17.4121     20.3438    111.7658
   779.9000      7.8396      2.3656      0.0125     17.2375     20.0159    107.2096
   780.0000      7.8396      2.3683      0.0172     17.0702     19.7514    102.1558
   780.1000      7.8396      2.3687      0.0259     17.0501     19.4236    103.6313
   780.2000      7.8396      2.3670      0.0386     17.1491     19.1275    110.4624
   780.3000      7.8407      2.3655      0.0504     17.2446     18.7993    114.0053
   780.4000      7.8407      2.3692      0.0711     17.0194     18.3368    111.5645
   780.5000      7.8425      2.3800      0.0609     16.3621     17.9070    109.4149
   780.6000      7.8425      2.3890      0.0688     15.8183     17.6634    111.5817
   780.7000      7.8425      2.3885      0.0457     15.8494     17.7034    113.5824
   780.8000      7.8422      2.3826      0.0250     16.2043     17.9978    112.5947
   780.9000      7.8422      2.3777      0.0089     16.5040     18.4024    111.2490
   781.0000      7.8407      2.3785      0.0202     16.4537     18.9387    112.9765
   781.1000      7.8407      2.3869      0.0308     15.9433     19.4457    120.6676
   781.2000      7.8407      2.3967      0.0479     15.3516     19.3700    126.9071
   781.3000      7.8401      2.4011      0.0307     15.0858     18.6687    120.5127
   781.4000      7.8401      2.3991      0.0365     15.2051     17.9534    107.6678
   781.5000      7.8401      2.3940      0.0385     15.5174     17.6121    102.7351
   781.6000      7.8401      2.3967     -0.0088     15.3528     17.6597    106.0419
   781.7000      7.8401      2.4069      0.0598     14.7338     18.0689    108.9546
   781.8000      7.8401      2.4039      0.0563     14.9180     18.6400    110.7346
   781.9000      7.8401      2.3896     -0.0023     15.7835     18.9642    113.2646
   782.0000      7.8384      2.3845      0.0363     16.0884     18.8539    111.8173
   782.1000      7.8384      2.3882      0.0296     15.8667     18.5908    105.4441
   782.2000      7.8384      2.3890      0.0424     15.8177     18.5683     98.6579
   782.3000      7.8368      2.3838      0.0267     16.1313     18.9077     94.1476
   782.4000      7.8368      2.3781      0.0503     16.4761     19.2849     94.0099
   782.5000      7.8371      2.3789      0.0214     16.4324     19.2972     99.6327
   782.6000      7.8371      2.3865      0.0394     15.9675     18.9536    107.5141
   782.7000      7.8371      2.3992      0.0141     15.2028     18.5936    112.3037
   782.8000      7.8390      2.4117      0.0768     14.4400     18.4262    112.2714
   782.9000      7.8390      2.4138      0.0509     14.3140     18.2434    111.6350
   783.0000      7.8411      2.4112      0.0022     14.4733     17.9779    113.5638
   783.1000      7.8411      2.4170      0.0313     14.1193     18.2121    116.0328
   783.2000      7.8411      2.4237      0.0385     13.7155     19.0519    119.2664
   783.3000      7.8410      2.4194      0.0509     13.9747     19.4189    122.9866
   783.4000      7.8410      2.4090      0.0182     14.6041     18.8799    121.2556
   783.5000      7.8405      2.4050     -0.0157     14.8472     18.4984    110.8028
   783.6000      7.8405      2.4065      0.0543     14.7563     18.9098     98.5945
   783.7000      7.8405      2.4023      0.0180     15.0135     19.4639     96.0831
   783.8000      7.8417      2.3975     -0.0160     15.3036     19.4896    104.1797
   783.9000      7.8417      2.4084     -0.0145     14.6444     19.2805    112.5894
   784.0000      7.8428      2.4425      0.0036     12.5785     19.4446    115.9904
   784.1000      7.8428      2.4849      0.0973     10.0076     19.9783    117.1517
   784.2000      7.8428      2.5089      0.0488      8.5492     20.4347    118.4004
   784.3000      7.8421      2.5152      0.0536      8.1672     20.6903    119.3572
   784.4000      7.8421      2.5158      0.0629      8.1348     20.7970    120.7759
   784.5000      7.8413      2.5081      0.0526      8.5980     20.9967    124.0743
   784.6000      7.8413      2.4932      0.0366      9.5016     21.4624    127.3189
   784.7000      7.8413      2.4731      0.0618     10.7184     21.6159    129.2167
   784.8000      7.8423      2.4477      0.0145     12.2602     21.2933    132.7594
   784.9000      7.8423      2.4284      0.0238     13.4326     21.1797    138.3746
   785.0000      7.8433      2.4218     -0.0047     13.8288     21.5136    140.6677
   785.1000      7.8433      2.4151      0.0547     14.2376     21.9377    137.5428
   785.2000      7.8433      2.3988     -0.0052     15.2249     22.2184    135.4455
   785.3000      7.8431      2.3857     -0.0114     16.0200     22.3174    137.7112
   785.4000      7.8431      2.3810      0.0227     16.3034     22.3656    140.3288
   785.5000      7.8423      2.3780      0.0099     16.4819     22.3419    140.3491
   785.6000      7.8423      2.3791      0.0055     16.4177     21.9667    137.4626
   785.7000      7.8423      2.3839      0.0633     16.1282     21.4365    132.2469
   785.8000      7.8410      2.3853      0.0112     16.0436     21.1852    124.5904
   785.9000      7.8410      2.3851      0.0199     16.0569     21.1456    116.8913
   786.0000      7.8392      2.3825      0.0707     16.2106     20.9943    116.0875
   786.1000      7.8392      2.3705      0.0368     16.9371     20.5716    125.4442
   786.2000      7.8392      2.3556      0.0259     17.8447     19.6933    135.7039
   786.3000      7.8368      2.3495      0.0158     18.2091     18.7260    135.1322
   786.4000      7.8368      2.3525      0.0232     18.0306     18.4708    125.5127
   786.5000      7.8368      2.3576     -0.0002     17.7193     18.8041    117.0688
   786.6000      7.8368      2.3596      0.0508     17.5970     18.8618    112.3173
   786.7000      7.8368      2.3577      0.0128     17.7134     18.4692    108.5687
   786.8000      7.8405      2.3532      0.0505     17.9865     18.2714    106.7896
   786.9000      7.8405      2.3452      0.0265     18.4733     18.3286    106.4522
   787.0000      7.8432      2.3438      0.0034     18.5587     18.0423    106.0494
   787.1000      7.8432      2.3605      0.0381     17.5435     17.4508    105.6204
   787.2000      7.8432      2.3836      0.0629     16.1482     16.9715    104.3368
   787.3000      7.8423      2.3963      0.0615     15.3731     16.7051    105.8082
   787.4000      7.8423      2.3994      0.0386     15.1903     16.6561    110.9846
   787.5000      7.8412      2.3941      0.0582     15.5104     16.8356    113.3382
