~Version Information
VERS.                      2.0: CWLS Log ASCII Standard - VERSION 2.0
WRAP.                       NO: One line per depth step
~Well Information Block
STRT.FT               860.0000: 
STOP.FT              1907.0000: 
STEP.FT                 0.1000: 
NULL.                -999.2500: 
COMP.          Pioneer Natural Resources: COMPANY
WELL.          Victory 12-14 Tr: WELL
FLD.           Purgatoire River: FIELD
LOC.           2522' FNL & 276' FWL: LOCATION
PROV.                 Colorado: PROVINCE
CNTY.               Las Animas: COUNTRY
SRVC.                Patterson: SERVICE COMPANY
DATE.          Mon Jul 18 06:52:40 2005: LOG DATE
UWI.           05 071 08433 00: UNIQUE WELL ID
~Curve Information Block
DEPT.FT            0 000 00 00: Depth
DCAL.in                       : CDL Caliper
RHOB.g/cc                     : CDL Bulk Density
RHOC.g/cc                     : CDL Density Correction
DPOR.pu                       : CDL Density Porosity
GR.GAPI                       : Gamma Ray
NPOR.pu                       : Neutron Porosity
~Parameter Information Block
~A  Depth       DCAL        RHOB        RHOC        DPOR         GR         NPOR    
# ...
  1762.4000      7.9791      2.6288      0.0812      1.2868     70.6133     18.7631
  1762.5000      7.9962      2.5968      0.1291      3.2247     70.9118     20.1665
  1762.6000      7.9962      2.5492      0.0500      6.1082     72.0282     21.5503
  1762.7000      7.9962      2.5041     -0.0090      8.8436     74.3008     22.5934
  1762.8000      7.9772      2.4892     -0.0015      9.7465     78.0689     23.8897
  1762.9000      7.9772      2.5045      0.0121      8.8155     83.9876     25.2247
  1763.0000      7.9880      2.5225      0.0421      7.7300     93.9532     25.6089
  1763.1000      7.9880      2.5279      0.0488      7.4028    108.2219     25.3457
  1763.2000      7.9880      2.5341      0.0664      7.0261    120.3029     25.2198
  1763.3000      7.9995      2.5520      0.1716      5.9366    127.6611     25.0393
  1763.4000      7.9995      2.5763      0.1867      4.4670    135.9965     25.1188
  1763.5000      7.9993      2.5974      0.1773      3.1900    147.0194     26.2361
  1763.6000      7.9993      2.5953      0.2124      3.3138    154.3469     27.4993
  1763.7000      7.9993      2.5547      0.1505      5.7739    154.9418     27.1651
  1763.8000      7.9973      2.5034      0.0623      8.8832    154.6871     25.7534
  1763.9000      7.9973      2.4900     -0.0083      9.6999    157.6471     25.7248
  1764.0000      8.0515      2.5194      0.0656      7.9139    159.3696     27.7130
  1764.1000      8.0515      2.5503      0.1026      6.0418    157.5261     29.9196
  1764.2000      8.0515      2.5598      0.0850      5.4696    158.0894     30.6944
  1764.3000      8.1383      2.5591      0.0937      5.5065    163.5987     30.2995
  1764.4000      8.1383      2.5549      0.1325      5.7619    169.7137     29.7427
  1764.5000      8.1356      2.5464      0.1215      6.2772    175.1471     28.9334
  1764.6000      8.1356      2.5402      0.1142      6.6545    180.2957     28.0741
  1764.7000      8.1356      2.5424      0.1083      6.5221    180.0523     28.2973
  1764.8000      8.1240      2.5525      0.1213      5.9109    172.0297     28.9550
  1764.9000      8.1240      2.5595      0.1738      5.4855    164.1756     28.3291
  1765.0000      8.1165      2.5570      0.1117      5.6389    162.7894     27.0191
  1765.1000      8.1165      2.5604      0.1426      5.4309    164.8118     26.6197
  1765.2000      8.1165      2.5758      0.1493      4.4998    166.7699     26.7898
  1765.3000      8.1229      2.5758      0.1810      4.4942    170.1979     26.4722
  1765.4000      8.1229      2.5465      0.0894      6.2714    178.1747     26.0634
  1765.5000      8.3061      2.5144      0.0980      8.2204    189.2029     25.8378
  1765.6000      8.3061      2.4917      0.1192      9.5928    192.7651     25.5415
  1765.7000      8.3061      2.4629      0.0692     11.3387    183.0280     26.0691
  1765.8000      8.2922      2.4161      0.0486     14.1775    170.5748     27.5353
  1765.9000      8.2922      2.3462      0.0042     18.4135    166.9890     28.4715
  1766.0000      8.2336      2.2591      0.0061     23.6927    170.8558     28.5780
  1766.1000      8.2336      2.1666     -0.0182     29.2952    174.1944     28.7351
  1766.2000      8.2336      2.0622     -0.0754     35.6267    172.1613     29.3097
  1766.3000      8.2408      1.9176     -0.0366     44.3862    166.1410     30.0160
  1766.4000      8.2408      1.7364     -0.1438     55.3670    161.3274     30.4387
  1766.5000      8.2127      1.5767     -0.1613     65.0503    159.4384     30.6445
  1766.6000      8.2127      1.4744     -0.1070     71.2486    154.7981     30.5483
  1766.7000      8.2127      1.4104     -0.1180     75.1263    143.5298     30.1978
  1766.8000      8.1622      1.3735     -0.1557     77.3634    130.3959     29.9580
  1766.9000      8.1622      1.3781     -0.0908     77.0835    122.5877     30.0323
  1767.0000      8.1210      1.4169      0.0314     74.7322    119.1366     30.7282
  1767.1000      8.1210      1.4584      0.0637     72.2185    111.9942     31.6656
  1767.2000      8.1210      1.4873      0.0723     70.4660     98.6930     31.8282
  1767.3000      8.1889      1.5082      0.0816     69.2018     87.7194     31.2465
  1767.4000      8.1889      1.5331      0.0673     67.6910     85.6544     30.9291
  1767.5000      8.6910      1.5824     -0.0061     64.7040     89.2661     31.1914
  1767.6000      8.6910      1.6598      0.0395     60.0100     94.0252     31.5382
  1767.7000      8.6910      1.7379      0.0660     55.2796     96.7093     31.6880
  1767.8000      8.7980      1.7981      0.0609     51.6296     95.9225     31.7130
  1767.9000      8.7980      1.8629      0.0477     47.7053     92.8759     31.6590
  1768.0000      8.3097      1.9691      0.0708     41.2692     92.1117     31.3960
  1768.1000      8.3097      2.1092      0.1670     32.7744     98.4749     30.7757
  1768.2000      8.3097      2.2292      0.1811     25.5042    109.8136     29.9411
  1768.3000      8.2624      2.3032      0.1307     21.0152    120.6787     29.0945
  1768.4000      8.2624      2.3629      0.1440     17.4011    127.6890     28.5614
  1768.5000      8.3285      2.4367      0.1668     12.9267    129.0396     28.7005
  1768.6000      8.3285      2.5009      0.1920      9.0348    128.1758     28.9038
  1768.7000      8.3285      2.5113      0.1152      8.4049    133.7524     28.6394
  1768.8000      8.1277      2.4674      0.0298     11.0689    142.6094     28.1495
  1768.9000      8.1277      2.4142     -0.0171     14.2894    141.6158     27.7577
  1769.0000      8.0419      2.3891     -0.0023     15.8150    132.7063     27.5521
  1769.1000      8.0419      2.3932      0.0207     15.5626    127.0640     27.1550
  1769.2000      8.0419      2.4078      0.0733     14.6769    127.6139     26.4757
  1769.3000      8.0292      2.4180      0.0788     14.0588    131.7569     25.5977
  1769.4000      8.0292      2.4293      0.0796     13.3766    136.2076     24.5332
  1769.5000      7.9812      2.4607      0.0503     11.4734    139.7335     23.7275
  1769.6000      7.9812      2.5159      0.1850      8.1292    143.6156     23.5171
  1769.7000      7.9812      2.5679      0.1797      4.9772    145.8617     23.7032
  1769.8000      7.9477      2.5927      0.1677      3.4747    146.0476     24.0213
  1769.9000      7.9477      2.5928      0.1555      3.4656    143.8459     24.0983
  1770.0000      7.9158      2.5862      0.1344      3.8696    137.5128     23.9765
  1770.1000      7.9158      2.5847      0.1392      3.9596    131.2413     24.1911
  1770.2000      7.9158      2.5899      0.1055      3.6414    130.8562     24.3105
  1770.3000      7.9151      2.6020      0.0884      2.9063    132.0287     23.6073
  1770.4000      7.9151      2.6187      0.0961      1.8951    126.4125     22.5736
  1770.5000      7.9197      2.6343      0.0610      0.9541    116.6494     21.6529
  1770.6000      7.9197      2.6364      0.1204      0.8218    108.4598     21.0599
  1770.7000      7.9197      2.6210      0.0991      1.7574    101.2586     21.0021
  1770.8000      7.9347      2.6080      0.1047      2.5429     93.5841     21.0540
  1770.9000      7.9347      2.6130      0.1280      2.2425     89.1423     20.7687
  1771.0000      7.9614      2.6263      0.1474      1.4386     93.2020     20.6522
  1771.1000      7.9614      2.6258      0.1162      1.4680    104.0139     20.5817
  1771.2000      7.9614      2.6031      0.0810      2.8427    113.6313     19.3955
  1771.3000      7.9385      2.5823      0.0330      4.1022    115.5527     17.4738
  1771.4000      7.9385      2.5857      0.0554      3.8999    112.0775     16.7764
  1771.5000      7.9285      2.5979      0.0775      3.1546    112.5593     18.0249
  1771.6000      7.9285      2.5968      0.0867      3.2220    117.4214     20.3312
  1771.7000      7.9285      2.5852      0.0295      3.9292    116.0239     22.3983
  1771.8000      7.9526      2.5762      0.0371      4.4709    106.5960     23.3825
  1771.9000      7.9526      2.5688      0.0457      4.9234     97.9795     23.3280
