~Version Information
VERS.                      2.0: CWLS Log ASCII Standard - VERSION 2.0
WRAP.                       NO: One line per depth step
~Well Information Block
STRT.FT               -16.5000: 
STOP.FT              1244.7500: 
STEP.FT                 0.2500: 
NULL.                -999.2500: 
COMP.          Pioneer Natural Resources: COMPANY
WELL.          Bouncer41-27 Tr: WELL
FLD.           Purgatorie River: FIELD
LOC.           292' FNL & 222' FEL--------: LOCATION
PROV.                       CO: PROVINCE
CNTY.               Las Animas: COUNTRY
SRVC.                         : SERVICE COMPANY
DATE.          Fri Feb 11 15:34:51 2005: LOG DATE
UWI.                071-08291 : UNIQUE WELL ID
~Curve Information Block
DEPT.FT            0 000 00 00: Depth
CCL.                          : Casing Collar Locator
TT3.usec                      : CBL 3' Travel Time
AMP3.mV                       : CBL 3' Amplitude
GR.GAPI                       : Gamma Ray
~Parameter Information Block
~A  Depth       CCL         TT3         AMP3         GR     
# ...
   151.0000      0.0000    765.7976      4.9213     93.0510
   151.2500      0.0000    760.6347      4.8826     96.9113
   151.5000      0.0000    758.5597      4.8029    103.0674
   151.7500      0.0000    759.6715      4.7387    108.9530
   152.0000      0.0000    762.8258      4.7419    112.1350
   152.2500      0.0000    767.2697      4.8282    111.7485
   152.5000      0.0000    772.9047      4.9692    108.5713
   152.7500      0.0000    778.8073      5.1139    104.0999
   153.0000      0.0000    782.4829      5.2221     99.6393
   153.2500      0.0000    781.4168      5.2824     95.8704
   153.5000      0.0000    775.3386      5.3052     92.8662
   153.7500      0.0000    766.8090      5.3060     90.4399
   154.0000      0.0000    759.4821      5.2980     88.5393
   154.2500      0.0000    755.5805      5.2939     87.3758
   154.5000      0.0000    754.7907      5.3023     87.3004
   154.7500      0.0000    755.3301      5.3081     88.4382
   155.0000      0.0000    755.7202      5.2622     90.1795
   155.2500      0.0000    755.6226      5.1163     91.1833
   155.5000      0.0000    755.6366      4.8858     90.1098
   155.7500      0.0000    756.3954      4.6576     86.4244
   156.0000      0.0000    756.8486      4.5208     80.7797
   156.2500      0.0000    753.5473      4.4965     74.9501
   156.5000      2.0000    743.6896      4.5431     71.1860
   156.7500     -2.0000    729.8856      4.6094     70.9456
   157.0000      0.0000    720.0010      4.6823     73.9548
   157.2500      0.0000    720.3762      4.7922     78.6251
   157.5000      0.0000    729.9151      4.9726     83.1769
   157.7500      0.0000    741.7867      5.2073     86.0698
   158.0000      0.0000    749.8164      5.4255     86.0007
   158.2500      0.0000    752.6403      5.5612     82.5778
   158.5000      0.0000    752.9545      5.6084     77.1514
   158.7500      0.0000    754.0441      5.6114     72.3202
   159.0000      0.0000    756.9484      5.6189     70.1375
   159.2500      0.0000    760.1841      5.6567     70.7624
   159.5000      0.0000    761.4731      5.7246     72.7582
   159.7500      0.0000    759.6343      5.7988     74.3888
   160.0000      0.0000    755.3122      5.8425     74.5581
   160.2500      0.0000    750.4318      5.8294     73.0811
   160.5000      0.0000    746.8239      5.7614     70.7447
   160.7500      0.0000    744.7236      5.6600     69.0793
   161.0000      0.0000    741.5959      5.5395     69.5410
   161.2500      0.0000    732.1821      5.3943     72.5291
   161.5000      0.0000    711.5421      5.2128     77.0190
   161.7500      0.0000    680.8092      4.9990     81.0534
   162.0000      0.0000    649.9101      4.7750     82.9296
   162.2500      0.0000    631.6324      4.5661     82.5037
   162.5000      0.0000    630.8432      4.3888     81.4602
   162.7500      0.0000    640.4354      4.2521     82.0015
   163.0000      0.0000    649.1896      4.1652     85.0827
   163.2500      0.0000    652.8394      4.1378     89.8084
   163.5000      0.0000    655.9177      4.1736     94.2302
   163.7500      0.0000    663.7747      4.2659     96.4962
   164.0000      0.0000    675.8557      4.3986     95.6095
   164.2500      0.0000    687.4199      4.5472     91.7210
   164.5000      0.0000    695.0016      4.6808     85.8457
   164.7500      0.0000    698.5029      4.7655     79.1260
   165.0000      0.0000    699.5637      4.7734     72.2584
   165.2500      0.0000    699.6960      4.6956     65.5290
   165.5000      0.0000    699.7360      4.5515     59.3029
   165.7500      0.0000    700.1078      4.3865     54.3617
   166.0000      0.0000    701.2533      4.2588     51.6578
   166.2500      0.0000    703.9095      4.2175     51.7386
   166.5000      0.0000    708.8779      4.2784     54.3853
   166.7500      0.0000    716.3620      4.4192     58.7355
   167.0000      0.0000    725.2482      4.6015     63.7542
   167.2500      0.0000    732.8677      4.7984     68.7762
   167.5000      0.0000    735.4432      4.9963     73.7567
   167.7500      0.0000    729.6274      5.1772     78.9670
   168.0000      0.0000    714.7422      5.3119     84.5522
   168.2500      0.0000    694.1599      5.3771     90.4460
   168.5000      0.0000    674.0388      5.3714     96.2582
   168.7500      0.0000    660.0262      5.3093    100.9639
   169.0000      0.0000    654.7999      5.2076    103.2529
   169.2500      0.0000    657.8102      5.0841    102.5228
   169.5000      0.0000    665.1780      4.9637     99.3020
   169.7500      0.0000    668.9620      4.8771     94.8783
   170.0000      0.0000    659.3933      4.8473     90.9120
   170.2500      0.0000    631.6651      4.8767     88.9731
   170.5000      0.0000    591.0917      4.9411     89.7052
   170.7500      0.0000    549.7936      5.0005     92.3679
   171.0000      0.0000    518.0695      5.0217     95.4345
   171.2500      0.0000    499.5570      4.9965     97.6145
   171.5000      0.0000    492.9243      4.9390     98.2791
   171.7500      0.0000    495.6825      4.8655     97.1093
   172.0000      0.0000    505.7971      4.7821     93.7305
   172.2500      0.0000    520.7896      4.6938     88.0730
   172.5000      0.0000    536.9011      4.6173     81.0928
   172.7500      0.0000    550.6991      4.5746     74.8645
   173.0000      0.0000    561.4750      4.5757     71.6737
   173.2500      0.0000    570.3992      4.6129     72.5409
   173.5000      0.0000    577.2392      4.6673     76.3383
   173.7500      0.0000    580.1274      4.7176     80.5502
   174.0000      0.0000    578.6646      4.7414     83.1895
   174.2500      0.0000    575.0858      4.7199     84.0255
   174.5000      0.0000    572.1857      4.6504     84.1803
   174.7500      0.0000    572.1075      4.5561     84.8942
   175.0000      0.0000    576.8123      4.4769     86.4773
   175.2500      0.0000    585.8397      4.4445     87.9561
   175.5000      0.0000    592.8943      4.4637     87.9142
   175.7500      0.0000    590.6622      4.5115     86.0551
   176.0000      0.0000    582.1483      4.5487     83.6909
   176.2500      0.0000    582.1481      4.5363     82.5212
   176.5000      0.0000    603.2471      4.4566     83.2386
   176.7500      0.0000    642.6805      4.3301     85.3672
   177.0000      0.0000    685.4542      4.2093     87.8902
   177.2500      0.0000    717.8867      4.1471     89.6189
   177.5000      0.0000    735.8037      4.1624     89.4224
   177.7500      0.0000    742.4301      4.2287     86.9864
   178.0000      0.0000    742.8615      4.2950     83.5625
   178.2500      0.0000    741.2538      4.3200     81.3414
   178.5000      0.0000    740.3812      4.2944     81.6102
   178.7500      0.0000    741.3612      4.2393     83.6761
   179.0000      0.0000    743.5845      4.1880     85.7028
   179.2500      0.0000    745.6888      4.1645     86.2083
   179.5000      0.0000    746.8264      4.1725     84.7325
   179.7500      0.0000    747.0779      4.1948     81.8231
   180.0000      0.0000    747.0026      4.2034     78.8071
   180.2500      0.0000    747.0853      4.1772     77.0739
   180.5000      0.0000    747.5004      4.1202     77.0038
   180.7500      0.0000    748.1771      4.0634     77.6875
   181.0000      0.0000    748.9813      4.0423     77.9855
   181.2500      0.0000    749.8406      4.0667     77.7775
   181.5000      0.0000    750.7457      4.1120     77.9111
   181.7500      0.0000    751.7198      4.1387     79.0776
   182.0000      0.0000    752.8010      4.1235     81.2199
   182.2500      0.0000    753.9871      4.0752     83.9202
   182.5000      0.0000    755.1563      4.0249     86.7267
   182.7500      0.0000    756.1047      3.9999     89.0325
   183.0000      0.0000    756.7335      4.0027     90.2871
   183.2500      0.0000    757.1732      4.0114     90.5858
   183.5000      0.0000    757.6749      3.9997     90.5251
   183.7500      0.0000    758.4184      3.9614     90.2052
   184.0000      0.0000    759.5035      3.9191     88.9310
   184.2500      0.0000    761.1706      3.9077     86.2164
