~Version Information
VERS.                      2.0: CWLS Log ASCII Standard - VERSION 2.0
WRAP.                       NO: One line per depth step
~Well Information Block
STRT.FT               362.0000: 
STOP.FT               983.0000: 
STEP.FT                 0.1000: 
NULL.                -999.2500: 
COMP.          Pioneer Natural Resources: COMPANY
WELL.             Tomcat 32-10: WELL
FLD.           Purgatoire River: FIELD
LOC.           2286' FNL & 2463' FEL: LOCATION
PROV.                 Colorado: PROVINCE
CNTY.               Las Animas: COUNTRY
SRVC.                Patterson: SERVICE COMPANY
DATE.          Tue Mar 22 11:24:45 2005: LOG DATE
UWI.           05 071 08301 00: UNIQUE WELL ID
~Curve Information Block
DEPT.FT            0 000 00 00: Depth
DCAL.in                       : CDL Caliper
RHOB.g/cc                     : CDL Bulk Density
RHOC.g/cc                     : CDL Density Correction
DPOR.pu                       : CDL Density Porosity
GR.GAPI                       : Gamma Ray
NPOR.pu                       : Neutron Porosity
~Parameter Information Block
~A  Depth       DCAL        RHOB        RHOC        DPOR         GR         NPOR    
# ...
   803.6000      7.9324      2.5154      0.0628      8.1599    112.6606     28.0867
   803.7000      7.9324      2.5060      0.0604      8.7270    110.2627     28.4155
   803.8000      7.9327      2.5068      0.0716      8.6811    111.2396     28.4782
   803.9000      7.9327      2.5055      0.0974      8.7592    116.1910     28.1899
   804.0000      7.9246      2.4956      0.0289      9.3571    120.8602     27.8489
   804.1000      7.9246      2.4844      0.0636     10.0341    120.7320     27.7139
   804.2000      7.9246      2.4814      0.0789     10.2208    116.8373     27.6411
   804.3000      7.9079      2.4868      0.0780      9.8931    112.2032     27.4215
   804.4000      7.9079      2.4822      0.1182     10.1710    109.8177     27.0460
   804.5000      7.9274      2.4405      0.1036     12.6988    108.8735     26.6050
   804.6000      7.9274      2.3579      0.0797     17.7015    109.1789     26.1891
   804.7000      7.9274      2.2661      0.0016     23.2690    110.3085     25.8892
   804.8000      7.9391      2.1989     -0.0247     27.3418    109.5137     25.9233
   804.9000      7.9391      2.1633     -0.0374     29.4981    111.9836     26.2713
   805.0000      7.9309      2.1571     -0.0479     29.8750    120.8031     26.7789
   805.1000      7.9309      2.1810     -0.0295     28.4223    127.7076     27.4985
   805.2000      7.9309      2.2179      0.0946     26.1879    128.0974     28.4026
   805.3000      7.9363      2.2445      0.0921     24.5762    126.7930     29.3741
   805.4000      7.9363      2.2743      0.0856     22.7680    125.6669     30.1907
   805.5000      7.9495      2.3297      0.1379     19.4126    122.3962     30.7281
   805.6000      7.9495      2.3898      0.1860     15.7699    118.0605     31.1632
   805.7000      7.9495      2.4228      0.1258     13.7722    113.9648     31.4199
   805.8000      7.9831      2.4356      0.0475     12.9965    110.6298     31.2840
   805.9000      7.9831      2.4509      0.0358     12.0661    110.3817     30.8569
   806.0000      7.9793      2.4793     -0.0142     10.3468    111.6227     30.3665
   806.1000      7.9793      2.5108      0.0819      8.4379    109.7398     30.0990
   806.2000      7.9793      2.5241      0.0129      7.6333    102.8616     30.0111
   806.3000      7.9582      2.5245      0.0237      7.6087     93.2266     29.8232
   806.4000      7.9582      2.5351      0.0160      6.9643     87.3601     29.6343
   806.5000      7.9560      2.5570      0.0216      5.6381     88.9645     29.4789
   806.6000      7.9560      2.5696      0.0431      4.8741     92.8590     29.0083
   806.7000      7.9560      2.5558      0.0474      5.7061     93.6433     28.2185
   806.8000      7.9701      2.5257      0.0122      7.5313     92.4557     27.7261
   806.9000      7.9701      2.5075     -0.0159      8.6379     92.4553     27.7719
   807.0000      7.9668      2.5110      0.0205      8.4224     93.7471     27.8324
   807.1000      7.9668      2.5258      0.0401      7.5278     94.6138     27.5144
   807.2000      7.9668      2.5430      0.0646      6.4875     93.5591     27.1250
   807.3000      7.9687      2.5533      0.0806      5.8619     89.4414     26.9336
   807.4000      7.9687      2.5491      0.0480      6.1137     83.5306     26.7269
   807.5000      7.9683      2.5422      0.0295      6.5316     80.2750     26.4511
   807.6000      7.9683      2.5472      0.0926      6.2319     80.0799     26.1237
   807.7000      7.9683      2.5552      0.0930      5.7433     80.3660     25.8946
   807.8000      7.9473      2.5535      0.0946      5.8485     81.8421     26.0651
   807.9000      7.9473      2.5460      0.0420      6.3001     85.1417     26.3543
   808.0000      7.9540      2.5451      0.0254      6.3590     91.1157     26.3502
   808.1000      7.9540      2.5538      0.0329      5.8321     97.2690     26.2308
   808.2000      7.9540      2.5678      0.0165      4.9846     99.6127     26.3225
   808.3000      7.9595      2.5826      0.0712      4.0838    101.1793     26.6934
   808.4000      7.9595      2.5916      0.1118      3.5378    104.5704     27.0067
   808.5000      7.9517      2.5899      0.1236      3.6454    107.6375     26.8732
   808.6000      7.9517      2.5791      0.1176      4.2957    109.2397     26.6527
   808.7000      7.9517      2.5632      0.0920      5.2592    109.6786     26.9021
   808.8000      7.9540      2.5505      0.0264      6.0304    109.6424     27.4591
   808.9000      7.9540      2.5547      0.0699      5.7772    112.5464     27.9369
   809.0000      7.9387      2.5694      0.1052      4.8855    118.3715     28.2587
   809.1000      7.9387      2.5807      0.0233      4.1975    123.4078     28.5481
   809.2000      7.9387      2.5917      0.0353      3.5328    127.9788     28.9145
   809.3000      7.9303      2.6005      0.0981      2.9990    129.7904     29.1869
   809.4000      7.9303      2.5948      0.1187      3.3449    125.2152     29.2685
   809.5000      7.9436      2.5753      0.0603      4.5289    121.8132     29.2913
   809.6000      7.9436      2.5623      0.0564      5.3131    128.6226     29.4177
   809.7000      7.9436      2.5659      0.0821      5.0998    140.1066     29.7175
   809.8000      7.9616      2.5794      0.0455      4.2767    144.8110     29.8889
   809.9000      7.9616      2.5924      0.1205      3.4933    137.9445     29.7233
   810.0000      7.9679      2.5937      0.0584      3.4106    125.9212     29.5382
   810.1000      7.9679      2.5854      0.0431      3.9151    121.7509     29.6694
   810.2000      7.9679      2.5674      0.0572      5.0036    128.8880     30.0098
   810.3000      7.9732      2.5365      0.0170      6.8800    137.4894     30.0533
   810.4000      7.9732      2.5019      0.0181      8.9771    139.3493     29.5234
   810.5000      7.9656      2.4771     -0.0479     10.4800    136.6031     28.6644
   810.6000      7.9656      2.4656      0.0109     11.1736    132.5092     27.6481
   810.7000      7.9656      2.4634     -0.0170     11.3107    123.2735     26.4539
   810.8000      7.9711      2.4669     -0.0149     11.0978    111.5218     25.2896
   810.9000      7.9711      2.4526      0.0742     11.9614    108.1176     24.2650
   811.0000      7.9672      2.3891     -0.0407     15.8106    115.4766     23.1953
   811.1000      7.9672      2.2821     -0.0029     22.2981    122.0767     22.0029
   811.2000      7.9672      2.1476     -0.0660     30.4470    118.6031     20.8572
   811.3000      7.9741      1.9851     -0.0773     40.2998    108.0257     19.8673
   811.4000      7.9741      1.8152     -0.1784     50.5947     96.0492     19.0669
   811.5000      7.9904      1.6734     -0.1324     59.1902     88.1270     18.5317
   811.6000      7.9904      1.5518     -0.1443     66.5569     86.3153     18.3114
   811.7000      7.9904      1.4410     -0.1870     73.2742     85.6688     18.4693
   811.8000      7.9742      1.3688     -0.0576     77.6468     83.1581     18.9324
   811.9000      7.9742      1.3514     -0.0393     78.7055     79.6367     19.0579
   812.0000      8.0101      1.3655      0.0422     77.8508     74.4891     18.5482
   812.1000      8.0101      1.3737      0.0885     77.3532     65.8833     18.1112
   812.2000      8.0101      1.3616      0.0536     78.0842     56.0643     18.2015
   812.3000      8.0433      1.3406      0.0370     79.3605     48.8974     18.5619
   812.4000      8.0433      1.3253      0.0482     80.2842     44.3427     18.9633
   812.5000      8.0208      1.3300      0.0620     80.0005     42.1969     19.5913
   812.6000      8.0208      1.3683      0.0837     77.6814     44.4754     20.6339
   812.7000      8.0208      1.4446      0.0883     73.0566     49.1209     22.0137
   812.8000      7.9978      1.5496      0.1205     66.6889     51.4511     23.6268
   812.9000      7.9978      1.6679      0.1540     59.5237     52.3907     25.2175
   813.0000      7.9524      1.7922      0.2285     51.9876     56.1913     26.3743
   813.1000      7.9524      1.9266      0.2122     43.8394     61.2074     27.0328
