~Version Information
VERS.                      2.0: CWLS Log ASCII Standard - VERSION 2.0
WRAP.                       NO: One line per depth step
~Well Information Block
STRT.FT               866.0000: 
STOP.FT              2027.5000: 
STEP.FT                 0.1000: 
NULL.                -999.2500: 
COMP.          Petrogulf Corporation: COMPANY
WELL.             State 16-21R: WELL
FLD.           Purgatorie River: FIELD
LOC.           203' FNL & 1560' FWL: LOCATION
PROV.                 Colorado: PROVINCE
CNTY.               Las Animas: COUNTRY
SRVC.                Patterson: SERVICE COMPANY
DATE.          Tue Aug 16 13:32:09 2005: LOG DATE
UWI.                071 08313 : UNIQUE WELL ID
~Curve Information Block
DEPT.FT            0 000 00 00: Depth
DCAL.in                       : CDL Caliper
RHOB.g/cc                     : CDL Bulk Density
RHOC.g/cc                     : CDL Density Correction
DPOR.pu                       : CDL Density Porosity
GR.GAPI                       : Gamma Ray
NPOR.pu                       : Neutron Porosity
~Parameter Information Block
~A  Depth       DCAL        RHOB        RHOC        DPOR         GR         NPOR    
# ...
   942.8000      8.2077      2.0387      0.0189     37.0500    115.7115     30.3636
   942.9000      8.2077      1.9466     -0.0314     42.6285    112.8517     30.7918
   943.0000      8.1403      1.8662      0.0098     47.5051    109.4293     31.1856
   943.1000      8.1403      1.7867     -0.0215     52.3194    106.0651     31.4320
   943.2000      8.1403      1.7182     -0.0100     56.4739    102.7410     31.3968
   943.3000      8.1400      1.6713      0.0198     59.3139     98.0281     31.2717
   943.4000      8.1400      1.6397      0.0809     61.2293     92.4745     31.3556
   943.5000      8.1914      1.6143      0.1130     62.7677     86.4890     31.5862
   943.6000      8.1914      1.5973      0.0907     63.7970     80.6328     31.7712
   943.7000      8.1914      1.5957      0.0732     63.8959     76.7535     31.7842
   943.8000      8.1926      1.6110      0.0493     62.9668     76.1746     31.6597
   943.9000      8.1926      1.6405      0.0628     61.1788     77.5051     31.6330
   944.0000      8.0818      1.6758      0.0911     59.0410     77.7409     31.7841
   944.1000      8.0818      1.7054      0.1000     57.2468     75.7053     31.9270
   944.2000      8.0818      1.7253      0.1134     56.0407     72.5653     31.9358
   944.3000      8.0447      1.7358      0.1239     55.4060     70.4080     31.7663
   944.4000      8.0447      1.7351      0.1084     55.4497     70.2351     31.4875
   944.5000      8.0544      1.7254      0.0498     56.0363     72.2126     31.2311
   944.6000      8.0544      1.7080      0.0616     57.0939     75.3199     30.8989
   944.7000      8.0544      1.6767      0.0530     58.9880     77.4771     30.3340
   944.8000      8.0843      1.6396     -0.0095     61.2367     77.4396     29.7977
   944.9000      8.0843      1.6215     -0.0198     62.3322     76.1359     29.7309
   945.0000      8.0964      1.6303      0.1092     61.7992     75.1958     30.0510
   945.1000      8.0964      1.6552      0.0904     60.2910     75.1781     30.2860
   945.2000      8.0964      1.6939      0.1016     57.9456     75.9161     30.2822
   945.3000      8.0991      1.7461      0.0950     54.7808     76.1800     30.2581
   945.4000      8.0991      1.8053      0.1409     51.1925     76.1105     30.3965
   945.5000      8.0735      1.8697      0.1472     47.2884     77.0302     30.6546
   945.6000      8.0735      1.9470      0.1469     42.6038     78.1197     30.8732
   945.7000      8.0735      2.0383      0.2345     37.0748     79.6423     30.8892
   945.8000      8.0127      2.1330      0.1866     31.3342     82.7585     30.5920
   945.9000      8.0127      2.2275      0.2042     25.6069     85.1404     30.0864
   946.0000      8.0587      2.3186      0.2056     20.0869     83.7490     29.5942
   946.1000      8.0587      2.3966      0.1785     15.3594     79.8764     29.2860
   946.2000      8.0587      2.4607      0.2420     11.4737     77.5317     28.9750
   946.3000      8.0154      2.5217      0.2372      7.7786     77.3514     28.2877
   946.4000      8.0154      2.5841      0.2618      3.9929     76.5590     27.4423
   946.5000      7.9813      2.6345      0.2719      0.9416     73.0439     26.7028
   946.6000      7.9813      2.6644      0.1957     -0.8716     67.8922     25.7246
   946.7000      7.9813      2.6840      0.1881     -2.0623     64.0715     24.2528
   946.8000      7.9495      2.6979      0.1567     -2.9005     63.6836     22.6932
   946.9000      7.9495      2.7040      0.0761     -3.2718     65.4772     21.4849
   947.0000      8.0107      2.7055      0.0986     -3.3617     67.2662     20.5315
   947.1000      8.0107      2.7012      0.0928     -3.1039     68.8763     19.6859
   947.2000      8.0107      2.6946      0.0664     -2.7006     69.3324     18.9852
   947.3000      7.9354      2.6977      0.0543     -2.8904     67.4593     18.3799
   947.4000      7.9354      2.7056      0.1075     -3.3679     66.3099     17.8596
   947.5000      7.9516      2.7009      0.0577     -3.0821     67.4729     17.6460
   947.6000      7.9516      2.6862      0.1006     -2.1956     66.9089     17.7049
   947.7000      7.9516      2.6666      0.1246     -1.0045     64.0616     17.6789
   947.8000      7.9101      2.6336      0.0849      0.9956     62.2633     17.5808
   947.9000      7.9101      2.5897      0.0376      3.6572     62.1866     17.5842
   948.0000      7.8738      2.5501      0.0640      6.0539     64.1873     17.6733
   948.1000      7.8738      2.5225      0.0528      7.7278     69.0570     17.9360
   948.2000      7.8738      2.4981      0.0921      9.2064     75.0558     18.3818
   948.3000      7.8795      2.4625      0.0349     11.3629     80.3662     19.0158
   948.4000      7.8795      2.4173      0.0203     14.1016     85.4546     19.9470
   948.5000      7.9877      2.3788      0.0253     16.4347     91.5541     21.2102
   948.6000      7.9877      2.3522      0.0513     18.0481     98.1254     22.7207
   948.7000      7.9877      2.3217      0.0924     19.8959    103.1124     24.0794
   948.8000      8.0623      2.2677      0.0818     23.1701    103.5201     24.8947
   948.9000      8.0623      2.1822      0.1053     28.3491     97.5928     25.1233
   949.0000      8.0932      2.0757      0.0467     34.8078     90.0488     25.1671
   949.1000      8.0932      1.9714     -0.0343     41.1287     86.3396     25.5224
   949.2000      8.0932      1.8764     -0.0187     46.8853     83.9592     26.0818
   949.3000      8.0893      1.7743      0.0014     53.0718     78.8516     26.6209
   949.4000      8.0893      1.6654     -0.1092     59.6744     73.0571     27.2777
   949.5000      8.0666      1.5709     -0.0867     65.4026     69.2902     28.0775
   949.6000      8.0666      1.5057     -0.0368     69.3523     67.3333     28.8528
   949.7000      8.0666      1.4856     -0.0311     70.5698     66.2512     29.3812
   949.8000      8.0719      1.5239      0.0457     68.2481     66.9178     29.5845
   949.9000      8.0719      1.6137      0.0654     62.8080     70.1486     29.8536
   950.0000      8.0509      1.7338      0.1275     55.5271     73.6730     30.5099
   950.1000      8.0509      1.8624      0.1792     47.7357     76.3237     31.1977
   950.2000      8.0509      1.9906      0.1736     39.9613     81.4842     31.5755
   950.3000      8.0031      2.1164      0.2441     32.3420     90.8716     31.6643
   950.4000      8.0031      2.2285      0.2291     25.5476    100.8773     31.5774
   950.5000      8.0953      2.3163      0.2358     20.2244    109.2759     31.4353
   950.6000      8.0953      2.3766      0.1513     16.5686    116.0604     31.2063
   950.7000      8.0953      2.4121      0.0912     14.4173    119.5647     30.8296
   950.8000      8.1280      2.4244      0.0773     13.6698    119.3259     30.4794
   950.9000      8.1280      2.4106      0.0803     14.5078    118.5887     30.2382
   951.0000      8.1025      2.3754      0.0289     16.6407    121.4295     29.8974
   951.1000      8.1025      2.3345      0.0544     19.1190    127.8185     29.5399
   951.2000      8.1025      2.2983      0.0296     21.3135    131.9183     29.5311
   951.3000      8.1165      2.2723      0.0116     22.8928    130.6425     29.9540
   951.4000      8.1165      2.2639      0.0030     23.3992    126.9558     30.5612
   951.5000      8.1680      2.2709      0.0704     22.9747    122.3974     30.8953
   951.6000      8.1680      2.2782      0.0725     22.5331    116.6796     30.9527
   951.7000      8.1680      2.2852      0.0631     22.1087    113.1096     31.1743
   951.8000      8.1573      2.3063      0.0686     20.8283    113.1416     31.6097
   951.9000      8.1573      2.3407      0.1177     18.7444    113.5075     31.9674
   952.0000      8.3414      2.3692      0.1128     17.0184    113.6773     32.0015
   952.1000      8.3414      2.3777      0.1061     16.5019    116.8072     31.8687
   952.2000      8.3414      2.3701      0.0578     16.9610    123.1120     31.7747
   952.3000      8.1975      2.3554      0.0701     17.8537    129.9086     31.5371
