~Version Information
VERS.                      2.0: CWLS Log ASCII Standard - VERSION 2.0
WRAP.                       NO: One line per depth step
~Well Information Block
STRT.FT              1684.7500: 
STOP.FT              2367.7500: 
STEP.FT                 0.2500: 
NULL.                -999.2500: 
COMP.          Petrogulf Corporation: COMPANY
WELL.             Norton 9-14V: WELL
FLD.           Purgatorie River: FIELD
LOC.           250' FSL & 225' FWL--: LOCATION
CNTY.               Las Animas: COUNTY
SRVC.                         : SERVICE COMPANY
DATE.          Mon Jan 10 10:00:10 2005: LOG DATE
UWI.                          : UNIQUE WELL ID
STAT.                       CO: STATE
~Curve Information Block
DEPT.FT            0 000 00 00: Depth
CCL.                          : Casing Collar Locator
TT3.usec                      : CBL 3' Travel Time
AMP3.mV                       : CBL 3' Amplitude
GR.GAPI                       : Gamma Ray
~Parameter Information Block
~A  Depth       CCL         TT3         AMP3         GR     
# ...
  1986.2500      0.0000    666.3364      9.7556    118.1322
  1986.5000      0.0000    627.8123      9.9415    112.4807
  1986.7500      0.0000    557.3942     10.3451    106.4176
  1987.0000      0.0000    474.7810     10.8509    100.5500
  1987.2500      0.0000    402.3142     11.3271     95.4335
  1987.5000      0.0000    353.2777     11.6910     91.6140
  1987.7500      0.0000    327.5767     11.9254     89.4225
  1988.0000      0.0000    317.7425     12.0382     89.0056
  1988.2500      0.0000    317.5285     12.0313     90.4415
  1988.5000      0.0000    326.5907     11.9037     93.3423
  1988.7500      0.0000    350.2816     11.6535     96.4576
  1989.0000      0.0000    394.9997     11.2650     98.3523
  1989.2500      0.0000    460.6854     10.7248     98.6573
  1989.5000      0.0000    536.6374     10.0696     98.1906
  1989.7500      0.0000    606.5884      9.3971     97.8213
  1990.0000      0.0000    658.9145      8.8099     97.9124
  1990.2500      0.0000    691.5386      8.3553     99.0755
  1990.5000      0.0000    708.5262      8.0283    102.4408
  1990.7500      0.0000    714.6830      7.8169    108.1612
  1991.0000      0.0000    713.3794      7.7193    114.0129
  1991.2500      0.0000    707.2316      7.7137    116.8067
  1991.5000      0.0000    699.0855      7.7361    115.6010
  1991.7500      0.0000    691.9445      7.7094    112.6590
  1992.0000      0.0000    688.0806      7.5979    110.7207
  1992.2500      0.0000    688.1265      7.4312    110.1147
  1992.5000      0.0000    691.0168      7.2757    109.2359
  1992.7500      0.0000    695.4716      7.1769    107.2027
  1993.0000      0.0000    702.0378      7.1309    104.8777
  1993.2500      0.0000    712.4452      7.1115    103.3538
  1993.5000      0.0000    725.8396      7.1093    102.5135
  1993.7500      0.0000    736.7939      7.1290    101.4911
  1994.0000      0.0000    738.2204      7.1643    100.0127
  1994.2500      0.0000    725.9315      7.2019     98.8031
  1994.5000      0.0000    700.8264      7.2403     98.6086
  1994.7500      0.0000    668.6868      7.2824     99.0904
  1995.0000      0.0000    638.5720      7.3052     99.0646
  1995.2500      0.0000    619.5784      7.2568     97.9307
  1995.5000      0.0000    616.7409      7.0927     96.4730
  1995.7500      0.0000    629.1349      6.8145     96.0096
  1996.0000      0.0000    651.4292      6.4700     96.9856
  1996.2500      0.0000    676.5266      6.1251     98.5338
  1996.5000      0.0000    697.5804      5.8408     99.0947
  1996.7500      0.0000    710.0952      5.6576     97.1968
  1997.0000      0.0000    713.6880      5.5807     91.9800
  1997.2500      0.0000    711.5219      5.5775     83.6651
  1997.5000      0.0000    707.5802      5.6093     73.8289
  1997.7500      0.0000    704.4018      5.6753     64.9020
  1998.0000      0.0000    702.8941      5.8257     58.8105
  1998.2500      0.0000    703.1024      6.1202     55.8034
  1998.5000      0.0000    704.2409      6.5600     54.8115
  1998.7500      0.0000    704.4305      7.0705     55.1107
  1999.0000      0.0000    701.7112      7.5583     57.4052
  1999.2500      0.0000    695.8226      7.9603     63.0472
  1999.5000      0.0000    688.2419      8.2315     72.3497
  1999.7500      0.0000    679.5778      8.3413     83.8904
  2000.0000      0.0000    667.6906      8.3279     95.3837
  2000.2500      0.0000    650.6834      8.3220    104.9569
  2000.5000      0.0000    632.5729      8.4447    111.6720
  2000.7500      0.0000    623.1179      8.6779    115.3916
  2001.0000      0.0000    629.2119      8.8723    116.7324
  2001.2500      0.0000    647.8888      8.8933    117.1509
  2001.5000      0.0000    669.6390      8.7421    118.4509
  2001.7500      0.0000    686.5556      8.5342    121.4361
  2002.0000      0.0000    695.7487      8.3748    124.8231
  2002.2500      0.0000    697.4556      8.2630    126.0104
  2002.5000      0.0000    692.2843      8.1180    123.4836
  2002.7500      0.0000    679.8855      7.8923    118.4765
  2003.0000      0.0000    659.8700      7.6336    113.9666
  2003.2500      0.0000    634.5965      7.4262    111.9522
  2003.5000      0.0000    610.7721      7.2937    111.7304
  2003.7500      0.0000    596.5233      7.1842    110.8584
  2004.0000      0.0000    596.0568      7.0306    107.8856
  2004.2500      0.0000    607.1078      6.8031    103.8758
  2004.5000      0.0000    623.0130      6.5261    100.8979
  2004.7500      0.0000    636.4078      6.2714     99.4372
  2005.0000      0.0000    642.0032      6.1217     98.0039
  2005.2500      0.0000    638.5737      6.1080     95.1656
  2005.5000      0.0000    630.0610      6.1883     91.2558
  2005.7500      0.0000    623.7963      6.3036     87.8223
  2006.0000      2.0000    625.4785      6.4320     85.8640
  2006.2500      0.0000    634.9145      6.5696     85.1803
  2006.5000      0.0000    646.8419      6.6875     85.1946
  2006.7500      0.0000    654.7767      6.7598     85.5764
  2007.0000      0.0000    653.6194      6.8388     85.9498
  2007.2500      0.0000    642.3281      7.0415     85.9170
  2007.5000      0.0000    627.6358      7.4076     85.8586
  2007.7500      0.0000    621.8004      7.7926     87.0889
  2008.0000      0.0000    631.9690      7.9717     90.5263
  2008.2500      0.0000    653.0999      7.8505     95.4360
  2008.5000      0.0000    673.8484      7.5287    100.1024
  2008.7500      0.0000    686.8024      7.1766    103.6580
  2009.0000      0.0000    691.3773      6.9082    106.6194
  2009.2500      0.0000    690.4286      6.7606    109.6656
  2009.5000      0.0000    687.1319      6.7314    112.4597
  2009.7500      0.0000    683.7891      6.7983    113.7248
  2010.0000      0.0000    681.4811      6.9258    112.3136
  2010.2500      0.0000    680.2367      7.0847    108.3419
  2010.5000      0.0000    679.6481      7.2595    103.2006
  2010.7500      0.0000    679.3130      7.4303     98.3709
  2011.0000      0.0000    678.9545      7.5626     94.4934
  2011.2500      0.0000    678.3003      7.6261     91.5676
  2011.5000      0.0000    676.8401      7.6201     89.5842
  2011.7500      0.0000    673.4615      7.5706     88.6635
  2012.0000      0.0000    666.3804      7.5061     88.6172
  2012.2500      0.0000    654.1027      7.4419     88.5433
  2012.5000      0.0000    637.4225      7.3873     87.1682
  2012.7500      0.0000    620.2514      7.3450     83.8058
  2013.0000      0.0000    606.9221      7.2959     78.9048
  2013.2500      0.0000    597.6172      7.2050     73.7860
  2013.5000      0.0000    587.1729      7.0578     70.0676
  2013.7500      0.0000    569.5134      6.8837     69.0311
  2014.0000      0.0000    543.6542      6.7196     70.8813
  2014.2500      0.0000    515.6483      6.5596     74.4804
  2014.5000      0.0000    495.4414      6.3566     78.1306
  2014.7500      0.0000    491.9279      6.0686     80.7841
  2015.0000      0.0000    509.1330      5.6937     82.5168
  2015.2500      0.0000    544.0074      5.2733     84.0288
  2015.5000      0.0000    586.7454      4.8800     85.9320
  2015.7500      0.0000    625.3321      4.5790     88.5834
  2016.0000      0.0000    652.1286      4.3768     92.2836
  2016.2500      0.0000    666.7392      4.2070     96.9897
  2016.5000      0.0000    673.4192      3.9906    101.6725
  2016.7500      0.0000    676.8950      3.7080    104.7708
  2017.0000      0.0000    680.0296      3.4028    105.8263
  2017.2500      0.0000    683.2689      3.1214    106.0303
  2017.5000      0.0000    685.1868      2.8722    106.5844
  2017.7500      0.0000    684.1340      2.6517    107.1238
  2018.0000      0.0000    680.0451      2.4841    106.2840
  2018.2500      0.0000    674.6251      2.4092    103.3910
  2018.5000      0.0000    669.9665      2.4319     99.0570
  2018.7500      0.0000    667.5044      2.5025     94.3078
  2019.0000      0.0000    668.3074      2.5506     89.6063
  2019.2500      0.0000    673.5126      2.5303     84.8037
  2019.5000      0.0000    683.5914      2.4444     79.7041
