~Version Information
VERS.                      2.0: CWLS Log ASCII Standard - VERSION 2.0
WRAP.                       NO: One line per depth step
~Well Information Block
STRT.FT               528.0000: 
STOP.FT              2250.0000: 
STEP.FT                 0.1000: 
NULL.                -999.2500: 
COMP.          Pioneer Natural Resources: COMPANY
WELL.           Parklane 43-34: WELL
FLD.           Purgatorie River: FIELD
LOC.           1704' FSL & 1119' FEL: LOCATION
PROV.                 Colorado: PROVINCE
CNTY.               Las Animas: COUNTRY
SRVC.                         : SERVICE COMPANY
DATE.          Thu Oct 07 08:21:17 2004: LOG DATE
UWI.           05 071 08162 00: UNIQUE WELL ID
~Curve Information Block
DEPT.FT            0 000 00 00: Depth
LTEN.lb                       : Surface Line Tension
DCAL.in                       : CDL Caliper
RHOB.g/cc                     : CDL Bulk Density
RHOC.g/cc                     : CDL Density Correction
DPOR.pu                       : CDL Density Porosity
GR.GAPI                       : Gamma Ray
NPOR.pu                       : Neutron Porosity
~Parameter Information Block
~A  Depth       LTEN        DCAL        RHOB        RHOC        DPOR         GR         NPOR    
# ...
  1788.0000   1128.0996      7.8751      2.5688      0.0154      4.9192     49.7258     16.3633
  1788.1000   1128.0996      7.8751      2.5494      0.0568      6.0982     47.2535     17.3017
  1788.2000   1128.0996      7.8751      2.5196      0.0297      7.9047     51.5582     18.1536
  1788.3000   1195.6711      7.8854      2.4835     -0.0065     10.0916     58.1915     18.4002
  1788.4000   1195.6711      7.8854      2.4562     -0.0165     11.7425     59.6015     17.8155
  1788.5000   1151.2605      7.8964      2.4467     -0.0278     12.3193     57.6896     17.0885
  1788.6000   1151.2605      7.8964      2.4615     -0.0384     11.4270     59.0407     17.1524
  1788.7000   1151.2605      7.8964      2.4933      0.0300      9.4948     64.2376     18.3710
  1788.8000   1170.2092      7.8882      2.5193      0.0471      7.9209     69.0665     20.4000
  1788.9000   1170.2092      7.8882      2.5300      0.0260      7.2727     71.6341     22.2421
  1789.0000   1154.1055      7.8623      2.5324      0.0592      7.1278     75.8142     23.5213
  1789.1000   1154.1055      7.8623      2.5377      0.0533      6.8063     83.7741     24.9289
  1789.2000   1154.1055      7.8623      2.5582      0.1109      5.5635     91.5681     26.4745
  1789.3000   1150.8252      7.8474      2.5841      0.1739      3.9927     94.2064     27.5912
  1789.4000   1150.8252      7.8474      2.5876      0.2107      3.7832     93.8772     28.4726
  1789.5000   1148.1171      7.8754      2.5609      0.2305      5.3974     94.5039     29.5349
  1789.6000   1148.1171      7.8754      2.5225      0.2426      7.7292     95.6142     30.1558
  1789.7000   1148.1171      7.8754      2.4900      0.2130      9.6991     98.8731     29.8638
  1789.8000   1132.6727      7.9543      2.4707      0.1540     10.8693    104.6048     29.6572
  1789.9000   1132.6727      7.9543      2.4662      0.1500     11.1366    111.5034     30.0682
  1790.0000   1155.5536      8.0415      2.4731      0.1656     10.7219    119.2225     30.1966
  1790.1000   1155.5536      8.0415      2.4836      0.1598     10.0852    124.2094     29.4215
  1790.2000   1155.5536      8.0415      2.4928      0.1415      9.5281    124.3709     28.0752
  1790.3000   1132.1875      8.0655      2.4998      0.1686      9.1012    121.2879     27.1044
  1790.4000   1132.1875      8.0655      2.5026      0.1455      8.9340    119.1941     27.1834
  1790.5000   1153.7888      8.0219      2.4971      0.1560      9.2662    119.7085     27.4458
  1790.6000   1153.7888      8.0219      2.4874      0.1378      9.8543    116.3246     27.2386
  1790.7000   1153.7888      8.0219      2.4849      0.1377     10.0077    107.3332     27.2185
  1790.8000   1127.7124      7.9774      2.4930      0.1210      9.5181    100.1889     27.6284
  1790.9000   1127.7124      7.9774      2.5033      0.1020      8.8905    100.4280     28.1478
  1791.0000   1148.3368      7.9445      2.5092      0.0625      8.5335    106.7300     28.3764
  1791.1000   1148.3368      7.9445      2.5109      0.0684      8.4286    115.9751     28.1817
  1791.2000   1148.3368      7.9445      2.5094      0.0643      8.5206    124.3113     27.8515
  1791.3000   1169.7158      7.9099      2.5080      0.0609      8.6090    126.5624     27.2471
  1791.4000   1169.7158      7.9099      2.5111      0.0810      8.4210    123.2729     26.3006
  1791.5000   1159.4581      7.8724      2.5185      0.1126      7.9681    116.1055     25.7066
  1791.6000   1159.4581      7.8724      2.5272      0.1009      7.4425    106.8463     25.9039
  1791.7000   1159.4581      7.8724      2.5376      0.0868      6.8149    103.5986     26.4129
  1791.8000   1176.4193      7.8468      2.5478      0.1090      6.1951    109.9405     26.1717
  1791.9000   1176.4193      7.8468      2.5475      0.1248      6.2107    116.8073     25.1818
  1792.0000   1126.0675      7.8558      2.5353      0.0705      6.9504    116.9228     25.0005
  1792.1000   1126.0675      7.8558      2.5203      0.0962      7.8593    114.0022     26.2655
  1792.2000   1126.0675      7.8558      2.5029      0.0875      8.9169    111.3794     27.8002
  1792.3000   1106.3944      7.8872      2.4861      0.0457      9.9314    107.3272     28.4219
  1792.4000   1106.3944      7.8872      2.4791      0.0142     10.3548    102.6470     28.2145
  1792.5000   1084.8123      7.9209      2.4769      0.0816     10.4910     99.2461     27.9331
  1792.6000   1084.8123      7.9209      2.4713      0.0254     10.8293     96.3639     27.8330
  1792.7000   1084.8123      7.9209      2.4716      0.0409     10.8130     94.8103     27.8905
  1792.8000   1109.6609      7.9332      2.4836      0.0464     10.0876     98.7845     28.0942
  1792.9000   1109.6609      7.9332      2.4940      0.0750      9.4550    108.2748     28.4150
  1793.0000   1065.8365      7.9219      2.4913      0.0793      9.6158    111.9447     28.9805
  1793.1000   1065.8365      7.9219      2.4809      0.0883     10.2505    103.5493     29.3126
  1793.2000   1065.8365      7.9219      2.4704      0.1022     10.8874     93.3629     28.6038
  1793.3000   1115.9260      7.9068      2.4596      0.0639     11.5399     90.2847     27.0440
  1793.4000   1115.9260      7.9068      2.4521      0.0530     11.9960     94.8877     25.9865
  1793.5000   1069.8154      7.9083      2.4531      0.0661     11.9338    105.2699     26.1844
  1793.6000   1069.8154      7.9083      2.4600      0.0546     11.5127    114.7346     26.9872
  1793.7000   1069.8154      7.9083      2.4627      0.1081     11.3518    114.7410     27.7811
  1793.8000   1170.1768      7.9169      2.4550      0.0660     11.8187    106.5489     28.4499
  1793.9000   1170.1768      7.9169      2.4468      0.1080     12.3126    101.7479     29.0804
  1794.0000   1111.5710      7.9142      2.4472      0.1030     12.2932    106.1017     29.9829
  1794.1000   1111.5710      7.9142      2.4542      0.1316     11.8644    111.0259     31.0195
  1794.2000   1111.5710      7.9142      2.4626      0.1202     11.3588    109.2456     31.4360
  1794.3000   1131.0001      7.9046      2.4667      0.1546     11.1114    105.9695     31.2959
  1794.4000   1131.0001      7.9046      2.4650      0.1502     11.2109    109.2483     31.1829
  1794.5000   1102.7856      7.9022      2.4605      0.1640     11.4827    118.1378     31.0882
  1794.6000   1102.7856      7.9022      2.4518      0.1185     12.0136    123.8178     30.6362
  1794.7000   1102.7856      7.9022      2.4330      0.1570     13.1527    121.5500     29.9856
  1794.8000   1088.7045      7.9141      2.4086      0.0904     14.6300    113.5317     29.7141
  1794.9000   1088.7045      7.9141      2.3958      0.0683     15.4046    105.6804     30.1532
  1795.0000   1113.4436      7.9258      2.3975      0.0596     15.3051    101.0579     31.4345
  1795.1000   1113.4436      7.9258      2.3986      0.0773     15.2371     96.5944     32.7367
  1795.2000   1113.4436      7.9258      2.3965      0.0509     15.3638     93.0209     32.8652
  1795.3000   1083.3685      7.9310      2.4045      0.0691     14.8805     95.1884     31.7725
  1795.4000   1083.3685      7.9310      2.4231      0.0699     13.7507    104.1185     30.3946
  1795.5000   1141.8129      7.9296      2.4411      0.0556     12.6596    115.5521     29.5819
  1795.6000   1141.8129      7.9296      2.4548      0.0821     11.8325    122.0406     29.7340
  1795.7000   1141.8129      7.9296      2.4653      0.0843     11.1923    121.0143     30.5667
  1795.8000   1104.4486      7.9357      2.4737      0.0887     10.6835    116.0966     30.8200
  1795.9000   1104.4486      7.9357      2.4737      0.1168     10.6862    109.3526     29.6717
  1796.0000   1108.5475      7.9450      2.4578      0.0841     11.6477    103.3862     27.9781
  1796.1000   1108.5475      7.9450      2.4352      0.0702     13.0165    101.2196     26.8815
  1796.2000   1108.5475      7.9450      2.4214      0.0658     13.8520    103.1646     26.2915
  1796.3000   1097.3195      7.9426      2.4154      0.0929     14.2200    104.6859     26.0060
