~Version Information
VERS.                      2.0: CWLS Log ASCII Standard - VERSION 2.0
WRAP.                       NO: One line per depth step
~Well Information Block
STRT.FT               453.5000: 
STOP.FT              1386.0000: 
STEP.FT                 0.1000: 
NULL.                -999.2500: 
COMP.          Petrogulf Corporation: COMPANY
WELL.          Great Plains 22-22R: WELL
FLD.           Purgatoire River: FIELD
LOC.           2042' FNL & 1657' FWL--: LOCATION
PROV.                 Colorado: PROVINCE
CNTY.               Las Animas: COUNTRY
SRVC.                Patterson: SERVICE COMPANY
DATE.          Fri Sep 09 14:42:42 2005: LOG DATE
UWI.           05 071 08028 00: UNIQUE WELL ID
~Curve Information Block
DEPT.FT            0 000 00 00: Depth
DCAL.in                       : CDL Caliper
RHOB.g/cc                     : CDL Bulk Density
RHOC.g/cc                     : CDL Density Correction
DPOR.pu                       : CDL Density Porosity
NPOR.pu                       : Neutron Porosity
GR.GAPI                       : Gamma Ray
~Parameter Information Block
~A  Depth       DCAL        RHOB        RHOC        DPOR        NPOR         GR     
# ...
   885.5000      8.4181      2.6121      0.0833      2.2941     29.6627     25.2010
   885.6000      8.4181      2.6516      0.0790     -0.0941     29.2608     23.1379
   885.7000      8.4181      2.6993      0.1228     -2.9906     29.0037     23.0161
   885.8000      8.5191      2.7433      0.2294     -5.6560     28.3779     24.1836
   885.9000      8.5191      2.7676      0.1797     -7.1272     27.2348     26.9899
   886.0000      8.6419      2.7812      0.1259     -7.9516     26.3068     30.1792
   886.1000      8.6419      2.8022      0.1009     -9.2238     26.3934     30.7215
   886.2000      8.6419      2.8265      0.1319    -10.6964     27.0612     28.2720
   886.3000      8.7371      2.8344      0.1251    -11.1763     27.3567     24.5905
   886.4000      8.7371      2.8210      0.1173    -10.3664     27.0998     22.2876
   886.5000      8.7789      2.8007      0.0965     -9.1347     26.5610     22.9826
   886.6000      8.7789      2.7870      0.0343     -8.3025     25.9431     23.5170
   886.7000      8.7789      2.7831      0.0238     -8.0650     25.5385     22.3190
   886.8000      8.7478      2.7855      0.0351     -8.2133     25.4328     23.4084
   886.9000      8.7478      2.7973      0.0535     -8.9297     25.3794     26.4223
   887.0000      8.6018      2.8268      0.0465    -10.7143     25.0834     27.7605
   887.1000      8.6018      2.8594      0.1082    -12.6893     24.6497     28.1460
   887.2000      8.6018      2.8672      0.0664    -13.1618     24.4496     29.6581
   887.3000      8.3716      2.8573      0.0574    -12.5640     24.3066     32.4120
   887.4000      8.3716      2.8531      0.1278    -12.3121     23.8653     34.9430
   887.5000      8.1521      2.8580      0.0753    -12.6048     23.2061     36.0140
   887.6000      8.1521      2.8636      0.0654    -12.9473     22.2730     35.4141
   887.7000      8.1521      2.8570      0.0535    -12.5446     21.1554     34.2846
   887.8000      7.9932      2.8360      0.0352    -11.2710     20.5345     34.3821
   887.9000      7.9932      2.8099      0.0659     -9.6934     20.5800     35.6252
   888.0000      7.8994      2.7789      0.0665     -7.8115     20.7682     37.4727
   888.1000      7.8994      2.7476      0.0111     -5.9146     20.7669     40.7388
   888.2000      7.8994      2.7332     -0.0010     -5.0422     20.6566     45.5519
   888.3000      7.8595      2.7335      0.0386     -5.0628     20.8134     48.1339
   888.4000      7.8595      2.7147      0.0427     -3.9187     21.4487     47.5727
   888.5000      7.8642      2.6561      0.0254     -0.3681     22.4351     48.9843
   888.6000      7.8642      2.5852     -0.0517      3.9258     23.8843     53.7515
   888.7000      7.8642      2.5418     -0.0457      6.5601     25.6127     58.4370
   888.8000      7.8922      2.5326     -0.0571      7.1149     26.8784     63.6597
   888.9000      7.8922      2.5373      0.0038      6.8287     27.5972     72.7052
   889.0000      7.9102      2.5312      0.0358      7.2003     28.3520     83.8831
   889.1000      7.9102      2.5099      0.0153      8.4919     29.1814     94.3734
   889.2000      7.9102      2.4893      0.0185      9.7392     29.7771    102.6229
   889.3000      7.9160      2.4700      0.0939     10.9105     30.3562    107.1907
   889.4000      7.9160      2.4405      0.0288     12.7000     30.9470    111.4307
   889.5000      7.9189      2.4091     -0.0075     14.6024     31.0489    118.8979
   889.6000      7.9189      2.3878      0.0008     15.8911     30.7156    126.0220
   889.7000      7.9189      2.3756     -0.0276     16.6310     30.5575    125.7097
   889.8000      7.9253      2.3677      0.0103     17.1062     30.9020    118.4959
   889.9000      7.9253      2.3613     -0.0350     17.4956     31.4610    114.0955
   890.0000      7.9409      2.3646      0.0007     17.2979     31.7097    118.3882
   890.1000      7.9409      2.3825      0.0369     16.2099     31.5676    128.7599
   890.2000      7.9409      2.4044      0.0785     14.8833     31.2979    140.3564
   890.3000      7.9558      2.4210      0.0713     13.8813     31.1214    145.6055
   890.4000      7.9558      2.4366      0.0640     12.9329     30.9908    141.8670
   890.5000      7.9569      2.4494      0.1065     12.1580     30.4896    135.5853
   890.6000      7.9569      2.4431      0.0819     12.5394     29.9337    132.3662
   890.7000      7.9569      2.4159      0.0408     14.1882     30.1575    134.1503
   890.8000      7.9480      2.3883      0.0099     15.8602     31.0483    140.9187
   890.9000      7.9480      2.3782      0.0476     16.4736     31.8065    148.6299
   891.0000      7.9455      2.3896      0.0259     15.7840     31.9251    152.1765
   891.1000      7.9455      2.4182      0.0386     14.0464     31.5172    149.3165
   891.2000      7.9455      2.4442      0.0848     12.4755     31.2266    144.8641
   891.3000      7.9563      2.4495      0.0528     12.1510     31.5790    144.9216
   891.4000      7.9563      2.4470      0.0212     12.3041     32.2808    147.1845
   891.5000      7.9707      2.4520      0.0626     12.0000     32.8571    146.6289
   891.6000      7.9707      2.4520      0.0932     11.9994     33.2257    142.5226
   891.7000      7.9707      2.4382      0.0320     12.8363     33.3396    139.9048
   891.8000      7.9784      2.4304      0.0079     13.3085     33.3020    142.8965
   891.9000      7.9784      2.4454      0.0334     12.4029     33.2816    146.5807
   892.0000      7.9820      2.4705      0.0510     10.8781     33.3169    147.9454
   892.1000      7.9820      2.4848      0.0464     10.0149     33.2847    148.1159
   892.2000      7.9820      2.4849      0.0435     10.0060     32.9011    146.1841
   892.3000      7.9865      2.4790      0.0289     10.3625     32.2184    143.4314
   892.4000      7.9865      2.4788      0.0146     10.3734     31.4664    142.3975
   892.5000      7.9895      2.4939      0.0445      9.4609     30.9260    144.2683
   892.6000      7.9895      2.5125      0.0900      8.3333     30.8166    148.0049
   892.7000      7.9895      2.5169      0.0588      8.0672     30.7895    151.5889
   892.8000      7.9906      2.5106      0.0713      8.4479     30.5537    155.2386
   892.9000      7.9906      2.5084      0.0386      8.5818     30.4133    158.7577
   893.0000      7.9916      2.5159      0.0632      8.1253     30.6903    160.0240
   893.1000      7.9916      2.5252      0.0981      7.5634     31.2212    155.5045
   893.2000      7.9916      2.5313      0.0553      7.1927     31.6135    148.3673
   893.3000      7.9896      2.5342      0.0836      7.0173     31.8651    149.3566
   893.4000      7.9896      2.5263      0.0665      7.4984     32.1697    158.7381
   893.5000      7.9838      2.5124      0.0120      8.3388     32.2041    162.5796
   893.6000      7.9838      2.5085      0.0342      8.5768     31.8368    153.6941
   893.7000      7.9838      2.5141      0.0598      8.2382     31.6668    143.0193
   893.8000      7.9799      2.5210      0.0583      7.8162     31.8217    141.1802
   893.9000      7.9799      2.5251      0.0820      7.5682     31.9152    141.3730
   894.0000      7.9834      2.5204      0.0634      7.8564     32.1368    136.8721
   894.1000      7.9834      2.5061      0.0214      8.7189     32.5398    132.0765
   894.2000      7.9834      2.4898      0.0384      9.7077     32.5860    129.4733
   894.3000      7.9903      2.4742      0.0606     10.6575     32.1636    129.0723
   894.4000      7.9903      2.4558      0.0342     11.7702     31.9025    129.2662
   894.5000      7.9950      2.4385      0.0128     12.8191     32.1251    125.8415
   894.6000      7.9950      2.4363     -0.0001     12.9543     32.3962    121.7395
   894.7000      7.9950      2.4535      0.0525     11.9092     32.2309    122.6842
   894.8000      7.9949      2.4732      0.0816     10.7141     31.7118    126.1006
   894.9000      7.9949      2.4796      0.0721     10.3296     31.2641    129.1339
   895.0000      7.9868      2.4757      0.0321     10.5637     31.1965    131.2981
