~Version Information
VERS.                      2.0: CWLS Log ASCII Standard - VERSION 2.0
WRAP.                       NO: One line per depth step
~Well Information Block
STRT.FT               185.5000: 
STOP.FT              2039.2500: 
STEP.FT                 0.2500: 
NULL.                -999.2500: 
COMP.          Petrogulf Corporation: COMPANY
WELL.            Montoya 7-12R: WELL
FLD.           Purgatorie River: FIELD
LOC.           1769' FNL & 658' FWL--: LOCATION
PROV.                       CO: PROVINCE
CNTY.               Las Animas: COUNTRY
SRVC.                         : SERVICE COMPANY
DATE.          Wed Feb 09 09:05:42 2005: LOG DATE
UWI.         005 071 08240  : UNIQUE WELL ID
~Curve Information Block
DEPT.FT            0 000 00 00: Depth
CCL.                          : Casing Collar Locator
CCLRT.                        : CCLRT
TT3.usec                      : CBL 3' Travel Time
AMP3.mV                       : CBL 3' Amplitude
GR.GAPI                       : Gamma Ray
~Parameter Information Block
~A  Depth       CCL        CCLRT        TT3         AMP3         GR     
# ...
   297.5000      0.0000   -999.2500    311.7288     20.5482     92.0636
   297.7500      0.0000   -999.2500    311.7096     20.4116     91.7802
   298.0000      0.0000   -999.2500    311.6674     20.2707     91.1004
   298.2500      0.0000   -999.2500    311.6153     20.1315     90.1484
   298.5000      0.0000   -999.2500    311.5655     20.0536     89.8540
   298.7500      0.0000   -999.2500    311.5166     20.1086     90.7138
   299.0000      0.0000   -999.2500    311.4570     20.3227     92.2398
   299.2500      0.0000   -999.2500    311.3843     20.6517     94.0135
   299.5000      0.0000   -999.2500    311.3170     21.0046     96.5224
   299.7500      0.0000   -999.2500    311.2785     21.2899    100.1607
   300.0000      0.0000   -999.2500    311.2734     21.4514    103.8774
   300.2500      0.0000   -999.2500    311.2830     21.4792    106.0126
   300.5000      0.0000   -999.2500    311.2823     21.4022    106.5155
   300.7500      0.0000   -999.2500    311.2568     21.2668    107.2401
   301.0000      0.0000   -999.2500    311.2059     21.1123    109.7799
   301.2500      0.0000   -999.2500    311.1406     20.9642    113.5947
   301.5000      0.0000   -999.2500    311.0786     20.8424    116.4803
   301.7500      0.0000   -999.2500    311.0391     20.7618    117.0009
   302.0000      0.0000   -999.2500    311.0384     20.7148    116.3911
   302.2500      0.0000   -999.2500    311.0895     20.6620    117.3297
   302.5000      0.0000   -999.2500    311.2026     20.5554    120.4623
   302.7500      0.0000   -999.2500    311.3738     20.3789    123.1037
   303.0000      0.0000   -999.2500    311.5699     20.1635    122.1264
   303.2500      0.0000   -999.2500    311.7332     19.9620    117.3249
   303.5000      0.0000   -999.2500    311.8144     19.8052    111.2026
   303.7500      0.0000   -999.2500    311.8070     19.6803    106.0269
   304.0000      0.0000   -999.2500    311.7525     19.5479    101.6740
   304.2500      0.0000   -999.2500    311.7110     19.3791     96.2247
   304.5000      0.0000   -999.2500    311.7221     19.1854     88.4670
   304.7500      0.0000   -999.2500    311.7836     19.0196     79.4436
   305.0000      0.0000   -999.2500    311.8589     18.9523     71.2546
   305.2500      0.0000   -999.2500    311.9040     19.0393     64.9445
   305.5000      0.0000   -999.2500    311.8951     19.3029     60.2854
   305.7500      0.0000   -999.2500    311.8361     19.7274     57.0437
   306.0000      0.0000   -999.2500    311.7468     20.2604     55.3544
   306.2500      0.0000   -999.2500    311.6465     20.8156     55.1196
   306.5000      0.0000   -999.2500    311.5497     21.2945     55.8651
   306.7500      0.0000   -999.2500    311.4668     21.6313     57.1098
   307.0000      0.0000   -999.2500    311.4072     21.8244     58.4562
   307.2500      0.0000   -999.2500    311.3793     21.9279     59.5271
   307.5000      0.0000   -999.2500    311.3884     22.0095     60.1118
   307.7500      0.0000   -999.2500    311.4292     22.1130     60.2324
   308.0000      0.0000   -999.2500    311.4839     22.2409     60.0069
   308.2500      0.0000   -999.2500    311.5307     22.3572     59.5412
   308.5000      0.0000   -999.2500    311.5569     22.4123     58.9731
   308.7500      0.0000   -999.2500    311.5611     22.3799     58.6038
   309.0000      0.0000   -999.2500    311.5458     22.2830     59.0289
   309.2500      0.0000   -999.2500    311.5119     22.1828     61.0544
   309.5000      0.0000   -999.2500    311.4605     22.1369     65.3172
   309.7500      0.0000   -999.2500    311.3976     22.1712     71.6365
   310.0000      0.0000   -999.2500    311.3327     22.2894     78.6002
   310.2500      0.0000   -999.2500    311.2747     22.4957     84.1958
   310.5000      0.0000   -999.2500    311.2276     22.7882     87.1818
   310.7500      0.0000   -999.2500    311.1881     23.1287     87.5937
   311.0000      0.0000   -999.2500    311.1492     23.4339     85.9204
   311.2500      0.0000   -999.2500    311.1050     23.6041     82.4642
   311.5000      0.0000   -999.2500    311.0576     23.5689     77.8122
   311.7500      0.0000   -999.2500    311.0188     23.3227     73.3792
   312.0000      0.0000   -999.2500    311.0031     22.9338     70.8651
   312.2500      0.0000   -999.2500    311.0167     22.5146     71.0938
   312.5000      0.0000   -999.2500    311.0548     22.1642     73.5588
   312.7500      0.0000   -999.2500    311.1071     21.9282     77.2012
   313.0000      0.0000   -999.2500    311.1641     21.8045     81.4608
   313.2500      0.0000   -999.2500    311.2209     21.7687     86.1462
   313.5000      0.0000   -999.2500    311.2743     21.7905     90.3975
   313.7500      0.0000   -999.2500    311.3172     21.8367     92.6796
   314.0000      0.0000   -999.2500    311.3394     21.8691     92.3573
   314.2500      0.0000   -999.2500    311.3384     21.8402     90.8955
   314.5000      0.0000   -999.2500    311.3250     21.7029     90.9909
   314.7500      0.0000   -999.2500    311.3152     21.4323     94.3511
   315.0000      0.0000   -999.2500    311.3188     21.0406    100.1885
   315.2500      0.0000   -999.2500    311.3376     20.5704    105.8326
   315.5000      0.0000   -999.2500    311.3715     20.0785    108.9372
   315.7500      0.0000   -999.2500    311.4190     19.6231    108.9978
   316.0000      0.0000   -999.2500    311.4747     19.2569    106.7662
   316.2500      0.0000   -999.2500    311.5266     19.0192    102.9686
   316.5000      0.0000   -999.2500    311.5586     18.9255     98.0897
   316.7500      0.0000   -999.2500    311.5615     18.9537     92.9391
   317.0000      0.0000   -999.2500    311.5479     19.0376     88.8570
   317.2500      0.0000   -999.2500    311.5500     19.0853     87.0659
   317.5000      0.0000   -999.2500    311.5953     19.0231     87.5093
   317.7500      0.0000   -999.2500    311.6821     18.8352     88.4465
   318.0000      0.0000   -999.2500    311.7821     18.5645     87.7810
   318.2500      0.0000   -999.2500    311.8709     18.2754     84.9625
   318.5000      0.0000   -999.2500    311.9531     18.0198     81.2887
   318.7500      0.0000   -999.2500    312.0514     17.8351     78.6497
   319.0000      0.0000   -999.2500    312.1714     17.7554     78.3485
   319.2500      0.0000   -999.2500    312.2824     17.7966     80.6030
   319.5000      0.0000   -999.2500    312.3362     17.9206     84.4705
   319.7500      0.0000   -999.2500    312.3065     18.0352     88.3532
   320.0000      0.0000   -999.2500    312.2080     18.0470     90.9088
   320.2500      0.0000   -999.2500    312.0814     17.9206     91.5604
   320.5000      0.0000   -999.2500    311.9626     17.6891     90.4225
   320.7500      0.0000   -999.2500    311.8663     17.4186     88.2493
   321.0000      0.0000   -999.2500    311.7941     17.1665     86.5304
   321.2500      0.0000   -999.2500    311.7521     16.9594     87.1368
   321.5000      0.0000   -999.2500    311.7540     16.8006     91.0845
   321.7500      0.0000   -999.2500    311.8022     16.6959     97.1707
   322.0000      0.0000   -999.2500    311.8990     16.6598    102.1832
   322.2500      0.0000   -999.2500    312.1017     16.6795    103.1844
   322.5000      0.0000   -999.2500    312.8448     16.6742     99.8943
   322.7500      0.0000   -999.2500    315.5413     16.5165     94.7503
   323.0000      0.0000   -999.2500    323.1444     16.1188     90.6195
   323.2500      0.0000   -999.2500    339.3800     15.4985     88.7254
   323.5000      0.0000   -999.2500    365.4765     14.7391     88.6587
   323.7500      0.0000   -999.2500    396.9283     13.8833     89.6091
   324.0000      0.0000   -999.2500    425.7117     12.8935     91.1569
   324.2500      0.0000   -999.2500    447.0508     11.7511     93.2773
   324.5000      0.0000   -999.2500    462.2348     10.5892     95.9923
   324.7500      0.0000   -999.2500    474.8190      9.6805     98.9635
   325.0000      0.0000   -999.2500    487.4268      9.2516    101.3531
   325.2500      0.0000   -999.2500    502.3327      9.3049    102.1906
