~Version Information
VERS.                      2.0: CWLS Log ASCII Standard - VERSION 2.0
WRAP.                       NO: One line per depth step
~Well Information Block
STRT.FT                 0.5000: 
STOP.FT              2891.5000: 
STEP.FT                 0.2500: 
NULL.                -999.2500: 
COMP.          Petrogulf Corporation: COMPANY
WELL.            Montoya 1-41V: WELL
FLD.           Purgatoire River: FIELD
LOC.           610' FNL & 1205' FEL--: LOCATION
PROV.                 Colorado: PROVINCE
CNTY.               Las Animas: COUNTRY
SRVC.                Patterson: SERVICE COMPANY
DATE.          Mon Sep 12 11:42:30 2005: LOG DATE
UWI.           05 071 08144 00: UNIQUE WELL ID
~Curve Information Block
DEPT.FT            0 000 00 00: Depth
CCL.                          : Casing Collar Locator
TT3.usec                      : CBL 3' Travel Time
AMP3.mV                       : CBL 3' Amplitude
GR.GAPI                       : Gamma Ray
~Parameter Information Block
~A  Depth       CCL         TT3         AMP3         GR     
# ...
   938.5000      0.0000    745.8193      5.4517    162.4777
   938.7500      0.0000    746.5132      5.5821    158.1540
   939.0000      0.0000    746.7550      5.7268    153.0357
   939.2500      0.0000    746.9661      5.8712    149.4960
   939.5000      0.0000    747.2755      5.9955    148.5629
   939.7500      0.0000    747.9691      6.0891    149.5985
   940.0000      0.0000    749.8693      6.1556    151.2064
   940.2500      0.0000    753.9784      6.2043    152.4335
   940.5000      0.0000    760.3237      6.2385    153.2706
   940.7500      0.0000    767.6812      6.2582    154.1659
   941.0000      0.0000    775.6795      6.2727    155.2369
   941.2500      0.0000    786.7948      6.3028    156.1055
   941.5000      0.0000    804.7504      6.3706    156.5351
   941.7500      0.0000    830.3895      6.4883    157.1927
   942.0000      0.0000    858.7906      6.6557    159.5701
   942.2500      0.0000    879.8420      6.8611    164.5303
   942.5000      0.0000    883.6451      7.0862    170.5038
   942.7500      0.0000    868.5767      7.3155    173.6973
   943.0000      0.0000    843.1029      7.5476    171.1485
   943.2500      0.0000    817.2878      7.8000    163.9630
   943.5000      0.0000    793.6365      8.1066    156.7525
   943.7500      0.0000    768.1833      8.4966    153.0703
   944.0000      0.0000    739.7339      8.9473    151.8334
   944.2500      0.0000    716.4290      9.3584    149.0526
   944.5000      0.0000    711.5096      9.6107    142.6404
   944.7500      0.0000    731.9874      9.6757    134.5699
   945.0000      0.0000    773.3934      9.6414    128.6598
   945.2500      0.0000    825.1658      9.6145    127.0947
   945.5000      0.0000    875.7272      9.6260    128.7583
   945.7500      2.0000    911.5709      9.6435    130.1458
   946.0000      2.0000    918.9772      9.6447    127.9358
   946.2500      0.0000    891.0906      9.6687    121.1120
   946.5000      0.0000    831.7787      9.8088    110.9559
   946.7500      0.0000    754.9506     10.1216     99.7381
   947.0000      0.0000    683.4484     10.4988     90.0970
   947.2500      0.0000    641.6993     10.6706     85.1339
   947.5000      0.0000    639.8017     10.4202     87.6032
   947.7500      0.0000    665.7676      9.7757     98.1171
   948.0000      0.0000    697.7546      8.9454    114.2196
   948.2500      0.0000    722.1683      8.1180    131.5199
   948.5000      0.0000    738.1991      7.3811    145.9716
   948.7500      0.0000    749.2445      6.7699    155.3875
   949.0000      0.0000    755.4267      6.3128    159.4635
   949.2500      0.0000    755.0574      6.0254    159.0907
   949.5000      0.0000    749.4434      5.8927    155.6703
   949.7500      0.0000    742.9585      5.8696    150.5667
   950.0000      0.0000    738.7057      5.8942    145.0382
   950.2500      0.0000    736.0039      5.9109    140.5944
   950.5000      0.0000    732.1913      5.8976    138.6295
   950.7500      0.0000    725.8241      5.8750    139.1519
   951.0000      0.0000    717.9280      5.8820    140.4373
   951.2500      0.0000    710.8244      5.9368    140.6180
   951.5000      0.0000    706.3226      6.0248    139.4335
   951.7500      0.0000    705.0842      6.1198    137.9327
   952.0000      0.0000    707.2356      6.2108    136.6063
   952.2500      0.0000    712.8069      6.3083    134.7328
   952.5000      0.0000    721.2410      6.4294    131.9437
   952.7500      0.0000    730.7781      6.5797    129.3530
   953.0000      0.0000    738.9252      6.7473    128.2843
   953.2500      0.0000    743.7598      6.9131    128.5766
   953.5000      0.0000    744.8115      7.0670    129.0736
   953.7500      0.0000    743.0530      7.2111    129.4476
   954.0000      0.0000    740.3836      7.3492    130.6529
   954.2500      0.0000    738.6590      7.4780    133.3569
   954.5000      0.0000    738.3366      7.5918    136.4900
   954.7500      0.0000    737.8934      7.6931    138.1049
   955.0000      0.0000    735.0474      7.7943    137.6623
   955.2500      0.0000    728.8485      7.9088    136.7708
   955.5000      0.0000    720.5781      8.0418    137.5465
   955.7500      0.0000    712.6760      8.1923    140.6765
   956.0000      0.0000    706.9319      8.3620    144.8271
   956.2500      0.0000    703.7009      8.5525    147.3071
   956.5000      0.0000    702.5222      8.7537    145.5354
   956.7500      0.0000    703.1485      8.9430    138.7897
   957.0000      0.0000    705.9964      9.0989    129.1800
   957.2500      0.0000    711.6729      9.2114    120.7511
   957.5000      0.0000    719.9262      9.2792    116.8973
   957.7500      0.0000    729.2130      9.3035    118.2710
   958.0000      0.0000    737.9102      9.2812    123.2356
   958.2500      0.0000    746.5383      9.1992    129.9072
   958.5000      0.0000    758.0176      9.0386    137.1813
   958.7500      0.0000    773.8267      8.7943    144.4329
   959.0000      0.0000    789.5598      8.4898    151.2875
   959.2500      0.0000    797.1799      8.1682    157.5289
   959.5000      0.0000    793.6591      7.8668    162.6425
   959.7500      0.0000    784.6675      7.6034    165.8951
   960.0000      0.0000    777.5616      7.3786    167.2477
   960.2500      0.0000    773.5993      7.1866    167.4698
   960.5000      0.0000    768.9771      7.0269    166.8990
   960.7500      0.0000    760.6126      6.9101    164.7617
   961.0000      0.0000    748.7373      6.8549    160.2960
   961.2500      0.0000    735.7488      6.8737    154.1848
   961.5000      0.0000    724.5526      6.9607    148.4045
   961.7500      0.0000    717.3179      7.0972    144.7444
   962.0000      0.0000    714.4387      7.2706    143.6082
   962.2500      0.0000    714.7095      7.4838    143.9799
   962.5000      0.0000    716.6241      7.7448    144.2933
   962.7500      0.0000    718.9645      8.0481    143.6026
   963.0000      0.0000    720.2629      8.3670    142.3044
   963.2500      0.0000    719.1424      8.6599    141.5929
   963.5000      0.0000    715.9957      8.8887    141.6884
   963.7500      0.0000    713.5027      9.0386    140.7041
   964.0000      0.0000    714.6180      9.1212    136.0130
   964.2500      0.0000    719.9675      9.1611    126.9553
   964.5000      0.0000    727.0844      9.1783    115.6641
   964.7500      0.0000    731.9569      9.1791    105.0778
   965.0000      0.0000    731.5551      9.1577     96.5781
   965.2500      0.0000    725.7787      9.1041     89.6808
   965.5000      0.0000    717.8301      9.0145     83.5766
   965.7500      0.0000    712.5278      8.8931     78.4625
   966.0000      0.0000    713.3073      8.7444     75.3201
   966.2500      0.0000    720.3168      8.5679     74.6903
   966.5000      0.0000    732.0347      8.3608     75.8390
   966.7500      0.0000    748.1500      8.1247     77.0530
   967.0000      0.0000    768.1504      7.8733     76.8914
   967.2500      0.0000    786.1896      7.6342     75.4081
   967.5000      0.0000    791.6025      7.4398     74.0261
   967.7500      0.0000    778.6110      7.3073     74.0194
   968.0000      0.0000    753.4232      7.2267     75.4095
   968.2500      0.0000    728.5313      7.1732     77.6650
   968.5000      0.0000    711.9098      7.1298     81.1607
   968.7500      0.0000    703.6420      7.0944     87.4866
   969.0000      0.0000    700.0015      7.0679     98.3485
   969.2500      0.0000    697.7641      7.0462    114.2157
   969.5000      0.0000    695.6711      7.0219    133.6285
   969.7500      0.0000    694.1868      6.9899    153.4744
   970.0000      0.0000    694.4061      6.9487    170.2426
   970.2500      0.0000    696.4138      6.9014    181.5020
   970.5000      0.0000    698.8066      6.8547    186.5298
   970.7500      0.0000    700.3250      6.8111    185.9904
   971.0000      0.0000    701.7311      6.7628    181.5397
   971.2500      0.0000    705.1738      6.6952    175.5538
   971.5000      0.0000    711.6075      6.5979    170.2045
   971.7500      0.0000    719.2191      6.4716    166.0038
