~Version Information
VERS.                      2.0: CWLS Log ASCII Standard - VERSION 2.0
WRAP.                       NO: One line per depth step
~Well Information Block
STRT.FT                -7.7500: 
STOP.FT               973.7500: 
STEP.FT                 0.2500: 
NULL.                -999.2500: 
COMP.          Pioneer Natural Resources: COMPANY
WELL.              Dylan 42-25: WELL
FLD.           Purgatorie River: FIELD
LOC.           2160' FNL & 855' FEL: LOCATION
PROV.                 Colorado: PROVINCE
CNTY.               Las Animas: COUNTRY
SRVC.          Patterson Wireline: SERVICE COMPANY
DATE.          Fri Apr 29 16:36:17 2005: LOG DATE
UWI.           05-071-08229-00: UNIQUE WELL ID
~Curve Information Block
DEPT.FT            0 000 00 00: Depth
CCL.                          : Casing Collar Locator
TT3.usec                      : CBL 3' Travel Time
AMP3.mV                       : CBL 3' Amplitude
GR.GAPI                       : Gamma Ray
~Parameter Information Block
~A  Depth       CCL         TT3         AMP3         GR     
# ...
    59.2500      0.0000    742.7002      6.0038     80.0952
    59.5000      0.0000    742.4773      6.0179     85.5336
    59.7500      0.0000    742.2572      6.0357     88.7266
    60.0000      0.0000    742.1331      6.0520     89.2454
    60.2500      0.0000    742.1356      6.0637     87.6674
    60.5000      0.0000    742.2279      6.0676     85.4580
    60.7500      0.0000    742.3539      6.0589     84.0419
    61.0000      0.0000    742.4635      6.0367     83.7726
    61.2500      0.0000    742.5115      6.0136     83.9855
    61.5000      0.0000    742.4812      6.0154     84.0819
    61.7500      0.0000    742.4133      6.0616     84.1813
    62.0000      0.0000    742.4102      6.1399     84.5279
    62.2500      0.0000    742.6494      6.2078     84.7890
    62.5000      0.0000    743.4885      6.2286     84.3603
    62.7500      0.0000    745.5079      6.2045     83.0269
    63.0000      0.0000    749.3304      6.1688     81.0613
    63.2500      0.0000    755.3392      6.1516     79.0117
    63.5000      0.0000    763.7181      6.1571     77.5555
    63.7500      0.0000    774.4366      6.1689     77.1744
    64.0000      0.0000    786.3243      6.1663     77.6080
    64.2500      0.0000    796.0607      6.1377     77.8247
    64.5000      0.0000    799.4661      6.0845     76.9344
    64.7500      0.0000    794.8479      6.0191     75.2480
    65.0000      0.0000    784.7111      5.9573     74.1535
    65.2500      0.0000    774.1602      5.9126     74.6412
    65.5000      0.0000    768.2484      5.8935     76.0549
    65.7500      0.0000    769.7909      5.8991     76.6767
    66.0000      0.0000    777.6172      5.9132     75.5784
    66.2500      0.0000    786.8952      5.9093     73.6126
    66.5000      0.0000    792.6487      5.8657     72.4631
    66.7500      0.0000    793.3930      5.7772     72.9951
    67.0000      0.0000    791.0812      5.6544     74.5803
    67.2500      0.0000    788.0380      5.5180     75.7658
    67.5000      0.0000    784.9377      5.3912     75.5179
    67.7500      0.0000    781.7199      5.2904     74.0872
    68.0000      0.0000    779.2637      5.2190     72.8396
    68.2500      0.0000    778.8514      5.1747     73.1384
    68.5000      0.0000    780.2285      5.1596     75.1688
    68.7500      0.0000    781.4279      5.1769     77.8907
    69.0000      0.0000    780.6790      5.2209     80.1679
    69.2500      0.0000    777.7515      5.2680     81.6519
    69.5000      0.0000    773.6321      5.2770     82.4730
    69.7500      0.0000    770.1268      5.1972     82.5455
    70.0000      0.0000    769.9926      4.9944     81.6213
    70.2500      0.0000    775.8511      4.6802     79.8817
    70.5000      0.0000    787.5261      4.3154     78.0289
    70.7500      0.0000    801.6118      3.9778     76.7397
    71.0000      0.0000    815.5468      3.7203     76.2541
    71.2500      0.0000    830.5922      3.5522     76.5721
    71.5000      0.0000    848.7621      3.4505     77.8166
    71.7500     -5.0000    868.2966      3.3792     80.1829
    72.0000     -3.6603    883.7036      3.3027     83.4979
    72.2500      0.0000    888.7454      3.2025     86.9785
    72.5000      0.0000    879.0258      3.0995     89.6152
    72.7500      0.0000    854.4539      3.0504     90.8169
    73.0000      0.0000    820.8506      3.0998     90.5419
    73.2500      0.0000    787.6409      3.2322     88.8871
    73.5000      0.0000    762.4301      3.3814     85.9966
    73.7500      0.0000    747.5697      3.4854     82.6000
    74.0000      0.0000    741.1642      3.5184     80.2257
    74.2500      0.0000    740.0946      3.4813     80.3244
    74.5000      0.0000    741.7350      3.3820     83.0620
    74.7500      0.0000    743.8320      3.2313     87.0784
    75.0000      0.0000    744.3083      3.0501     90.3867
    75.2500      0.0000    742.0106      2.8715     91.4652
    75.5000      0.0000    737.5490      2.7284     89.8244
    75.7500      0.0000    732.8917      2.6386     86.1342
    76.0000      0.0000    729.9486      2.5996     81.9633
    76.2500      0.0000    729.3619      2.5949     79.0199
    76.5000      0.0000    730.4568      2.6030     78.4181
    76.7500      0.0000    732.2640      2.6047     80.4713
    77.0000      0.0000    734.5580      2.5912     84.6463
    77.2500      0.0000    737.8981      2.5715     89.4649
    77.5000      0.0000    742.6725      2.5691     92.9835
    77.7500      0.0000    748.0677      2.6052     94.0193
    78.0000      0.0000    752.1897      2.6819     93.0013
    78.2500      0.0000    753.5984      2.7827     91.4303
    78.5000      0.0000    752.7322      2.8864     90.4715
    78.7500      0.0000    751.6039      2.9806     90.2074
    79.0000      0.0000    752.4694      3.0709     90.1993
    79.2500      0.0000    757.0573      3.1781     90.2798
    79.5000      0.0000    765.9243      3.3216     90.4529
    79.7500      0.0000    777.2281      3.4980     90.3897
    80.0000      0.0000    786.7086      3.6760     89.5664
    80.2500      0.0000    790.3461      3.8142     87.7441
    80.5000      0.0000    787.4127      3.8894     85.0114
    80.7500      0.0000    780.6645      3.9148     81.7074
    81.0000      0.0000    773.8619      3.9352     78.6663
    81.2500      0.0000    769.2088      3.9997     77.1578
    81.5000      0.0000    766.4237      4.1337     78.1040
    81.7500      0.0000    763.7559      4.3270     81.3861
    82.0000      0.0000    760.1042      4.5433     85.8602
    82.2500      0.0000    756.1838      4.7459     89.9582
    82.5000      0.0000    753.4484      4.9153     92.5411
    82.7500      0.0000    752.2161      5.0425     93.4110
    83.0000      0.0000    751.4076      5.1140     92.9423
    83.2500      0.0000    749.9724      5.1222     91.3402
    83.5000      0.0000    748.0118      5.0941     88.4656
    83.7500      0.0000    746.4807      5.0885     84.2436
    84.0000      0.0000    746.3801      5.1453     79.0738
    84.2500      0.0000    748.5016      5.2441     73.9193
    84.5000      0.0000    753.2197      5.3239     70.0165
    84.7500      0.0000    759.7673      5.3380     68.3177
    85.0000      0.0000    766.0598      5.2879     69.1094
    85.2500      0.0000    769.9904      5.2190     71.9810
    85.5000      0.0000    771.3840      5.1953     75.9051
    85.7500      0.0000    773.1674      5.2639     79.5028
    86.0000      0.0000    780.8844      5.4330     81.7422
    86.2500      0.0000    799.8511      5.6708     82.6049
    86.5000      0.0000    830.1462      5.9253     82.9207
    86.7500      0.0000    862.7424      6.1485     83.5846
    87.0000      0.0000    882.4863      6.3160     85.0268
    87.2500      0.0000    878.6161      6.4311     87.1393
    87.5000      0.0000    853.5070      6.5115     89.3227
    87.7500      0.0000    820.2097      6.5730     90.6401
    88.0000      0.0000    792.0853      6.6277     90.2703
    88.2500      0.0000    775.3751      6.6897     88.2124
    88.5000      0.0000    769.1326      6.7686     85.7777
    88.7500      0.0000    769.0511      6.8535     84.9929
    89.0000      0.0000    770.9409      6.9132     86.8591
    89.2500      0.0000    772.1655      6.9179     90.2497
    89.5000      0.0000    771.2254      6.8614     92.9288
    89.7500      0.0000    766.9238      6.7644     93.5491
    90.0000      0.0000    758.6417      6.6611     92.5161
    90.2500      0.0000    747.5270      6.5827     91.2401
    90.5000      0.0000    736.7502      6.5413     90.8183
    90.7500      0.0000    729.7626      6.5206     91.2498
    91.0000      0.0000    728.1870      6.4855     91.6293
    91.2500      0.0000    731.5157      6.4057     91.1507
    91.5000      0.0000    738.4888      6.2689     90.0720
    91.7500      0.0000    748.3026      6.0771     89.4952
    92.0000      0.0000    760.5823      5.8431     89.8737
    92.2500      0.0000    774.2665      5.5888     90.0466
    92.5000      0.0000    786.6761      5.3416     88.3161
