~Version Information
 VERS.                                  2.0 : CWLS LAS VERSION
 WRAP.                                   NO : WRAPING MODE
 SWARE .                 MController 2.5.0J : SOFTWARE VERSION
~Well Information
 WELL.                         State 16-12V : WELL
 COMP.                Petrogulf Corporation : COMPANY
 FLD.                      Purgatoire River : FIELD
 LOC.                       05-071-08016-00 : LOCATION
 DATE.                             08/03/05 : DATE(S) LOGGED
 SRVC.       BLANCO Geological Services LLC : SERVICE COMPANY
 STAT.                                   CO : STATE
 CNTY.                           Las Animas : COUNTY
 CTRY.                                  USA : COUNTRY
 API.                       05-071-08016-00 : API NUMBER
 STRT.FT                             611.00 : START DEPTH
 STOP.FT                            2155.00 : STOP DEPTH
 STEP.FT                               1.00 : DEPTH INCREMENT
 NULL.                                -9999 : NULL VALUE
~Curve information
 DEPTH.FT                                   :
 ROP.MIN/FT                                 :
 GAS.UNITS                                  :
~ASCII Log data
# ...
      1811.0         0.28         33.0 
      1812.0         0.27         33.4 
      1813.0         0.27         31.8 
      1814.0         0.23         32.8 
      1815.0         0.23         34.9 
      1816.0         0.23         37.6 
      1817.0         0.27         38.6 
      1818.0         0.47         38.1 
      1819.0         0.33         34.9 
      1820.0         0.30         26.3 
      1821.0         0.30         33.5 
      1822.0         0.30         54.9 
      1823.0         0.25         74.0 
      1824.0         0.23         86.4 
      1825.0         0.23         91.1 
      1826.0         1.70        108.1 
      1827.0         0.70         49.8 
      1828.0         0.35         46.1 
      1829.0         0.30         50.1 
      1830.0         0.30         50.0 
      1831.0         0.27         47.9 
      1832.0         0.37         46.6 
      1833.0         0.47         43.5 
      1834.0         0.40         39.5 
      1835.0         0.37         36.0 
      1836.0         0.33         33.5 
      1837.0         0.38         32.2 
      1838.0         0.33         30.0 
      1839.0         0.33         28.8 
      1840.0         0.30         28.6 
      1841.0         0.30         28.8 
      1842.0         0.30         28.5 
      1843.0         0.23         28.6 
      1844.0         0.37         29.0 
      1845.0         0.27         28.8 
      1846.0         0.30         28.9 
      1847.0         0.30         30.0 
      1848.0         0.35         30.5 
      1849.0         0.33         25.4 
      1850.0         0.30         19.6 
      1851.0         0.30         24.6 
      1852.0         0.30         51.6 
      1853.0         0.27         81.4 
      1854.0         0.27        110.0 
      1855.0         0.30        129.3 
      1856.0         1.82        138.9 
      1857.0         0.40         49.5 
      1858.0         0.33         49.2 
      1859.0         0.30         64.4 
      1860.0         0.30         66.6 
      1861.0         0.27         62.0 
      1862.0         0.27         54.6 
      1863.0         0.27         49.5 
      1864.0         0.27         46.8 
      1865.0         0.38         42.7 
      1866.0         0.30         42.7 
      1867.0         0.30         45.2 
      1868.0         0.23         43.5 
      1869.0         0.27         38.7 
      1870.0         0.47         39.2 
      1871.0         0.27         38.9 
      1872.0         0.27         38.6 
      1873.0         0.37         38.8 
      1874.0         0.37         35.5 
      1875.0         0.38         31.7 
      1876.0         0.27         29.1 
      1877.0         0.27         28.1 
      1878.0         0.30         27.5 
      1879.0         0.23         26.2 
      1880.0         0.23         23.4 
      1881.0         0.20         20.4 
      1882.0         0.30         17.6 
      1883.0         0.33         19.0 
      1884.0         0.33         29.0 
      1885.0         0.52         65.4 
      1886.0         1.53        371.0 
      1887.0         0.37        359.7 
      1888.0         0.23        306.9 
      1889.0         0.13        271.9 
      1890.0         0.10        254.6 
      1891.0         0.23        243.6 
      1892.0         0.17        226.1 
      1893.0         0.22        236.1 
      1894.0         0.20        244.9 
      1895.0         0.23        246.8 
      1896.0         0.27        243.7 
      1897.0         0.27        226.8 
      1898.0         0.40        208.0 
      1899.0         0.43        187.3 
      1900.0         0.63        165.6 
      1901.0         0.40        142.5 
      1902.0         0.42        134.1 
      1903.0         0.30        128.9 
      1904.0         0.37        124.4 
      1905.0         0.37        120.6 
      1906.0         0.33        118.4 
      1907.0         0.37        116.3 
      1908.0         0.40        113.9 
      1909.0         0.40        111.1 
      1910.0         0.47        108.7 
      1911.0         0.45        107.2 
      1912.0         0.37         84.6 
      1913.0         0.37         68.4 
      1914.0         0.37         90.0 
      1915.0         0.40        139.9 
      1916.0         1.68        252.8 
      1917.0         0.43        178.4 
      1918.0         0.33        161.8 
      1919.0         0.33        163.6 
      1920.0         0.33        176.5 
      1921.0         0.27        178.4 
      1922.0         0.17        178.0 
      1923.0         0.20        173.8 
      1924.0         0.27        165.9 
      1925.0         0.33        157.1 
      1926.0         0.35        143.0 
      1927.0         0.30        122.2 
      1928.0         0.37        120.4 
      1929.0         0.33        119.0 
      1930.0         0.43        115.7 
      1931.0         0.40        112.1 
      1932.0         0.33        105.8 
      1933.0         0.30        106.9 
      1934.0         0.30        106.4 
      1935.0         0.23        102.8 
      1936.0         0.25        100.7 
      1937.0         0.30         99.2 
      1938.0         0.30        101.3 
      1939.0         0.23        100.9 
      1940.0         0.23         91.4 
      1941.0         0.23         75.8 
      1942.0         0.20         67.9 
      1943.0         0.27         76.1 
      1944.0         0.43        112.0 
      1945.0         0.30        153.0 
      1946.0         0.92        307.9 
      1947.0         0.37        294.7 
      1948.0         0.30        246.5 
      1949.0         0.23        210.1 
      1950.0         0.33        188.5 
      1951.0         0.37        166.1 
      1952.0         0.27        158.4 
      1953.0         0.30        163.7 
      1954.0         0.30        163.2 
      1955.0         0.27        154.9 
      1956.0         0.30        142.5 
      1957.0         0.35        136.6 
      1958.0         0.37        135.8 
      1959.0         0.43        126.6 
      1960.0         0.37        117.5 
      1961.0         0.37        116.1 
      1962.0         0.40        112.8 
      1963.0         0.37        108.2 
      1964.0         0.33        104.7 
      1965.0         0.38        102.3 
      1966.0         0.33        101.0 
      1967.0         0.30        100.5 
      1968.0         0.33         98.5 
      1969.0         0.33         98.2 
      1970.0         0.33         94.8 
      1971.0         0.30         74.8 
      1972.0         0.30         63.1 
      1973.0         0.33         72.7 
      1974.0         0.30         97.1 
      1975.0         0.27        129.2 
      1976.0         2.08        321.1 
      1977.0         0.53        182.1 
      1978.0         0.37        150.3 
      1979.0         0.35        146.7 
      1980.0         0.37        144.9 
      1981.0         0.27        136.8 
      1982.0         0.33        134.6 
      1983.0         0.43        132.7 
      1984.0         0.37        121.6 
      1985.0         0.33        114.0 
      1986.0         0.43        114.7 
      1987.0         0.33        116.6 
      1988.0         0.27        116.4 
      1989.0         0.25        114.3 
      1990.0         0.17        110.7 
      1991.0         0.23        108.9 
      1992.0         0.33        107.1 
      1993.0         0.33        104.6 
      1994.0         0.30        103.2 
      1995.0         0.33        100.7 
      1996.0         0.33         97.9 
      1997.0         0.27         93.5 
      1998.0         0.30         94.2 
      1999.0         0.27         91.2 
      2000.0         0.28         76.8 
      2001.0         0.23         65.0 
      2002.0         0.20         62.2 
      2003.0         0.30         72.0 
      2004.0         0.27         92.3 
      2005.0         0.30        125.6 
      2006.0         2.25        308.3 
      2007.0         0.57        191.8 
      2008.0         0.27        158.1 
      2009.0         0.33        155.4 
      2010.0         0.37        154.2 
