~Version Information
VERS.                      2.0: CWLS Log ASCII Standard - VERSION 2.0
WRAP.                       NO: One line per depth step
~Well Information Block
STRT.FT                -5.7500: 
STOP.FT              1965.7500: 
STEP.FT                 0.2500: 
NULL.                -999.2500: 
COMP.          Pioneer Natural Resources: COMPANY
WELL.          Easton 12-30 Tr: WELL
FLD.           Purgatorie River: FIELD
LOC.           549' FWL & 2416' FNL--: LOCATION
PROV.                       CO: PROVINCE
CNTY.               Las Animas: COUNTRY
SRVC.          Patterson Wireline: SERVICE COMPANY
DATE.          Mon Jun 06 16:13:03 2005: LOG DATE
UWI.           05 071 08379 00: UNIQUE WELL ID
~Curve Information Block
DEPT.FT            0 000 00 00: Depth
CCL.                          : Casing Collar Locator
TT3.usec                      : CBL 3' Travel Time
AMP3.mV                       : CBL 3' Amplitude
GR.GAPI                       : Gamma Ray
~Parameter Information Block
~A  Depth       CCL         TT3         AMP3         GR     
# ...
  1803.2500      0.0000    548.1989      4.6176    132.1950
  1803.5000      0.0000    549.5178      4.5799    128.4437
  1803.7500      0.0000    553.5686      4.5324    128.4354
  1804.0000      0.0000    559.4690      4.4577    131.8555
  1804.2500      0.0000    566.8042      4.3799    136.9423
  1804.5000      0.0000    575.6750      4.3403    141.9736
  1804.7500      0.0000    585.4519      4.3577    146.1307
  1805.0000      0.0000    594.2552      4.4223    149.3325
  1805.2500      0.0000    600.8484      4.5087    151.5856
  1805.5000      0.0000    606.6527      4.5957    152.7059
  1805.7500      0.0000    614.3989      4.6901    152.6615
  1806.0000      0.0000    624.7770      4.8214    151.8851
  1806.2500      0.0000    635.6012      4.9984    150.9368
  1806.5000      0.0000    644.0283      5.1815    150.0663
  1806.7500      0.0000    648.6848      5.3132    149.5625
  1807.0000      0.0000    650.2143      5.3677    150.3245
  1807.2500      0.0000    650.7335      5.3592    153.3489
  1807.5000      0.0000    652.2421      5.3179    158.4665
  1807.7500      0.0000    654.8040      5.2630    164.2147
  1808.0000      0.0000    656.7506      5.1903    169.1506
  1808.2500      0.0000    657.1690      5.0853    172.5275
  1808.5000      0.0000    657.5350      4.9589    173.5348
  1808.7500      0.0000    660.2739      4.8560    171.0182
  1809.0000      0.0000    666.1331      4.8031    164.6722
  1809.2500      0.0000    673.7388      4.7633    155.9097
  1809.5000      0.0000    681.5300      4.6731    146.9441
  1809.7500      0.0000    689.2971      4.5088    139.2268
  1810.0000      0.0000    697.7443      4.2880    133.1407
  1810.2500      0.0000    707.3000      4.0330    128.9291
  1810.5000      0.0000    717.3542      3.7696    127.3128
  1810.7500      0.0000    725.6669      3.5445    128.8080
  1811.0000      0.0000    728.6799      3.4046    132.4919
  1811.2500      0.0000    724.3477      3.3649    135.9932
  1811.5000      0.0000    715.1928      3.4109    137.1848
  1811.7500      0.0000    706.7344      3.5192    135.8654
  1812.0000      0.0000    702.3136      3.6690    133.6597
  1812.2500      0.0000    701.1076      3.8521    132.5999
  1812.5000      0.0000    701.4299      4.0753    134.1154
  1812.7500      0.0000    703.8248      4.3304    138.9241
  1813.0000      0.0000    709.8844      4.5749    146.8909
  1813.2500      0.0000    719.9589      4.7799    156.5951
  1813.5000      0.0000    733.7505      4.9833    165.5986
  1813.7500      0.0000    751.2005      5.2302    171.6690
  1814.0000      0.0000    769.9124      5.4693    173.9364
  1814.2500      0.0000    782.9947      5.5901    173.2174
  1814.5000      0.0000    782.9179      5.5721    171.2707
  1814.7500      0.0000    768.5191      5.5117    169.2750
  1815.0000      0.0000    747.4286      5.4907    166.9273
  1815.2500      0.0000    731.1308      5.4968    163.1536
  1815.5000      0.0000    726.8029      5.4819    157.1517
  1815.7500      0.0000    732.4534      5.4225    148.4212
  1816.0000      0.0000    739.0601      5.3127    136.7712
  1816.2500      0.0000    737.9490      5.1671    123.3429
  1816.5000      0.0000    727.2474      5.0378    111.2423
  1816.7500      0.0000    712.1364      4.9763    104.3886
  1817.0000      0.0000    699.7164      4.9647    105.4494
  1817.2500      0.0000    693.8320      4.9365    114.3785
  1817.5000      0.0000    693.3431      4.8725    128.1608
  1817.7500      0.0000    693.1700      4.8308    142.0242
  1818.0000      0.0000    686.7393      4.8651    151.8464
  1818.2500      0.0000    669.5353      4.9552    156.0731
  1818.5000      0.0000    642.9568      5.0424    155.5260
  1818.7500      0.0000    615.9067      5.0965    151.9503
  1819.0000      0.0000    601.2399      5.1160    147.2645
  1819.2500      0.0000    607.4995      5.0958    143.3245
  1819.5000      0.0000    632.1006      5.0378    140.7300
  1819.7500      0.0000    663.1490      4.9810    137.7257
  1820.0000      0.0000    688.6720      4.9712    131.6085
  1820.2500      0.0000    703.8224      4.9900    121.5623
  1820.5000      0.0000    710.3864      4.9567    109.3600
  1820.7500      0.0000    711.9702      4.8314     97.4041
  1821.0000      0.0000    710.3311      4.6910     86.9996
  1821.2500      0.0000    704.1244      4.6615     78.5007
  1821.5000      0.0000    689.5801      4.7709     72.2398
  1821.7500      0.0000    663.0219      4.9102     68.8370
  1822.0000      0.0000    623.9367      4.9610     68.7278
  1822.2500      0.0000    575.7766      4.9303     71.5041
  1822.5000      0.0000    524.8396      4.9226     75.8935
  1822.7500      0.0000    480.7971      4.9891     80.6557
  1823.0000      0.0000    457.4302      5.0594     85.5368
  1823.2500      0.0000    467.1900      5.0475     91.2129
  1823.5000      0.0000    510.8237      4.9814     98.3217
  1823.7500      0.0000    573.2007      4.9688    106.7012
  1824.0000      0.0000    631.8262      5.0437    115.5943
  1824.2500      0.0000    670.1783      5.1083    124.2950
  1824.5000      0.0000    683.6727      5.0553    132.2399
  1824.7500      0.0000    677.0004      4.9128    138.7507
  1825.0000      0.0000    660.3748      4.8193    143.4115
  1825.2500      0.0000    646.9063      4.8578    146.7126
  1825.5000      0.0000    647.2709      4.9659    149.4810
  1825.7500      0.0000    662.9142      5.0392    151.3505
  1826.0000      0.0000    685.3744      5.0744    150.6599
  1826.2500      0.0000    703.4087      5.1482    146.5992
  1826.5000      0.0000    710.2147      5.2748    140.9501
  1826.7500      0.0000    704.7445      5.3621    137.0245
  1827.0000      0.0000    689.7230      5.3299    136.8666
  1827.2500      0.0000    671.1157      5.2234    139.5939
  1827.5000      0.0000    657.6837      5.1662    142.3206
  1827.7500      0.0000    656.6440      5.2131    142.5454
  1828.0000      0.0000    668.0308      5.2825    139.7150
  1828.2500      0.0000    684.6606      5.2470    134.7918
  1828.5000      0.0000    698.1455      5.0812    129.0004
  1828.7500      0.0000    703.9075      4.9003    123.5264
  1829.0000      0.0000    701.4286      4.8449    119.8649
  1829.2500      0.0000    692.6783      4.9336    119.2750
  1829.5000      0.0000    681.5336      5.0502    121.6261
  1829.7500      0.0000    672.9595      5.0805    125.4956
  1830.0000      0.0000    670.7489      5.0440    129.2733
  1830.2500      0.0000    675.5204      5.0739    131.3610
  1830.5000      0.0000    684.6333      5.2661    129.6175
  1830.7500      0.0000    693.4971      5.5658    122.1352
  1831.0000      0.0000    697.5682      5.8109    109.2992
  1831.2500      0.0000    694.3552      5.8787     94.4903
  1831.5000      0.0000    684.7411      5.7789     82.1164
  1831.7500      0.0000    672.9211      5.6143     74.9898
  1832.0000      0.0000    664.3730      5.4691     73.3901
  1832.2500      0.0000    661.6536      5.3438     75.8098
  1832.5000      0.0000    661.3331      5.2000     80.1889
  1832.7500      0.0000    657.4408      5.0540     84.9750
  1833.0000      0.0000    649.9280      4.9827     89.6506
  1833.2500      0.0000    646.8826      5.0114     94.3208
  1833.5000      0.0000    655.4788      5.0383     98.8001
  1833.7500      0.0000    673.3119      4.9299    102.4694
  1834.0000      0.0000    691.4147      4.6782    105.0156
  1834.2500      0.0000    702.9816      4.4168    106.7194
  1834.5000      0.0000    706.0412      4.2829    107.8888
  1834.7500      0.0000    699.7203      4.2987    108.6748
  1835.0000      0.0000    681.9863      4.3774    109.5657
  1835.2500      0.0000    652.4459      4.3950    111.2497
  1835.5000      0.0000    615.9153      4.2623    113.8271
  1835.7500      0.0000    580.8527      3.9853    116.9184
  1836.0000      0.0000    553.8253      3.6799    120.5021
  1836.2500      0.0000    536.5536      3.5032    124.7307
  1836.5000      0.0000    527.9927      3.5406    128.9858
