~Version Information
VERS.                      2.0: CWLS Log ASCII Standard - VERSION 2.0
WRAP.                       NO: One line per depth step
~Well Information Block
STRT.FT               706.1000: 
STOP.FT              2370.0000: 
STEP.FT                 0.1000: 
NULL.                -999.2500: 
COMP.          Petrogulf Corporation: COMPANY
WELL.             State 16-12V: WELL
FLD.           Purgatorie River: FIELD
LOC.           1992' FNL & 1237' FWL: LOCATION
CNTY.               Las Animas: COUNTY
SRVC.                         : SERVICE COMPANY
DATE.          Thu Aug 04 09:34:25 2005: LOG DATE
UWI.           05-071-08016-00: UNIQUE WELL ID
STAT.                 Colorado: STATE
~Curve Information Block
DEPT.FT            0 000 00 00: Depth
DCAL.in                       : CDL Caliper
DPOR.pu                       : CDL Density Porosity
GR.GAPI                       : Gamma Ray
NPOR.pu                       : Neutron Porosity
RHOB.g/cc                     : CDL Bulk Density
RHOC.g/cc                     : CDL Density Correction
~Parameter Information Block
~A  Depth       DCAL        DPOR         GR         NPOR        RHOB        RHOC    
# ...
  1253.3000      8.2257     35.3727    124.0588     18.1881      2.0664      0.5064
  1253.4000      8.2257     43.7075    126.1910     18.2860      1.9288      0.4025
  1253.5000      8.1745     51.3849    129.4974     18.6230      1.8021      0.4018
  1253.6000      8.1745     55.0535    134.2100     19.0776      1.7416      0.2891
  1253.7000      8.1745     50.9518    137.0600     19.4611      1.8093      0.2145
  1253.8000      8.0108     38.1121    136.1079     19.6975      2.0212      0.4281
  1253.9000      8.0108     21.8851    134.5240     19.8352      2.2889      0.6621
  1254.0000      7.8746      9.1016    134.2478     20.0404      2.4998      0.7366
  1254.1000      7.8746      2.1984    136.2355     20.3606      2.6137      0.7267
  1254.2000      7.8746      0.4800    141.5046     20.6775      2.6421      0.6841
  1254.3000      8.1495      2.2595    147.1584     21.0504      2.6127      0.4021
  1254.4000      8.1495      5.0036    149.8677     21.6662      2.5674      0.1840
  1254.5000      8.7227      6.7999    149.3906     22.5040      2.5378      0.1108
  1254.6000      8.7227      7.1791    148.3564     23.4429      2.5315      0.0587
  1254.7000      8.7227      6.9939    149.3147     24.6989      2.5346      0.0928
  1254.8000      8.9975      7.5367    150.3879     26.5055      2.5256      0.0310
  1254.9000      8.9975      9.1690    147.8765     28.3939      2.4987      0.0549
  1255.0000      8.3233     12.1614    141.8521     29.6911      2.4493      0.0499
  1255.1000      8.3233     16.2827    136.9145     30.3353      2.3813     -0.0119
  1255.2000      8.3233     19.8892    136.8504     30.5312      2.3218     -0.0309
  1255.3000      8.0548     21.4470    140.2225     30.3033      2.2961     -0.0242
  1255.4000      8.0548     20.2429    145.5725     29.6708      2.3160     -0.0450
  1255.5000      8.0450     16.3694    150.5634     28.9958      2.3799      0.0314
  1255.6000      8.0450     10.9553    150.3935     28.6008      2.4692      0.0784
  1255.7000      8.0450      5.6343    145.9956     28.3914      2.5570      0.2369
  1255.8000      8.0428      2.0544    141.5158     28.1624      2.6161      0.3260
  1255.9000      8.0428      1.5164    136.4549     27.7691      2.6250      0.3603
  1256.0000      7.9981      4.4745    130.1458     27.2090      2.5762      0.3965
  1256.1000      7.9981      9.4889    125.5012     26.5770      2.4934      0.1956
  1256.2000      7.9981     13.4644    124.6994     26.1130      2.4278      0.0949
  1256.3000      7.8804     13.9452    125.6010     26.1214      2.4199      0.0587
  1256.4000      7.8804     10.0657    126.1466     26.4688      2.4839      0.0252
  1256.5000      7.8197      3.3419    126.5927     26.6507      2.5949      0.2202
  1256.6000      7.8197     -2.6015    126.2229     26.4421      2.6929      0.2792
  1256.7000      7.8197     -5.4450    122.1998     26.2377      2.7398      0.3282
  1256.8000      7.7995     -5.3626    116.2824     26.3760      2.7385      0.2727
  1256.9000      7.7995     -3.8300    114.3336     26.5308      2.7132      0.2061
  1257.0000      7.7892     -2.4221    116.1744     26.5421      2.6900      0.1407
  1257.1000      7.7892     -1.5178    117.6544     26.7115      2.6750      0.1519
  1257.2000      7.7892     -0.8804    116.6349     27.1081      2.6645      0.0935
  1257.3000      7.8690     -0.5705    113.6684     27.5678      2.6594      0.0881
  1257.4000      7.8690     -0.0544    110.4528     27.9647      2.6509      0.0789
  1257.5000      8.0288      1.2485    108.7177     28.2471      2.6294      0.0160
  1257.6000      8.0288      2.6699    109.2191     28.4245      2.6059      0.0122
  1257.7000      8.0288      3.0964    110.6356     28.5610      2.5989      0.0137
  1257.8000      8.0428      2.1524    111.3993     28.6626      2.6145      0.0043
  1257.9000      8.0428      0.5590    111.2832     28.6058      2.6408      0.0394
  1258.0000      7.9582     -0.6922    110.4120     28.3785      2.6614      0.0629
  1258.1000      7.9582     -1.2562    108.3451     28.0289      2.6707      0.0692
  1258.2000      7.9582     -0.9789    105.6582     27.5860      2.6662      0.0953
  1258.3000      7.9376      0.3709    103.1451     27.2984      2.6439      0.1134
  1258.4000      7.9376      2.3106    100.7439     27.4437      2.6119      0.1054
  1258.5000      7.8171      3.8440    100.2368     27.8544      2.5866      0.1067
  1258.6000      7.8171      4.8707    102.5497     28.2415      2.5696      0.1058
  1258.7000      7.8171      6.0351    103.9667     28.5697      2.5504      0.1059
  1258.8000      7.8905      7.1014    101.0156     28.9777      2.5328      0.0255
  1258.9000      7.8905      7.3538     96.2666     29.3687      2.5287      0.0746
  1259.0000      7.9094      7.1580     93.6358     29.4036      2.5319      0.0508
  1259.1000      7.9094      7.8666     93.5895     29.0179      2.5202      0.1279
  1259.2000      7.9094     10.6860     96.6311     28.5602      2.4737      0.1471
  1259.3000      7.8292     15.2863    102.8708     28.2877      2.3978      0.1677
  1259.4000      7.8292     20.9367    109.0350     27.7939      2.3045      0.1752
  1259.5000      7.7653     28.2759    110.9775     26.5069      2.1834      0.1582
  1259.6000      7.7653     37.9411    108.5035     24.6199      2.0240      0.1085
  1259.7000      7.7653     48.7971    105.9467     23.0400      1.8448      0.0795
  1259.8000      7.7981     58.5458    107.1619     22.2886      1.6840      0.0448
  1259.9000      7.7981     65.2772    111.3531     21.9049      1.5729      0.0463
  1260.0000      7.8959     68.7507    113.9215     21.3273      1.5156      0.2249
  1260.1000      7.8959     70.3585    112.2736     20.6966      1.4891      0.3781
  1260.2000      7.8959     70.8958    108.9274     20.3937      1.4802      0.3508
  1260.3000      7.9494     68.4802    106.4134     20.4597      1.5201      0.3084
  1260.4000      7.9494     59.8516    103.9862     20.8143      1.6624      0.3249
  1260.5000      7.8518     44.6967    101.8726     21.2939      1.9125      0.3960
  1260.6000      7.8518     27.9792    102.7575     21.7933      2.1883      0.6250
  1260.7000      7.8518     15.5602    107.7533     22.4669      2.3933      0.6735
  1260.8000      7.7956      8.7649    112.9838     23.3763      2.5054      0.6548
  1260.9000      7.7956      5.8894    115.4398     24.2908      2.5528      0.5830
  1261.0000      7.8449      5.7193    116.2654     24.8931      2.5556      0.4527
  1261.1000      7.8449      7.2101    114.7889     25.1333      2.5310      0.2582
  1261.2000      7.8449      8.1569    111.2427     25.2218      2.5154      0.1468
  1261.3000      7.8894      6.9553    109.1884     25.3720      2.5352      0.1354
  1261.4000      7.8894      4.8484    111.0448     25.6838      2.5700      0.1506
  1261.5000      7.8990      3.8570    115.9596     26.0264      2.5864      0.1475
  1261.6000      7.8990      4.1249    119.4541     26.1790      2.5819      0.0923
  1261.7000      7.8990      4.9175    119.7693     26.3080      2.5689      0.0790
  1261.8000      7.8832      6.4837    120.3811     26.7827      2.5430      0.1193
  1261.9000      7.8832      8.9154    122.8180     27.6658      2.5029      0.0371
  1262.0000      7.8653     11.0955    126.3728     28.7151      2.4669      0.0833
  1262.1000      7.8653     12.5321    129.8250     29.3396      2.4432      0.0614
  1262.2000      7.8653     13.6250    130.9008     29.4930      2.4252      0.0313
  1262.3000      7.8824     14.1867    129.9503     29.9033      2.4159      0.0171
  1262.4000      7.8824     13.6724    130.1667     30.5992      2.4244      0.0310
  1262.5000      7.9594     12.7040    131.8722     30.9481      2.4404      0.0810
  1262.6000      7.9594     12.8972    131.8671     30.8658      2.4372      0.1379
  1262.7000      7.9594     14.8860    130.2233     30.6063      2.4044      0.1302
  1262.8000      7.8884     17.2978    128.6836     30.0373      2.3646      0.1673
