~Version Information
VERS.                      2.0: CWLS Log ASCII Standard - VERSION 2.0
WRAP.                       NO: One line per depth step
~Well Information Block
STRT.FT                -2.5000: 
STOP.FT              2329.5000: 
STEP.FT                 0.2500: 
NULL.                -999.2500: 
COMP.          Pioneer Natural Resources: COMPANY
WELL.              Whinny 42-2: WELL
FLD.           Purgatorie River: FIELD
LOC.           1836' FNL & 466' FEL--: LOCATION
PROV.                       CO: PROVINCE
CNTY.               Las Animas: COUNTRY
SRVC.          Patterson Wireline: SERVICE COMPANY
DATE.          Mon Aug 29 13:18:04 2005: LOG DATE
UWI.           05 071 08406 00: UNIQUE WELL ID
~Curve Information Block
DEPT.FT            0 000 00 00: Depth
CCL.                          : Casing Collar Locator
TT3.usec                      : CBL 3' Travel Time
AMP3.mV                       : CBL 3' Amplitude
GR.GAPI                       : Gamma Ray
~Parameter Information Block
~A  Depth       CCL         TT3         AMP3         GR     
# ...
  1840.0000      0.0000    663.9421      4.5179     33.6952
  1840.2500      0.0000    663.5795      4.5236     35.0027
  1840.5000      0.0000    663.4418      4.5440     35.8499
  1840.7500      0.0000    663.3661      4.5776     35.8334
  1841.0000      0.0000    663.2778      4.6172     35.7073
  1841.2500      0.0000    663.1534      4.6542     36.4429
  1841.5000      0.0000    662.9907      4.6831     38.2723
  1841.7500      0.0000    662.7341      4.7045     40.6184
  1842.0000      0.0000    662.2092      4.7229     42.6636
  1842.2500      0.0000    661.1271      4.7437     43.8909
  1842.5000      0.0000    659.2090      4.7710     44.2613
  1842.7500      0.0000    656.4018      4.8081     44.0278
  1843.0000      0.0000    653.0229      4.8583     43.4041
  1843.2500      0.0000    649.7743      4.9216     42.3464
  1843.5000      0.0000    647.6747      4.9922     40.6641
  1843.7500      0.0000    647.7181      5.0598     38.4478
  1844.0000      0.0000    650.1516      5.1163     36.3053
  1844.2500      0.0000    654.0374      5.1603     34.9952
  1844.5000      0.0000    657.8223      5.1960     34.8426
  1844.7500      0.0000    660.4297      5.2296     35.5483
  1845.0000      0.0000    661.7432      5.2629     36.4255
  1845.2500      0.0000    662.2289      5.2923     36.7782
  1845.5000      0.0000    662.3674      5.3131     36.2731
  1845.7500      0.0000    662.4194      5.3274     35.0791
  1846.0000      0.0000    662.4704      5.3433     33.5558
  1846.2500      0.0000    662.5352      5.3652     31.8639
  1846.5000      0.0000    662.6074      5.3887     30.0024
  1846.7500      0.0000    662.6743      5.4071     28.1109
  1847.0000      0.0000    662.7227      5.4188     26.6412
  1847.2500      0.0000    662.7505      5.4256     26.2893
  1847.5000      0.0000    662.7692      5.4286     27.6341
  1847.7500      0.0000    662.7961      5.4286     30.6075
  1848.0000      0.0000    662.8270      5.4303     34.3201
  1848.2500      0.0000    662.7933      5.4409     37.5194
  1848.5000      0.0000    662.5237      5.4621     39.2493
  1848.7500      0.0000    661.7567      5.4816     39.2740
  1849.0000      0.0000    660.2947      5.4768     38.2501
  1849.2500      0.0000    658.1766      5.4329     37.5985
  1849.5000      0.0000    655.6198      5.3588     38.9526
  1849.7500      0.0000    652.8262      5.2823     43.5243
  1850.0000      0.0000    650.0684      5.2282     51.8645
  1850.2500      0.0000    647.9313      5.2042     63.8453
  1850.5000      0.0000    647.1691      5.2056     78.2544
  1850.7500      0.0000    648.2863      5.2284     92.4506
  1851.0000      0.0000    651.3118      5.2708    103.2954
  1851.2500      0.0000    655.7502      5.3240    109.2850
  1851.5000      0.0000    660.5963      5.3573    111.6978
  1851.7500      0.0000    664.3723      5.3180    113.1773
  1852.0000      0.0000    665.3666      5.1588    115.1217
  1852.2500      0.0000    662.6741      4.8900    116.8567
  1852.5000      0.0000    657.7291      4.6032    117.3230
  1852.7500      0.0000    654.0132      4.4184    116.6278
  1853.0000      0.0000    653.9493      4.3930    115.4314
  1853.2500      0.0000    656.2363      4.4903    113.8050
  1853.5000      0.0000    657.3259      4.6319    111.6126
  1853.7500      0.0000    655.4418      4.7587    109.3949
  1854.0000      2.0000    652.1628      4.8497    107.9633
  1854.2500      0.0000    649.6660      4.9145    107.4802
  1854.5000      0.0000    647.1832      4.9967    107.5489
  1854.7500      0.0000    641.1777      5.1745    107.8056
  1855.0000      0.0000    628.8905      5.5114    107.8709
  1855.2500      0.0000    610.8405      5.9642    107.3130
  1855.5000      0.0000    589.8054      6.3559    106.4160
  1855.7500      0.0000    568.5320      6.4995    106.5740
  1856.0000      0.0000    549.1170      6.3628    108.8881
  1856.2500      0.0000    533.4283      6.0794    112.3716
  1856.5000      0.0000    522.6763      5.8118    114.4326
  1856.7500      0.0000    516.6385      5.6372    113.4928
  1857.0000      0.0000    513.9696      5.5477    110.8021
  1857.2500      0.0000    513.2519      5.5036    109.5533
  1857.5000      0.0000    513.6690      5.4711    112.2497
  1857.7500      0.0000    515.0583      5.4324    118.6340
  1858.0000      0.0000    517.7377      5.3863    125.7978
  1858.2500      0.0000    522.3982      5.3429    130.2551
  1858.5000      0.0000    529.9581      5.3142    130.0748
  1858.7500      0.0000    541.1387      5.3061    125.5090
  1859.0000      0.0000    555.8681      5.3168    118.2683
  1859.2500      0.0000    573.0894      5.3380    110.4134
  1859.5000      0.0000    591.0237      5.3555    103.5153
  1859.7500      0.0000    607.2779      5.3538     98.2448
  1860.0000      0.0000    619.1459      5.3230     94.3654
  1860.2500      0.0000    625.0060      5.2659     91.1259
  1860.5000      0.0000    625.9711      5.1974     87.9648
  1860.7500      0.0000    625.7066      5.1358     85.0586
  1861.0000      0.0000    627.8143      5.0942     83.0866
  1861.2500      0.0000    632.8489      5.0808     82.4133
  1861.5000      0.0000    637.6995      5.1035     82.7438
  1861.7500      0.0000    638.0072      5.1655     83.5051
  1862.0000      0.0000    631.7961      5.2537     84.1677
  1862.2500      0.0000    621.7017      5.3358     84.3179
  1862.5000      0.0000    613.5666      5.3745     83.7786
  1862.7500      0.0000    611.9008      5.3460     82.4850
  1863.0000      0.0000    616.4915      5.2522     79.9607
  1863.2500      0.0000    623.7738      5.1205     75.3210
  1863.5000      0.0000    630.8203      4.9935     68.2214
  1863.7500      0.0000    637.2283      4.9099     59.5566
  1864.0000      0.0000    643.9169      4.8897     50.8893
  1864.2500      0.0000    651.2611      4.9285     43.3864
  1864.5000      0.0000    658.3744      5.0022     37.6138
  1864.7500      0.0000    663.4486      5.0796     34.1396
  1865.0000      0.0000    664.6851      5.1358     33.7762
  1865.2500      0.0000    661.5535      5.1613     36.9223
  1865.5000      0.0000    655.5203      5.1610     42.8595
  1865.7500      0.0000    649.3605      5.1453     50.0937
  1866.0000      0.0000    645.4544      5.1225     57.5912
  1866.2500      0.0000    644.5236      5.0954     65.5389
  1866.5000      0.0000    645.6772      5.0619     74.7502
  1866.7500      0.0000    647.4320      5.0186     85.4448
  1867.0000      0.0000    648.8379      4.9636     96.7265
  1867.2500      0.0000    650.2878      4.8964    107.0094
  1867.5000      0.0000    653.6085      4.8157    114.6404
  1867.7500      0.0000    660.9738      4.7197    118.4522
  1868.0000      0.0000    673.2216      4.6132    118.3760
  1868.2500      0.0000    688.9381      4.5088    115.6082
  1868.5000      0.0000    704.4670      4.4196    111.9633
  1868.7500      0.0000    714.6102      4.3500    109.0669
  1869.0000      0.0000    715.0932      4.2937    107.7943
  1869.2500      0.0000    705.9567      4.2380    107.7593
  1869.5000      0.0000    691.6451      4.1702    107.4048
  1869.7500      0.0000    676.5449      4.0822    105.2507
  1870.0000      0.0000    661.2775      3.9743    101.1549
  1870.2500      0.0000    643.8895      3.8560     96.1450
  1870.5000      0.0000    623.3056      3.7415     91.3567
  1870.7500      0.0000    600.6974      3.6414     87.4874
  1871.0000      0.0000    578.7344      3.5597     84.9140
  1871.2500      0.0000    561.4778      3.4974     83.6953
  1871.5000      0.0000    554.6526      3.4570     83.4357
  1871.7500      0.0000    563.4219      3.4407     83.6125
  1872.0000      0.0000    588.0085      3.4439     84.2738
  1872.2500      0.0000    621.8806      3.4515     86.2617
  1872.5000      0.0000    655.1083      3.4454     90.4287
  1872.7500      0.0000    679.6811      3.4177     96.3433
  1873.0000      0.0000    692.3917      3.3789    101.8501
  1873.2500      0.0000    694.8718      3.3508    104.3810
