~Version Information
 VERS.                                  2.0 : CWLS LAS VERSION
 WRAP.                                   NO : WRAPING MODE
 SWARE .                 MController 2.5.0J : SOFTWARE VERSION
~Well Information
 WELL.                         State 16-12V : WELL
 COMP.                Petrogulf Corporation : COMPANY
 FLD.                      Purgatoire River : FIELD
 LOC.                       05-071-08016-00 : LOCATION
 DATE.                             08/03/05 : DATE(S) LOGGED
 SRVC.       BLANCO Geological Services LLC : SERVICE COMPANY
 STAT.                                   CO : STATE
 CNTY.                           Las Animas : COUNTY
 CTRY.                                  USA : COUNTRY
 API.                       05-071-08016-00 : API NUMBER
 STRT.FT                             611.00 : START DEPTH
 STOP.FT                            2155.00 : STOP DEPTH
 STEP.FT                               1.00 : DEPTH INCREMENT
 NULL.                                -9999 : NULL VALUE
~Curve information
 DEPTH.FT                                   :
 ROP.MIN/FT                                 :
 GAS.UNITS                                  :
~ASCII Log data
# ...
      1611.0         0.23         43.8 
      1612.0         0.20         52.6 
      1613.0         0.27         73.4 
      1614.0         0.33        110.0 
      1615.0         0.37        163.0 
      1616.0         1.92        209.8 
      1617.0         0.43         81.1 
      1618.0         0.50         78.5 
      1619.0         0.38         71.7 
      1620.0         0.60         63.2 
      1621.0         0.67         56.2 
      1622.0         0.43         46.5 
      1623.0         0.30         46.2 
      1624.0         0.30         44.9 
      1625.0         0.23         43.7 
      1626.0         0.23         42.7 
      1627.0         0.27         41.7 
      1628.0         0.25         41.2 
      1629.0         0.27         40.8 
      1630.0         0.30         40.6 
      1631.0         0.27         40.4 
      1632.0         0.23         40.5 
      1633.0         0.23         40.5 
      1634.0         0.30         40.6 
      1635.0         0.27         40.1 
      1636.0         0.30         39.9 
      1637.0         0.27         39.7 
      1638.0         0.33         40.0 
      1639.0         0.27         38.6 
      1640.0         0.32         29.4 
      1641.0         0.30         30.5 
      1642.0         0.33         59.3 
      1643.0         0.30        105.5 
      1644.0         0.30        160.1 
      1645.0         0.30        228.0 
      1646.0         2.02        261.7 
      1647.0         0.37         83.8 
      1648.0         0.30         84.6 
      1649.0         0.30         80.1 
      1650.0         0.20         68.1 
      1651.0         0.20         59.3 
      1652.0         0.37         58.7 
      1653.0         0.37         58.7 
      1654.0         0.30         54.5 
      1655.0         0.23         53.3 
      1656.0         0.25         55.8 
      1657.0         0.33         57.2 
      1658.0         0.30         57.5 
      1659.0         0.20         56.7 
      1660.0         0.23         55.2 
      1661.0         0.17         55.1 
      1662.0         0.17         55.0 
      1663.0         0.20         54.7 
      1664.0         0.27         54.5 
      1665.0         0.30         53.6 
      1666.0         0.23         52.0 
      1667.0         0.23         47.8 
      1668.0         0.23         39.2 
      1669.0         0.27         44.4 
      1670.0         0.25         48.9 
      1671.0         0.23         54.9 
      1672.0         0.20         66.5 
      1673.0         0.23         88.5 
      1674.0         0.20        112.4 
      1675.0         2.32        218.3 
      1676.0         0.40         69.2 
      1677.0         0.30         82.6 
      1678.0         0.23         83.5 
      1679.0         0.23         80.8 
      1680.0         0.20         70.2 
      1681.0         0.20         59.9 
      1682.0         0.23         52.9 
      1683.0         0.33         47.4 
      1684.0         0.33         42.1 
      1685.0         0.27         40.6 
      1686.0         0.27         41.6 
      1687.0         0.28         45.2 
      1688.0         0.27         47.9 
      1689.0         0.27         48.1 
      1690.0         0.20         46.9 
      1691.0         0.27         43.6 
      1692.0         0.30         44.7 
      1693.0         0.23         43.5 
      1694.0         0.13         44.6 
      1695.0         0.17         45.9 
      1696.0         0.23         47.2 
      1697.0         0.27         46.9 
      1698.0         0.20         45.9 
      1699.0         0.40         42.3 
      1700.0         0.48         43.7 
      1701.0         0.40         96.3 
      1702.0         0.23        131.1 
      1703.0         0.20        160.1 
      1704.0         0.27        198.3 
      1705.0         0.30        242.0 
      1706.0         1.85        308.4 
      1707.0         0.27         70.6 
      1708.0         0.23         59.1 
      1709.0         0.17         51.0 
      1710.0         0.37         59.5 
      1711.0         0.33         60.8 
      1712.0         0.23         56.8 
      1713.0         0.37         50.6 
      1714.0         0.33         43.2 
      1715.0         0.33         44.6 
      1716.0         0.30         44.4 
      1717.0         0.35         41.2 
      1718.0         0.27         40.8 
      1719.0         0.27         40.9 
      1720.0         0.27         38.6 
      1721.0         0.23         38.0 
      1722.0         0.23         37.2 
      1723.0         0.27         39.9 
      1724.0         0.20         41.6 
      1725.0         0.23         41.7 
      1726.0         0.23         40.4 
      1727.0         0.23         37.2 
      1728.0         0.23         31.1 
      1729.0         0.27         24.7 
      1730.0         0.28         34.0 
      1731.0         0.23         53.8 
      1732.0         0.27         94.7 
      1733.0         0.20        127.0 
      1734.0         0.20        156.4 
      1735.0         0.27        193.1 
      1736.0         3.15        297.7 
      1737.0         0.37         56.6 
      1738.0         0.37         51.9 
      1739.0         0.27         44.1 
      1740.0         0.37         40.8 
      1741.0         0.38         38.3 
      1742.0         0.33         36.5 
      1743.0         0.30         35.2 
      1744.0         0.30         35.1 
      1745.0         0.33         36.1 
      1746.0         0.30         37.1 
      1747.0         0.27         39.5 
      1748.0         0.27         40.9 
      1749.0         0.23         41.3 
      1750.0         0.27         38.4 
      1751.0         0.22         35.6 
      1752.0         0.20         34.0 
      1753.0         0.23         33.6 
      1754.0         0.20         33.6 
      1755.0         0.23         36.3 
      1756.0         0.27         38.0 
      1757.0         0.30         37.2 
      1758.0         0.23         35.6 
      1759.0         0.20         35.8 
      1760.0         0.30         35.5 
      1761.0         0.33         28.7 
      1762.0         0.32         22.4 
      1763.0         0.33         28.7 
      1764.0         0.20         35.2 
      1765.0         0.23         44.5 
      1766.0         2.38        113.8 
      1767.0         0.43         70.4 
      1768.0         0.33         55.6 
      1769.0         0.30         57.4 
      1770.0         0.30         64.7 
      1771.0         0.30         65.0 
      1772.0         0.30         61.6 
      1773.0         0.37         57.7 
      1774.0         0.37         52.1 
      1775.0         0.33         47.2 
      1776.0         0.32         44.6 
      1777.0         0.30         42.0 
      1778.0         0.30         39.1 
      1779.0         0.27         37.2 
      1780.0         0.33         35.8 
      1781.0         0.37         31.6 
      1782.0         0.30         30.2 
      1783.0         0.37         38.1 
      1784.0         0.30         39.8 
      1785.0         0.43         38.5 
      1786.0         0.38         35.2 
      1787.0         0.33         33.6 
      1788.0         0.20         34.6 
      1789.0         0.23         37.4 
      1790.0         0.23         40.3 
      1791.0         0.27         38.6 
      1792.0         0.33         30.7 
      1793.0         0.37         47.2 
      1794.0         0.30         66.6 
      1795.0         0.23         75.2 
      1796.0         2.22         78.8 
      1797.0         0.43         46.3 
      1798.0         0.37         46.3 
      1799.0         0.37         47.1 
      1800.0         0.37         45.4 
      1801.0         0.35         43.7 
      1802.0         0.33         41.2 
      1803.0         0.30         39.0 
      1804.0         0.30         37.5 
      1805.0         0.27         36.1 
      1806.0         0.30         35.2 
      1807.0         0.27         34.9 
      1808.0         0.27         33.6 
      1809.0         0.30         33.0 
      1810.0         0.33         31.8 
