~Version Information
VERS.                      2.0: CWLS Log ASCII Standard - VERSION 2.0
WRAP.                       NO: One line per depth step
~Well Information Block
STRT.FT               845.0000: 
STOP.FT              2308.2000: 
STEP.FT                 0.1000: 
NULL.                -999.2500: 
COMP.          Pioneer Natural Resources: COMPANY
WELL.             Vector 33-23: WELL
FLD.           Purgatoire River: FIELD
LOC.           1560' FEL & 1988' FSL----: LOCATION
PROV.                 Colorado: PROVINCE
CNTY.               Las Animas: COUNTRY
SRVC.                Patterson: SERVICE COMPANY
DATE.          Mon Mar 28 08:17:25 2005: LOG DATE
UWI.           05 071 08336 00: UNIQUE WELL ID
~Curve Information Block
DEPT.FT            0 000 00 00: Depth
DCAL.in                       : CDL Caliper
RHOB.g/cc                     : CDL Bulk Density
RHOC.g/cc                     : CDL Density Correction
DPOR.pu                       : CDL Density Porosity
NPOR.pu                       : Neutron Porosity
GR.GAPI                       : Gamma Ray
~Parameter Information Block
~A  Depth       DCAL        RHOB        RHOC        DPOR        NPOR         GR     
# ...
  1229.0000      8.1918      2.5089      0.0211      8.5493     34.1535    107.2721
  1229.1000      8.1918      2.5380      0.0643      6.7875     34.3073    110.5293
  1229.2000      8.1918      2.5548      0.0646      5.7685     34.0504    112.6379
  1229.3000      8.1908      2.5520      0.0739      5.9383     33.3262    112.5310
  1229.4000      8.1908      2.5383      0.0756      6.7684     32.4203    108.7902
  1229.5000      8.1904      2.5238      0.0293      7.6459     31.8848    105.2877
  1229.6000      8.1904      2.5178      0.0556      8.0113     31.2426    104.1229
  1229.7000      8.1904      2.5253      0.0597      7.5555     30.4144    102.7391
  1229.8000      8.1908      2.5424      0.0623      6.5201     30.4739    101.5589
  1229.9000      8.1908      2.5549      0.1026      5.7636     31.2921    104.2742
  1230.0000      8.1916      2.5489      0.0835      6.1287     31.2059    109.4144
  1230.1000      8.1916      2.5318      0.0204      7.1617     29.2239    112.4178
  1230.2000      8.1916      2.5264     -0.0124      7.4926     27.1651    113.3737
  1230.3000      8.1922      2.5345      0.0683      6.9985     28.0091    115.0505
  1230.4000      8.1922      2.5381      0.0649      6.7792     30.9943    116.1510
  1230.5000      8.1892      2.5376      0.0546      6.8133     32.9090    114.7624
  1230.6000      8.1892      2.5474      0.0842      6.2189     33.4338    114.6935
  1230.7000      8.1892      2.5698      0.0942      4.8625     34.1675    117.1853
  1230.8000      8.1811      2.5947      0.0594      3.3499     35.0924    117.4408
  1230.9000      8.1811      2.6026      0.1219      2.8732     35.2191    114.7573
  1231.0000      8.1750      2.5826      0.0633      4.0863     34.3533    111.6880
  1231.1000      8.1750      2.5591      0.0408      5.5101     33.4391    107.2797
  1231.2000      8.1750      2.5546      0.0460      5.7846     33.6193    100.7970
  1231.3000      8.1732      2.5577      0.0963      5.5938     34.6395     94.3447
  1231.4000      8.1732      2.5533      0.0533      5.8599     35.3177     91.2166
  1231.5000      8.1726      2.5406      0.0668      6.6326     34.9559     93.2374
  1231.6000      8.1726      2.5220      0.0185      7.7564     34.6074     97.4256
  1231.7000      8.1726      2.5033      0.0334      8.8914     35.3884    100.0982
  1231.8000      8.1717      2.4958      0.0051      9.3429     36.2413    102.7908
  1231.9000      8.1717      2.5099      0.0230      8.4904     35.9354    105.4720
  1232.0000      8.1712      2.5384      0.0393      6.7622     34.6566    104.5182
  1232.1000      8.1712      2.5604      0.0626      5.4331     34.1968    100.7732
  1232.2000      8.1712      2.5673      0.0523      5.0094     35.7396     99.2570
  1232.3000      8.1717      2.5698      0.0735      4.8620     37.5351    102.6593
  1232.4000      8.1717      2.5714      0.1032      4.7651     38.3709    107.3419
  1232.5000      8.1716      2.5658      0.0694      5.1023     38.6647    109.2605
  1232.6000      8.1716      2.5551      0.0414      5.7531     38.5389    109.6712
  1232.7000      8.1716      2.5435      0.0385      6.4569     38.3385    109.7957
  1232.8000      8.1716      2.5339      0.0153      7.0355     38.5524    107.6685
  1232.9000      8.1716      2.5310      0.0485      7.2115     38.8509    103.8229
  1233.0000      8.1730      2.5350      0.0744      6.9722     38.8011    102.1219
  1233.1000      8.1730      2.5476      0.0477      6.2073     38.4153    103.4153
  1233.2000      8.1730      2.5728      0.0825      4.6790     37.6498    103.0623
  1233.3000      8.1730      2.6007      0.0919      2.9876     36.2925     98.7398
  1233.4000      8.1730      2.6103      0.0916      2.4042     34.5301     96.9868
  1233.5000      8.1706      2.5962      0.0774      3.2616     33.7894     99.9190
  1233.6000      8.1706      2.5749      0.0655      4.5486     35.4391    101.6773
  1233.7000      8.1706      2.5658      0.0256      5.1001     38.2325    100.8099
  1233.8000      8.1672      2.5702      0.0695      4.8348     39.9372    100.1265
  1233.9000      8.1672      2.5716      0.0716      4.7533     40.3349    100.2141
  1234.0000      8.1660      2.5649      0.0449      5.1573     40.4172     98.4448
  1234.1000      8.1660      2.5615      0.0684      5.3654     -0.5200     96.1391
  1234.2000      8.1660      2.5664      0.0467      5.0678     -0.1531     97.4975
  1234.3000      8.1662      2.5804      0.0502      4.2176     -0.3637     99.9597
  1234.4000      8.1662      2.5975      0.0665      3.1802     -1.0672     97.8203
  1234.5000      8.1660      2.5978      0.1197      3.1621     -0.9830     91.5734
  1234.6000      8.1660      2.5719      0.0812      4.7334      0.0243     86.8977
  1234.7000      8.1660      2.5383      0.0497      6.7700      0.7911     86.8363
  1234.8000      8.1661      2.5110      0.0499      8.4225      1.1901     88.4603
  1234.9000      8.1661      2.4841      0.0692     10.0538      1.5092     88.9614
  1235.0000      8.1665      2.4611      0.0433     11.4511      1.7676     89.9029
  1235.1000      8.1665      2.4537      0.0516     11.8953      1.8574     91.9972
  1235.2000      8.1665      2.4571      0.0610     11.6911      1.6576     95.0768
  1235.3000      8.1654      2.4577      0.0776     11.6557      1.0280     99.2032
  1235.4000      8.1654      2.4540      0.0509     11.8805     -0.2199    103.5200
  1235.5000      8.1662      2.4558      0.0664     11.7684     -1.1795    106.4601
  1235.6000      8.1662      2.4583      0.1125     11.6201     -0.0291    104.9211
  1235.7000      8.1662      2.4422      0.0756     12.5960      1.6418    100.4320
  1235.8000      8.1689      2.4091      0.0345     14.6024      2.4384     97.5768
  1235.9000      8.1689      2.3728      0.0609     16.7980      2.7625     95.4610
  1236.0000      8.1709      2.3309      0.0454     19.3389      3.4175     93.5771
  1236.1000      8.1709      2.2714      0.0405     22.9433      4.1544     92.9015
  1236.2000      8.1709      2.1883      0.0102     27.9823      4.2742     90.5928
  1236.3000      8.1748      2.0854     -0.0311     34.2164      4.1863     86.3513
  1236.4000      8.1748      1.9786     -0.0761     40.6931      4.7133     84.0241
  1236.5000      8.1803      1.8886     -0.1102     46.1433      5.8440     84.1026
  1236.6000      8.1803      1.8246     -0.1026     50.0241      6.8542    125.2497
  1236.7000      8.1803      1.7743     -0.0724     53.0710      7.1665    122.7904
  1236.8000      8.1812      1.7218     -0.0694     56.2528      6.8613    120.7157
  1236.9000      8.1812      1.6707     -0.0479     59.3537      5.8505    115.9298
  1237.0000      8.1757      1.6405     -0.0141     61.1842      4.2423    107.3917
  1237.1000      8.1757      1.6489      0.0497     60.6732      3.3687    100.7272
  1237.2000      8.1757      1.7028      0.1014     57.4055      3.9769     98.0792
  1237.3000      8.1628      1.7990      0.1423     51.5728      5.2916     98.2148
  1237.4000      8.1628      1.9220      0.2188     44.1221      5.9253    100.7176
  1237.5000      8.1470      2.0421      0.2485     36.8427      5.7590    103.3441
  1237.6000      8.1470      2.1369      0.2542     31.0983      5.3245    105.9809
  1237.7000      8.1470      2.2133      0.2464     26.4664      4.7785    108.5248
  1237.8000      8.1375      2.2904      0.2943     21.7938      4.1038    109.4507
  1237.9000      8.1375      2.3704      0.3085     16.9432      3.5893    110.6012
  1238.0000      8.1335      2.4417      0.3092     12.6254      3.7275    113.4766
  1238.1000      8.1335      2.4868      0.2628      9.8907      4.7468    117.6364
  1238.2000      8.1335      2.4875      0.2107      9.8515      6.4518    121.0082
  1238.3000      8.1277      2.4508      0.0660     12.0710      8.0966    122.1350
  1238.4000      8.1277      2.4066      0.0267     14.7486      8.8239    121.7318
  1238.5000      8.1195      2.3548      0.0698     17.8890      8.4621    124.1527
