~Version Information
VERS.                      2.0: CWLS Log ASCII Standard - VERSION 2.0
WRAP.                       NO: One line per depth step
~Well Information Block
STRT.FT               475.0000: 
STOP.FT              2336.7500: 
STEP.FT                 0.2500: 
NULL.                -999.2500: 
COMP.          Pioneer Natural Resources: COMPANY
WELL.              Bobsy 34-11: WELL
FLD.           Purgatoire River: FIELD
LOC.           1937' FEL & 451' FSL----: LOCATION
PROV.                 Colorado: PROVINCE
CNTY.               Las Animas: COUNTRY
SRVC.                Patterson: SERVICE COMPANY
DATE.          Fri Apr 08 05:21:25 2005: LOG DATE
UWI.           05 071 08330 00: UNIQUE WELL ID
~Curve Information Block
DEPT.FT            0 000 00 00: Depth
SN.Ohm-m                      : IEL Short Normal
SP.mV                         : IEL Spontaneous Potential
DIR.Ohm-m                     : IEL Induction Resistivity
GR.GAPI                       : Gamma Ray
~Parameter Information Block
~A  Depth        SN          SP         DIR          GR     
# ...
   977.5000   2000.0000   2000.0000     30.8918    101.8599
   977.7500   2000.0000   2000.0000     31.3211    103.1922
   978.0000   2000.0000   2000.0000     31.7403    106.0130
   978.2500   2000.0000   2000.0000     32.1319    108.0779
   978.5000   2000.0000   2000.0000     32.5036    110.1749
   978.7500   2000.0000   2000.0000     32.8539    110.1374
   979.0000   2000.0000   2000.0000     33.1440    107.6573
   979.2500   2000.0000   2000.0000     33.3098    105.0359
   979.5000   2000.0000   2000.0000     33.3078    101.3055
   979.7500   2000.0000   2000.0000     33.1534     99.6086
   980.0000   2000.0000   2000.0000     32.9155     98.4865
   980.2500   2000.0000   2000.0000     32.6761     98.5510
   980.5000   2000.0000   2000.0000     32.4972     99.6497
   980.7500   2000.0000   2000.0000     32.4120    100.9330
   981.0000   2000.0000   2000.0000     32.4366    103.0343
   981.2500   2000.0000   2000.0000     32.5778    103.8027
   981.5000   2000.0000   2000.0000     32.8295    102.7088
   981.7500   2000.0000   2000.0000     33.1642    100.1793
   982.0000   2000.0000   2000.0000     33.5368     94.0898
   982.2500   2000.0000   2000.0000     33.9025     89.0751
   982.5000   2000.0000   2000.0000     34.2401     81.4155
   982.7500   2000.0000   2000.0000     34.5598     77.0090
   983.0000   2000.0000   2000.0000     34.8882     72.3319
   983.2500   2000.0000   2000.0000     35.2452     70.5039
   983.5000   2000.0000   2000.0000     35.6335     68.8708
   983.7500   2000.0000   2000.0000     36.0468     67.8330
   984.0000   2000.0000   2000.0000     36.4843     65.4880
   984.2500   2000.0000   2000.0000     36.9535     63.3058
   984.5000   2000.0000   2000.0000     37.4552     59.4834
   984.7500   2000.0000   2000.0000     37.9673     56.8254
   985.0000   2000.0000   2000.0000     38.4455     52.9718
   985.2500   2000.0000   2000.0000     38.8483     50.7102
   985.5000   2000.0000   2000.0000     39.1686     48.3357
   985.7500   2000.0000   2000.0000     39.4401     47.6854
   986.0000   2000.0000   2000.0000     39.7082     48.0187
   986.2500   2000.0000   2000.0000     39.9869     48.7405
   986.5000   2000.0000   2000.0000     40.2423     49.8491
   986.7500   2000.0000   2000.0000     40.4230     50.4339
   987.0000   2000.0000   2000.0000     40.5121     51.3004
   987.2500   2000.0000   2000.0000     40.5505     52.0415
   987.5000   2000.0000   2000.0000     40.6086     53.3081
   987.7500   2000.0000   2000.0000     40.7292     54.0365
   988.0000   2000.0000   2000.0000     40.8890     54.7545
   988.2500   2000.0000   2000.0000     40.9943     55.0522
   988.5000   2000.0000   2000.0000     40.8992     55.3484
   988.7500   2000.0000   2000.0000     40.4327     55.4108
   989.0000   2000.0000   2000.0000     39.4414     55.3796
   989.2500   2000.0000   2000.0000     37.8564     55.6361
   989.5000   2000.0000   2000.0000     35.7567     57.5149
   989.7500   2000.0000   2000.0000     33.3665     60.3642
   990.0000   2000.0000   2000.0000     30.9698     67.5067
   990.2500   2000.0000   2000.0000     28.8054     74.0167
   990.5000   2000.0000   2000.0000     27.0087     85.3286
   990.7500   2000.0000   2000.0000     25.6069     92.8871
   991.0000   2000.0000   2000.0000     24.5420    102.2980
   991.2500   2000.0000   2000.0000     23.6997    106.3315
   991.5000   2000.0000   2000.0000     22.9441    108.1920
   991.7500   2000.0000   2000.0000     22.1586    106.8487
   992.0000   2000.0000   2000.0000     21.2848    102.5678
   992.2500   2000.0000   2000.0000     20.3402     99.5243
   992.5000   2000.0000   2000.0000     19.4002     96.5768
   992.7500   2000.0000   2000.0000     18.5528     96.2560
   993.0000   2000.0000   2000.0000     17.8541     98.2547
   993.2500   2000.0000   2000.0000     17.3022    100.7361
   993.5000   2000.0000   2000.0000     16.8375    104.5768
   993.7500   2000.0000   2000.0000     16.3639    106.1693
   994.0000   2000.0000   2000.0000     15.7871    106.0179
   994.2500   2000.0000   2000.0000     15.0575    104.2785
   994.5000   2000.0000   2000.0000     14.1926    100.4111
   994.7500   2000.0000   2000.0000     13.2636     98.0771
   995.0000   2000.0000   2000.0000     12.3554     96.5653
   995.2500   2000.0000   2000.0000     11.5318     97.1849
   995.5000   2000.0000   2000.0000     10.8215     99.8813
   995.7500   2000.0000   2000.0000     10.2240    102.2583
   996.0000   2000.0000   2000.0000      9.7238    106.1597
   996.2500   2000.0000   2000.0000      9.3035    108.9481
   996.5000   2000.0000   2000.0000      8.9521    113.2769
   996.7500   2000.0000   2000.0000      8.6658    115.9940
   997.0000   2000.0000   2000.0000      8.4456    119.2943
   997.2500   2000.0000   2000.0000      8.2927    120.7631
   997.5000   2000.0000   2000.0000      8.2050    121.5213
   997.7500   2000.0000   2000.0000      8.1758    120.8535
   998.0000   2000.0000   2000.0000      8.1936    118.1919
   998.2500   2000.0000   2000.0000      8.2432    115.8326
   998.5000   2000.0000   2000.0000      8.3080    112.7302
   998.7500   2000.0000   2000.0000      8.3719    111.5798
   999.0000   2000.0000   2000.0000      8.4206    111.7589
   999.2500   2000.0000   2000.0000      8.4427    113.2052
   999.5000   2000.0000   2000.0000      8.4298    117.0817
   999.7500   2000.0000   2000.0000      8.3766    120.3278
  1000.0000   2000.0000   2000.0000      8.2798    124.8957
  1000.2500   2000.0000   2000.0000      8.1395    127.0389
  1000.5000   2000.0000   2000.0000      7.9598    128.6155
  1000.7500   2000.0000   2000.0000      7.7505    129.0051
  1001.0000   2000.0000   2000.0000      7.5265    129.4560
  1001.2500   2000.0000   2000.0000      7.3058    129.6930
  1001.5000   2000.0000   2000.0000      7.1066    129.2850
  1001.7500   2000.0000   2000.0000      6.9437    128.3074
  1002.0000   2000.0000   2000.0000      6.8271    126.5197
  1002.2500   2000.0000   2000.0000      6.7621    125.8677
  1002.5000   2000.0000   2000.0000      6.7498    126.3817
  1002.7500   2000.0000   2000.0000      6.7885    127.4270
  1003.0000   2000.0000   2000.0000      6.8743    128.6475
  1003.2500   2000.0000   2000.0000      7.0025    128.4097
  1003.5000   2000.0000   2000.0000      7.1691    126.0181
  1003.7500   2000.0000   2000.0000      7.3735    123.3213
  1004.0000   2000.0000   2000.0000      7.6199    118.0360
  1004.2500   2000.0000   2000.0000      7.9161    113.7494
  1004.5000   2000.0000   2000.0000      8.2687    106.7522
  1004.7500   2000.0000   2000.0000      8.6767    102.5139
  1005.0000   2000.0000   2000.0000      9.1239     98.0459
  1005.2500   2000.0000   2000.0000      9.5750     96.4510
  1005.5000   2000.0000   2000.0000      9.9782     95.5369
  1005.7500   2000.0000   2000.0000     10.2777     95.5761
  1006.0000   2000.0000   2000.0000     10.4346     96.3832
  1006.2500   2000.0000   2000.0000     10.4433     97.3653
  1006.5000   2000.0000   2000.0000     10.3315     99.5060
  1006.7500   2000.0000   2000.0000     10.1432    101.5155
  1007.0000   2000.0000   2000.0000      9.9196    105.7035
  1007.2500   2000.0000   2000.0000      9.6887    109.2249
  1007.5000   2000.0000   2000.0000      9.4649    114.8741
  1007.7500   2000.0000   2000.0000      9.2527    118.1674
  1008.0000   2000.0000   2000.0000      9.0529    121.0850
  1008.2500   2000.0000   2000.0000      8.8652    121.2242
  1008.5000   2000.0000   2000.0000      8.6900    119.0413
  1008.7500   2000.0000   2000.0000      8.5279    116.6852
  1009.0000   2000.0000   2000.0000      8.3795    113.0096
  1009.2500   2000.0000   2000.0000      8.2451    110.9902
  1009.5000   2000.0000   2000.0000      8.1252    109.4871
  1009.7500   2000.0000   2000.0000      8.0200    109.9092
  1010.0000   2000.0000   2000.0000      7.9276    112.4591
  1010.2500   2000.0000   2000.0000      7.8439    114.6705
  1010.5000   2000.0000   2000.0000      7.7630    117.1789
  1010.7500   2000.0000   2000.0000      7.6795    117.8362
