~Version Information
VERS.                      2.0: CWLS Log ASCII Standard - VERSION 2.0
WRAP.                       NO: One line per depth step
~Well Information Block
STRT.FT                -8.7500: 
STOP.FT              1126.7500: 
STEP.FT                 0.2500: 
NULL.                -999.2500: 
COMP.          Evergreen Operating Corp.: COMPANY
WELL.             Bernice 21-3: WELL
FLD.           Purgatorie River: FIELD
LOC.           201' FNL & 2575' FWL--: LOCATION
PROV.                       CO: PROVINCE
CNTY.               Las Animas: COUNTRY
SRVC.          Patterson Wireline: SERVICE COMPANY
DATE.          Mon Feb 02 12:04:59 2004: LOG DATE
UWI.              05 071 07912: UNIQUE WELL ID
~Curve Information Block
DEPT.FT            0 000 00 00: Depth
CCL.                          : Casing Collar Locator
TT3.usec                      : CBL 3' Travel Time
AMP3.mV                       : CBL 3' Amplitude
GR.GAPI                       : Gamma Ray
~Parameter Information Block
~A  Depth       CCL         TT3         AMP3         GR     
# ...
    58.2500      4.0000    979.1930      8.8121     77.8317
    58.5000      0.0000    981.2887      8.7300     78.9410
    58.7500      0.0000    967.1638      8.6370     81.3628
    59.0000      0.0000    936.9259      8.6167     84.1146
    59.2500      0.0000    900.5059      8.7255     86.1464
    59.5000      0.0000    872.0980      8.9378     87.2931
    59.7500      0.0000    860.4142      9.1600     88.0240
    60.0000      0.0000    863.4870      9.3009     88.3690
    60.2500      0.0000    872.5003      9.3232     87.5906
    60.5000      0.0000    879.7066      9.2353     85.1804
    60.7500      0.0000    882.2070      9.0612     81.7871
    61.0000      0.0000    880.0989      8.8297     78.8107
    61.2500      0.0000    874.0682      8.5889     77.2672
    61.5000      0.0000    865.3823      8.4051     77.2405
    61.7500      0.0000    856.5478      8.3221     78.1674
    62.0000      0.0000    850.0182      8.3217     79.4402
    62.2500      0.0000    845.7188      8.3399     80.8104
    62.5000      0.0000    840.9327      8.3318     82.3715
    62.7500      0.0000    833.7886      8.3043     84.2486
    63.0000      0.0000    826.2549      8.2794     86.3832
    63.2500      0.0000    822.5826      8.2496     88.6232
    63.5000      0.0000    825.2501      8.1947     90.9111
    63.7500      0.0000    833.0234      8.1299     93.3677
    64.0000      0.0000    841.7921      8.0988     96.1972
    64.2500      0.0000    846.4193      8.1146     99.2637
    64.5000      0.0000    843.2897      8.1385    101.7102
    64.7500      0.0000    833.1840      8.1334    102.4356
    65.0000      0.0000    821.9667      8.1195    101.0599
    65.2500      0.0000    817.1678      8.1518     98.0271
    65.5000      0.0000    822.5397      8.2513     93.9392
    65.7500      0.0000    835.5333      8.3852     89.3652
    66.0000      0.0000    850.0142      8.5154     85.1756
    66.2500      0.0000    861.1005      8.6509     82.4886
    66.5000      0.0000    867.5063      8.8347     82.1582
    66.7500      0.0000    870.4427      9.0805     84.3807
    67.0000      0.0000    871.5695      9.3385     88.5745
    67.2500      0.0000    871.9579      9.5390     93.5251
    67.5000      0.0000    872.0612      9.6604     97.9581
    67.7500      0.0000    872.0029      9.7357    101.2817
    68.0000      0.0000    871.7939      9.7994    103.6983
    68.2500      0.0000    871.4358      9.8486    105.4309
    68.5000      0.0000    870.9539      9.8629    105.9863
    68.7500      0.0000    870.4359      9.8481    104.4905
    69.0000      0.0000    870.0680      9.8434    100.7771
    69.2500      0.0000    870.1587      9.8783     95.8649
    69.5000      0.0000    871.1894      9.9313     91.2178
    69.7500      0.0000    873.8249      9.9440     87.5569
    70.0000      0.0000    878.6197      9.8740     84.2351
    70.2500      0.0000    885.3500      9.7325     79.5975
    70.5000      0.0000    892.4825      9.5753     72.2604
    70.7500      0.0000    897.3868      9.4604     62.4399
    71.0000      0.0000    897.0697      9.4079     52.0497
    71.2500      0.0000    888.9553      9.3915     43.4383
    71.5000      0.0000    871.9930      9.3702     37.9595
    71.7500      0.0000    848.0743      9.3282     35.4181
    72.0000      0.0000    822.0685      9.2840     34.5165
    72.2500      0.0000    799.3287      9.2694     33.9012
    72.5000      0.0000    782.6836      9.3004     33.0678
    72.7500      0.0000    771.7839      9.3603     32.4016
    73.0000      0.0000    764.5778      9.4102     32.3964
    73.2500      0.0000    758.9317      9.4231     32.9851
    73.5000      0.0000    753.8615      9.4053     33.6515
    73.7500      0.0000    750.3229      9.3789     33.9387
    74.0000      0.0000    750.5417      9.3451     33.6892
    74.2500      0.0000    756.3337      9.2793     33.0410
    74.5000      0.0000    768.4411      9.1663     32.4618
    74.7500      0.0000    786.6531      9.0339     32.6898
    75.0000      0.0000    808.6110      8.9417     34.3503
    75.2500      0.0000    828.8237      8.9351     37.3974
    75.5000      0.0000    841.1982      9.0070     40.8102
    75.7500      0.0000    843.2015      9.0981     43.0078
    76.0000      0.0000    836.6176      9.1336     42.9000
    76.2500      0.0000    824.9885      9.0655     40.6924
    76.5000      0.0000    812.0496      8.8990     37.6826
    76.7500      0.0000    801.6815      8.6931     35.3351
    77.0000      0.0000    796.4901      8.5316     34.4846
    77.2500      0.0000    795.5974      8.4726     35.1195
    77.5000      0.0000    795.3547      8.5098     36.6123
    77.7500      0.0000    793.1711      8.5808     38.1376
    78.0000      0.0000    790.2326      8.6161     39.1334
    78.2500      0.0000    790.1882      8.5848     39.5646
    78.5000      0.0000    795.7131      8.5076     39.8040
    78.7500      0.0000    806.4688      8.4393     40.3666
    79.0000      0.0000    819.8981      8.4351     41.7111
    79.2500      0.0000    833.7902      8.5132     44.0074
    79.5000      0.0000    848.0240      8.6396     46.9671
    79.7500      0.0000    863.5679      8.7583     50.0629
    80.0000      0.0000    879.7250      8.8421     53.0749
    80.2500      0.0000    893.0447      8.9151     56.3863
    80.5000      0.0000    899.8152      9.0258     60.5607
    80.7500      0.0000    899.5241      9.1998     65.4934
    81.0000      0.0000    895.3358      9.4096     69.9693
    81.2500      0.0000    891.4342      9.5802     72.2263
    81.5000      0.0000    890.4746      9.6272     71.1771
    81.7500      0.0000    892.7719      9.5047     67.1509
    82.0000      0.0000    896.4029      9.2297     61.4829
    82.2500      0.0000    897.5945      8.8683     55.5131
    82.5000      0.0000    892.6395      8.5040     50.0761
    82.7500      0.0000    880.9282      8.2135     45.7918
    83.0000      0.0000    866.1068      8.0494     43.3612
    83.2500      0.0000    853.8105      8.0167     43.2309
    83.5000      0.0000    848.7173      8.0630     45.2276
    83.7500      0.0000    853.2203      8.1065     49.0055
    84.0000      0.0000    866.6387      8.0884     54.6261
    84.2500      0.0000    885.0111      7.9954     62.1430
    84.5000      0.0000    903.3669      7.8386     70.7883
    84.7500      0.0000    918.6114      7.6328     79.1612
    85.0000      0.0000    929.6141      7.4086     86.1290
    85.2500      4.0000    935.4803      7.2297     91.1297
    85.5000      4.0000    934.4779      7.1758     93.6959
    85.7500      0.0000    924.2031      7.3112     93.3008
    86.0000      0.0000    903.5579      7.6678     89.9906
    86.2500      0.0000    876.0923      8.2173     84.8200
    86.5000      0.0000    851.0898      8.8288     79.2192
    86.7500      0.0000    838.9931      9.2914     74.0717
    87.0000      0.0000    844.0817      9.4462     69.6826
    87.2500      0.0000    861.4608      9.3104     66.3129
    87.5000      0.0000    881.4307      9.0510     64.2031
    87.7500      0.0000    896.5693      8.8444     63.2336
    88.0000      0.0000    904.9988      8.7654     62.9915
    88.2500      0.0000    908.6141      8.7811     63.0852
    88.5000      0.0000    909.9102      8.8175     63.1560
    88.7500      0.0000    910.3838      8.8231     62.8062
    89.0000      0.0000    910.5707      8.7889     61.7824
    89.2500      0.0000    910.5667      8.7336     60.1808
    89.5000      0.0000    910.3282      8.6786     58.3703
    89.7500      0.0000    909.6753      8.6277     56.7394
    90.0000      0.0000    908.2315      8.5552     55.3483
    90.2500      0.0000    905.5987      8.4238     53.6281
    90.5000      0.0000    901.6982      8.2317     50.6920
    90.7500      0.0000    896.8911      8.0463     46.3664
    91.0000      0.0000    891.7536      7.9750     41.7697
    91.2500      0.0000    886.8768      8.0872     38.5690
    91.5000      0.0000    882.8225      8.3561     37.7838
