~Version Information
VERS.                      2.0: CWLS Log ASCII Standard - VERSION 2.0
WRAP.                       NO: One line per depth step
~Well Information Block
STRT.FT               390.0000: 
STOP.FT              2770.2500: 
STEP.FT                 0.2500: 
NULL.                -999.2500: 
COMP.          Pioneer Natural Resources: COMPANY
WELL.              Lynch 43-30: WELL
FLD.           Purgatoire River: FIELD
LOC.           1438' FSL & 429' FEL: LOCATION
PROV.                 Colorado: PROVINCE
CNTY.               Las Animas: COUNTRY
SRVC.                Patterson: SERVICE COMPANY
DATE.          Wed Oct 27 08:06:51 2004: LOG DATE
UWI.           05 071 08170 00: UNIQUE WELL ID
~Curve Information Block
DEPT.FT            0 000 00 00: Depth
DIR.Ohm-m                     : IEL Induction Resistivity
SN.Ohm-m                      : IEL Short Normal
SP.mV                         : IEL Spontaneous Potential
GR.GAPI                       : Gamma Ray
~Parameter Information Block
~A  Depth       DIR          SN          SP          GR     
# ...
  2266.0000     41.7019     53.6546    112.0659     79.0290
  2266.2500     42.5996     55.1688    109.8604     78.5211
  2266.5000     43.7990     56.9346    107.3276     80.2726
  2266.7500     45.2042     58.9969    104.5065     82.1363
  2267.0000     46.5826     61.3274    101.4604     83.7459
  2267.2500     47.7606     63.8668     98.2678     83.3582
  2267.5000     48.7762     66.5873     95.0135     80.9616
  2267.7500     49.8402     69.5404     91.7790     78.5367
  2268.0000     51.1895     72.8584     88.6369     73.3393
  2268.2500     53.0099     76.6992     85.6480     68.2775
  2268.5000     55.4519     81.1579     82.8617     58.0218
  2268.7500     58.6332     86.1882     80.3180     50.0657
  2269.0000     62.5583     91.5701     78.0508     38.5999
  2269.2500     66.9982     96.9483     76.0878     32.4559
  2269.5000     71.4449    101.9278     74.4483     26.2191
  2269.7500     75.2281    106.1709     73.1385     23.6551
  2270.0000     77.7810    109.4517     72.1468     21.1546
  2270.2500     78.8432    111.6734     71.4444     20.1437
  2270.5000     78.4390    112.8640     70.9936     20.1127
  2270.7500     76.7382    113.1379     70.7632     21.6686
  2271.0000     74.0676    112.6206     70.7459     27.1788
  2271.2500     71.0352    111.3792     70.9703     32.9300
  2271.5000     68.4672    109.4061     71.5030     43.0763
  2271.7500     67.0692    106.6479     72.4354     49.0594
  2272.0000     67.0608    103.0447     73.8614     53.7197
  2272.2500     67.9528     98.5674     75.8489     53.2288
  2272.5000     68.5580     93.2598     78.4162     48.6406
  2272.7500     67.4946     87.2822     81.5191     44.8540
  2273.0000     64.1307     80.9247     85.0517     40.7501
  2273.2500     59.0330     74.5624     88.8595     39.6435
  2273.5000     53.3375     68.5545     92.7593     39.6572
  2273.7500     47.9222     63.1390     96.5607     39.7645
  2274.0000     43.1703     58.3838    100.0842     38.8552
  2274.2500     39.1443     54.2166    103.1772     37.7515
  2274.5000     35.7936     50.5018    105.7280     36.8150
  2274.7500     33.0565     47.1210    107.6786     37.2157
  2275.0000     30.8831     44.0214    109.0348     38.6586
  2275.2500     29.2251     41.2147    109.8695     39.2545
  2275.5000     28.0158     38.7291    110.3146     38.8766
  2275.7500     27.1441     36.5515    110.5406     38.1884
  2276.0000     26.4307     34.5953    110.7273     37.4728
  2276.2500     25.6436     32.7107    111.0310     37.2469
  2276.5000     24.5828     30.7348    111.5578     36.7104
  2276.7500     23.1935     28.5684    112.3494     36.0820
  2277.0000     21.5923     26.2398    113.3841     35.2150
  2277.2500     19.9704     23.9043    114.5903     35.1865
  2277.5000     18.4779     21.7718    115.8671     36.8401
  2277.7500     17.1819     20.0041    117.1062     39.5953
  2278.0000     16.0823     18.6384    118.2111     47.2103
  2278.2500     15.1409     17.5666    119.1096     55.0265
  2278.5000     14.3037     16.5957    119.7611     69.9131
  2278.7500     13.5183     15.5607    120.1568     79.8610
  2279.0000     12.7516     14.4114    120.3149     90.0879
  2279.2500     12.0005     13.2151    120.2708     92.2633
  2279.5000     11.2886     12.0960    120.0656     90.0635
  2279.7500     10.6494     11.1642    119.7350     87.3268
  2280.0000     10.1102     10.4694    119.3034     84.9184
  2280.2500      9.6824      9.9930    118.7827     85.5756
  2280.5000      9.3616      9.6704    118.1765     90.5513
  2280.7500      9.1313      9.4255    117.4853     96.2148
  2281.0000      8.9671      9.1960    116.7114    106.6030
  2281.2500      8.8420      8.9488    115.8605    113.6257
  2281.5000      8.7318      8.6822    114.9396    122.9549
  2281.7500      8.6213      8.4180    113.9540    127.9430
  2282.0000      8.5083      8.1849    112.9060    132.8241
  2282.2500      8.4026      8.0064    111.7946    133.8931
  2282.5000      8.3216      7.8992    110.6193    132.3799
  2282.7500      8.2824      7.8732    109.3828    130.2269
  2283.0000      8.2960      7.9280    108.0941    127.3736
  2283.2500      8.3638      8.0505    106.7688    126.3404
  2283.5000      8.4784      8.2172    105.4266    125.6751
  2283.7500      8.6255      8.4005    104.0877    125.1814
  2284.0000      8.7882      8.5771    102.7692    123.4501
  2284.2500      8.9521      8.7348    101.4815    121.3922
  2284.5000      9.1074      8.8729    100.2271    117.3389
  2284.7500      9.2506      8.9972     98.9999    114.8253
  2285.0000      9.3828      9.1107     97.7865    113.2844
  2285.2500      9.5080      9.2117     96.5662    114.4785
  2285.5000      9.6314      9.3008     95.3126    118.9369
  2285.7500      9.7562      9.3871     93.9966    122.2132
  2286.0000      9.8824      9.4846     92.5902    125.1511
  2286.2500     10.0064      9.6013     91.0722    125.5796
  2286.5000     10.1244      9.7350     89.4340    125.3922
  2286.7500     10.2367      9.8775     87.6813    125.3901
  2287.0000     10.3495     10.0229     85.8338    124.9982
  2287.2500     10.4746     10.1712     83.9208    123.6840
  2287.5000     10.6263     10.3273     81.9747    119.7862
  2287.7500     10.8188     10.5001     80.0265    116.5478
  2288.0000     11.0653     10.7072     78.1019    112.1629
  2288.2500     11.3758     10.9701     76.2214    109.9680
  2288.5000     11.7522     11.2960     74.4016    107.7183
  2288.7500     12.1826     11.6647     72.6566    106.6274
  2289.0000     12.6365     12.0436     70.9983    104.9747
  2289.2500     13.0734     12.4171     69.4326    103.7637
  2289.5000     13.4609     12.7967     67.9544    102.4596
  2289.7500     13.7927     13.2077     66.5440    102.3682
  2290.0000     14.0882     13.6744     65.1676    103.0566
  2290.2500     14.3765     14.2161     63.7828    103.3555
  2290.5000     14.6809     14.8445     62.3482    102.6375
  2290.7500     15.0141     15.5577     60.8334    101.2919
  2291.0000     15.3851     16.3387     59.2258     98.1620
  2291.2500     15.8071     17.1650     57.5325     95.4189
  2291.5000     16.3008     18.0238     55.7785     90.6828
  2291.7500     16.8886     18.9204     54.0011     87.6169
  2292.0000     17.5849     19.8792     52.2467     84.1910
  2292.2500     18.3924     20.9378     50.5670     82.9175
  2292.5000     19.3078     22.1401     49.0178     81.7997
  2292.7500     20.3276     23.5242     47.6551     80.8170
  2293.0000     21.4427     25.0954     46.5301     78.1223
  2293.2500     22.6214     26.7953     45.6804     75.4727
  2293.5000     23.7944     28.4983     45.1219     70.4314
  2293.7500     24.8590     30.0489     44.8435     66.4940
  2294.0000     25.7061     31.3175     44.8071     60.4076
  2294.2500     26.2625     32.2388     44.9532     57.0969
  2294.5000     26.5226     32.8134     45.2112     55.1196
  2294.7500     26.5502     33.0862     45.5093     56.7010
  2295.0000     26.4432     33.1221     45.7828     63.8392
  2295.2500     26.2892     32.9897     45.9792     70.8938
  2295.5000     26.1385     32.7444     46.0610     81.4968
  2295.7500     26.0067     32.4246     46.0067     86.4324
  2296.0000     25.8930     32.0670     45.8108     89.0173
  2296.2500     25.7978     31.7283     45.4811     88.0420
  2296.5000     25.7290     31.4896     45.0341     84.3937
  2296.7500     25.7002     31.4384     44.4872     81.3916
  2297.0000     25.7305     31.6386     43.8513     77.2279
  2297.2500     25.8452     32.1104     43.1246     75.4425
  2297.5000     26.0689     32.8371     42.2915     75.2814
  2297.7500     26.4127     33.7888     41.3271     76.6738
  2298.0000     26.8632     34.9401     40.2080     78.9811
  2298.2500     27.3883     36.2655     38.9243     79.1593
  2298.5000     27.9548     37.7225     37.4906     76.0067
  2298.7500     28.5444     39.2406     35.9501     71.7683
  2299.0000     29.1513     40.7296     34.3716     63.4044
  2299.2500     29.7706     42.1051     32.8409     57.4106
