~Version Information
VERS.                      2.0: CWLS Log ASCII Standard - VERSION 2.0
WRAP.                       NO: One line per depth step
~Well Information Block
STRT.FT               -11.0000: 
STOP.FT              1523.2500: 
STEP.FT                 0.2500: 
NULL.                -999.2500: 
COMP.          Petrogulf Corporation: COMPANY
WELL.             State 16-43R: WELL
FLD.           Purgatorie River: FIELD
LOC.           2538' FSL & 716' FEL--: LOCATION
PROV.                       CO: PROVINCE
CNTY.               Las Animas: COUNTRY
SRVC.          Patterson Wireline: SERVICE COMPANY
DATE.          Fri Sep 09 13:13:52 2005: LOG DATE
UWI.           05 071 08338 00: UNIQUE WELL ID
~Curve Information Block
DEPT.FT            0 000 00 00: Depth
CCL.                          : Casing Collar Locator
TT3.usec                      : CBL 3' Travel Time
AMP3.mV                       : CBL 3' Amplitude
GR.GAPI                       : Gamma Ray
~Parameter Information Block
~A  Depth       CCL         TT3         AMP3         GR     
# ...
  1396.0000      0.0000    690.4330      8.5602    130.1291
  1396.2500      0.0000    685.8808      8.4191    126.2726
  1396.5000      0.0000    687.5590      8.2805    119.1920
  1396.7500      0.0000    693.0786      8.1475    110.6894
  1397.0000      0.0000    699.3502      8.0241    102.6094
  1397.2500      0.0000    704.8173      7.9150     96.5278
  1397.5000      0.0000    710.5472      7.8232     93.2736
  1397.7500      0.0000    719.3045      7.7488     92.3259
  1398.0000      0.0000    732.7755      7.6921     91.9833
  1398.2500      0.0000    748.9559      7.6548     90.6368
  1398.5000      0.0000    762.3882      7.6394     88.1344
  1398.7500      0.0000    767.5167      7.6487     85.7713
  1399.0000      0.0000    762.4448      7.6833     84.9348
  1399.2500      0.0000    750.3231      7.7374     86.1666
  1399.5000      0.0000    737.2927      7.7987     89.5911
  1399.7500      0.0000    728.2776      7.8560     95.4313
  1400.0000      0.0000    724.1013      7.9050    103.5550
  1400.2500      0.0000    722.1028      7.9467    112.9323
  1400.5000      0.0000    718.5787      7.9805    122.1500
  1400.7500      0.0000    710.9983      7.9980    130.4598
  1401.0000      0.0000    699.5621      7.9766    137.9108
  1401.2500      0.0000    687.0883      7.8794    144.2928
  1401.5000      0.0000    676.5511      7.6717    148.4347
  1401.7500      0.0000    668.7515      7.3485    149.0089
  1402.0000      0.0000    662.7709      6.9485    145.7340
  1402.2500      0.0000    658.1222      6.5304    139.5117
  1402.5000      0.0000    655.5339      6.1373    131.7474
  1402.7500      0.0000    655.7601      5.7867    123.8091
  1403.0000      0.0000    658.5638      5.4934    116.9835
  1403.2500      0.0000    663.4345      5.2861    112.5471
  1403.5000      0.0000    670.5777      5.1971    111.4065
  1403.7500      0.0000    680.1257      5.2460    113.4849
  1404.0000      0.0000    690.3472      5.4422    117.7055
  1404.2500      0.0000    698.0072      5.7937    122.6793
  1404.5000      0.0000    701.4863      6.2997    127.2270
  1404.7500      0.0000    702.5029      6.9229    130.2488
  1405.0000      0.0000    703.7929      7.5888    130.7408
  1405.2500      0.0000    706.7225      8.2346    128.6241
  1405.5000      0.0000    712.5060      8.8451    125.2771
  1405.7500      0.0000    723.1724      9.4124    122.4324
  1406.0000      0.0000    738.6848      9.8946    120.5027
  1406.2500      0.0000    754.7892     10.2606    118.5438
  1406.5000      0.0000    765.9579     10.5249    115.7448
  1406.7500      0.0000    769.0189     10.6810    112.3478
  1407.0000      0.0000    763.0223     10.6579    109.2549
  1407.2500      0.0000    748.4774     10.3999    107.4752
  1407.5000     -2.0000    728.9001      9.9540    107.9789
  1407.7500      0.0000    710.9424      9.4587    111.3113
  1408.0000      0.0000    700.2881      9.0728    116.8216
  1408.2500      0.0000    697.8130      8.9018    122.4059
  1408.5000      0.0000    700.2055      8.9341    125.5754
  1408.7500      0.0000    703.0726      9.0435    125.3664
  1409.0000      0.0000    703.6309      9.0938    123.3854
  1409.2500      0.0000    702.0224      9.0430    122.4858
  1409.5000      0.0000    700.3890      8.9317    124.0903
  1409.7500      0.0000    700.4689      8.8069    127.1632
  1410.0000      0.0000    702.5068      8.6873    129.6976
  1410.2500      0.0000    705.9549      8.5744    130.3445
  1410.5000      0.0000    710.0692      8.4634    128.7664
  1410.7500      0.0000    713.8132      8.3472    125.8087
  1411.0000      0.0000    716.2258      8.2247    123.6380
  1411.2500      0.0000    717.1931      8.1053    124.5138
  1411.5000      0.0000    717.4263      8.0048    128.6890
  1411.7500      0.0000    717.4275      7.9387    133.8902
  1412.0000      0.0000    716.9122      7.9177    137.1488
  1412.2500      0.0000    715.6069      7.9424    137.0247
  1412.5000      0.0000    714.2599      7.9998    134.2285
  1412.7500      0.0000    714.4405      8.0690    130.6182
  1413.0000      0.0000    717.3305      8.1305    127.9500
  1413.2500      0.0000    722.6973      8.1719    127.2274
  1413.5000      0.0000    728.7788      8.1898    128.4634
  1413.7500      0.0000    733.1691      8.1909    130.6714
  1414.0000      0.0000    734.1075      8.1877    132.4800
  1414.2500      0.0000    731.1273      8.1924    133.1216
  1414.5000      0.0000    724.7242      8.2115    132.7075
  1414.7500      0.0000    715.9042      8.2449    131.5290
  1415.0000      0.0000    706.3782      8.2879    129.3743
  1415.2500      0.0000    698.5548      8.3338    125.6593
  1415.5000      0.0000    694.2904      8.3784    120.0469
  1415.7500      0.0000    693.5212      8.4239    112.8167
  1416.0000      0.0000    694.6616      8.4759    104.7343
  1416.2500      0.0000    696.0715      8.5375     96.6689
  1416.5000      0.0000    696.5601      8.6039     89.2537
  1416.7500      0.0000    695.1482      8.6639     82.8862
  1417.0000      0.0000    691.6786      8.7045     78.0495
  1417.2500      0.0000    687.7438      8.7176     75.2931
  1417.5000      0.0000    685.9932      8.7052     74.5810
  1417.7500      0.0000    687.9755      8.6790     74.8940
  1418.0000      0.0000    692.8279      8.6517     74.8032
  1418.2500      0.0000    698.1075      8.6255     73.4633
  1418.5000      0.0000    701.5408      8.5848     71.1767
  1418.7500      0.0000    701.9604      8.4997     69.2389
  1419.0000      0.0000    699.3151      8.3397     69.0375
  1419.2500      0.0000    694.5602      8.0893     70.9029
  1419.5000      0.0000    689.3325      7.7557     73.7785
  1419.7500      0.0000    684.9382      7.3651     76.0747
  1420.0000      0.0000    681.6185      6.9521     76.8185
  1420.2500      0.0000    679.6160      6.5497     76.1905
  1420.5000      0.0000    680.9835      6.1819     75.2389
  1420.7500      0.0000    689.0231      5.8592     75.0248
  1421.0000      0.0000    704.8801      5.5766     75.7545
  1421.2500      0.0000    725.0030      5.3164     76.6435
  1421.5000      0.0000    742.5383      5.0555     76.7574
  1421.7500      0.0000    751.0339      4.7781     75.9749
  1422.0000      0.0000    747.1754      4.4858     75.0938
  1422.2500      0.0000    731.7704      4.1979     75.1818
  1422.5000      0.0000    709.4498      3.9422     76.8168
  1422.7500      0.0000    686.7905      3.7395     79.8855
  1423.0000      0.0000    669.4209      3.5942     84.2763
  1423.2500      0.0000    659.9005      3.4962     90.5360
  1423.5000      0.0000    657.2578      3.4309     99.0277
  1423.7500      0.0000    658.1481      3.3873    108.2611
  1424.0000      0.0000    659.4293      3.3601    115.0091
  1424.2500      0.0000    660.5951      3.3505    117.0095
  1424.5000      0.0000    663.7424      3.3699    115.4644
  1424.7500      0.0000    670.9821      3.4375    114.2698
  1425.0000      0.0000    681.6679      3.5733    116.5706
  1425.2500      0.0000    691.8986      3.7891    122.2815
  1425.5000      0.0000    697.1010      4.0854    128.9358
  1425.7500      0.0000    695.8715      4.4572    134.4417
  1426.0000      0.0000    691.1413      4.9039    138.6499
  1426.2500      0.0000    686.9487      5.4272    142.5745
  1426.5000      0.0000    684.5582      6.0142    146.9261
  1426.7500      0.0000    682.4418      6.6232    151.7923
  1427.0000      0.0000    679.2444      7.1920    156.9891
  1427.2500      0.0000    675.4446      7.6601    161.8723
  1427.5000      0.0000    672.3071      7.9867    165.1347
  1427.7500      0.0000    670.3755      8.1638    165.5592
  1428.0000      0.0000    669.3138      8.2192    163.0400
  1428.2500      0.0000    668.5406      8.2020    158.6758
  1428.5000      0.0000    667.6085      8.1572    154.0010
  1428.7500      0.0000    666.1306      8.1110    150.2337
  1429.0000      0.0000    663.6992      8.0720    147.8615
  1429.2500      0.0000    660.0831      8.0425    146.3842
