~Version Information
VERS.                      2.0: CWLS Log ASCII Standard - VERSION 2.0
WRAP.                       NO: One line per depth step
~Well Information Block
STRT.FT                -8.0000: 
STOP.FT               973.2500: 
STEP.FT                 0.2500: 
NULL.                -999.2500: 
COMP.          Pioneer Natural Resources: COMPANY
WELL.              Oscar 41-31: WELL
FLD.           Purgatorie River: FIELD
LOC.           412' FNL & 1216' FEL--: LOCATION
PROV.                       CO: PROVINCE
CNTY.               Las Animas: COUNTRY
SRVC.          Patterson Wireline: SERVICE COMPANY
DATE.          Wed Mar 02 12:29:08 2005: LOG DATE
UWI.           05 071 08290 00: UNIQUE WELL ID
~Curve Information Block
DEPT.FT            0 000 00 00: Depth
CCL.                          : Casing Collar Locator
TT5.usec                      : CBL 5' Travel Time
AMP3.mV                       : CBL 3' Amplitude
GR.GAPI                       : Gamma Ray
~Parameter Information Block
~A  Depth       CCL         TT5         AMP3         GR     
# ...
    59.0000      0.0000   1200.0000      7.6307     57.4472
    59.2500      0.0000   1200.0000      7.6487     54.9929
    59.5000      0.0000   1200.0000      7.6336     53.1713
    59.7500      0.0000   1200.0000      7.6049     52.5052
    60.0000      0.0000   1200.0000      7.5726     52.5770
    60.2500      0.0000   1200.0000      7.5360     52.3583
    60.5000      0.0000   1200.0000      7.4980     51.0681
    60.7500      0.0000   1200.0000      7.4660     48.8616
    61.0000      0.0000   1200.0000      7.4428     46.7988
    61.2500      0.0000   1200.0000      7.4236     46.0908
    61.5000      0.0000   1200.0000      7.4016     47.2156
    61.7500      0.0000   1200.0000      7.3738     49.7174
    62.0000      0.0000   1200.0000      7.3416     52.8516
    62.2500      0.0000   1200.0000      7.3090     56.1721
    62.5000      0.0000   1200.0000      7.2764     59.2562
    62.7500      0.0000   1200.0000      7.2385     61.3631
    63.0000      0.0000   1200.0000      7.1899     62.0272
    63.2500      0.0000   1200.0000      7.1356     61.6349
    63.5000      0.0000   1200.0000      7.0963     60.7685
    63.7500      0.0000   1200.0000      7.1017     59.4462
    64.0000      0.0000   1200.0000      7.1701     57.5385
    64.2500      0.0000   1200.0000      7.2883     55.2514
    64.5000      0.0000   1200.0000      7.4159     52.7080
    64.7500      0.0000   1200.0000      7.5134     49.7704
    65.0000      0.0000   1200.0000      7.5646     46.7440
    65.2500      0.0000   1200.0000      7.5745     44.8018
    65.5000      0.0000   1200.0000      7.5555     45.3001
    65.7500      0.0000   1200.0000      7.5219     48.6940
    66.0000      0.0000   1200.0000      7.4919     54.0759
    66.2500      0.0000   1200.0000      7.4815     59.7177
    66.5000      0.0000   1200.0000      7.4941     64.1543
    66.7500      0.0000   1200.0000      7.5195     66.9984
    67.0000      0.0000   1200.0000      7.5450     68.8997
    67.2500      0.0000   1200.0000      7.5636     70.5930
    67.5000      0.0000   1200.0000      7.5727     71.7392
    67.7500      0.0000   1200.0000      7.5706     70.8972
    68.0000      0.0000   1200.0000      7.5542     67.0065
    68.2500      0.0000   1200.0000      7.5186     60.8244
    68.5000      0.0000   1200.0000      7.4618     54.5614
    68.7500      0.0000   1200.0000      7.3902     50.0989
    69.0000      0.0000   1200.0000      7.3179     47.7675
    69.2500      0.0000   1200.0000      7.2590     46.7592
    69.5000      0.0000   1200.0000      7.2200     46.3485
    69.7500      0.0000   1200.0000      7.1993     46.5839
    70.0000      0.0000   1200.0000      7.1881     48.1010
    70.2500      0.0000   1200.0000      7.1719     51.5631
    70.5000      0.0000   1200.0000      7.1350     57.1302
    70.7500      0.0000   1200.0000      7.0714     64.2102
    71.0000      0.0000   1200.0000      6.9878     71.7147
    71.2500      0.0000   1200.0000      6.8946     78.5469
    71.5000      0.0000   1200.0000      6.7958     83.7230
    71.7500      0.0000   1200.0000      6.6920     86.3412
    72.0000      0.0000   1200.0000      6.5889     86.0659
    72.2500      0.0000   1200.0000      6.5018     83.7490
    72.5000      0.0000   1200.0000      6.4496     81.1138
    72.7500      0.0000   1200.0000      6.4407     79.6174
    73.0000      0.0000   1200.0000      6.4591     79.6886
    73.2500      0.0000   1200.0000      6.4691     80.7885
    73.5000      0.0000   1200.0000      6.4406     81.8253
    73.7500      0.0000   1200.0000      6.3726     81.6878
    74.0000      0.0000   1200.0000      6.2863     79.9360
    74.2500      0.0000   1200.0000      6.2013     77.1501
    74.5000      0.0000   1200.0000      6.1247     74.5094
    74.7500      0.0000   1200.0000      6.0583     73.0345
    75.0000      0.0000   1200.0000      6.0066     73.0950
    75.2500      0.0000   1200.0000      5.9759     74.2194
    75.5000      0.0000   1200.0000      5.9667     75.2452
    75.7500      0.0000   1200.0000      5.9713     75.0304
    76.0000      0.0000   1200.0000      5.9765     73.3687
    76.2500      0.0000   1200.0000      5.9709     71.2055
    76.5000      0.0000   1200.0000      5.9525     69.8065
    76.7500      0.0000   1200.0000      5.9290     69.7094
    77.0000      0.0000   1200.0000      5.9082     70.6336
    77.2500      0.0000   1200.0000      5.8886     72.2947
    77.5000      0.0000   1200.0000      5.8623     74.7881
    77.7500      0.0000   1200.0000      5.8265     77.9724
    78.0000      0.0000   1200.0000      5.7857     81.0534
    78.2500      0.0000   1200.0000      5.7455     83.2264
    78.5000      0.0000   1200.0000      5.7057     84.3932
    78.7500      0.0000   1200.0000      5.6628     84.8252
    79.0000      0.0000   1200.0000      5.6162     84.4264
    79.2500      0.0000   1200.0000      5.5712     82.7527
    79.5000      0.0000   1200.0000      5.5345     79.5219
    79.7500      0.0000   1200.0000      5.5090     74.7574
    80.0000      0.0000   1200.0000      5.4933     68.6708
    80.2500      0.0000   1200.0000      5.4850     61.8818
    80.5000      0.0000   1200.0000      5.4822     55.6976
    80.7500      0.0000   1200.0000      5.4835     51.6590
    81.0000      0.0000   1200.0000      5.4871     50.4398
    81.2500      0.0000   1200.0000      5.4888     51.2924
    81.5000      0.0000   1200.0000      5.4836     52.7131
    81.7500      0.0000   1200.0000      5.4717     53.5188
    82.0000      0.0000   1200.0000      5.4618     53.3258
    82.2500      0.0000   1200.0000      5.4654     52.5610
    82.5000      0.0000   1200.0000      5.4914     52.3512
    82.7500      0.0000   1200.0000      5.5449     53.9434
    83.0000      0.0000   1200.0000      5.6268     57.7470
    83.2500      0.0000   1200.0000      5.7287     62.9697
    83.5000      0.0000   1200.0000      5.8307     68.3139
    83.7500      0.0000   1200.0000      5.9090     72.9150
    84.0000      0.0000   1200.0000      5.9475     76.5037
    84.2500      0.0000   1200.0000      5.9447     78.8010
    84.5000      0.0000   1200.0000      5.9118     79.0350
    84.7500      0.0000   1200.0000      5.8649     76.3682
    85.0000      0.0000   1200.0000      5.8159     70.8981
    85.2500      0.0000   1200.0000      5.7694     64.0523
    85.5000      0.0000   1200.0000      5.7273     57.8220
    85.7500      0.0000   1200.0000      5.6934     53.6810
    86.0000      0.0000   1200.0000      5.6730     52.1941
    86.2500      0.0000   1200.0000      5.6677     53.3634
    86.5000      0.0000   1200.0000      5.6719     57.0431
    86.7500      0.0000   1200.0000      5.6756     62.8317
    87.0000      0.0000   1200.0000      5.6727     69.6698
    87.2500      0.0000   1200.0000      5.6658     75.9994
    87.5000      0.0000   1200.0000      5.6630     80.6144
    87.7500      0.0000   1200.0000      5.6641     83.1521
    88.0000      0.0000   1200.0000      5.6564     83.7821
    88.2500      0.0000   1200.0000      5.6269     82.9803
    88.5000      0.0000   1200.0000      5.5815     81.8189
    88.7500      0.0000   1200.0000      5.5433     81.8607
    89.0000      0.0000   1200.0000      5.5347     84.1044
    89.2500      0.0000   1200.0000      5.5609     87.9883
    89.5000      0.0000   1200.0000      5.6079     91.7188
    89.7500      0.0000   1200.0000      5.6526     93.7093
    90.0000      0.0000   1200.0000      5.6759     93.6829
    90.2500      0.0000   1200.0000      5.6722     92.5765
    90.5000      0.0000   1200.0000      5.6503     91.7090
    90.7500      0.0000   1200.0000      5.6249     92.0279
    91.0000      0.0000   1200.0000      5.6054     93.7446
    91.2500      0.0000   1200.0000      5.5938     96.1365
    91.5000      0.0000   1200.0000      5.5916     97.6162
    91.7500      0.0000   1200.0000      5.6042     96.5454
    92.0000      0.0000   1200.0000      5.6354     92.4026
    92.2500      0.0000   1200.0000      5.6788     86.0910
