~Version Information
VERS.                      2.0: CWLS Log ASCII Standard - VERSION 2.0
WRAP.                       NO: One line per depth step
~Well Information Block
STRT.FT               660.8000: 
STOP.FT              2375.1000: 
STEP.FT                 0.1000: 
NULL.                -999.2500: 
COMP.          Petrogulf Corporation: COMPANY
WELL.             State 16-34V: WELL
FLD.           Purgatorie River: FIELD
LOC.           1146' FSL & 1393' FEL: LOCATION
CNTY.               Las Animas: COUNTY
SRVC.                         : SERVICE COMPANY
DATE.          Sat Jun 07 20:51:20 2003: LOG DATE
UWI.           05 071 07724 00: UNIQUE WELL ID
STAT.                 Colorado: STATE
~Curve Information Block
DEPT.FT            0 000 00 00: Depth
DCAL.in                       : Caliper from Density Tool
RHOB.g/cc                     : Bulk Density
RHOC.g/cc                     : Density Correction
DPOR.pu                       : Density Porosity
GR.GAPI                       : Gamma Ray
NPOR.pu                       : Neutron Porosity
~Parameter Information Block
~A  Depth       DCAL        RHOB        RHOC        DPOR         GR         NPOR    
# ...
   785.6000      8.0673      2.4238      0.0624     13.7116    151.2914     27.1418
   785.7000      8.0673      2.4238      0.0624     13.7116    150.1103     27.0791
   785.8000      8.0154      2.4288      0.0644     13.4087    149.1403     26.9890
   785.9000      8.0154      2.4288      0.0644     13.4087    148.4633     26.8829
   786.0000      7.9956      2.4281      0.0631     13.4472    148.1242     26.7711
   786.1000      7.9956      2.4281      0.0631     13.4472    148.1263     26.6624
   786.2000      7.9956      2.4281      0.0631     13.4472    148.4363     26.5634
   786.3000      7.9779      2.4254      0.0575     13.6120    148.9913     26.4787
   786.4000      7.9779      2.4254      0.0575     13.6120    149.7094     26.4110
   786.5000      8.0269      2.4246      0.0527     13.6603    150.5042     26.3618
   786.6000      8.0269      2.4246      0.0527     13.6603    151.2914     26.3315
   786.7000      8.0269      2.4246      0.0527     13.6603    151.9975     26.3197
   786.8000      8.1066      2.4273      0.0466     13.4992    152.5614     26.3242
   786.9000      8.1066      2.4273      0.0466     13.4992    152.9347     26.3418
   787.0000      8.1323      2.4316      0.0449     13.2366    153.0844     26.3671
   787.1000      8.1323      2.4316      0.0449     13.2366    152.9919     26.3937
   787.2000      8.1323      2.4316      0.0449     13.2366    152.6533     26.4142
   787.3000      8.1106      2.4392      0.0465     12.7741    152.0818     26.4216
   787.4000      8.1106      2.4392      0.0465     12.7741    151.3070     26.4112
   787.5000      8.0462      2.4425      0.0494     12.5745    150.3730     26.3804
   787.6000      8.0462      2.4425      0.0494     12.5745    149.3349     26.3302
   787.7000      8.0462      2.4425      0.0494     12.5745    148.2541     26.2651
   787.8000      8.0065      2.4413      0.0536     12.6476    147.1962     26.1918
   787.9000      8.0065      2.4413      0.0536     12.6476    146.2222     26.1185
   788.0000      8.0227      2.4361      0.0551     12.9606    145.3872     26.0525
   788.1000      8.0227      2.4361      0.0551     12.9606    144.7357     25.9992
   788.2000      8.0227      2.4361      0.0551     12.9606    144.2995     25.9610
   788.3000      8.0441      2.4244      0.0554     13.6748    144.0958     25.9366
   788.4000      8.0441      2.4244      0.0554     13.6748    144.1239     25.9215
   788.5000      8.0739      2.4159      0.0550     14.1897    144.3667     25.9091
   788.6000      8.0739      2.4159      0.0550     14.1897    144.7907     25.8918
   788.7000      8.0739      2.4159      0.0550     14.1897    145.3479     25.8619
   788.8000      8.1064      2.4044      0.0548     14.8860    145.9827     25.8136
   788.9000      8.1064      2.4044      0.0548     14.8860    146.6385     25.7431
   789.0000      8.1102      2.3977      0.0547     15.2923    147.2634     25.6497
   789.1000      8.1102      2.3977      0.0547     15.2923    147.8207     25.5351
   789.2000      8.1102      2.3977      0.0547     15.2923    148.2901     25.4037
   789.3000      8.0719      2.3886      0.0533     15.8443    148.6695     25.2619
   789.4000      8.0719      2.3886      0.0533     15.8443    148.9730     25.1181
   789.5000      8.0202      2.3835      0.0512     16.1517    149.2268     24.9814
   789.6000      8.0202      2.3835      0.0512     16.1517    149.4594     24.8616
   789.7000      8.0202      2.3835      0.0512     16.1517    149.6953     24.7679
   789.8000      8.0268      2.3797      0.0474     16.3840    149.9494     24.7086
   789.9000      8.0268      2.3797      0.0474     16.3840    150.2226     24.6908
   790.0000      8.0981      2.3811      0.0457     16.2979    150.5026     24.7187
   790.1000      8.0981      2.3811      0.0457     16.2979    150.7675     24.7947
   790.2000      8.0981      2.3811      0.0457     16.2979    150.9921     24.9185
   790.3000      8.1626      2.3897      0.0461     15.7732    151.1565     25.0872
   790.4000      8.1626      2.3897      0.0461     15.7732    151.2480     25.2955
   790.5000      8.1955      2.3986      0.0485     15.2391    151.2698     25.5362
   790.6000      8.1955      2.3986      0.0485     15.2391    151.2356     25.7998
   790.7000      8.1955      2.3986      0.0485     15.2391    151.1696     26.0752
   790.8000      8.1316      2.4127      0.0550     14.3842    151.0988     26.3502
   790.9000      8.1316      2.4127      0.0550     14.3842    151.0473     26.6114
   791.0000      7.9144      2.4209      0.0612     13.8863    151.0291     26.8461
   791.1000      7.9144      2.4209      0.0612     13.8863    151.0479     27.0425
   791.2000      7.9144      2.4209      0.0612     13.8863    151.0970     27.1914
   791.3000      7.7429      2.4300      0.0742     13.3350    151.1646     27.2877
   791.4000      7.7429      2.4300      0.0742     13.3350    151.2374     27.3304
   791.5000      7.7085      2.4335      0.0857     13.1195    151.3087     27.3237
   791.6000      7.7085      2.4335      0.0857     13.1195    151.3803     27.2763
   791.7000      7.7085      2.4335      0.0857     13.1195    151.4614     27.2005
   791.8000      7.7600      2.4340      0.1056     13.0904    151.5680     27.1109
   791.9000      7.7600      2.4340      0.1056     13.0904    151.7116     27.0230
   792.0000      7.8449      2.4302      0.1181     13.3229    151.8947     26.9511
   792.1000      7.8449      2.4302      0.1181     13.3229    152.1003     26.9075
   792.2000      7.8449      2.4302      0.1181     13.3229    152.2908     26.9012
   792.3000      7.9208      2.4177      0.1302     14.0799    152.4093     26.9380
   792.4000      7.9208      2.4177      0.1302     14.0799    152.3858     27.0198
   792.5000      7.9135      2.4062      0.1318     14.7787    152.1485     27.1461
   792.6000      7.9135      2.4062      0.1318     14.7787    151.6355     27.3140
   792.7000      7.9135      2.4062      0.1318     14.7787    150.8058     27.5195
   792.8000      7.8752      2.3893      0.1243     15.8019    149.6465     27.7581
   792.9000      7.8752      2.3893      0.1243     15.8019    148.1711     28.0258
   793.0000      7.8929      2.3822      0.1141     16.2328    146.4189     28.3192
   793.1000      7.8929      2.3822      0.1141     16.2328    144.4464     28.6361
   793.2000      7.8929      2.3822      0.1141     16.2328    142.3153     28.9759
   793.3000      7.9311      2.3832      0.0939     16.1676    140.0878     29.3399
   793.4000      7.9311      2.3832      0.0939     16.1676    137.8173     29.7311
   793.5000      7.9854      2.3936      0.0780     15.5386    135.5456     30.1547
   793.6000      7.9854      2.3936      0.0780     15.5386    133.3014     30.6178
   793.7000      7.9854      2.3936      0.0780     15.5386    131.1011     31.1285
   793.8000      8.0279      2.4255      0.0520     13.6080    128.9493     31.6956
   793.9000      8.0279      2.4255      0.0520     13.6080    126.8384     32.3267
   794.0000      8.0165      2.4589      0.0345     11.5834    124.7531     33.0266
   794.1000      8.0165      2.4589      0.0345     11.5834    122.6687     33.7961
   794.2000      8.0165      2.4589      0.0345     11.5834    120.5541     34.6311
   794.3000      7.9816      2.5300      0.0117      7.2733    118.3744     35.5215
   794.4000      7.9816      2.5300      0.0117      7.2733    116.0943     36.4521
   794.5000      7.9513      2.5919      0.0005      3.5192    113.6839     37.4029
   794.6000      7.9513      2.5919      0.0005      3.5192    111.1177     38.3505
   794.7000      7.9513      2.5919      0.0005      3.5192    108.3827     39.2691
   794.8000      7.9109      2.7034     -0.0101     -3.2356    105.4764     40.1317
   794.9000      7.9109      2.7034     -0.0101     -3.2356    102.4106     40.9112
   795.0000      7.9110      2.7862     -0.0133     -8.2547     99.2097     41.5814
   795.1000      7.9110      2.7862     -0.0133     -8.2547     95.9138     42.1173
