~Version Information
 VERS.                      2.0: CWLS Log ASCII Standard - VERSION 2.0
 WRAP.                       NO: One line per depth step
 ~Well Information Block
 STRT.FT                -8.0000: 
 STOP.FT              2581.0000: 
 STEP.FT                 0.2500: 
 NULL.                -999.2500: 
 COMP.          Petrogulf Corporation: COMPANY
 WELL.               YWAM 7-23V: WELL
 FLD.           Purgatorie River: FIELD
 LOC.           230' FSL & 225' FWL: LOCATION
 CNTY.               Las Animas: COUNTY
 SRVC.                         : SERVICE COMPANY
 DATE.          Mon Nov 22 10:51:24 2004: LOG DATE
 UWI.           05-071-08227-00: UNIQUE WELL ID
 STAT.                 Colorado: STATE
 PROV.                         :Province
 ~Curve Information Block
 DEPT.FT            0 000 00 00: Depth
 TT3.usec                      : CBL 3' Travel Time
 AMP3.mV                       : CBL 3' Amplitude
 GR.GAPI                       : Gamma Ray
 CCL.                          : Casing Collar Locator
 ~Parameter Information Block
 ~A  Depth       TT3         AMP3         GR         CCL     
    -8.0000   -999.2500   -999.2500   -999.2500      0.0000
    -7.7500   -999.2500   -999.2500   -999.2500      0.0000
    -7.5000   -999.2500   -999.2500   -999.2500      0.0000
    -7.2500   -999.2500   -999.2500   -999.2500      0.0000
    -7.0000   -999.2500   -999.2500   -999.2500      0.0000
    -6.7500   -999.2500   -999.2500   -999.2500      0.0000
    -6.5000   -999.2500   -999.2500   -999.2500      0.0000
    -6.2500   -999.2500   -999.2500   -999.2500      0.0000
    -6.0000   -999.2500   -999.2500   -999.2500      0.0000
    -5.7500   -999.2500   -999.2500   -999.2500      0.0000
    -5.5000   -999.2500   -999.2500   -999.2500      0.0000
    -5.2500   -999.2500   -999.2500   -999.2500      0.0000
    -5.0000   -999.2500   -999.2500   -999.2500      0.0000
    -4.7500   -999.2500   -999.2500   -999.2500      0.0000
    -4.5000   -999.2500   -999.2500    115.0583      0.0000
    -4.2500   -999.2500   -999.2500    116.7058      0.0000
    -4.0000   -999.2500   -999.2500    116.7360      0.0000
    -3.7500   -999.2500   -999.2500    114.2427      0.0000
    -3.5000   -999.2500   -999.2500    109.1058      0.0000
    -3.2500   -999.2500   -999.2500    102.0359      5.0000
    -3.0000   -999.2500   -999.2500     94.2727     -5.0000
    -2.7500   -999.2500   -999.2500     87.2816      5.0000
    -2.5000   -999.2500   -999.2500     82.0931     -5.0000
    -2.2500   -999.2500   -999.2500     78.3749     -5.0000
    -2.0000   -999.2500   -999.2500     74.3716      5.0000
    -1.7500   -999.2500   -999.2500     68.3695      0.0000
    -1.5000   -999.2500   -999.2500     60.5024     -4.7043
    -1.2500   -999.2500   -999.2500     53.0103      0.0000
    -1.0000   -999.2500   -999.2500     48.5467      0.0000
    -0.7500   -999.2500   -999.2500     48.3330      0.0000
    -0.5000   -999.2500   -999.2500     51.8421      0.0000
    -0.2500   -999.2500   -999.2500     57.6041      0.0000
     0.0000   -999.2500   -999.2500     63.9273      0.0000
     0.2500   -999.2500   -999.2500     69.3831      0.0000
     0.5000   -999.2500   -999.2500     73.2731      0.0000
     0.7500   -999.2500   -999.2500     76.8096      0.0000
     1.0000   -999.2500   -999.2500     76.8940      0.0000
     1.2500   -999.2500   -999.2500     76.1528      0.0000
     1.5000   -999.2500   -999.2500     75.1350      0.0000
     1.7500   -999.2500   -999.2500     74.5241      0.0000
     2.0000   1200.0000      0.5273     74.7240      0.0000
     2.2500   1200.0000      0.5202     75.6416      0.0000
     2.5000   1200.0000      0.5166     76.9604      0.0000
     2.7500   1200.0000      0.5163     78.5614      0.0000
     3.0000   1200.0000      0.5177     80.4833      0.0000
     3.2500   1200.0000      0.5198     82.5537      0.0000
     3.5000   1200.0000      0.5221     84.3748      0.0000
     3.7500   1200.0000      0.5233     85.6489      0.0000
     4.0000   1200.0000      0.5217     86.3248      0.0000
     4.2500   1200.0000      0.5180     86.6268      0.0000
     4.5000   1200.0000      0.5162     87.1386      0.0000
     4.7500   1200.0000      0.5196     88.5138      0.0000
     5.0000   1200.0000      0.5279     90.8373      0.0000
     5.2500   1200.0000      0.5378     93.5187      0.0000
     5.5000   1200.0000      0.5453     96.0153      0.0000
     5.7500   1200.0000      0.5488     98.4224      0.0000
     6.0000   1200.0000      0.5478    101.1198      0.0000
     6.2500   1200.0000      0.5423    103.9220      0.0000
     6.5000   1200.0000      0.5325    105.8569      0.0000
     6.7500   1200.0000      0.5210    105.9523      0.0000
     7.0000   1200.0000      0.5114    104.1204      0.0000
     7.2500   1200.0000      0.5062    101.1402      0.0000
     7.5000   1200.0000      0.5064     97.9305      0.0000
     7.7500   1200.0000      0.5124     95.0204      2.2537
     8.0000   1200.0000      0.5248     92.4920      0.0000
     8.2500   1200.0000      0.5431     90.1906      0.0000
     8.5000   1200.0000      0.5663     88.1958      0.0000
     8.7500   1200.0000      0.5931     87.1394      0.0000
     9.0000   1200.0000      0.6208     87.5976      0.0000
     9.2500   1199.9760      0.6470     89.0564      0.0000
     9.5000   1199.7821      0.6811     90.1117      0.0000
     9.7500   1198.7435      0.7651     89.9519      0.0000
    10.0000   1194.3635      1.0428     89.0805      0.0000
    10.2500   1179.7935      1.9353     88.2790      0.0000
    10.5000   1141.5190      4.4360     87.4232      0.0000
    10.7500   1062.0433     10.2098     85.7714      0.0000
    11.0000    931.5195     20.8485     83.0508      0.0000
    11.2500    761.9586     36.2565     79.7196      0.0000
    11.5000    587.7826     53.6809     76.3441      0.0000
    11.7500    446.4175     69.0163     73.2463      0.0000
    12.0000    355.8599     79.4888     70.6823      0.0000
    12.2500    310.1268     85.0101     68.8609      0.0000
    12.5000    291.9358     87.2347     67.7186      0.0000
    12.7500    286.2367     87.9112     66.9750      0.0000
    13.0000    284.8279     88.0821     66.5497      0.0000
    13.2500    284.5540     88.1677     66.7496      0.0000
    13.5000    284.5183     88.2871     67.7956      0.0000
    13.7500    284.5217     88.4558     69.1482      0.0000
    14.0000    284.5247     88.6598     69.6311      0.0000
    14.2500    284.5314     88.8743     68.5139      0.0000
    14.5000    284.5471     89.0659     66.3773      0.0000
    14.7500    284.5733     89.1740     64.7808      0.0000
    15.0000    284.6088     89.1328     65.0437      0.0000
    15.2500    284.6465     88.9648     67.2050      0.0000
    15.5000    284.6713     88.8197     70.0192      0.0000
    15.7500    284.6670     88.8519     72.0101      0.0000
    16.0000    284.6303     89.0600     72.6137      0.0000
    16.2500    284.5770     89.2960     72.2849      0.0000
    16.5000    284.5327     89.4196     71.6134      0.0000
    16.7500    284.5155     89.4004     70.5974      0.0000
    17.0000    284.5250     89.2874     68.8846      0.0000
    17.2500    284.5458     89.1386     66.4774      0.0000
    17.5000    284.5629     89.0043     63.8357      0.0000
    17.7500    284.5713     88.9358     61.2866      0.0000
    18.0000    284.5750     88.9579     58.8315      0.0000
    18.2500    284.5824     89.0371     56.7507      0.0000
    18.5000    284.6000     89.1082     55.9737      0.0000
    18.7500    284.6253     89.1374     57.5694      0.0000
    19.0000    284.6457     89.1493     61.9235      0.0000
    19.2500    284.6501     89.2038     68.4269      0.0000
    19.5000    284.6408     89.3522     75.8896      0.0000
    19.7500    284.6283     89.5923     83.3091      0.0000
    20.0000    284.6186     89.8514     90.3144      0.0000
    20.2500    284.6100     90.0336     97.0336      0.0000
    20.5000    284.6015     90.0965    103.8136      0.0000
    20.7500    284.5970     90.0672    111.0408      0.0000
    21.0000    284.6042     89.9874    118.6720      0.0000
    21.2500    284.6311     89.8778    125.5988      0.0000
    21.5000    284.6811     89.7599    130.0458      0.0000
    21.7500    284.7500     89.6704    131.2257      0.0000
    22.0000    284.8242     89.6366    130.3817      0.0000
    22.2500    284.8833     89.6575    129.8632      0.0000
    22.5000    284.9087     89.7234    131.2925      0.0000
    22.7500    284.8943     89.8438    134.5347      0.0000
    23.0000    284.8524     90.0362    138.0491      0.0000
    23.2500    284.8091     90.2744    140.1703      0.0000
    23.5000    284.7897     90.4634    140.1080      0.0000
    23.7500    284.8051     90.5018    137.8860      0.0000
    24.0000    284.8482     90.3720    133.9947      0.0000
    24.2500    284.9010     90.1402    129.5883      0.0000
    24.5000    284.9448     89.8700    126.4209      0.0000
    24.7500    284.9674     89.5720    125.5965      0.0000
    25.0000    284.9665     89.2512    126.2219      0.0000
    25.2500    284.9482     88.9710    125.8881      0.0000
