~Version Information
VERS.                      2.0: CWLS Log ASCII Standard - VERSION 2.0
WRAP.                       NO: One line per depth step
~Well Information Block
STRT.FT               720.0000: 
STOP.FT              2265.7000: 
STEP.FT                 0.1000: 
NULL.                -999.2500: 
COMP.          Pioneer Natural Resources: COMPANY
WELL.          Casablanca 11-28 Tr: WELL
FLD.           Purgatoire River: FIELD
LOC.           422' FNL & 215' FWL----: LOCATION
PROV.                 Colorado: PROVINCE
CNTY.               Las Animas: COUNTRY
SRVC.                Patterson: SERVICE COMPANY
DATE.          Mon Mar 07 07:16:34 2005: LOG DATE
UWI.           05 071 08314 00: UNIQUE WELL ID
~Curve Information Block
DEPT.FT            0 000 00 00: Depth
DCAL.in                       : CDL Caliper
RHOB.g/cc                     : CDL Bulk Density
RHOC.g/cc                     : CDL Density Correction
DPOR.pu                       : CDL Density Porosity
NPOR.pu                       : Neutron Porosity
GR.GAPI                       : Gamma Ray
~Parameter Information Block
~A  Depth       DCAL        RHOB        RHOC        DPOR        NPOR         GR     
# ...
  1833.6000      8.0224      2.5051     -0.0101      8.7817     26.6999    107.5354
  1833.7000      8.0224      2.4969      0.0162      9.2798     26.6989    105.5474
  1833.8000      8.0321      2.4724      0.0221     10.7630     26.4072    109.1393
  1833.9000      8.0321      2.4170      0.0380     14.1205     25.8675    119.8550
  1834.0000      8.0232      2.3493     -0.0592     18.2224     24.8386    129.3545
  1834.1000      8.0232      2.3002     -0.0157     21.2022     23.3098    132.3451
  1834.2000      8.0232      2.2711     -0.0199     22.9663     21.7840    133.4425
  1834.3000      8.0239      2.2550     -0.0335     23.9399     20.4097    136.5204
  1834.4000      8.0239      2.2577      0.0034     23.7743     19.0676    139.7206
  1834.5000      8.0506      2.2742      0.0228     22.7768     17.9953    138.5200
  1834.6000      8.0506      2.2943      0.0069     21.5557     17.3245    131.4058
  1834.7000      8.0506      2.3201      0.0567     19.9961     16.8211    121.5366
  1834.8000      8.0966      2.3505      0.0988     18.1487     16.2115    112.6258
  1834.9000      8.0966      2.3790      0.0836     16.4265     15.2025    108.9087
  1835.0000      8.1366      2.4003      0.1294     15.1334     13.9846    110.7039
  1835.1000      8.1366      2.4058      0.0737     14.7974     13.2536    112.9784
  1835.2000      8.1366      2.3924      0.0557     15.6135     13.4393    112.0774
  1835.3000      8.1310      2.3716      0.0269     16.8740     14.3851    107.6228
  1835.4000      8.1310      2.3642     -0.0124     17.3237     15.3158    102.4269
  1835.5000      8.0676      2.3880     -0.0196     15.8807     15.8303     98.8221
  1835.6000      8.0676      2.4368      0.0365     12.9197     16.3668     96.3385
  1835.7000      8.0676      2.4720      0.0810     10.7878     17.2124     94.9557
  1835.8000      7.9930      2.4658      0.0563     11.1642     18.1739     94.6380
  1835.9000      7.9930      2.4364      0.0374     12.9447     18.9934     92.7660
  1836.0000      7.9530      2.4166      0.0716     14.1442     19.5399     88.5114
  1836.1000      7.9530      2.4199      0.0609     13.9463     19.9258     85.2570
  1836.2000      7.9530      2.4478      0.1364     12.2529     20.4095     86.7990
  1836.3000      7.9291      2.4947      0.1590      9.4129     20.9516     93.4697
  1836.4000      7.9291      2.5407      0.1871      6.6240     21.5384    100.1408
  1836.5000      7.8997      2.5653      0.2002      5.1326     22.2956    101.9466
  1836.6000      7.8997      2.5645      0.1788      5.1828     22.9189    100.3993
  1836.7000      7.8997      2.5436      0.1791      6.4464     23.2034    100.0820
  1836.8000      7.8828      2.5153      0.1120      8.1623     23.2581    103.5171
  1836.9000      7.8828      2.5050      0.0775      8.7897     22.9757    107.4086
  1837.0000      7.8995      2.5238      0.1278      7.6466     22.3563    107.4091
  1837.1000      7.8995      2.5587      0.1027      5.5353     21.9057    105.7547
  1837.2000      7.8995      2.5992      0.1217      3.0795     21.7783    107.5121
  1837.3000      7.9441      2.6344      0.1365      0.9430     21.5240    110.5669
  1837.4000      7.9441      2.6499      0.1204      0.0041     21.0457    110.6130
  1837.5000      7.9924      2.6423      0.1498      0.4645     20.6537    108.8164
  1837.6000      7.9924      2.6178      0.0971      1.9516     20.3298    108.5597
  1837.7000      7.9924      2.5937      0.0427      3.4095     19.8089    110.7081
  1837.8000      8.0384      2.5844      0.0807      3.9759     19.2866    111.6375
  1837.9000      8.0384      2.5867      0.0287      3.8384     19.1731    107.7099
  1838.0000      8.0798      2.5894      0.0985      3.6705     19.3563    100.7174
  1838.1000      8.0798      2.5766      0.0812      4.4484     19.5433     94.4685
  1838.2000      8.0798      2.5455      0.0315      6.3351     19.8035     90.0216
  1838.3000      8.1035      2.5214     -0.0073      7.7920     20.1013     86.9173
  1838.4000      8.1035      2.5250      0.0096      7.5766     20.2062     84.9187
  1838.5000      8.0871      2.5403      0.0548      6.6513     20.0217     83.3994
  1838.6000      8.0871      2.5433      0.0676      6.4671     19.4691     83.6842
  1838.7000      8.0871      2.5365      0.0003      6.8794     18.8230     86.6475
  1838.8000      8.0313      2.5298      0.0459      7.2848     18.6560     89.9499
  1838.9000      8.0313      2.5179      0.0273      8.0054     19.0745     89.6016
  1839.0000      7.9808      2.5024      0.0050      8.9436     19.6376     83.5253
  1839.1000      7.9808      2.4937      0.0331      9.4722     19.6669     74.3215
  1839.2000      7.9808      2.4920      0.0228      9.5760     18.8760     66.4235
  1839.3000      7.9609      2.4925      0.0501      9.5452     18.0591     63.4142
  1839.4000      7.9609      2.4987     -0.0261      9.1685     17.8400     66.7894
  1839.5000      7.9634      2.5154      0.0600      8.1579     17.6360     72.5192
  1839.6000      7.9634      2.5303      0.0300      7.2575     17.1299     74.7808
  1839.7000      7.9634      2.5291      0.0328      7.3293     16.9141     73.4140
  1839.8000      7.9730      2.5041      0.0589      8.8416     17.1982     71.1291
  1839.9000      7.9730      2.4580      0.0083     11.6347     17.5243     69.6125
  1840.0000      7.9735      2.4149     -0.0243     14.2463     17.6723     68.2954
  1840.1000      7.9735      2.3922      0.0207     15.6232     17.9405     66.0212
  1840.2000      7.9735      2.3867     -0.0263     15.9564     18.4171     63.8179
  1840.3000      7.9636      2.4011     -0.0139     15.0826     18.9716     62.7688
  1840.4000      7.9636      2.4400      0.0130     12.7266     19.3509     63.3055
  1840.5000      7.9549      2.4948      0.0625      9.4039     19.5649     65.7584
  1840.6000      7.9549      2.5449      0.1112      6.3689     20.1010     69.1371
  1840.7000      7.9549      2.5747      0.1270      4.5616     20.8542     71.0281
  1840.8000      7.9564      2.5880      0.1028      3.7583     21.5143     71.7999
  1840.9000      7.9564      2.5914      0.1206      3.5499     22.1761     73.1313
  1841.0000      7.9762      2.5892      0.1027      3.6847     22.8044     74.7040
  1841.1000      7.9762      2.5881      0.1271      3.7508     23.3604     76.0648
  1841.2000      7.9762      2.5830      0.0659      4.0602     23.7821     78.1684
  1841.3000      8.0161      2.5631      0.0169      5.2664     24.1035     83.6243
  1841.4000      8.0161      2.5320      0.0029      7.1544     24.6566     92.8315
  1841.5000      8.0545      2.5073     -0.0534      8.6495     25.4142    102.0464
  1841.6000      8.0545      2.4997     -0.0205      9.1096     25.8916    109.3655
  1841.7000      8.0545      2.4991      0.0090      9.1433     25.9308    117.4750
  1841.8000      8.0682      2.4942      0.0018      9.4407     25.7273    124.6726
  1841.9000      8.0682      2.4849      0.0121     10.0053     25.3843    127.3286
  1842.0000      8.0630      2.4749      0.0435     10.6125     25.0106    132.7315
  1842.1000      8.0630      2.4705      0.0332     10.8778     24.6739    146.3938
  1842.2000      8.0630      2.4794      0.0169     10.3386     24.3011    159.2110
  1842.3000      8.0574      2.4979      0.0222      9.2167     23.9318    161.4492
  1842.4000      8.0574      2.5076      0.0966      8.6291     23.7582    154.1081
  1842.5000      8.0522      2.5016      0.0128      8.9944     23.8958    145.0307
  1842.6000      8.0522      2.4974      0.0361      9.2502     24.2504    138.8351
  1842.7000      8.0522      2.5102     -0.0064      8.4698     24.3480    134.3036
  1842.8000      8.0448      2.5370      0.0457      6.8511     23.9636    130.8166
  1842.9000      8.0448      2.5567      0.1210      5.6566     23.5120    126.5718
  1843.0000      8.0402      2.5571      0.0576      5.6301     23.5625    123.1950
  1843.1000      8.0402      2.5519      0.0856      5.9438     24.2119    124.9859
