~Version Information
VERS.                      2.0: CWLS Log ASCII Standard - VERSION 2.0
WRAP.                       NO: One line per depth step
~Well Information Block
STRT.FT                 0.6000: 
STOP.FT              2735.2000: 
STEP.FT                 0.1000: 
NULL.                -999.2500: 
COMP.          Pioneer Natural Resources: COMPANY
WELL.              Cluck 21-25: WELL
FLD.           Purgatoire River: FIELD
LOC.           91' FNL & 1834' FWL--: LOCATION
PROV.                 Colorado: PROVINCE
CNTY.               Las Animas: COUNTRY
SRVC.                Patterson: SERVICE COMPANY
DATE.          Mon Jun 06 19:08:34 2005: LOG DATE
UWI.           05 071 08397 00: UNIQUE WELL ID
~Curve Information Block
DEPT.FT            0 000 00 00: Depth
SN.Ohm-m                      : IEL Short Normal
SP.mV                         : IEL Spontaneous Potential
DIR.Ohm-m                     : IEL Induction Resistivity
GR.GAPI                       : Gamma Ray
~Parameter Information Block
~A  Depth        SN          SP         DIR          GR     
# ...
    27.4000   -999.2500   -999.2500   -999.2500    133.1657
    27.5000   -999.2500   -999.2500   -999.2500    133.4151
    27.6000   -999.2500   -999.2500   -999.2500    133.6795
    27.7000   -999.2500   -999.2500   -999.2500    133.9638
    27.8000   -999.2500   -999.2500   -999.2500    134.2641
    27.9000   -999.2500   -999.2500   -999.2500    134.5742
    28.0000   -999.2500   -999.2500   -999.2500    134.8783
    28.1000   -999.2500   -999.2500   -999.2500    135.1538
    28.2000   -999.2500   -999.2500   -999.2500    135.3746
    28.3000   2000.0000   -999.2500   -999.2500    135.5150
    28.4000   2000.0000   -999.2500   -999.2500    135.5566
    28.5000   2000.0000   -999.2500   -999.2500    135.4943
    28.6000   2000.0000   -999.2500   -999.2500    135.3369
    28.7000   2000.0000   -999.2500   -999.2500    135.1135
    28.8000   2000.0000   -999.2500   -999.2500    134.8655
    28.9000   2000.0000   -999.2500   -999.2500    134.6399
    29.0000   2000.0000   -999.2500   -999.2500    134.4806
    29.1000   2000.0000   -999.2500   -999.2500    134.4120
    29.2000   2000.0000   -999.2500   -999.2500    134.4349
    29.3000   2000.0000   -999.2500   -999.2500    134.5250
    29.4000   2000.0000   -999.2500   -999.2500    134.6336
    29.5000   2000.0000   -999.2500   -999.2500    134.7031
    29.6000   2000.0000   -999.2500   -999.2500    134.6797
    29.7000   2000.0000   -999.2500   -999.2500    134.5250
    29.8000   2000.0000   1981.0000   -999.2500    134.2279
    29.9000   2000.0000   1981.0000   -999.2500    133.8018
    30.0000   2000.0000   1981.0000   -999.2500    133.2880
    30.1000   2000.0000   1981.0000   -999.2500    132.7325
    30.2000   2000.0000   1981.0000   -999.2500    132.1787
    30.3000   2000.0000   1981.0000   -999.2500    131.6556
    30.4000   2000.0000   1981.0000   -999.2500    131.1684
    30.5000   2000.0000   1981.0000   -999.2500    130.7002
    30.6000   2000.0000   1981.0000   -999.2500    130.2170
    30.7000   2000.0000   1981.0000   -999.2500    129.6800
    30.8000   2000.0000   1981.0000 100000.0000    129.0565
    30.9000   2000.0000   1981.0000 100000.0000    128.3237
    31.0000   2000.0000   1981.0000 100000.0000    127.4826
    31.1000   2000.0000   1981.0000 100000.0000    126.5529
    31.2000   2000.0000   1981.0000 100000.0000    125.5716
    31.3000   2000.0000   1981.0000 100000.0000    124.5888
    31.4000   2000.0000   1981.0000 100000.0000    123.6576
    31.5000   2000.0000   1981.0000 100000.0000    122.8315
    31.6000   2000.0000   1981.0000 100000.0000    122.1526
    31.7000   2000.0000   1981.0000 100000.0000    121.6549
    31.8000   2000.0000   1981.0000 100000.0000    121.3532
    31.9000   2000.0000   1981.0000 100000.0000    121.2455
    32.0000   2000.0000   1981.0000 100000.0000    121.3084
    32.1000   2000.0000   1981.0000 100000.0000    121.4953
    32.2000   2000.0000   1981.0000 100000.0000    121.7447
    32.3000   2000.0000   1981.0000 100000.0000    121.9818
    32.4000   2000.0000   1981.0000 100000.0000    122.1265
    32.5000   2000.0000   1981.0000 100000.0000    122.1063
    32.6000   2000.0000   1981.0000 100000.0000    121.8663
    32.7000   2000.0000   1981.0000 100000.0000    121.3776
    32.8000   2000.0000   1981.0000 100000.0000    120.6394
    32.9000   2000.0000   1981.0000 100000.0000    119.6794
    33.0000   2000.0000   1981.0000 100000.0000    118.5479
    33.1000   2000.0000   1981.0000 100000.0000    117.3043
    33.2000   2000.0000   1981.0000 100000.0000    116.0143
    33.3000   2000.0000   1981.0000 100000.0000    114.7337
    33.4000   2000.0000   1981.0000 100000.0000    113.5066
    33.5000   2000.0000   1981.0000 100000.0000    112.3683
    33.6000   2000.0000   1981.0000 100000.0000    111.3329
    33.7000   2000.0000   1981.0000 100000.0000    110.4128
    33.8000   2000.0000   1981.0000 100000.0000    109.6101
    33.9000   2000.0000   1981.0000 100000.0000    108.9240
    34.0000   2000.0000   1981.0000 100000.0000    108.3563
    34.1000   2000.0000   1981.0000 100000.0000    107.9073
    34.2000   2000.0000   1981.0000 100000.0000    107.5846
    34.3000   2000.0000   1981.0000 100000.0000    107.3989
    34.4000   2000.0000   1981.0000 100000.0000    107.3633
    34.5000   2000.0000   1981.0000 100000.0000    107.4929
    34.6000   2000.0000   1981.0000 100000.0000    107.7976
    34.7000   2000.0000   1981.0000 100000.0000    108.2786
    34.8000   2000.0000   1981.0000 100000.0000    108.9203
    34.9000   2000.0000   1981.0000 100000.0000    109.6923
    35.0000   2000.0000   1981.0000 100000.0000    110.5488
    35.1000   2000.0000   1981.0000 100000.0000    111.4300
    35.2000   2000.0000   1981.0000 100000.0000    112.2763
    35.3000   2000.0000   1981.0000 100000.0000    113.0389
    35.4000   2000.0000   1981.0000 100000.0000    113.6871
    35.5000   2000.0000   1981.0000 100000.0000    114.2170
    35.6000   2000.0000   1981.0000 100000.0000    114.6530
    35.7000   2000.0000   1981.0000 100000.0000    115.0402
    35.8000   2000.0000   1981.0000 100000.0000    115.4328
    35.9000   2000.0000   1981.0000 100000.0000    115.8815
    36.0000   2000.0000   1981.0000 100000.0000    116.4200
    36.1000   2000.0000   1981.0000 100000.0000    117.0506
    36.2000   2000.0000   1981.0000 100000.0000    117.7468
    36.3000   2000.0000   1981.0000 100000.0000    118.4545
    36.4000   2000.0000   1981.0000 100000.0000    119.1025
    36.5000   2000.0000   1981.0000 100000.0000    119.6181
    36.6000   2000.0000   1981.0000 100000.0000    119.9396
    36.7000   2000.0000   1981.0000 100000.0000    120.0246
    36.8000   2000.0000   1981.0000 100000.0000    119.8590
    36.9000   2000.0000   1981.0000 100000.0000    119.4529
    37.0000   2000.0000   1981.0000 100000.0000    118.8372
    37.1000   2000.0000   1981.0000 100000.0000    118.0520
    37.2000   2000.0000   1981.0000 100000.0000    117.1419
    37.3000   2000.0000   1981.0000 100000.0000    116.1422
    37.4000   2000.0000   1981.0000 100000.0000    115.0779
    37.5000   2000.0000   1981.0000 100000.0000    113.9585
    37.6000   2000.0000   1981.0000 100000.0000    112.7788
    37.7000   2000.0000   1981.0000 100000.0000    111.5290
    37.8000   2000.0000   1981.0000 100000.0000    110.1881
    37.9000   2000.0000   1981.0000 100000.0000    108.7422
    38.0000   2000.0000   1981.0000 100000.0000    107.1852
    38.1000   2000.0000   1981.0000 100000.0000    105.5214
    38.2000   2000.0000   1981.0000 100000.0000    103.7703
    38.3000   2000.0000   1981.0000 100000.0000    101.9604
    38.4000   2000.0000   1981.0000 100000.0000    100.1263
    38.5000   2000.0000   1981.0000 100000.0000     98.3013
    38.6000   2000.0000   1981.0000 100000.0000     96.5114
    38.7000   2000.0000   1981.0000 100000.0000     94.7741
    38.8000   2000.0000   1981.0000 100000.0000     93.0952
    38.9000   2000.0000   1981.0000 100000.0000     91.4788
    39.0000   2000.0000   1981.0000 100000.0000     89.9282
    39.1000   2000.0000   1981.0000 100000.0000     88.4543
    39.2000   2000.0000   1981.0000 100000.0000     87.0745
    39.3000   2000.0000   1981.0000 100000.0000     85.8121
    39.4000   2000.0000   1981.0000 100000.0000     84.6896
    39.5000   2000.0000   1981.0000 100000.0000     83.7236
    39.6000   2000.0000   1981.0000 100000.0000     82.9158
    39.7000   2000.0000   1981.0000 100000.0000     82.2525
    39.8000   2000.0000   1981.0000 100000.0000     81.7055
    39.9000   2000.0000   1981.0000 100000.0000     81.2400
    40.0000   2000.0000   1981.0000 100000.0000     80.8236
    40.1000   2000.0000   1981.0000 100000.0000     80.4359
    40.2000   2000.0000   1981.0000 100000.0000     80.0773
    40.3000   2000.0000   1981.0000 100000.0000     79.7614
    40.4000   2000.0000   1981.0000 100000.0000     79.5163
    40.5000   2000.0000   1981.0000 100000.0000     79.3742
    40.6000   2000.0000   1981.0000 100000.0000     79.3593
    40.7000   2000.0000   1981.0000 100000.0000     79.4809
