~Version Information
VERS.                      2.0: CWLS Log ASCII Standard - VERSION 2.0
WRAP.                       NO: One line per depth step
~Well Information Block
STRT.FT                -8.0000: 
STOP.FT              1540.2500: 
STEP.FT                 0.2500: 
NULL.                -999.2500: 
COMP.          Pioneer Natural Resources: COMPANY
WELL.           Telna 24-22 Tr: WELL
FLD.           Purgatorie River: FIELD
LOC.           748' FSL & 1931' FWL--: LOCATION
PROV.                       CO: PROVINCE
CNTY.               Las Animas: COUNTRY
SRVC.          Patterson Wireline: SERVICE COMPANY
DATE.          Fri May 06 12:29:21 2005: LOG DATE
UWI.           05 071 08304 00: UNIQUE WELL ID
~Curve Information Block
DEPT.FT            0 000 00 00: Depth
CCL.                          : Casing Collar Locator
TT3.usec                      : CBL 3' Travel Time
AMP3.mV                       : CBL 3' Amplitude
GR.GAPI                       : Gamma Ray
~Parameter Information Block
~A  Depth       CCL         TT3         AMP3         GR     
# ...
   896.5000      0.0000    857.3930      5.8691    133.3689
   896.7500      0.0000    857.5381      5.7981    132.0968
   897.0000      0.0000    857.8096      5.7010    130.8978
   897.2500      0.0000    858.1491      5.5721    129.8737
   897.5000      0.0000    858.5269      5.4216    129.1819
   897.7500      0.0000    858.9195      5.2640    128.3951
   898.0000      0.0000    859.3006      5.1075    125.9363
   898.2500      0.0000    859.6814      4.9803    120.3106
   898.5000      0.0000    860.1021      4.9465    112.2025
   898.7500      0.0000    860.5383      5.0577    104.6066
   899.0000      0.0000    860.7299      5.2889    100.6129
   899.2500      0.0000    859.8628      5.5440    101.5335
   899.5000      0.0000    856.1343      5.7215    106.8684
   899.7500      0.0000    846.9502      5.7689    115.1077
   900.0000      0.0000    831.0593      5.6999    124.6021
   900.2500      0.0000    811.9794      5.5839    134.4237
   900.5000      0.0000    798.3824      5.4993    144.2862
   900.7500      0.0000    798.2195      5.4685    153.2635
   901.0000      0.0000    811.4877      5.4419    159.2832
   901.2500      0.0000    830.2443      5.3625    160.4379
   901.5000      0.0000    845.8498      5.2312    156.2979
   901.7500      0.0000    854.8318      5.1009    147.8854
   902.0000      0.0000    858.4976      5.0243    137.3456
   902.2500      0.0000    859.4908      5.0217    127.8404
   902.5000      0.0000    859.6031      5.0754    122.4197
   902.7500      0.0000    859.5486      5.1263    121.9494
   903.0000      0.0000    859.4643      5.0996    124.4343
   903.2500      0.0000    859.3343      4.9744    126.7301
   903.5000      0.0000    859.1837      4.8191    126.6108
   903.7500      0.0000    859.0997      4.7269    123.3757
   904.0000      0.0000    859.1658      4.7243    117.6326
   904.2500      0.0000    859.3824      4.7654    111.1544
   904.5000      0.0000    859.6642      4.8053    106.2287
   904.7500      0.0000    859.9019      4.8497    104.1209
   905.0000      0.0000    860.0114      4.9253    103.9508
   905.2500      0.0000    859.9280      5.0221    103.3640
   905.5000      0.0000    859.5847      5.0822    100.5897
   905.7500      0.0000    858.9387      5.0529     95.8585
   906.0000      0.0000    858.0394      4.9366     90.8951
   906.2500      0.0000    857.0487      4.7830     87.3660
   906.5000      0.0000    856.1688      4.6556     85.9124
   906.7500      0.0000    855.5397      4.6133     86.2539
   907.0000      0.0000    855.0870      4.6901     87.7564
   907.2500      0.0000    854.3098      4.8646     89.7989
   907.5000      0.0000    852.0090      5.0655     91.7282
   907.7500      0.0000    846.3680      5.2208     92.9169
   908.0000      0.0000    835.8721      5.3000     93.4449
   908.2500      0.0000    820.7933      5.3188     94.7184
   908.5000      0.0000    804.1203      5.3216     98.7276
   908.7500      0.0000    791.0158      5.3550    106.1654
   909.0000      0.0000    786.5814      5.4387    115.5283
   909.2500      0.0000    792.2616      5.5524    124.3512
   909.5000      0.0000    803.6270      5.6523    131.0548
   909.7500      0.0000    813.4397      5.7037    135.3409
   910.0000      0.0000    818.2966      5.7045    137.2699
   910.2500      0.0000    821.1958      5.6848    136.6370
   910.5000      0.0000    826.8752      5.6830    133.3518
   910.7500      0.0000    836.1914      5.7194    127.8388
   911.0000      0.0000    846.0977      5.7901    120.6547
   911.2500      0.0000    853.6476      5.8740    112.1830
   911.5000      0.0000    858.4587      5.9379    103.2939
   911.7500      0.0000    861.8984      5.9393     95.9144
   912.0000      0.0000    865.0363      5.8374     92.0969
   912.2500      0.0000    867.5012      5.6162     92.4115
   912.5000      0.0000    867.9223      5.3121     95.6342
   912.7500      0.0000    865.4252      5.0226     99.7934
   913.0000      0.0000    860.7865      4.8628    103.0418
   913.2500      0.0000    856.1083      4.8793    103.8844
   913.5000      0.0000    853.4244      5.0044    101.5935
   913.7500      0.0000    853.5583      5.1091     96.8071
   914.0000      0.0000    856.1957      5.1065     91.3000
   914.2500      0.0000    860.8351      4.9996     86.9084
   914.5000      0.0000    867.2297      4.8575     84.7239
   914.7500      0.0000    874.5891      4.7755     84.9779
   915.0000      0.0000    880.7515      4.8351     87.0701
   915.2500      0.0000    882.9973      5.0511     89.6423
   915.5000      0.0000    880.1133      5.3451     91.3256
   915.7500      0.0000    873.4317      5.5958     91.9946
   916.0000      0.0000    865.6012      5.7289     93.2892
   916.2500      0.0000    858.5615      5.7607     97.5916
   916.5000      0.0000    852.9252      5.7652    106.0528
   916.7500      0.0000    848.8935      5.8037    117.2067
   917.0000      0.0000    846.8503      5.8810    127.5746
   917.2500      0.0000    846.6124      5.9548    134.0182
   917.5000      0.0000    846.6334      5.9724    135.7803
   917.7500      0.0000    844.8345      5.9021    134.3582
   918.0000      0.0000    840.4390      5.7556    131.9671
   918.2500      0.0000    834.5693      5.5919    130.5230
   918.5000      0.0000    828.8428      5.4894    131.2926
   918.7500      0.0000    823.8157      5.4949    134.3401
   919.0000      0.0000    819.1691      5.5858    138.3092
   919.2500      0.0000    814.8854      5.6785    141.4489
   919.5000      0.0000    811.5665      5.6778    143.0802
   919.7500      0.0000    809.8538      5.5361    143.8417
   920.0000      0.0000    810.0941      5.2866    144.5401
   920.2500      0.0000    812.4913      5.0324    145.1021
   920.5000      0.0000    817.0482      4.8877    144.8963
   920.7500      0.0000    823.0296      4.8963    143.8761
   921.0000      0.0000    828.5997      4.9945    142.9001
   921.2500      0.0000    831.1627      5.0634    142.6727
   921.5000      0.0000    827.8768      5.0351    142.5721
   921.7500      0.0000    816.0903      4.9475    141.0599
   922.0000      0.0000    794.4171      4.8945    137.7017
   922.2500      0.0000    764.3698      4.9308    134.2113
   922.5000      0.0000    730.9675      5.0381    132.5981
   922.7500      0.0000    701.5503      5.1734    132.7768
   923.0000      0.0000    683.1191      5.3080    133.1066
   923.2500      0.0000    678.8192      5.4003    132.9327
   923.5000      0.0000    686.0145      5.3635    133.5518
   923.7500      0.0000    698.7361      5.1164    136.7055
   924.0000      0.0000    712.8713      4.6848    142.5885
   924.2500      0.0000    728.9335      4.2326    149.0682
   924.5000      0.0000    749.5805      3.9646    152.6419
   924.7500      0.0000    774.7743      3.9786    150.8220
   925.0000      0.0000    800.0947      4.2095    144.2745
   925.2500      0.0000    819.8577      4.5079    136.5563
   925.5000      0.0000    831.3500      4.7544    131.4792
   925.7500      2.0000    836.1818      4.9040    130.6745
   926.0000      2.0000    838.1402      4.9672    133.2519
   926.2500      0.0000    839.8830      4.9883    136.9490
   926.5000      0.0000    841.4620      5.0322    139.5618
   926.7500      0.0000    841.4636      5.1515    140.1079
   927.0000      0.0000    838.6589      5.3409    139.1346
   927.2500      0.0000    831.7704      5.5352    137.8870
   927.5000      0.0000    818.5320      5.6628    137.3249
   927.7500      0.0000    796.9963      5.6962    137.9262
   928.0000      0.0000    768.5859      5.6496    139.6487
   928.2500      0.0000    738.6061      5.5444    141.5677
   928.5000      0.0000    712.9784      5.3973    142.2319
   928.7500      0.0000    695.2328      5.2414    140.9571
   929.0000      0.0000    686.2305      5.1333    138.4330
   929.2500      0.0000    685.1337      5.1161    135.9631
   929.5000      0.0000    690.8362      5.1772    134.5411
   929.7500      0.0000    703.6179      5.2556    134.4789
