~Version Information
VERS.                      2.0: CWLS Log ASCII Standard - VERSION 2.0
WRAP.                       NO: One line per depth step
~Well Information Block
STRT.FT                -7.6500: 
STOP.FT              3097.2500: 
STEP.FT                 0.0500: 
NULL.                -999.2500: 
COMP.          Pioneer Natural Resources: COMPANY
WELL.            Paradise 13-8: WELL
FLD.           Purgatoire River: FIELD
LOC.           1896' FSL & 1120' FWL--: LOCATION
PROV.                 Colorado: PROVINCE
CNTY.               Las Animas: COUNTRY
SRVC.                Patterson: SERVICE COMPANY
DATE.          Fri Feb 04 16:52:25 2005: LOG DATE
UWI.           05 071 07946 00: UNIQUE WELL ID
~Curve Information Block
DEPT.FT            0 000 00 00: Depth
CCL.                          : Casing Collar Locator
TT3.usec                      : CBL 3' Travel Time
AMP3.mV                       : CBL 3' Amplitude
GR.GAPI                       : Gamma Ray
~Parameter Information Block
~A  Depth       CCL         TT3         AMP3         GR     
# ...
   615.4500      0.0000    749.4939      3.0956     45.5051
   615.5000      0.0000    722.3998      3.0870     45.3974
   615.5500      0.0000    722.3998      3.0870     45.3974
   615.6000      0.0000    722.3998      3.0870     45.3974
   615.6500      0.0000    722.3998      3.0870     45.3974
   615.7000      0.0000    722.3998      3.0870     45.3974
   615.7500      0.0000    706.3892      3.0910     45.3010
   615.8000      0.0000    706.3892      3.0910     45.3010
   615.8500      0.0000    706.3892      3.0910     45.3010
   615.9000      0.0000    706.3892      3.0910     45.3010
   615.9500      0.0000    706.3892      3.0910     45.3010
   616.0000      0.0000    700.2286      3.0982     46.0316
   616.0500      0.0000    700.2286      3.0982     46.0316
   616.1000      0.0000    700.2286      3.0982     46.0316
   616.1500      0.0000    700.2286      3.0982     46.0316
   616.2000      0.0000    700.2286      3.0982     46.0316
   616.2500      0.0000    702.0917      3.1048     47.6248
   616.3000      0.0000    702.0917      3.1048     47.6248
   616.3500      0.0000    702.0917      3.1048     47.6248
   616.4000      0.0000    702.0917      3.1048     47.6248
   616.4500      0.0000    702.0917      3.1048     47.6248
   616.5000      0.0000    712.5216      3.1114     48.9077
   616.5500      0.0000    712.5216      3.1114     48.9077
   616.6000      0.0000    712.5216      3.1114     48.9077
   616.6500      0.0000    712.5216      3.1114     48.9077
   616.7000      0.0000    712.5216      3.1114     48.9077
   616.7500      0.0000    733.2163      3.1193     48.9131
   616.8000      0.0000    733.2163      3.1193     48.9131
   616.8500      0.0000    733.2163      3.1193     48.9131
   616.9000      0.0000    733.2163      3.1193     48.9131
   616.9500      0.0000    733.2163      3.1193     48.9131
   617.0000      0.0000    762.9865      3.1294     48.4994
   617.0500      0.0000    762.9865      3.1294     48.4994
   617.1000      0.0000    762.9865      3.1294     48.4994
   617.1500      0.0000    762.9865      3.1294     48.4994
   617.2000      0.0000    762.9865      3.1294     48.4994
   617.2500      0.0000    795.0777      3.1446     49.7015
   617.3000      0.0000    795.0777      3.1446     49.7015
   617.3500      0.0000    795.0777      3.1446     49.7015
   617.4000      0.0000    795.0777      3.1446     49.7015
   617.4500      0.0000    795.0777      3.1446     49.7015
   617.5000      0.0000    819.6711      3.1703     53.1842
   617.5500      0.0000    819.6711      3.1703     53.1842
   617.6000      0.0000    819.6711      3.1703     53.1842
   617.6500      0.0000    819.6711      3.1703     53.1842
   617.7000      0.0000    819.6711      3.1703     53.1842
   617.7500      0.0000    829.9630      3.2109     57.0244
   617.8000      0.0000    829.9630      3.2109     57.0244
   617.8500      0.0000    829.9630      3.2109     57.0244
   617.9000      0.0000    829.9630      3.2109     57.0244
   617.9500      0.0000    829.9630      3.2109     57.0244
   618.0000      0.0000    825.6893      3.2635     58.5177
   618.0500      0.0000    825.6893      3.2635     58.5177
   618.1000      0.0000    825.6893      3.2635     58.5177
   618.1500      0.0000    825.6893      3.2635     58.5177
   618.2000      0.0000    825.6893      3.2635     58.5177
   618.2500      0.0000    811.0560      3.3170     56.7054
   618.3000      0.0000    811.0560      3.3170     56.7054
   618.3500      0.0000    811.0560      3.3170     56.7054
   618.4000      0.0000    811.0560      3.3170     56.7054
   618.4500      0.0000    811.0560      3.3170     56.7054
   618.5000      0.0000    790.7783      3.3565     52.7186
   618.5500      0.0000    790.7783      3.3565     52.7186
   618.6000      0.0000    790.7783      3.3565     52.7186
   618.6500      0.0000    790.7783      3.3565     52.7186
   618.7000      0.0000    790.7783      3.3565     52.7186
   618.7500      0.0000    769.1059      3.3722     48.2422
   618.8000      0.0000    769.1059      3.3722     48.2422
   618.8500      0.0000    769.1059      3.3722     48.2422
   618.9000      0.0000    769.1059      3.3722     48.2422
   618.9500      0.0000    769.1059      3.3722     48.2422
   619.0000      0.0000    751.1063      3.3626     44.3028
   619.0500      0.0000    751.1063      3.3626     44.3028
   619.1000      0.0000    751.1063      3.3626     44.3028
   619.1500      0.0000    751.1063      3.3626     44.3028
   619.2000      0.0000    751.1063      3.3626     44.3028
   619.2500      0.0000    742.5332      3.3331     41.2208
   619.3000      0.0000    742.5332      3.3331     41.2208
   619.3500      0.0000    742.5332      3.3331     41.2208
   619.4000      0.0000    742.5332      3.3331     41.2208
   619.4500      0.0000    742.5332      3.3331     41.2208
   619.5000      0.0000    747.5247      3.2914     39.0642
   619.5500      0.0000    747.5247      3.2914     39.0642
   619.6000      0.0000    747.5247      3.2914     39.0642
   619.6500      0.0000    747.5247      3.2914     39.0642
   619.7000      0.0000    747.5247      3.2914     39.0642
   619.7500      0.0000    765.4304      3.2462     37.9846
   619.8000      0.0000    765.4304      3.2462     37.9846
   619.8500      0.0000    765.4304      3.2462     37.9846
   619.9000      0.0000    765.4304      3.2462     37.9846
   619.9500      0.0000    765.4304      3.2462     37.9846
   620.0000      0.0000    788.2137      3.2064     38.1699
   620.0500      0.0000    788.2137      3.2064     38.1699
   620.1000      0.0000    788.2137      3.2064     38.1699
   620.1500      0.0000    788.2137      3.2064     38.1699
   620.2000      0.0000    788.2137      3.2064     38.1699
   620.2500      0.0000    802.3190      3.1787     39.4105
   620.3000      0.0000    802.3190      3.1787     39.4105
   620.3500      0.0000    802.3190      3.1787     39.4105
   620.4000      0.0000    802.3190      3.1787     39.4105
   620.4500      0.0000    802.3190      3.1787     39.4105
   620.5000      0.0000    797.3094      3.1644     40.8003
   620.5500      0.0000    797.3094      3.1644     40.8003
   620.6000      0.0000    797.3094      3.1644     40.8003
   620.6500      0.0000    797.3094      3.1644     40.8003
   620.7000      0.0000    797.3094      3.1644     40.8003
   620.7500      0.0000    774.3178      3.1576     41.2466
   620.8000      0.0000    774.3178      3.1576     41.2466
   620.8500      0.0000    774.3178      3.1576     41.2466
   620.9000      0.0000    774.3178      3.1576     41.2466
   620.9500      0.0000    774.3178      3.1576     41.2466
   621.0000      0.0000    744.5644      3.1496     40.4551
   621.0500      0.0000    744.5644      3.1496     40.4551
   621.1000      0.0000    744.5644      3.1496     40.4551
   621.1500      0.0000    744.5644      3.1496     40.4551
   621.2000      0.0000    744.5644      3.1496     40.4551
   621.2500      0.0000    719.6003      3.1345     39.2842
   621.3000      0.0000    719.6003      3.1345     39.2842
   621.3500      0.0000    719.6003      3.1345     39.2842
   621.4000      0.0000    719.6003      3.1345     39.2842
   621.4500      0.0000    719.6003      3.1345     39.2842
   621.5000      0.0000    704.1654      3.1131     39.0119
   621.5500      0.0000    704.1654      3.1131     39.0119
   621.6000      0.0000    704.1654      3.1131     39.0119
   621.6500      0.0000    704.1654      3.1131     39.0119
   621.7000      0.0000    704.1654      3.1131     39.0119
   621.7500      0.0000    696.7809      3.0901     40.4075
   621.8000      0.0000    696.7809      3.0901     40.4075
   621.8500      0.0000    696.7809      3.0901     40.4075
   621.9000      0.0000    696.7809      3.0901     40.4075
   621.9500      0.0000    696.7809      3.0901     40.4075
   622.0000      0.0000    694.0027      3.0676     43.5375
   622.0500      0.0000    694.0027      3.0676     43.5375
   622.1000      0.0000    694.0027      3.0676     43.5375
