~Version Information
VERS.                      2.0: CWLS Log ASCII Standard - VERSION 2.0
WRAP.                       NO: One line per depth step
~Well Information Block
STRT.FT               300.0000: 
STOP.FT               871.2000: 
STEP.FT                 0.1000: 
NULL.                -999.2500: 
COMP.          Pioneer Natural Resources: COMPANY
WELL.            Hustler 12-17: WELL
FLD.           Purgatoire River: FIELD
LOC.           2150' FNL & 450' FWL: LOCATION
PROV.                 Colorado: PROVINCE
CNTY.               Las Animas: COUNTRY
SRVC.                Patterson: SERVICE COMPANY
DATE.          Mon Dec 20 11:14:19 2004: LOG DATE
UWI.           05 071 08236 00: UNIQUE WELL ID
~Curve Information Block
DEPT.FT            0 000 00 00: Depth
DCAL.in                       : CDL Caliper
RHOB.g/cc                     : CDL Bulk Density
RHOC.g/cc                     : CDL Density Correction
DPOR.pu                       : CDL Density Porosity
NPOR.pu                       : Neutron Porosity
GR.GAPI                       : Gamma Ray
~Parameter Information Block
~A  Depth       DCAL        RHOB        RHOC        DPOR        NPOR         GR     
# ...
   770.4000      7.8428      2.5846      0.1931      3.9642     24.5327    147.7556
   770.5000      7.8428      2.6037      0.1770      2.8044     24.7355    137.8392
   770.6000      7.8428      2.6257      0.1787      1.4750     25.2519    136.0224
   770.7000      7.8428      2.6367      0.1697      0.8047     25.6386    141.5244
   770.8000      7.8504      2.6266      0.0917      1.4171     25.6604    142.1519
   770.9000      7.8504      2.6075      0.0821      2.5762     25.5022    137.3261
   771.0000      7.8632      2.5917      0.0541      3.5331     25.4663    137.6047
   771.1000      7.8632      2.5777      0.0983      4.3801     25.5708    142.6946
   771.2000      7.8632      2.5582      0.0627      5.5615     25.5556    143.1831
   771.3000      7.8779      2.5392      0.0244      6.7162     25.3853    138.4315
   771.4000      7.8779      2.5375      0.0107      6.8167     25.0701    133.1990
   771.5000      7.9003      2.5558      0.0311      5.7114     24.7417    127.5696
   771.6000      7.9003      2.5707      0.0862      4.8050     24.8180    123.2253
   771.7000      7.9003      2.5613      0.0409      5.3744     25.1571    124.8014
   771.8000      7.9165      2.5411      0.0127      6.5985     25.4197    127.6529
   771.9000      7.9165      2.5397      0.0217      6.6843     25.7444    121.9038
   772.0000      7.9078      2.5594      0.0529      5.4894     26.1585    112.1730
   772.1000      7.9078      2.5794      0.0637      4.2770     26.6223    111.4671
   772.2000      7.9078      2.5868      0.0604      3.8320     27.0512    123.0599
   772.3000      7.8944      2.5784      0.0543      4.3397     27.1044    139.0415
   772.4000      7.8944      2.5570      0.0428      5.6378     26.6981    150.7770
   772.5000      7.8919      2.5316      0.0458      7.1750     26.1389    155.0177
   772.6000      7.8919      2.5136     -0.0156      8.2638     25.8219    155.5339
   772.7000      7.8919      2.5111      0.0189      8.4176     25.9874    159.4242
   772.8000      7.8945      2.5198      0.0173      7.8936     26.6327    164.6499
   772.9000      7.8945      2.5371     -0.0109      6.8428     27.4057    161.7281
   773.0000      7.8976      2.5579      0.0353      5.5794     27.8702    148.8729
   773.1000      7.8976      2.5615      0.0559      5.3622     27.9897    131.7639
   773.2000      7.8976      2.5441     -0.0177      6.4164     28.1979    122.2974
   773.3000      7.9001      2.5263      0.0034      7.4978     28.7076    129.6906
   773.4000      7.9001      2.5171      0.0111      8.0517     29.2123    144.0139
   773.5000      7.9005      2.5144      0.0187      8.2195     29.1698    151.8521
   773.6000      7.9005      2.5213      0.0271      7.8011     28.5119    156.3081
   773.7000      7.9005      2.5427      0.0523      6.5009     27.9136    161.2511
   773.8000      7.8982      2.5733      0.0974      4.6474     27.8392    163.2501
   773.9000      7.8982      2.5938      0.1206      3.4064     27.8137    162.2757
   774.0000      7.8950      2.5883      0.1080      3.7411     27.2194    161.2209
   774.1000      7.8950      2.5624      0.0465      5.3089     26.2670    160.1125
   774.2000      7.8950      2.5344      0.0717      7.0086     25.7988    157.7236
   774.3000      7.8952      2.5166      0.0431      8.0872     26.0429    154.4164
   774.4000      7.8952      2.5169      0.0340      8.0678     26.2026    154.5726
   774.5000      7.8958      2.5310      0.0656      7.2103     25.7159    160.5368
   774.6000      7.8958      2.5391      0.0604      6.7191     25.0110    165.7070
   774.7000      7.8958      2.5376      0.0498      6.8148     24.6114    163.7290
   774.8000      7.8954      2.5416      0.0621      6.5718     24.3117    156.7931
   774.9000      7.8954      2.5540      0.0809      5.8160     23.8910    147.8571
   775.0000      7.8954      2.5606      0.0656      5.4155     23.8281    136.7178
   775.1000      7.8954      2.5476      0.0779      6.2080     24.3351    126.9084
   775.2000      7.8954      2.5174      0.0427      8.0370     24.7388    120.1693
   775.3000      7.8953      2.4859      0.0362      9.9447     24.5659    114.5505
   775.4000      7.8953      2.4637      0.0129     11.2907     24.0842    110.7350
   775.5000      7.8934      2.4529      0.0172     11.9473     23.6072    110.1196
   775.6000      7.8934      2.4481      0.0322     12.2380     23.3333    111.1920
   775.7000      7.8934      2.4414     -0.0062     12.6395     23.2226    111.6028
   775.8000      7.8919      2.4342     -0.0065     13.0812     23.0822    110.7554
   775.9000      7.8919      2.4305      0.0133     13.3013     22.9655    110.2830
   776.0000      7.8939      2.4239      0.0539     13.7020     22.8445    111.7084
   776.1000      7.8939      2.4079      0.0556     14.6747     22.5407    115.5559
   776.2000      7.8939      2.3922      0.0139     15.6247     22.2138    119.8415
   776.3000      7.8962      2.3856      0.0388     16.0229     21.8935    121.4726
   776.4000      7.8962      2.3824      0.0062     16.2196     21.4768    118.9110
   776.5000      7.8980      2.3792      0.0054     16.4136     21.1628    114.8346
   776.6000      7.8980      2.3788      0.0129     16.4388     21.0371    113.6460
   776.7000      7.8980      2.3766      0.0322     16.5671     21.1621    114.9244
   776.8000      7.8978      2.3626      0.0303     17.4153     21.6890    115.5410
   776.9000      7.8978      2.3442     -0.0158     18.5329     22.2682    113.9014
   777.0000      7.8953      2.3426      0.0374     18.6304     22.4085    107.5115
   777.1000      7.8953      2.3567      0.0450     17.7772     22.2994     99.2319
   777.2000      7.8953      2.3687      0.0494     17.0494     22.1447     96.9355
   777.3000      7.8946      2.3744      0.0158     16.7050     21.8526     99.0745
   777.4000      7.8946      2.3766      0.0570     16.5673     21.7857    100.1779
   777.5000      7.8953      2.3671      0.0453     17.1439     22.3737    101.5537
   777.6000      7.8953      2.3491     -0.0181     18.2366     23.2586    108.0793
   777.7000      7.8953      2.3417      0.0068     18.6842     23.7646    116.5407
   777.8000      7.8935      2.3426      0.0332     18.6299     23.7313    119.4817
   777.9000      7.8935      2.3380     -0.0224     18.9073     23.2692    118.0540
   778.0000      7.8880      2.3334     -0.0030     19.1905     22.5284    117.4571
   778.1000      7.8880      2.3396      0.0194     18.8102     21.8091    116.4856
   778.2000      7.8880      2.3587      0.0278     17.6574     21.4151    112.9500
   778.3000      7.8786      2.3798      0.0742     16.3767     21.4276    111.9217
   778.4000      7.8786      2.3868      0.0513     15.9515     21.7034    115.1581
   778.5000      7.8717      2.3770      0.0410     16.5427     21.9196    116.0404
   778.6000      7.8717      2.3623      0.0207     17.4382     21.7818    116.5227
   778.7000      7.8717      2.3564      0.0096     17.7928     21.3410    122.6738
   778.8000      7.8711      2.3623      0.0514     17.4380     21.0360    127.3378
   778.9000      7.8711      2.3709      0.0469     16.9159     21.1936    122.9324
   779.0000      7.8718      2.3762      0.0543     16.5963     21.6670    115.4693
   779.1000      7.8718      2.3845      0.0268     16.0925     22.1860    112.2409
   779.2000      7.8718      2.4092      0.0285     14.5957     22.7200    114.3833
   779.3000      7.8702      2.4461      0.0748     12.3562     23.1071    120.8773
   779.4000      7.8702      2.4809      0.0684     10.2462     23.2585    129.3971
   779.5000      7.8675      2.5135      0.1261      8.2753     23.6278    137.9434
   779.6000      7.8675      2.5373      0.1292      6.8291     24.1926    148.5943
   779.7000      7.8675      2.5374      0.0912      6.8222     24.3633    161.2947
   779.8000      7.8674      2.5226      0.0752      7.7187     24.2190    171.8317
   779.9000      7.8674      2.5204      0.0223      7.8538     24.4613    176.2599
