~Version Information
VERS.                      2.0: CWLS Log ASCII Standard - VERSION 2.0
WRAP.                       NO: One line per depth step
~Well Information Block
STRT.FT               742.5000: 
STOP.FT              2463.5000: 
STEP.FT                 0.2500: 
NULL.                -999.2500: 
COMP.          Petrogulf Corporation: COMPANY
WELL.           Montoya 12-44V: WELL
FLD.           Purgatorie River: FIELD
LOC.           698' FSL & 599' FEL: LOCATION
CNTY.               Las Animas: COUNTY
SRVC.                         : SERVICE COMPANY
DATE.          Sun Aug 08 06:43:17 2004: LOG DATE
UWI.           05 071 08094 00: UNIQUE WELL ID
STAT.                 Colorado: STATE
~Curve Information Block
DEPT.FT            0 000 00 00: Depth
SN.Ohm-m                      : IEL Short Normal
SP.mV                         : IEL Spontaneous Potential
DIR.Ohm-m                     : IEL Induction Resistivity
GR.GAPI                       : Gamma Ray
~Parameter Information Block
~A  Depth        SN          SP         DIR          GR     
# ...
  1848.0000     23.5977    -87.7312     17.3981     91.3180
  1848.2500     20.9315    -86.7930     16.3389    108.1310
  1848.5000     18.9607    -85.9653     15.4244    130.5107
  1848.7500     17.5183    -85.2252     14.6506    141.5983
  1849.0000     16.4544    -84.5826     14.0133    151.0701
  1849.2500     15.6654    -84.0816     13.4932    153.3230
  1849.5000     15.0960    -83.7855     13.0551    153.7814
  1849.7500     14.7217    -83.7597     12.6608    154.0673
  1850.0000     14.5211    -84.0420     12.2907    155.9122
  1850.2500     14.4570    -84.6293     11.9543    157.5399
  1850.5000     14.4785    -85.4680     11.6805    158.5541
  1850.7500     14.5382    -86.4617     11.4984    157.5753
  1851.0000     14.6070    -87.4861     11.4259    154.1013
  1851.2500     14.6743    -88.4089     11.4674    151.2371
  1851.5000     14.7387    -89.1110     11.6137    147.0835
  1851.7500     14.8014    -89.4972     11.8384    144.5087
  1852.0000     14.8681    -89.5090     12.0992    140.7133
  1852.2500     14.9487    -89.1305     12.3424    138.2525
  1852.5000     15.0475    -88.3887     12.5100    135.5415
  1852.7500     15.1502    -87.3588     12.5585    135.3372
  1853.0000     15.2231    -86.1624     12.4892    138.8494
  1853.2500     15.2294    -84.9566     12.3620    143.7396
  1853.5000     15.1478    -83.9163     12.2626    152.9451
  1853.7500     14.9762    -83.2003     12.2483    158.5354
  1854.0000     14.7248    -82.9153     12.3147    163.6825
  1854.2500     14.4126    -83.0854     12.4013    164.4939
  1854.5000     14.0716    -83.6432     12.4240    162.0820
  1854.7500     13.7445    -84.4422     12.3158    158.3726
  1855.0000     13.4664    -85.2871     12.0604    150.6295
  1855.2500     13.2463    -85.9733     11.7015    145.1619
  1855.5000     13.0653    -86.3209     11.3204    138.9179
  1855.7500     12.8948    -86.2018     10.9945    136.9535
  1856.0000     12.7184    -85.5532     10.7660    137.0546
  1856.2500     12.5402    -84.3829     10.6364    138.1846
  1856.5000     12.3776    -82.7736     10.5797    139.6956
  1856.7500     12.2500    -80.8816     10.5599    140.0924
  1857.0000     12.1723    -78.9199     10.5459    139.9449
  1857.2500     12.1540    -77.1343     10.5195    139.6188
  1857.5000     12.1960    -75.7631     10.4759    138.9150
  1857.7500     12.2824    -74.9938     10.4228    138.2135
  1858.0000     12.3769    -74.9276     10.3758    136.9181
  1858.2500     12.4326    -75.5611     10.3512    136.4044
  1858.5000     12.4142    -76.7904     10.3595    137.7217
  1858.7500     12.3149    -78.4406     10.4034    140.6973
  1859.0000     12.1600    -80.3063     10.4807    147.6701
  1859.2500     11.9993    -82.1933     10.5884    152.3650
  1859.5000     11.8919    -83.9577     10.7247    156.2809
  1859.7500     11.8871    -85.5232     10.8895    156.1194
  1860.0000     12.0062    -86.8774     11.0846    153.4780
  1860.2500     12.2338    -88.0518     11.3181    151.8817
  1860.5000     12.5233    -89.0916     11.6078    151.3779
  1860.7500     12.8126    -90.0231     11.9772    152.0046
  1861.0000     13.0419    -90.8298     12.4424    153.1546
  1861.2500     13.1711    -91.4518     12.9931    153.7238
  1861.5000     13.1929    -91.7922     13.5802    154.1056
  1861.7500     13.1372    -91.7434     14.1219    153.6912
  1862.0000     13.0649    -91.2226     14.5308    151.2993
  1862.2500     13.0553    -90.2023     14.7517    148.4838
  1862.5000     13.1894    -88.7375     14.7822    143.2227
  1862.7500     13.5238    -86.9660     14.6698    139.6458
  1863.0000     14.0587    -85.0890     14.4856    134.8700
  1863.2500     14.7188    -83.3344     14.2978    132.1022
  1863.5000     15.3738    -81.9089     14.1549    128.1614
  1863.7500     15.8922    -80.9520     14.0807    125.4886
  1864.0000     16.1962    -80.5129     14.0735    121.6702
  1864.2500     16.2789    -80.5440     14.1028    119.8226
  1864.5000     16.1797    -80.9227     14.1118    119.5949
  1864.7500     15.9505    -81.4828     14.0363    121.8495
  1865.0000     15.6379    -82.0498     13.8419    128.6856
  1865.2500     15.2862    -82.4821     13.5512    134.5140
  1865.5000     14.9378    -82.6890     13.2310    142.6871
  1865.7500     14.6262    -82.6466     12.9510    146.5527
  1866.0000     14.3651    -82.3944     12.7468    148.9928
  1866.2500     14.1500    -82.0177     12.6115    148.4716
  1866.5000     13.9689    -81.6256     12.5105    145.5430
  1866.7500     13.8136    -81.3245     12.4104    143.1864
  1867.0000     13.6828    -81.1983     12.3061    140.9336
  1867.2500     13.5804    -81.2969     12.2231    140.9281
  1867.5000     13.5139    -81.6334     12.1935    142.7127
  1867.7500     13.4949    -82.1878     12.2276    144.0854
  1868.0000     13.5367    -82.9167     12.3075    144.6593
  1868.2500     13.6461    -83.7639     12.4061    143.6876
  1868.5000     13.8127    -84.6714     12.5160    141.0317
  1868.7500     14.0105    -85.5846     12.6626    139.3681
  1869.0000     14.2149    -86.4624     12.8919    138.0970
  1869.2500     14.4224    -87.2736     13.2424    138.0152
  1869.5000     14.6558    -87.9921     13.7158    138.1333
  1869.7500     14.9499    -88.5964     14.2587    137.9249
  1870.0000     15.3269    -89.0675     14.7722    137.3227
  1870.2500     15.7809    -89.3866     15.1504    137.1988
  1870.5000     16.2778    -89.5442     15.3303    137.8712
  1870.7500     16.7679    -89.5417     15.3108    138.5541
  1871.0000     17.2000    -89.4060     15.1335    138.7482
  1871.2500     17.5266    -89.1832     14.8466    137.8229
  1871.5000     17.7004    -88.9354     14.4842    134.7275
  1871.7500     17.6760    -88.7239     14.0654    131.7548
  1872.0000     17.4235    -88.5897     13.6057    126.7518
  1872.2500     16.9473    -88.5357     13.1248    123.7812
  1872.5000     16.2896    -88.5278     12.6453    121.2631
  1872.7500     15.5153    -88.5007     12.1842    121.6124
  1873.0000     14.6915    -88.3826     11.7548    126.1156
  1873.2500     13.8798    -88.1253     11.3742    131.9179
  1873.5000     13.1377    -87.7169     11.0645    144.0856
  1873.7500     12.5129    -87.1858     10.8402    153.7026
  1874.0000     12.0292    -86.5882     10.6917    169.1122
  1874.2500     11.6783    -85.9796     10.5803    179.6381
  1874.5000     11.4334    -85.4021     10.4544    195.4428
  1874.7500     11.2733    -84.8642     10.2804    205.3673
  1875.0000     11.1983    -84.3500     10.0627    216.6300
  1875.2500     11.2256    -83.8279      9.8355    219.5763
  1875.5000     11.3746    -83.2724      9.6375    214.8674
  1875.7500     11.6491    -82.6710      9.4938    206.2965
  1876.0000     12.0237    -82.0296      9.4180    189.7131
  1876.2500     12.4428    -81.3678      9.4220    179.2450
  1876.5000     12.8362    -80.7024      9.5214    167.4341
  1876.7500     13.1494    -80.0393      9.7303    162.0770
  1877.0000     13.3655    -79.3754     10.0506    156.0994
  1877.2500     13.5053    -78.7029     10.4624    152.7314
  1877.5000     13.6084    -78.0254     10.9262    148.6324
  1877.7500     13.7149    -77.3682     11.3973    146.9366
  1878.0000     13.8617    -76.7836     11.8469    145.9579
  1878.2500     14.0866    -76.3419     12.2763    145.7019
  1878.5000     14.4311    -76.1265     12.7153    144.6150
  1878.7500     14.9320    -76.2139     13.2055    143.1810
  1879.0000     15.6107    -76.6609     13.7772    140.4767
  1879.2500     16.4710    -77.4928     14.4321    138.6907
  1879.5000     17.5095    -78.6962     15.1446    136.2015
  1879.7500     18.7335    -80.2113     15.8832    134.4536
  1880.0000     20.1668    -81.9308     16.6407    131.1060
  1880.2500     21.8396    -83.7118     17.4492    128.1131
  1880.5000     23.7686    -85.3892     18.3710    122.4778
  1880.7500     25.9505    -86.8044     19.4770    118.3163
  1881.0000     28.3716    -87.8393     20.8302    112.1923
  1881.2500     31.0200    -88.4374     22.4802    108.2125
