~Version Information
VERS.                      2.0: CWLS Log ASCII Standard - VERSION 2.0
WRAP.                       NO: One line per depth step
~Well Information Block
STRT.FT               294.0000: 
STOP.FT              1958.0000: 
STEP.FT                 0.1000: 
NULL.                -999.2500: 
COMP.          Pioneer Natural Resources: COMPANY
WELL.          Commander 43-26 Tr: WELL
FLD.           Purgatoire River: FIELD
LOC.           2439' FSL & 446' FEL: LOCATION
PROV.                 Colorado: PROVINCE
CNTY.               Las Animas: COUNTRY
SRVC.                Patterson: SERVICE COMPANY
DATE.          Fri Apr 15 07:31:08 2005: LOG DATE
UWI.           05 071 08341 00: UNIQUE WELL ID
~Curve Information Block
DEPT.FT            0 000 00 00: Depth
DCAL.in                       : CDL Caliper
RHOB.g/cc                     : CDL Bulk Density
RHOC.g/cc                     : CDL Density Correction
DPOR.pu                       : CDL Density Porosity
GR.GAPI                       : Gamma Ray
NPOR.pu                       : Neutron Porosity
~Parameter Information Block
~A  Depth       DCAL        RHOB        RHOC        DPOR         GR         NPOR    
# ...
  1398.0000      8.0112      2.5122     -0.0235      8.3491    105.2515     27.6336
  1398.1000      8.0112      2.5123      0.0273      8.3464    105.7620     29.1309
  1398.2000      8.0112      2.5145      0.0019      8.2137    107.5061     29.8150
  1398.3000      8.0187      2.5177      0.0527      8.0201    107.7183     29.3827
  1398.4000      8.0187      2.5296     -0.0380      7.2993    107.1288     27.7453
  1398.5000      8.0139      2.5547     -0.0069      5.7772    106.2731     26.2874
  1398.6000      8.0139      2.5761      0.0586      4.4816    104.7657     26.2290
  1398.7000      8.0139      2.5682      0.0509      4.9585    102.9227     26.3892
  1398.8000      8.0188      2.5431     -0.0217      6.4807    103.4528     25.4305
  1398.9000      8.0188      2.5404      0.0343      6.6417    107.1334     24.2299
  1399.0000      8.0246      2.5596      0.0529      5.4760    109.0193     23.8821
  1399.1000      8.0246      2.5611      0.0535      5.3887    106.5435     24.3920
  1399.2000      8.0246      2.5386     -0.0201      6.7535    102.8422     25.3817
  1399.3000      8.0247      2.5245      0.0259      7.6083    100.8831     26.1284
  1399.4000      8.0247      2.5244      0.0640      7.6151     99.0400     26.2911
  1399.5000      8.0254      2.5228      0.0318      7.7096     94.5887     26.6307
  1399.6000      8.0254      2.5234      0.0192      7.6737     89.2962     27.4503
  1399.7000      8.0254      2.5229      0.0519      7.7052     88.7231     28.0967
  1399.8000      8.0385      2.5102      0.0053      8.4726     96.0781     28.0934
  1399.9000      8.0385      2.4950      0.0131      9.3940    108.0605     27.5644
  1400.0000      8.0480      2.4846      0.0698     10.0264    115.6845     26.9865
  1400.1000      8.0480      2.4735      0.0203     10.6984    113.4479     26.6560
  1400.2000      8.0480      2.4559      0.0677     11.7642    107.5647     26.9756
  1400.3000      8.0450      2.4333     -0.0076     13.1362    104.3927     27.8273
  1400.4000      8.0450      2.4311     -0.0372     13.2642    103.2384     27.9335
  1400.5000      8.0243      2.4661      0.0487     11.1457    102.6559     27.0864
  1400.6000      8.0243      2.5174      0.0558      8.0345    100.7328     26.5605
  1400.7000      8.0243      2.5617      0.0768      5.3544     96.9989     27.1048
  1400.8000      8.0110      2.5875      0.0721      3.7877     93.7263     28.2851
  1400.9000      8.0110      2.5866      0.1231      3.8420     92.8174     29.2888
  1401.0000      7.9978      2.5611      0.0803      5.3863     94.9156     29.4432
  1401.1000      7.9978      2.5300      0.0840      7.2730     99.0341     28.7169
  1401.2000      7.9978      2.5056      0.0691      8.7514    102.5821     27.8157
  1401.3000      7.9792      2.4828      0.0443     10.1314    101.7836     26.7404
  1401.4000      7.9792      2.4606      0.0091     11.4782     95.0029     25.3246
  1401.5000      7.9637      2.4373      0.0371     12.8901     88.2121     24.5559
  1401.6000      7.9637      2.4011      0.0072     15.0824     86.0725     25.3212
  1401.7000      7.9637      2.3517     -0.0007     18.0812     83.6697     26.8119
  1401.8000      7.9631      2.2888     -0.0226     21.8893     78.8223     27.4008
  1401.9000      7.9631      2.1941     -0.0601     27.6313     76.4473     27.1539
  1402.0000      8.0127      2.0618     -0.1076     35.6478     78.0600     27.3149
  1402.1000      8.0127      1.9272     -0.2125     43.8083     80.3133     28.3091
  1402.2000      8.0127      1.8218     -0.1528     50.1938     79.8386     29.7836
  1402.3000      8.0298      1.7147     -0.0947     56.6821     77.1598     31.0060
  1402.4000      8.0298      1.5701     -0.1772     65.4455     73.6407     31.5820
  1402.5000      8.0465      1.4286     -0.2208     74.0224     67.2327     32.0848
  1402.6000      8.0465      1.3574     -0.1800     78.3388     57.8750     32.9762
  1402.7000      8.0465      1.3615     -0.0395     78.0916     51.3260     33.7764
  1402.8000      8.0500      1.3899     -0.0092     76.3714     52.0932     34.3167
  1402.9000      8.0500      1.4036      0.0245     75.5384     56.0459     34.4594
  1403.0000      8.0393      1.3989      0.0315     75.8226     58.2894     33.5448
  1403.1000      8.0393      1.3894      0.0322     76.3986     58.6939     32.2339
  1403.2000      8.0393      1.3902      0.0413     76.3516     59.3549     31.6845
  1403.3000      8.1060      1.4044      0.0538     75.4918     62.7570     31.3254
  1403.4000      8.1060      1.4245      0.0825     74.2729     67.5182     31.2650
  1403.5000      8.3168      1.4461      0.0364     72.9625     72.5497     32.9124
  1403.6000      8.3168      1.4748      0.0278     71.2223     78.5642     35.1773
  1403.7000      8.3168      1.5217      0.0505     68.3824     84.4705     35.6773
  1403.8000      8.5436      1.5938      0.0597     64.0123     89.9055     34.8539
  1403.9000      8.5436      1.6877      0.0530     58.3232     95.6407     34.1302
  1404.0000      8.5427      1.7918      0.1073     52.0096    103.6798     33.5412
  1404.1000      8.5427      1.8941      0.1412     45.8107    111.1056     33.3853
  1404.2000      8.5427      1.9895      0.1632     40.0289    113.0858     34.4862
  1404.3000      8.4778      2.0789      0.1512     34.6120    113.0403     36.1143
  1404.4000      8.4778      2.1597      0.2061     29.7181    112.1376     36.6676
  1404.5000      8.3183      2.2328      0.1310     25.2835    110.2302     36.1593
  1404.6000      8.3183      2.3120      0.0806     20.4852    115.1124     35.4804
  1404.7000      8.3183      2.4001      0.1056     15.1483    125.3134     34.6078
  1404.8000      8.1796      2.4682      0.1867     11.0152    131.6598     33.5271
  1404.9000      8.1796      2.4854      0.1507      9.9730    134.0667     32.8283
  1405.0000      8.1335      2.4675      0.1040     11.0626    132.9568     32.8296
  1405.1000      8.1335      2.4621      0.1069     11.3880    128.0021     33.2893
  1405.2000      8.1335      2.4840      0.2006     10.0618    121.5835     33.1078
  1405.3000      8.1272      2.5088      0.1327      8.5604    114.7142     32.1368
  1405.4000      8.1272      2.5253      0.1242      7.5557    109.3340     31.4792
  1405.5000      8.0987      2.5461      0.1174      6.2950    107.7900     30.9636
  1405.6000      8.0987      2.5855      0.1185      3.9106    109.2732     29.9854
  1405.7000      8.0987      2.6333      0.2062      1.0136    111.2712     29.2133
  1405.8000      8.0818      2.6569      0.2077     -0.4191    112.6938     29.4316
  1405.9000      8.0818      2.6397      0.2069      0.6255    115.2380     29.9847
  1406.0000      8.0867      2.5920      0.1795      3.5139    121.1868     30.1131
  1406.1000      8.0867      2.5418      0.0511      6.5590    128.9528     30.3337
  1406.2000      8.0867      2.5199      0.0615      7.8847    133.5781     30.8051
  1406.3000      8.0931      2.5336      0.0851      7.0521    133.0947     31.0380
  1406.4000      8.0931      2.5535      0.1043      5.8513    130.5555     31.2602
  1406.5000      8.1002      2.5473      0.0724      6.2232    131.2262     31.8026
  1406.6000      8.1002      2.5284      0.0400      7.3706    134.2218     32.2226
  1406.7000      8.1002      2.5148      0.0991      8.1942    134.9492     32.1199
  1406.8000      8.1082      2.4852      0.1192      9.9881    136.2107     31.6823
  1406.9000      8.1082      2.4301      0.0638     13.3293    139.7030     31.0443
  1407.0000      8.1832      2.3720      0.0988     16.8479    140.4400     30.4448
  1407.1000      8.1832      2.3230      0.0814     19.8169    137.6123     30.3837
  1407.2000      8.1832      2.2768      0.0306     22.6180    133.6615     30.8269
  1407.3000      8.3308      2.2201      0.0623     26.0526    127.7962     30.9645
  1407.4000      8.3308      2.1461      0.0138     30.5376    120.1142     30.6200
  1407.5000      8.3245      2.0733     -0.0317     34.9521    114.5440     30.6480
