~Version Information
VERS.                      2.0: CWLS Log ASCII Standard - VERSION 2.0
WRAP.                       NO: One line per depth step
~Well Information Block
STRT.FT               533.0000: 
STOP.FT              1578.0000: 
STEP.FT                 0.2500: 
NULL.                -999.2500: 
COMP.          Pioneer Natural Resources: COMPANY
WELL.           Telna 24-22 Tr: WELL
FLD.           Purgatoire River: FIELD
LOC.           748' FSL & 1931' FWL: LOCATION
PROV.                 Colorado: PROVINCE
CNTY.               Las Animas: COUNTRY
SRVC.                Patterson: SERVICE COMPANY
DATE.          Sun May 01 14:14:42 2005: LOG DATE
UWI.           05 071 08304 00: UNIQUE WELL ID
~Curve Information Block
DEPT.FT            0 000 00 00: Depth
SN.Ohm-m                      : IEL Short Normal
SP.mV                         : IEL Spontaneous Potential
DIR.Ohm-m                     : IEL Induction Resistivity
GR.GAPI                       : Gamma Ray
~Parameter Information Block
~A  Depth        SN          SP         DIR          GR     
# ...
   868.0000     22.2791    -19.2763     19.9500    132.3958
   868.2500     23.3555    -18.5685     20.2235    132.1461
   868.5000     23.9770    -17.8935     20.2159    131.9689
   868.7500     23.4612    -17.5160     19.9909    131.6914
   869.0000     21.5170    -17.5676     19.6418    132.0914
   869.2500     18.7196    -17.9460     19.2424    133.8686
   869.5000     16.1216    -18.3906     18.8270    139.4913
   869.7500     14.4586    -18.6727     18.3967    144.7614
   870.0000     13.9026    -18.7286     17.9332    153.2151
   870.2500     14.2500    -18.6321     17.4119    158.0563
   870.5000     15.0555    -18.4691     16.8128    162.6282
   870.7500     15.7911    -18.2567     16.1334    163.6358
   871.0000     16.1310    -17.9666     15.3973    162.8309
   871.2500     16.0767    -17.5894     14.6493    161.5650
   871.5000     15.8001    -17.1640     13.9379    159.8121
   871.7500     15.4669    -16.7612     13.3000    159.0406
   872.0000     15.1827    -16.4534     12.7560    158.1555
   872.2500     15.0167    -16.2797     12.3125    157.3079
   872.5000     15.0274    -16.2116     11.9659    155.2191
   872.7500     15.2215    -16.1408     11.7037    153.4802
   873.0000     15.5113    -15.9185     11.5070    151.2893
   873.2500     15.7553    -15.4269     11.3551    150.6346
   873.5000     15.8393    -14.6354     11.2323    151.1360
   873.7500     15.7266    -13.6061     11.1314    152.1709
   874.0000     15.4506    -12.4594     11.0530    153.7021
   874.2500     15.0658    -11.3365     11.0002    154.0166
   874.5000     14.6319    -10.3826     10.9723    152.9574
   874.7500     14.2450     -9.7359     10.9610    151.6901
   875.0000     14.0051     -9.4985     10.9542    150.4936
   875.2500     13.9373     -9.6947     10.9450    150.7795
   875.5000     14.0019    -10.2478     10.9378    152.5141
   875.7500     14.1555    -11.0026     10.9454    153.7839
   876.0000     14.3427    -11.7818     10.9772    154.7169
   876.2500     14.4843    -12.4400     11.0301    154.4683
   876.5000     14.5457    -12.8881     11.0905    153.0392
   876.7500     14.5677    -13.0907     11.1449    151.8182
   877.0000     14.5927    -13.0532     11.1909    150.8008
   877.2500     14.6222    -12.8065     11.2421    151.2800
   877.5000     14.6484    -12.3965     11.3239    153.5656
   877.7500     14.6677    -11.8830     11.4656    155.2531
   878.0000     14.6887    -11.3418     11.6909    156.3111
   878.2500     14.7687    -10.8557     12.0107    155.5777
   878.5000     14.9807    -10.4961     12.4207    152.7132
   878.7500     15.3437    -10.3137     12.9035    150.0631
   879.0000     15.8545    -10.3464     13.4347    144.9627
   879.2500     16.5299    -10.6257     13.9886    140.2857
   879.5000     17.3671    -11.1709     14.5395    130.6349
   879.7500     18.2921    -11.9746     15.0619    122.7174
   880.0000     19.1596    -12.9983     15.5347    110.3205
   880.2500     19.8102    -14.1771     15.9501    102.9780
   880.5000     20.1663    -15.4137     16.3201     95.1335
   880.7500     20.2948    -16.5620     16.6738     92.5970
   881.0000     20.3852    -17.4364     17.0449     92.9340
   881.2500     20.6498    -17.8721     17.4557     95.4545
   881.5000     21.1669    -17.7935     17.9039    101.1481
   881.7500     21.7671    -17.2333     18.3600    105.2400
   882.0000     22.1422    -16.2984     18.7767    110.8060
   882.2500     22.1276    -15.1209     19.1090    114.0894
   882.5000     21.8168    -13.8242     19.3341    118.7809
   882.7500     21.4340    -12.5103     19.4610    139.3184
   883.0000     21.1535    -11.2676     19.5255    144.4028
   883.2500     20.9524    -10.1825     19.5748    147.2425
   883.5000     20.6752     -9.3331     19.6461    150.1079
   883.7500     20.3243     -8.7605     19.7500    150.9184
   884.0000     20.1247     -8.4371     19.8700    150.3777
   884.2500     20.2314     -8.2564     19.9780    148.8319
   884.5000     20.5792     -8.0640     20.0598    144.8996
   884.7500     21.0020     -7.7287     20.1333    141.5430
   885.0000     21.3303     -7.2117     20.2431    136.5014
   885.2500     21.4794     -6.5763     20.4333    133.8890
   885.5000     21.5192     -5.9293     20.7122    131.8995
   885.7500     21.6026     -5.3549     21.0346    131.7634
   886.0000     21.8566     -4.8912     21.3203    132.3807
   886.2500     22.3182     -4.5395     21.5052    132.7661
   886.5000     22.9024     -4.2765     21.5845    132.9967
   886.7500     23.4357     -4.0624     21.6077    133.0737
   887.0000     23.7616     -3.8479     21.6361    133.4045
   887.2500     23.8490     -3.5800     21.7056    133.8822
   887.5000     23.8215     -3.2111     21.8209    135.0779
   887.7500     23.8549     -2.7198     21.9715    136.1456
   888.0000     24.0366     -2.1315     22.1515    137.7276
   888.2500     24.3422     -1.5136     22.3633    138.2924
   888.5000     24.6877     -0.9321     22.6082    137.4188
   888.7500     24.9663     -0.3955     22.8757    135.3170
   889.0000     25.0628      0.1663     23.1460    130.1432
   889.2500     24.8896      0.8648     23.4016    126.0283
   889.5000     24.4778      1.7765     23.6358    120.3774
   889.7500     24.0218      2.8744     23.8479    117.6519
   890.0000     23.7545      4.0189     24.0343    115.5657
   890.2500     23.7330      5.0287     24.1857    115.4006
   890.5000     23.7878      5.7835     24.2948    116.5235
   890.7500     23.7281      6.2734     24.3624    117.7396
   891.0000     23.5419      6.5673     24.3982    119.0643
   891.2500     23.3459      6.7522     24.4152    118.9378
   891.5000     23.2572      6.8992     24.4245    117.0673
   891.7500     23.4201      7.0592     24.4287    115.2814
   892.0000     23.9687      7.2661     24.4133    113.1098
   892.2500     24.7703      7.5364     24.3450    112.4813
   892.5000     25.3883      7.8657     24.1845    112.8434
   892.7500     25.4862      8.2259     23.9122    113.5836
   893.0000     25.1093      8.5638     23.5446    114.3431
   893.2500     24.4920      8.8028     23.1214    114.0951
   893.5000     23.7862      8.8496     22.6760    112.5460
   893.7500     23.0632      8.6147     22.2201    111.1162
   894.0000     22.4466      8.0490     21.7566    109.1206
   894.2500     22.1515      7.1884     21.3024    108.2311
   894.5000     22.3775      6.1686     20.8949    108.1907
   894.7500     23.1480      5.1800     20.5762    109.4068
   895.0000     24.2284      4.3793     20.3756    113.1974
   895.2500     25.1947      3.8260     20.3051    116.5140
   895.5000     25.6643      3.4915     20.3631    121.1625
   895.7500     25.5651      3.3168     20.5315    123.3389
   896.0000     25.1457      3.2513     20.7691    124.9582
   896.2500     24.7295      3.2504     21.0160    125.2570
   896.5000     24.5290      3.2704     21.2182    125.3034
   896.7500     24.6349      3.2855     21.3561    125.3897
   897.0000     25.0570      3.3024     21.4465    125.6928
   897.2500     25.7377      3.3447     21.5146    125.7598
   897.5000     26.5587      3.4268     21.5589    124.8083
   897.7500     27.3759      3.5452     21.5396    122.9137
   898.0000     28.0796      3.6859     21.3968    117.7091
   898.2500     28.6336      3.8272     21.0880    112.9705
   898.5000     29.0480      3.9369     20.6192    105.5249
   898.7500     29.2933      3.9789     20.0463    101.5863
   899.0000     29.2871      3.9267     19.4483     99.1689
   899.2500     28.9794      3.7737     18.8951    100.4631
   899.5000     28.3695      3.5354     18.4300    106.3079
   899.7500     27.4699      3.2482     18.0669    111.8632
   900.0000     26.3422      2.9642     17.7930    120.7055
   900.2500     25.1488      2.7364     17.5743    125.8900
   900.5000     24.1195      2.5927     17.3639    131.3026
   900.7500     23.4192      2.5205     17.1154    133.0482
   901.0000     23.0239      2.4780     16.7998    133.3350
   901.2500     22.7460      2.4243     16.4186    132.4910
