~Version Information
VERS.                      2.0: CWLS Log ASCII Standard - VERSION 2.0
WRAP.                       NO: One line per depth step
~Well Information Block
STRT.FT               235.0000: 
STOP.FT              1633.0000: 
STEP.FT                 0.1000: 
NULL.                -999.2500: 
COMP.          Petrogulf Corporation: COMPANY
WELL.             State 16-41R: WELL
FLD.           Purgatorie River: FIELD
LOC.           280' FNL & 907' FEL: LOCATION
PROV.                 Colorado: PROVINCE
CNTY.               Las Animas: COUNTRY
SRVC.                Patterson: SERVICE COMPANY
DATE.          Wed Oct 19 07:05:20 2005: LOG DATE
API.           05-071-08345    : API
~Curve Information Block
DEPT.FT            0 000 00 00: Depth
DCAL.in                       : CDL Caliper
RHOB.g/cc                     : CDL Bulk Density
RHOC.g/cc                     : CDL Density Correction
DPOR.pu                       : CDL Density Porosity
GR.GAPI                       : Gamma Ray
NPOR.pu                       : Neutron Porosity
~Parameter Information Block
~A  Depth       DCAL        RHOB        RHOC        DPOR         GR         NPOR    
# ...
   417.4000      8.1660      2.4589      0.0583     11.5808    159.2509     24.3671
   417.5000      8.1505      2.4365      0.0278     12.9373    155.5631     24.0053
   417.6000      8.1505      2.4110      0.0445     14.4877    150.2869     23.4000
   417.7000      8.1505      2.3873      0.0081     15.9207    149.1185     22.8374
   417.8000      8.1521      2.3784      0.0308     16.4634    150.8405     22.7103
   417.9000      8.1521      2.3841      0.0642     16.1139    151.8768     23.2615
   418.0000      8.1541      2.3917      0.0631     15.6539    150.2727     24.1242
   418.1000      8.1541      2.3963      0.0897     15.3784    147.4741     24.4660
   418.2000      8.1541      2.4025      0.1004     14.9985    146.4949     23.9940
   418.3000      8.1527      2.4185      0.0817     14.0298    146.8157     23.3450
   418.4000      8.1527      2.4446      0.1515     12.4489    147.0944     23.2354
   418.5000      8.1621      2.4696      0.1402     10.9340    147.5795     23.5755
   418.6000      8.1621      2.4866      0.1865      9.9013    147.1419     23.7687
   418.7000      8.1621      2.4987      0.1721      9.1690    144.8529     23.6205
   418.8000      8.1581      2.5119      0.2044      8.3669    143.3387     23.2799
   418.9000      8.1581      2.5258      0.1807      7.5303    145.8751     22.8881
   419.0000      8.1503      2.5353      0.1632      6.9537    151.8114     22.7581
   419.1000      8.1503      2.5409      0.1594      6.6117    157.2957     23.2520
   419.2000      8.1503      2.5411      0.1906      6.6017    160.5057     24.0909
   419.3000      8.1633      2.5308      0.1424      7.2251    161.9634     24.4659
   419.4000      8.1633      2.5176      0.1002      8.0254    161.5211     24.2373
   419.5000      8.1541      2.5098      0.1236      8.4979    159.5125     23.9323
   419.6000      8.1541      2.5006      0.1034      9.0540    159.1189     23.7221
   419.7000      8.1541      2.4854      0.0843      9.9773    162.8548     23.6050
   419.8000      8.1389      2.4660      0.0609     11.1487    168.9673     23.7867
   419.9000      8.1389      2.4486      0.0289     12.2060    173.8764     24.2284
   420.0000      8.1393      2.4442      0.0288     12.4736    175.1165     24.5418
   420.1000      8.1393      2.4489      0.0421     12.1862    174.0452     24.3934
   420.2000      8.1393      2.4459      0.0440     12.3720    173.9936     23.9920
   420.3000      8.1264      2.4341      0.0049     13.0867    175.4751     23.9983
   420.4000      8.1264      2.4219      0.0459     13.8224    176.3180     24.6306
   420.5000      8.1242      2.4116      0.0032     14.4514    173.5780     25.2463
   420.6000      8.1242      2.4085      0.0288     14.6342    167.1799     25.2931
   420.7000      8.1242      2.4092      0.0912     14.5936    161.7860     25.0650
   420.8000      8.1206      2.4032      0.0288     14.9567    161.1723     24.8762
   420.9000      8.1206      2.3938      0.0594     15.5263    164.4183     24.5858
   421.0000      8.1170      2.3844      0.0402     16.0965    168.7108     24.2487
   421.1000      8.1170      2.3728      0.0690     16.8007    171.4463     24.1441
   421.2000      8.1170      2.3642      0.0042     17.3215    171.1413     24.1162
   421.3000      8.1158      2.3688      0.0359     17.0424    169.3827     23.8533
   421.4000      8.1158      2.3811      0.0759     16.2984    168.1073     23.6859
   421.5000      8.1195      2.3829      0.0747     16.1884    166.5686     24.0622
   421.6000      8.1195      2.3710      0.0744     16.9088    165.1945     24.6317
   421.7000      8.1195      2.3675     -0.0117     17.1182    165.6249     24.7437
   421.8000      8.1331      2.3886      0.0690     15.8429    165.9248     24.5756
   421.9000      8.1331      2.4151      0.0735     14.2393    163.9211     24.7538
   422.0000      8.1362      2.4231      0.0632     13.7509    161.0391     24.9725
   422.1000      8.1362      2.4205      0.0239     13.9074    159.8238     24.6484
   422.2000      8.1362      2.4244      0.0459     13.6715    160.9787     24.0870
   422.3000      8.1536      2.4221      0.1135     13.8105    162.6637     23.7099
   422.4000      8.1536      2.3967      0.0055     15.3515    163.6777     23.5079
   422.5000      8.1637      2.3611      0.0469     17.5118    163.1315     23.4935
   422.6000      8.1637      2.3367      0.0049     18.9870    160.0907     23.5736
   422.7000      8.1637      2.3365      0.0547     19.0015    154.5372     23.5915
   422.8000      8.1699      2.3522      0.0631     18.0480    147.7485     23.6253
   422.9000      8.1699      2.3600      0.0742     17.5741    144.7713     23.6853
   423.0000      8.1721      2.3507      0.0596     18.1378    148.8017     23.6063
   423.1000      8.1721      2.3373      0.0285     18.9498    155.5378     23.2856
   423.2000      8.1721      2.3229      0.0539     19.8225    158.3595     22.7354
   423.3000      8.1834      2.2860      0.0763     22.0578    156.0426     21.9240
   423.4000      8.1834      2.2171      0.0098     26.2341    151.0754     20.9941
   423.5000      8.1862      2.1391     -0.0387     30.9633    147.3982     20.2564
   423.6000      8.1862      2.0724     -0.0159     35.0032    148.7641     19.8057
   423.7000      8.1862      2.0109     -0.0507     38.7306    152.9037     19.3895
   423.8000      8.2101      1.9381     -0.0390     43.1444    154.1611     18.9523
   423.9000      8.2101      1.8584     -0.0918     47.9749    150.8609     18.8908
   424.0000      8.2691      1.8137     -0.1186     50.6844    145.2829     19.2700
   424.1000      8.2691      1.8379     -0.0099     49.2170    140.8907     19.7011
   424.2000      8.2691      1.9216      0.0409     44.1444    138.8343     19.9798
   424.3000      8.2789      2.0403      0.1590     36.9543    137.4468     20.1652
   424.4000      8.2789      2.1675      0.2569     29.2425    134.8838     20.3911
   424.5000      8.2438      2.2788      0.2622     22.4998    132.4343     20.7302
   424.6000      8.2438      2.3673      0.2982     17.1352    133.0645     21.1337
   424.7000      8.2438      2.4338      0.3817     13.1006    137.3490     21.7851
   424.8000      8.1708      2.4678      0.3912     11.0434    143.5213     22.6516
   424.9000      8.1708      2.4589      0.2957     11.5840    147.7939     23.2137
   425.0000      8.0355      2.4208      0.1474     13.8919    148.2983     23.2112
   425.1000      8.0355      2.3778      0.0938     16.4950    147.4744     22.8155
   425.2000      8.0355      2.3397      0.0609     18.8084    146.8507     22.2733
   425.3000      8.0223      2.3002      0.0879     21.2030    145.4628     21.8010
   425.4000      8.0223      2.2478      0.0731     24.3756    143.3752     21.5474
   425.5000      8.0612      2.1912      0.0067     27.8081    142.8514     21.6559
   425.6000      8.0612      2.1597      0.0159     29.7146    145.5447     22.0617
   425.7000      8.0612      2.1659      0.0357     29.3374    148.7561     22.4469
   425.8000      8.1318      2.1941      0.0433     27.6306    147.9016     22.8612
   425.9000      8.1318      2.2220      0.0802     25.9389    144.1372     23.6673
   426.0000      8.2004      2.2416      0.0606     24.7510    142.9666     24.7828
   426.1000      8.2004      2.2690      0.0447     23.0915    144.4349     25.7863
   426.2000      8.2004      2.3200      0.0959     20.0000    143.2181     26.4435
   426.3000      8.1891      2.3854      0.1321     16.0373    139.8746     26.8088
   426.4000      8.1891      2.4516      0.0783     12.0263    137.7632     27.1000
   426.5000      8.1702      2.5140      0.1369      8.2401    134.8118     27.3995
   426.6000      8.1702      2.5632      0.0991      5.2598    131.0379     27.4825
   426.7000      8.1702      2.5902      0.1140      3.6261    130.1791     27.2141
   426.8000      8.1675      2.5932      0.1142      3.4404    131.4212     26.8156
   426.9000      8.1675      2.5785      0.1052      4.3360    131.0185     26.4489
