~Version Information
VERS.                      2.0: CWLS Log ASCII Standard - VERSION 2.0
WRAP.                       NO: One line per depth step
~Well Information Block
STRT.FT               240.0000: 
STOP.FT               966.2000: 
STEP.FT                 0.1000: 
NULL.                -999.2500: 
COMP.          Pioneer Natural Resources: COMPANY
WELL.          New Mexico 21-5: WELL
FLD.           Purgatoire River: FIELD
LOC.           175' FNL & 1700' FWL: LOCATION
PROV.                 Colorado: PROVINCE
CNTY.               Las Animas: COUNTRY
SRVC.                Patterson: SERVICE COMPANY
DATE.          Mon Dec 13 06:55:26 2004: LOG DATE
UWI.           05 071 08234 00: UNIQUE WELL ID
~Curve Information Block
DEPT.FT            0 000 00 00: Depth
DCAL.in                       : CDL Caliper
RHOB.g/cc                     : CDL Bulk Density
RHOC.g/cc                     : CDL Density Correction
DPOR.pu                       : CDL Density Porosity
NPOR.pu                       : Neutron Porosity
GR.GAPI                       : Gamma Ray
~Parameter Information Block
~A  Depth       DCAL        RHOB        RHOC        DPOR        NPOR         GR     
# ...
   796.8000      7.8973      2.1346      0.2017     31.2377     26.7306     79.1929
   796.9000      7.8973      2.2194      0.2204     26.0963     26.8318     81.0224
   797.0000      7.9094      2.3044      0.2265     20.9479     26.4170     86.6535
   797.1000      7.9094      2.3910      0.2094     15.6955     25.3763     93.1082
   797.2000      7.9094      2.4618      0.2397     11.4086     24.2843     92.5016
   797.3000      7.9100      2.4912      0.1596      9.6216     23.6469     88.8453
   797.4000      7.9100      2.4914      0.0701      9.6104     23.5167     90.8440
   797.5000      7.8998      2.4976      0.0669      9.2383     23.5930     97.3702
   797.6000      7.8998      2.5176      0.0807      8.0258     23.3708    102.2532
   797.7000      7.8998      2.5354      0.0794      6.9483     22.9975    104.2720
   797.8000      7.8916      2.5451      0.0601      6.3592     22.9339    102.7730
   797.9000      7.8916      2.5523      0.0477      5.9239     23.0340     99.5068
   798.0000      7.8872      2.5528      0.0885      5.8887     22.8548    100.5447
   798.1000      7.8872      2.5364      0.0779      6.8851     22.5811    105.9722
   798.2000      7.8872      2.5087      0.0196      8.5607     22.8409    110.7186
   798.3000      7.8864      2.4908      0.0175      9.6477     23.6805    110.7012
   798.4000      7.8864      2.4895      0.0446      9.7259     24.4564    106.9356
   798.5000      7.8871      2.4883      0.0440      9.7991     24.7639    105.4183
   798.6000      7.8871      2.4745      0.0478     10.6386     24.8251    107.2897
   798.7000      7.8871      2.4621     -0.0104     11.3853     24.6730    106.5477
   798.8000      7.8866      2.4725      0.0298     10.7585     24.5174    102.5082
   798.9000      7.8866      2.4927      0.0997      9.5311     24.5169    102.5520
   799.0000      7.8865      2.4938      0.0720      9.4654     24.3437    108.6999
   799.1000      7.8865      2.4783      0.0336     10.4033     24.2946    115.8010
   799.2000      7.8865      2.4683      0.0174     11.0137     24.6962    120.1951
   799.3000      7.8876      2.4696      0.0665     10.9333     25.0546    119.9458
   799.4000      7.8876      2.4747      0.0595     10.6242     25.2521    115.0715
   799.5000      7.8898      2.4868      0.0395      9.8879     25.3199    109.2866
   799.6000      7.8898      2.5140      0.0189      8.2396     25.1996    106.5405
   799.7000      7.8898      2.5381      0.1233      6.7815     25.2666    107.8577
   799.8000      7.8906      2.5322      0.0744      7.1366     25.8209    110.0196
   799.9000      7.8906      2.5077      0.0296      8.6243     26.5167    109.6534
   800.0000      7.8906      2.4907      0.0425      9.6549     26.5159    107.5025
   800.1000      7.8906      2.4859      0.0230      9.9424     25.9188    107.6846
   800.2000      7.8906      2.4845      0.0532     10.0306     25.9569    112.3616
   800.3000      7.8902      2.4831      0.0248     10.1130     26.4946    118.4092
   800.4000      7.8902      2.4880      0.0573      9.8170     26.5511    125.3897
   800.5000      7.8882      2.4942      0.0641      9.4433     26.3758    131.9762
   800.6000      7.8882      2.4921      0.0697      9.5676     26.3221    132.3506
   800.7000      7.8882      2.4896      0.0416      9.7221     26.3377    130.1582
   800.8000      7.8873      2.5013      0.0520      9.0138     26.5428    130.1320
   800.9000      7.8873      2.5241      0.0541      7.6296     26.7633    129.4316
   801.0000      7.8885      2.5381      0.0623      6.7793     26.9692    126.6624
   801.1000      7.8885      2.5356      0.0378      6.9335     27.3843    121.6038
   801.2000      7.8885      2.5291      0.0315      7.3261     27.6057    114.2106
   801.3000      7.8894      2.5259      0.0643      7.5229     27.2345    107.4017
   801.4000      7.8894      2.5158      0.0482      8.1328     26.8209    103.8682
   801.5000      7.8899      2.4827      0.0423     10.1419     26.9834    105.5979
   801.6000      7.8899      2.4156      0.0377     14.2071     27.6648    114.1561
   801.7000      7.8899      2.3185     -0.0242     20.0894     28.8898    125.0741
   801.8000      7.8926      2.2089     -0.0607     26.7339     30.4913    126.7898
   801.9000      7.8926      2.0994     -0.0771     33.3705     31.5470    114.3812
   802.0000      7.8989      1.9899     -0.0890     40.0047     31.6922     99.4574
   802.1000      7.8989      1.8781     -0.1382     46.7808     31.8246     94.5209
   802.2000      7.8989      1.7645     -0.1463     53.6656     32.5866     96.6049
   802.3000      7.9005      1.6454     -0.1137     60.8868     33.3418     95.6519
   802.4000      7.9005      1.5229     -0.1936     68.3083     33.5205     90.6849
   802.5000      7.8910      1.4193     -0.1737     74.5883     33.5460     87.1230
   802.6000      7.8910      1.3588     -0.1484     78.2521     33.2914     84.7827
   802.7000      7.8910      1.3489     -0.0454     78.8532     32.5721     78.1844
   802.8000      7.8801      1.3802      0.0108     76.9590     32.0299     69.2140
   802.9000      7.8801      1.4455      0.0275     73.0017     31.6898     64.4821
   803.0000      7.8762      1.5451      0.0904     66.9627     31.3905     66.0685
   803.1000      7.8762      1.6714      0.1348     59.3063     31.4855     72.2794
   803.2000      7.8762      1.8087      0.2008     50.9898     31.8646     76.8918
   803.3000      7.8850      1.9438      0.2470     42.8014     31.9860     76.7013
   803.4000      7.8850      2.0688      0.2797     35.2262     31.3610     79.3771
   803.5000      7.9024      2.1759      0.3160     28.7331     30.1423     87.9017
   803.6000      7.9024      2.2636      0.2916     23.4186     29.0853     96.4956
   803.7000      7.9024      2.3399      0.2710     18.7958     28.7957    102.6953
   803.8000      7.9135      2.4035      0.2514     14.9415     29.1215    106.2127
   803.9000      7.9135      2.4411      0.1915     12.6583     29.2549    109.8936
   804.0000      7.9154      2.4499      0.1115     12.1289     28.8420    116.7428
   804.1000      7.9154      2.4425      0.0912     12.5743     28.4209    123.7615
   804.2000      7.9154      2.4297      0.0873     13.3493     28.4036    129.5253
   804.3000      7.9148      2.4145      0.0498     14.2703     28.3215    133.2390
   804.4000      7.9148      2.4016      0.0458     15.0564     28.0233    132.7856
   804.5000      7.9144      2.3935      0.0647     15.5474     27.9978    130.2186
   804.6000      7.9144      2.3894      0.0498     15.7957     28.0604    127.3005
   804.7000      7.9144      2.3933      0.0550     15.5564     27.8700    126.4480
   804.8000      7.9153      2.4068      0.0631     14.7365     27.7192    127.0028
   804.9000      7.9153      2.4251      0.0620     13.6286     27.7727    125.1150
   805.0000      7.9177      2.4401      0.1041     12.7229     27.7062    122.4299
   805.1000      7.9177      2.4443      0.0758     12.4637     27.3457    123.8735
   805.2000      7.9177      2.4396      0.0752     12.7545     26.8892    129.0606
   805.3000      7.9172      2.4318      0.0750     13.2230     26.6015    131.8428
   805.4000      7.9172      2.4270      0.0583     13.5160     26.5001    129.9942
   805.5000      7.9157      2.4240      0.1009     13.6997     26.4188    127.8212
   805.6000      7.9157      2.4179      0.0819     14.0681     26.3461    129.3011
   805.7000      7.9157      2.4191      0.0435     13.9932     26.3755    129.8895
   805.8000      7.9159      2.4357      0.0919     12.9882     26.1911    124.6236
   805.9000      7.9159      2.4496      0.1324     12.1429     25.5092    120.1514
   806.0000      7.9158      2.4489      0.0743     12.1856     24.9140    123.3470
   806.1000      7.9158      2.4510      0.0469     12.0592     25.0839    128.6667
   806.2000      7.9158      2.4708      0.0753     10.8577     25.5227    130.1527
   806.3000      7.9161      2.4993      0.1229      9.1359     25.2283    130.8304
