~Version Information
VERS.                      2.0: CWLS Log ASCII Standard - VERSION 2.0
WRAP.                       NO: One line per depth step
~Well Information Block
STRT.FT               450.0000: 
STOP.FT              1739.2000: 
STEP.FT                 0.1000: 
NULL.                -999.2500: 
COMP.          Pioneer Natural Resources: COMPANY
WELL.            Harlee L 34-9: WELL
FLD.           Purgatoire River: FIELD
LOC.           600' FSL & 2125' FEL: LOCATION
PROV.                 Colorado: PROVINCE
CNTY.               Las Animas: COUNTRY
SRVC.                Patterson: SERVICE COMPANY
DATE.          Wed Jan 26 13:57:24 2005: LOG DATE
UWI.           05 071 08009 00: UNIQUE WELL ID
~Curve Information Block
DEPT.FT            0 000 00 00: Depth
DCAL.in                       : CDL Caliper
RHOB.g/cc                     : CDL Bulk Density
RHOC.g/cc                     : CDL Density Correction
DPOR.pu                       : CDL Density Porosity
NPOR.pu                       : Neutron Porosity
GR.GAPI                       : Gamma Ray
~Parameter Information Block
~A  Depth       DCAL        RHOB        RHOC        DPOR        NPOR         GR     
# ...
  1621.2000      8.7495      2.4784      0.0741     10.3993     22.7582    124.5014
  1621.3000      8.7474      2.4695      0.0644     10.9382     22.7621    120.2696
  1621.4000      8.7474      2.4553      0.0516     11.8019     22.8562    119.7243
  1621.5000      8.7480      2.4407      0.0351     12.6829     23.0679    121.4211
  1621.6000      8.7480      2.4285      0.0411     13.4213     22.8723    123.8968
  1621.7000      8.7480      2.4251      0.0114     13.6282     21.7920    123.4267
  1621.8000      8.7498      2.4339      0.0126     13.0979     20.5886    120.6119
  1621.9000      8.7498      2.4455      0.0623     12.3947     20.0462    116.8505
  1622.0000      8.7512      2.4459      0.0974     12.3675     20.1040    110.2394
  1622.1000      8.7512      2.4381      0.0339     12.8438     20.6723    106.2599
  1622.2000      8.7512      2.4382      0.0654     12.8378     21.3171    109.7958
  1622.3000      8.7513      2.4515      0.0817     12.0297     21.0950    113.9483
  1622.4000      8.7513      2.4686      0.0754     10.9920     20.6021    113.0171
  1622.5000      8.7511      2.4758      0.0997     10.5590     21.3844    109.5051
  1622.6000      8.7511      2.4656      0.0887     11.1783     22.7322    109.0161
  1622.7000      8.7511      2.4459      0.0432     12.3723     22.9334    116.5922
  1622.8000      8.7504      2.4293      0.0265     13.3746     22.3358    126.0619
  1622.9000      8.7504      2.4201      0.0294     13.9316     22.1462    126.4580
  1623.0000      8.7501      2.4198     -0.0016     13.9535     22.4543    120.9504
  1623.1000      8.7501      2.4231      0.0866     13.7524     22.7676    118.9871
  1623.2000      8.7501      2.4184      0.0609     14.0355     23.2337    122.7116
  1623.3000      8.7492      2.4130      0.0118     14.3634     24.4111    124.8465
  1623.4000      8.7492      2.4180      0.0506     14.0578     25.7553    119.4849
  1623.5000      8.7487      2.4241      0.0528     13.6908     25.6358    114.0889
  1623.6000      8.7487      2.4238      0.0374     13.7068     24.0896    116.8617
  1623.7000      8.7487      2.4203      0.0601     13.9208     22.5386    128.7577
  1623.8000      8.7501      2.4183      0.0374     14.0411     21.9043    145.1422
  1623.9000      8.7501      2.4247      0.0500     13.6535     22.4399    155.5184
  1624.0000      8.7507      2.4363      0.0817     12.9540     23.3290    150.0769
  1624.1000      8.7507      2.4393      0.0617     12.7683     23.4955    133.2791
  1624.2000      8.7507      2.4294      0.0485     13.3680     23.3181    120.8218
  1624.3000      8.7485      2.4190      0.0235     13.9994     23.5850    119.3973
  1624.4000      8.7485      2.4175      0.0631     14.0938     23.8412    123.1414
  1624.5000      8.7439      2.4210      0.0389     13.8762     23.0651    123.7093
  1624.6000      8.7439      2.4264      0.0264     13.5524     21.3184    118.2471
  1624.7000      8.7439      2.4298      0.0641     13.3468     20.1452    110.3853
  1624.8000      8.7410      2.4318      0.0448     13.2246     20.4740    106.6508
  1624.9000      8.7410      2.4419      0.0643     12.6120     21.5762    107.0793
  1625.0000      8.7447      2.4626      0.1123     11.3553     21.9596    105.3181
  1625.1000      8.7447      2.4850      0.1123     10.0029     21.4078    101.6627
  1625.2000      8.7447      2.5014      0.0738      9.0048     21.0053    101.0119
  1625.3000      8.7499      2.5140      0.0689      8.2401     21.1647    104.4790
  1625.4000      8.7499      2.5237      0.1078      7.6576     21.6660    105.3253
  1625.5000      8.7517      2.5255      0.0987      7.5476     22.3963    100.1254
  1625.6000      8.7517      2.5184      0.0761      7.9767     22.9749     96.2508
  1625.7000      8.7517      2.5031      0.0703      8.9012     22.6377     96.3985
  1625.8000      8.7507      2.4781      0.0791     10.4199     21.2900     96.2805
  1625.9000      8.7507      2.4489      0.0506     12.1876     20.2138     96.3686
  1626.0000      8.7504      2.4303      0.0074     13.3167     20.4490    101.0932
  1626.1000      8.7504      2.4222      0.0545     13.8085     21.4351    109.5508
  1626.2000      8.7504      2.4134      0.0238     14.3406     21.7740    117.4259
  1626.3000      8.7519      2.4065      0.0296     14.7567     21.3714    119.9237
  1626.4000      8.7519      2.4057      0.0209     14.8087     21.5607    115.4569
  1626.5000      8.7550      2.4041      0.0570     14.9047     22.4826    109.3149
  1626.6000      8.7550      2.3984      0.0495     15.2473     23.2188    105.7526
  1626.7000      8.7550      2.3941      0.0372     15.5065     23.5956    102.6165
  1626.8000      8.7555      2.3907      0.0591     15.7177     23.8946     98.5130
  1626.9000      8.7555      2.3848      0.0156     16.0708     23.9735     96.1290
  1627.0000      8.7529      2.3805      0.0145     16.3348     23.6257     97.0335
  1627.1000      8.7529      2.3780      0.0287     16.4870     23.1113    101.4676
  1627.2000      8.7529      2.3742      0.0166     16.7156     22.7078    107.1240
  1627.3000      8.7492      2.3724      0.0494     16.8252     22.6917    111.6555
  1627.4000      8.7492      2.3785      0.0467     16.4563     22.8535    115.8875
  1627.5000      8.7460      2.3931      0.0369     15.5672     22.7784    117.2091
  1627.6000      8.7460      2.4035      0.0778     14.9416     23.0713    113.4463
  1627.7000      8.7460      2.4006      0.0098     15.1179     24.1346    112.0313
  1627.8000      8.7466      2.4001      0.0187     15.1462     25.1045    117.5912
  1627.9000      8.7466      2.4115      0.0479     14.4573     25.2394    121.2654
  1628.0000      8.7479      2.4230      0.0830     13.7568     24.4548    116.4430
  1628.1000      8.7479      2.4263      0.0743     13.5573     23.3140    108.7938
  1628.2000      8.7479      2.4227      0.0879     13.7762     22.5582    105.2638
  1628.3000      8.7475      2.4235      0.0337     13.7295     22.2783    105.9317
  1628.4000      8.7475      2.4414      0.0620     12.6407     22.2360    107.1991
  1628.5000      8.7491      2.4667      0.0928     11.1069     22.1685    106.4628
  1628.6000      8.7491      2.4785      0.1007     10.3931     21.8383    105.3906
  1628.7000      8.7491      2.4767      0.0382     10.5025     21.5784    105.6095
  1628.8000      8.7509      2.4727      0.0716     10.7425     21.8381    106.4944
  1628.9000      8.7509      2.4691      0.0633     10.9651     22.1647    105.6294
  1629.0000      8.7503      2.4684      0.0318     11.0067     22.1981    103.3499
  1629.1000      8.7503      2.4675      0.0664     11.0613     22.0750    101.9873
  1629.2000      8.7503      2.4516      0.0530     12.0240     21.9210    100.9546
  1629.3000      8.7476      2.4209     -0.0001     13.8820     22.0060    101.0313
  1629.4000      8.7476      2.3921     -0.0110     15.6294     22.4074    104.1930
  1629.5000      8.7448      2.3775     -0.0167     16.5173     22.5586    104.8610
  1629.6000      8.7448      2.3767      0.0011     16.5658     22.1685     97.8496
  1629.7000      8.7448      2.3814     -0.0041     16.2783     21.7077     90.1274
  1629.8000      8.7440      2.3889      0.0052     15.8251     21.8896     88.6179
  1629.9000      8.7440      2.3949      0.0686     15.4593     23.0316     92.5539
  1630.0000      8.7447      2.3890      0.0784     15.8200     24.3162     95.9131
  1630.1000      8.7447      2.3804     -0.0079     16.3423     24.3131     91.9245
  1630.2000      8.7447      2.3879      0.0462     15.8850     23.1235     85.3254
  1630.3000      8.7420      2.3986      0.0467     15.2351     21.9325     84.2200
  1630.4000      8.7420      2.3900      0.0358     15.7562     21.3233     86.0227
  1630.5000      8.7360      2.3679     -0.0124     17.0982     21.2625     86.9831
  1630.6000      8.7360      2.3551      0.0047     17.8713     21.5535     88.2456
  1630.7000      8.7360      2.3627      0.0283     17.4151     22.1141     91.9513
