~Version Information
 VERS.                                  2.0 : CWLS LAS VERSION
 WRAP.                                   NO : WRAPING MODE
 SWARE .                 MController 2.5.0H : SOFTWARE VERSION
~Well Information
 WELL.                        TAMI J. 23-18 : WELL
 COMP.            PIONEER NATURAL RESOURCES : COMPANY
 FLD.                      PURGATOIRE RIVER : FIELD
 LOC.                 NE/SW Sec18 T33S R65W : LOCATION
 DATE.                             12/12/04 : DATE(S) LOGGED
 SRVC.        BLANCO GEOLOGICAL SEVICES LLC : SERVICE COMPANY
 STAT.                                   CO : STATE
 CNTY.                           LAS ANIMAS : COUNTY
 CTRY.                                  USA : COUNTRY
 API.                          05-071-08073 : API NUMBER
 STRT.FT                             263.00 : START DEPTH
 STOP.FT                            1765.00 : STOP DEPTH
 STEP.FT                               1.00 : DEPTH INCREMENT
 NULL.                                -9999 : NULL VALUE
~Curve information
 DEPTH.FT                                   :
 ROP.MIN/FT                                 :
 GAS.UNITS                                  :
~ASCII Log data
# ...
     1063.00        0.167          9.6 
     1064.00        0.167          9.5 
     1065.00        0.267          9.4 
     1066.00        0.200          9.6 
     1067.00        0.267          9.6 
     1068.00        0.200          8.8 
     1069.00        0.200          8.9 
     1070.00        0.133          8.9 
     1071.00        0.167          9.0 
     1072.00        0.133          9.0 
     1073.00        0.233          9.4 
     1074.00        0.217          9.6 
     1075.00        0.233          9.0 
     1076.00        2.300         38.4 
     1077.00        0.533         61.0 
     1078.00        0.250         64.5 
     1079.00        0.233         65.0 
     1080.00        0.333         64.2 
     1081.00        0.233         62.5 
     1082.00        0.233         62.2 
     1083.00        0.233         57.3 
     1084.00        0.233         55.4 
     1085.00        0.300         54.7 
     1086.00        0.267         49.9 
     1087.00        0.267         49.2 
     1088.00        0.233         46.9 
     1089.00        0.300         45.3 
     1090.00        0.233         42.9 
     1091.00        0.250         41.0 
     1092.00        0.167         41.2 
     1093.00        0.167         39.8 
     1094.00        0.167         39.1 
     1095.00        0.200         40.0 
     1096.00        0.200         39.9 
     1097.00        0.233         39.4 
     1098.00        0.233         39.4 
     1099.00        0.300         40.6 
     1100.00        0.233         40.4 
     1101.00        0.200         38.4 
     1102.00        0.200         38.1 
     1103.00        0.267         36.6 
     1104.00        0.233         36.6 
     1105.00        0.267         35.0 
     1106.00        2.017        158.4 
     1107.00        0.400        156.9 
     1108.00        0.333        139.3 
     1109.00        0.333        123.0 
     1110.00        0.267        105.9 
     1111.00        0.350         94.5 
     1112.00        0.233         84.2 
     1113.00        0.300         77.4 
     1114.00        0.233         75.4 
     1115.00        0.233         68.4 
     1116.00        0.267         67.9 
     1117.00        0.233         59.9 
     1118.00        0.167         56.2 
     1119.00        0.233         53.8 
     1120.00        0.300         48.4 
     1121.00        0.267         43.4 
     1122.00        0.300         43.6 
     1123.00        0.300         41.0 
     1124.00        0.283         38.8 
     1125.00        0.267         37.7 
     1126.00        0.300         36.6 
     1127.00        0.300         35.9 
     1128.00        0.267         36.1 
     1129.00        0.267         34.7 
     1130.00        0.233         36.5 
     1131.00        0.233         37.1 
     1132.00        0.233         38.2 
     1133.00        0.233         37.5 
     1134.00        0.233         35.9 
     1135.00        0.200         34.2 
     1136.00        3.083        190.4 
     1137.00        0.300        165.5 
     1138.00        0.350        146.0 
     1139.00        0.400        125.7 
     1140.00        0.333         99.5 
     1141.00        0.333         88.7 
     1142.00        0.267         72.6 
     1143.00        0.333         72.0 
     1144.00        0.333         65.8 
     1145.00        0.400         65.8 
     1146.00        0.333         63.7 
     1147.00        0.300         57.2 
     1148.00        0.317         55.0 
     1149.00        0.233         45.7 
     1150.00        0.233         44.9 
     1151.00        0.233         40.6 
     1152.00        0.233         36.0 
     1153.00        0.233         35.8 
     1154.00        0.233         33.7 
     1155.00        0.300         33.7 
     1156.00        0.233         32.1 
     1157.00        0.233         33.6 
     1158.00        0.233         33.9 
     1159.00        0.267         34.3 
     1160.00        0.233         35.4 
     1161.00        0.217         35.4 
     1162.00        0.233         36.6 
     1163.00        0.233         36.1 
     1164.00        0.233         36.9 
     1165.00        0.233         37.0 
     1166.00        1.833         48.2 
     1167.00        0.333         65.4 
     1168.00        0.483         76.8 
     1169.00        0.267         76.6 
     1170.00        0.267         75.0 
     1171.00        0.300         74.4 
     1172.00        0.300         73.0 
     1173.00        0.233         70.9 
     1174.00        0.267         68.2 
     1175.00        0.233         65.5 
     1176.00        0.267         62.4 
     1177.00        0.233         53.8 
     1178.00        0.367         52.4 
     1179.00        0.200         46.7 
     1180.00        0.217         44.1 
     1181.00        0.233         44.1 
     1182.00        0.233         42.4 
     1183.00        0.200         42.1 
     1184.00        0.200         40.6 
     1185.00        0.200         39.0 
     1186.00        0.233         38.8 
     1187.00        0.233         37.4 
     1188.00        0.333         36.7 
     1189.00        0.267         35.4 
     1190.00        0.233         35.8 
     1191.00        0.233         35.3 
     1192.00        0.233         33.9 
     1193.00        0.200         33.5 
     1194.00        0.250         32.8 
     1195.00        0.200         30.4 
     1196.00        2.000         64.3 
     1197.00        0.433         71.1 
     1198.00        0.300         74.4 
     1199.00        0.267         73.5 
     1200.00        0.283         73.2 
     1201.00        0.300         71.3 
     1202.00        0.367         69.9 
     1203.00        0.267         63.9 
     1204.00        0.300         62.9 
     1205.00        0.267         57.4 
     1206.00        0.333         55.9 
     1207.00        0.233         50.7 
     1208.00        0.233         46.2 
     1209.00        0.233         46.4 
     1210.00        0.267         41.2 
     1211.00        0.267         40.8 
     1212.00        0.250         37.9 
     1213.00        0.200         36.4 
     1214.00        0.200         35.6 
     1215.00        0.167         35.1 
     1216.00        0.167         35.1 
     1217.00        0.267         34.8 
     1218.00        0.433         32.9 
     1219.00        0.433         31.6 
     1220.00        0.267         31.9 
     1221.00        0.200         31.9 
     1222.00        0.233         31.7 
     1223.00        0.200         32.7 
     1224.00        0.167         33.5 
     1225.00        0.233         32.5 
     1226.00        2.317         85.3 
     1227.00        0.433         88.8 
     1228.00        0.367         87.0 
     1229.00        0.267         77.4 
     1230.00        0.283         76.7 
     1231.00        0.267         71.3 
     1232.00        0.300         67.3 
     1233.00        0.333         63.4 
     1234.00        0.200         62.2 
     1235.00        0.233         61.4 
     1236.00        0.200         60.5 
     1237.00        0.300         59.4 
     1238.00        0.267         54.4 
     1239.00        0.167         54.4 
     1240.00        0.200         49.4 
     1241.00        0.267         49.0 
     1242.00        0.267         43.4 
     1243.00        0.250         38.7 
     1244.00        0.233         38.1 
     1245.00        0.233         35.5 
     1246.00        0.267         34.1 
     1247.00        0.233         33.8 
     1248.00        0.300         32.8 
     1249.00        0.233         32.5 
     1250.00        0.233         31.9 
     1251.00        0.233         32.6 
     1252.00        0.167         32.6 
     1253.00        0.233         32.5 
     1254.00        0.300         31.1 
     1255.00        0.233         29.1 
     1256.00        2.383         74.2 
     1257.00        0.467         85.6 
     1258.00        0.233         85.7 
     1259.00        0.233         85.0 
     1260.00        0.200         81.1 
     1261.00        0.183         77.1 
     1262.00        0.267         72.9 
