~Version Information
VERS.                      2.0: CWLS Log ASCII Standard - VERSION 2.0
WRAP.                       NO: One line per depth step
~Well Information Block
STRT.FT               -14.2500: 
STOP.FT              2177.5000: 
STEP.FT                 0.2500: 
NULL.                -999.2500: 
COMP.          Evergreen Operating Corp.: COMPANY
WELL.            Triumph 13-10: WELL
FLD.           Purgatorie River: FIELD
LOC.           1551' FSL & 522' FWL--: LOCATION
PROV.                       CO: PROVINCE
CNTY.               Las Animas: COUNTRY
SRVC.                         : SERVICE COMPANY
DATE.          Sat Aug 21 09:27:32 2004: LOG DATE
UWI.           005 071 08108 : UNIQUE WELL ID
~Curve Information Block
DEPT.FT            0 000 00 00: Depth
CCL.                          : Casing Collar Locator
TT3.usec                      : CBL 3' Travel Time
AMP3.mV                       : CBL 3' Amplitude
GR.GAPI                       : Gamma Ray
~Parameter Information Block
~A  Depth       CCL         TT3         AMP3         GR     
# ...
  1995.7500      0.0000    683.2646      4.9663     67.4279
  1996.0000      0.0000    681.3094      5.1724     65.3641
  1996.2500      0.0000    674.0203      5.2818     62.2731
  1996.5000      0.0000    665.1660      5.2464     59.9007
  1996.7500      0.0000    661.3247      5.0812     59.2835
  1997.0000      0.0000    666.0478      4.8224     59.8853
  1997.2500      0.0000    676.7640      4.5064     60.0363
  1997.5000      0.0000    687.5573      4.1776     58.2573
  1997.7500      0.0000    694.4686      3.8950     54.5726
  1998.0000      0.0000    697.6345      3.7169     50.6444
  1998.2500      0.0000    698.8724      3.6792     48.3209
  1998.5000      0.0000    698.3284      3.7807     48.1154
  1998.7500      0.0000    693.5067      3.9788     49.3509
  1999.0000      0.0000    681.2433      4.2030     51.4974
  1999.2500      0.0000    661.7402      4.3931     54.7545
  1999.5000      0.0000    641.6519      4.5283     59.2858
  1999.7500      0.0000    630.9907      4.6123     64.4233
  2000.0000      0.0000    634.0703      4.6348     69.0158
  2000.2500      0.0000    644.2109      4.5677     72.2725
  2000.5000      0.0000    648.9284      4.4150     73.8730
  2000.7500      0.0000    639.3922      4.2497     73.5438
  2001.0000      0.0000    615.1448      4.1703     71.2102
  2001.2500      0.0000    582.8600      4.2119     67.6737
  2001.5000      0.0000    551.6223      4.3076     64.7915
  2001.7500      0.0000    527.8552      4.3354     64.8216
  2002.0000      0.0000    513.6643      4.2097     69.1874
  2002.2500      0.0000    509.2181      3.9492     77.1910
  2002.5000      0.0000    514.8947      3.6742     85.7950
  2002.7500      0.0000    529.8285      3.5263     91.3528
  2003.0000      0.0000    548.7237      3.5726     92.0207
  2003.2500      0.0000    561.9526      3.7749     88.3062
  2003.5000      0.0000    561.6649      4.0398     81.5457
  2003.7500      0.0000    549.0019      4.2896     72.7918
  2004.0000      0.0000    533.8627      4.4930     63.2984
  2004.2500      0.0000    526.9378      4.6518     54.9543
  2004.5000      0.0000    532.7709      4.7698     49.3766
  2004.7500      0.0000    548.7202      4.8287     46.8499
  2005.0000      0.0000    568.3601      4.7972     46.5691
  2005.2500      1.8805    586.9359      4.6717     47.6565
  2005.5000      2.0000    604.5943      4.5009     49.5739
  2005.7500      0.0000    623.5935      4.3543     51.9158
  2006.0000      0.0000    643.0372      4.2737     54.4704
  2006.2500      0.0000    658.8168      4.2577     57.5522
  2006.5000      0.0000    668.7734      4.2811     61.8622
  2006.7500      0.0000    675.0167      4.3016     67.8051
  2007.0000      0.0000    679.4771      4.2507     74.9112
  2007.2500      0.0000    679.3083      4.0536     81.8920
  2007.5000      0.0000    668.4473      3.6842     87.3477
  2007.7500      0.0000    643.2795      3.2085     90.6489
  2008.0000      0.0000    606.6990      2.7740     92.2675
  2008.2500      0.0000    567.7813      2.5382     93.2280
  2008.5000      0.0000    537.5746      2.5718     94.2102
  2008.7500      0.0000    523.2927      2.8087     95.2302
  2009.0000      0.0000    525.0613      3.0929     96.0173
  2009.2500      0.0000    538.0139      3.2867     96.3822
  2009.5000      0.0000    557.4868      3.3533     96.2850
  2009.7500      0.0000    581.5138      3.3605     95.8950
  2010.0000      0.0000    608.4755      3.4089     95.5681
  2010.2500      0.0000    634.7070      3.5452     95.4605
  2010.5000      0.0000    656.3443      3.7291     95.1961
  2010.7500      0.0000    672.3916      3.8744     94.1270
  2011.0000      0.0000    684.4061      3.9147     91.8917
  2011.2500      0.0000    693.9139      3.8382     88.6149
  2011.5000      0.0000    701.1838      3.6757     84.7767
  2011.7500      0.0000    706.1106      3.4789     81.1902
  2012.0000      0.0000    709.2435      3.3122     78.9371
  2012.2500      0.0000    711.6312      3.2343     78.7422
  2012.5000      0.0000    713.6796      3.2552     80.2400
  2012.7500      0.0000    714.0327      3.3153     82.2524
  2013.0000      0.0000    710.0647      3.3332     83.9697
  2013.2500      0.0000    700.4894      3.2862     85.5485
  2013.5000      0.0000    687.7083      3.2338     87.5297
  2013.7500      0.0000    676.5479      3.2506     90.1545
  2014.0000      0.0000    670.2282      3.3405     93.3506
  2014.2500      0.0000    668.3459      3.4325     96.9727
  2014.5000      0.0000    668.7465      3.4556    100.9414
  2014.7500      0.0000    670.1362      3.4042    105.2701
  2015.0000      0.0000    672.5496      3.3268    109.7929
  2015.2500      0.0000    676.0844      3.2624    113.6750
  2015.5000      0.0000    679.3675      3.1983    115.3764
  2015.7500      0.0000    679.0769      3.0910    113.4936
  2016.0000      0.0000    671.7884      2.9253    107.9059
  2016.2500      0.0000    657.6553      2.7485    100.1829
  2016.5000      0.0000    642.2997      2.6448     92.7516
  2016.7500      0.0000    633.4781      2.6691     87.3370
  2017.0000      0.0000    634.6962      2.8052     83.9387
  2017.2500      0.0000    642.4859      2.9840     81.4568
  2017.5000      0.0000    650.2771      3.1316     79.4158
  2017.7500      0.0000    654.0753      3.1981     78.5552
  2018.0000      0.0000    654.3410      3.1635     79.4618
  2018.2500      0.0000    654.3577      3.0328     81.5485
  2018.5000      0.0000    657.9091      2.8409     83.9950
  2018.7500      0.0000    667.1141      2.6670     86.7821
  2019.0000      0.0000    681.1688      2.6108     89.9287
  2019.2500      0.0000    697.3937      2.7210     92.4284
  2019.5000      0.0000    713.5140      2.9546     92.9029
  2019.7500      0.0000    728.2625      3.2225     91.1720
  2020.0000      0.0000    739.8971      3.4562     88.5437
  2020.2500      0.0000    745.5690      3.6218     86.4248
  2020.5000      0.0000    743.3829      3.7104     85.0780
  2020.7500      0.0000    734.8409      3.7431     84.0058
  2021.0000      0.0000    724.2819      3.7619     83.0610
  2021.2500      0.0000    715.7548      3.7789     82.5117
  2021.5000      0.0000    710.7619      3.7527     82.2400
  2021.7500      0.0000    708.5872      3.6538     81.7865
  2022.0000      0.0000    707.8418      3.5369     81.3495
  2022.2500      0.0000    707.5107      3.4883     81.8589
  2022.5000      0.0000    707.1236      3.5157     83.5499
  2022.7500      0.0000    706.5404      3.5570     85.1824
  2023.0000      0.0000    705.8091      3.5962     85.3754
  2023.2500      0.0000    705.1529      3.6907     84.2119
  2023.5000      0.0000    704.9081      3.8670     82.7100
  2023.7500      0.0000    705.2233      4.0509     81.1276
  2024.0000      0.0000    705.6328      4.1305     78.8261
  2024.2500      0.0000    704.8376      4.0612     75.8877
  2024.5000      0.0000    701.2250      3.8945     74.0600
  2024.7500      0.0000    694.3276      3.7222     75.5287
  2025.0000      0.0000    686.1331      3.6039     80.8094
  2025.2500      0.0000    680.2986      3.5429     88.0963
  2025.5000      0.0000    679.2908      3.5180     94.6608
  2025.7500      0.0000    682.5430      3.5155     98.6599
  2026.0000      0.0000    687.5747      3.5242     99.9407
  2026.2500      0.0000    692.1203      3.5194     99.6792
  2026.5000      0.0000    695.0951      3.4716     99.2068
  2026.7500      0.0000    696.6343      3.3676     98.9107
  2027.0000      0.0000    697.5709      3.2167     98.4522
  2027.2500      0.0000    698.1341      3.0467     98.0931
  2027.5000      0.0000    696.9361      2.8938     99.1887
  2027.7500      0.0000    691.8082      2.7768    102.7864
  2028.0000      0.0000    682.2490      2.6834    107.9565
  2028.2500      0.0000    671.0475      2.5960    112.1592
  2028.5000      0.0000    662.5774      2.5189    113.4213
  2028.7500      0.0000    658.0618      2.4610    111.7536
  2029.0000      0.0000    652.5248      2.4171    108.4960
