~Version Information
 VERS.                                  2.0 : CWLS LAS VERSION
 WRAP.                                   NO : WRAPING MODE
 SWARE .                 MController 2.5.0E : SOFTWARE VERSION
~Well Information
 WELL.                          Lynch 43-30 : WELL
 COMP.        Pioneer Natural Resources Inc : COMPANY
 FLD.                      Purgatoire River : FIELD
 LOC.                NE/SE Sec 30 T32S R67W : LOCATION
 DATE.                             10/25/04 : DATE(S) LOGGED
 SRVC.       Blanco Geological services LLc : SERVICE COMPANY
 STAT.                                   CO : STATE
 CNTY.                           Las Animas : COUNTY
 CTRY.                                  USA : COUNTRY
 API.                       05-071-08170-00 : API NUMBER
 STRT.FT                             410.00 : START DEPTH
 STOP.FT                            2845.00 : STOP DEPTH
 STEP.FT                               1.00 : DEPTH INCREMENT
 NULL.                                -9999 : NULL VALUE
~Curve information
 DEPTH.FT                                   :
 ROP.MIN/FT                                 :
 GAS.UNITS                                  :
~ASCII Log data
# ...
     1810.00        0.217         18.0 
     1811.00        0.233         18.5 
     1812.00        0.233         18.2 
     1813.00        0.200         17.3 
     1814.00        0.200         16.9 
     1815.00        0.200         17.1 
     1816.00        0.200         17.6 
     1817.00        0.267         21.4 
     1818.00        0.267         21.8 
     1819.00        0.167         20.4 
     1820.00        0.233         18.8 
     1821.00        0.267         16.0 
     1822.00        0.200         13.4 
     1823.00        0.200         12.1 
     1824.00        0.450         12.1 
     1825.00        0.300          9.9 
     1826.00        2.833         19.3 
     1827.00        0.783         31.7 
     1828.00        0.400         33.9 
     1829.00        0.267         34.0 
     1830.00        0.233         33.8 
     1831.00        0.167         32.5 
     1832.00        0.300         32.3 
     1833.00        0.233         30.2 
     1834.00        0.233         28.6 
     1835.00        0.267         25.0 
     1836.00        0.300         22.0 
     1837.00        0.300         20.3 
     1838.00        0.250         18.8 
     1839.00        0.233         17.2 
     1840.00        0.200         16.7 
     1841.00        0.233         15.9 
     1842.00        0.233         15.6 
     1843.00        0.300         15.4 
     1844.00        0.300         15.0 
     1845.00        0.267         14.5 
     1846.00        0.333         14.9 
     1847.00        0.300         17.1 
     1848.00        0.333         17.9 
     1849.00        0.367         16.8 
     1850.00        0.250         14.4 
     1851.00        0.233         12.2 
     1852.00        0.200         10.8 
     1853.00        0.300         11.4 
     1854.00        0.200         10.3 
     1855.00        0.200         11.2 
     1856.00        3.150         24.3 
     1857.00        0.367         29.9 
     1858.00        0.267         32.9 
     1859.00        0.300         35.5 
     1860.00        0.267         35.9 
     1861.00        0.333         35.3 
     1862.00        0.300         32.8 
     1863.00        0.267         30.5 
     1864.00        0.350         28.2 
     1865.00        0.300         24.4 
     1866.00        0.300         22.4 
     1867.00        0.267         20.6 
     1868.00        0.167         18.9 
     1869.00        0.333         18.1 
     1870.00        0.333         17.1 
     1871.00        0.200         17.0 
     1872.00        0.200         16.4 
     1873.00        0.233         16.6 
     1874.00        0.300         16.1 
     1875.00        0.333         15.8 
     1876.00        0.283         16.2 
     1877.00        0.267         17.5 
     1878.00        0.267         17.9 
     1879.00        0.200         16.7 
     1880.00        0.200         15.3 
     1881.00        0.267         14.4 
     1882.00        0.300         12.8 
     1883.00        0.267         12.0 
     1884.00        0.267         11.6 
     1885.00        0.267         11.1 
     1886.00        4.567         47.1 
     1887.00        0.400         47.3 
     1888.00        0.400         46.8 
     1889.00        0.433         40.9 
     1890.00        0.533         35.1 
     1891.00        0.233         26.2 
     1892.00        0.167         22.9 
     1893.00        0.167         21.9 
     1894.00        0.167         20.1 
     1895.00        0.233         19.6 
     1896.00        0.250         18.7 
     1897.00        0.233         17.5 
     1898.00        0.200         16.5 
     1899.00        0.133         15.5 
     1900.00        0.167         15.5 
     1901.00        0.233         14.8 
     1902.00        0.200         15.6 
     1903.00        0.200         10.9 
     1904.00        0.233          7.6 
     1905.00        0.233          6.3 
     1906.00        0.233          6.2 
     1907.00        0.200          6.3 
     1908.00        0.200          9.9 
     1909.00        0.200         17.3 
     1910.00        0.200         19.7 
     1911.00        0.200         19.8 
     1912.00        0.167         19.2 
     1913.00        0.183         17.3 
     1914.00        0.200         16.6 
     1915.00        0.167         15.5 
     1916.00        2.533         46.0 
     1917.00        0.417         46.9 
     1918.00        0.367         44.6 
     1919.00        0.333         39.7 
     1920.00        0.267         34.1 
     1921.00        0.267         30.6 
     1922.00        0.233         27.6 
     1923.00        0.267         25.6 
     1924.00        0.233         23.5 
     1925.00        0.233         22.7 
     1926.00        0.200         22.6 
     1927.00        0.233         22.4 
     1928.00        0.200         22.5 
     1929.00        0.200         22.6 
     1930.00        0.217         22.9 
     1931.00        0.167         23.0 
     1932.00        0.200         22.6 
     1933.00        0.200         23.1 
     1934.00        0.200         24.8 
     1935.00        0.200         26.3 
     1936.00        0.200         26.8 
     1937.00        0.200         26.1 
     1938.00        0.200         25.1 
     1939.00        0.233         22.6 
     1940.00        0.267         20.3 
     1941.00        0.233         17.8 
     1942.00        0.167         15.8 
     1943.00        0.200         15.0 
     1944.00        0.167         14.1 
     1945.00        0.133         13.0 
     1946.00        2.617         47.8 
     1947.00        0.400         48.3 
     1948.00        0.300         45.8 
     1949.00        0.300         40.0 
     1950.00        0.317         35.5 
     1951.00        0.633         29.4 
     1952.00        0.267         23.7 
     1953.00        0.300         21.9 
     1954.00        0.233         20.6 
     1955.00        0.233         20.1 
     1956.00        0.267         20.0 
     1957.00        0.300         20.4 
     1958.00        0.267         20.0 
     1959.00        0.200         19.8 
     1960.00        0.417         19.6 
     1961.00        0.267         19.3 
     1962.00        0.300         19.1 
     1963.00        0.300         18.9 
     1964.00        0.267         18.7 
     1965.00        0.233         19.9 
     1966.00        0.233         20.6 
     1967.00        0.200         19.9 
     1968.00        0.200         19.9 
     1969.00        0.167         19.5 
     1970.00        0.200         19.0 
     1971.00        0.200         18.1 
     1972.00        0.200         16.6 
     1973.00        0.200         15.4 
     1974.00        0.233         14.2 
     1975.00        0.283         13.8 
     1976.00        2.867         43.9 
     1977.00        0.317         43.6 
     1978.00        0.200         40.8 
     1979.00        0.133         38.9 
     1980.00        0.133         37.5 
     1981.00        0.267         36.6 
     1982.00        0.300         32.8 
     1983.00        0.233         28.9 
     1984.00        0.333         27.2 
     1985.00        0.433         23.6 
     1986.00        0.400         22.5 
     1987.00        0.333         22.2 
     1988.00        0.233         21.9 
     1989.00        0.200         21.6 
     1990.00        0.217         21.2 
     1991.00        0.200         20.8 
     1992.00        0.167         20.2 
     1993.00        0.200         20.2 
     1994.00        0.267         19.5 
     1995.00        0.200         20.1 
     1996.00        0.267         21.2 
     1997.00        0.267         21.3 
     1998.00        0.200         21.1 
     1999.00        0.200         20.2 
     2000.00        0.200         18.2 
     2001.00        0.200         16.3 
     2002.00        0.233         15.1 
     2003.00        0.200         13.9 
     2004.00        0.167         12.5 
     2005.00        0.200         12.6 
     2006.00        2.983         45.3 
     2007.00        0.333         43.7 
     2008.00        0.317         39.5 
     2009.00        0.300         32.6 
