~Version Information
VERS.                      2.0: CWLS Log ASCII Standard - VERSION 2.0
WRAP.                       NO: One line per depth step
~Well Information Block
STRT.FT               555.5000: 
STOP.FT              2179.0000: 
STEP.FT                 0.2500: 
NULL.                -999.2500: 
COMP.          Petrogulf Corporation: COMPANY
WELL.            Montoya 6-14R: WELL
FLD.           Purgatorie River: FIELD
LOC.           867' FSL & 751' FWL: LOCATION
CNTY.               Las Animas: COUNTY
SRVC.                         : SERVICE COMPANY
DATE.          Mon Nov 15 07:02:23 2004: LOG DATE
UWI.           05 071 08242 00: UNIQUE WELL ID
STAT.                 Colorado: STATE
~Curve Information Block
DEPT.FT            0 000 00 00: Depth
SP.mV                         : DIL Spontaneous Potential
RILD.Ohm-m                    : DIL Deep Resistivity
RILM.Ohm-m                    : DIL Medium Resistivity
RLL3.Ohm-m                    : DIL Shallow Resistivity
GR.GAPI                       : Gamma Ray
~Parameter Information Block
~A  Depth        SP         RILD        RILM        RLL3         GR     
# ...
  1843.5000   -132.3459      8.3182      8.5268     10.1246    122.9100
  1843.7500   -131.2508      8.2892      8.4679     10.0386    121.8160
  1844.0000   -129.9920      8.2682      8.4066      9.9250    121.3890
  1844.2500   -128.6729      8.2545      8.3471      9.7802    122.3943
  1844.5000   -127.4070      8.2468      8.2926      9.6134    125.7663
  1844.7500   -126.2957      8.2436      8.2456      9.4466    128.5840
  1845.0000   -125.4106      8.2435      8.2077      9.3086    132.0133
  1845.2500   -124.7790      8.2450      8.1795      9.2236    133.0580
  1845.5000   -124.3824      8.2471      8.1610      9.2008    132.6719
  1845.7500   -124.1713      8.2493      8.1517      9.2301    131.5978
  1846.0000   -124.0882      8.2523      8.1507      9.2879    129.6762
  1846.2500   -124.0941      8.2572      8.1570      9.3487    128.3500
  1846.5000   -124.1785      8.2663      8.1690      9.3984    125.8574
  1846.7500   -124.3616      8.2821      8.1855      9.4407    123.6160
  1847.0000   -124.6793      8.3071      8.2050      9.4939    120.0164
  1847.2500   -125.1635      8.3434      8.2268      9.5802    118.4900
  1847.5000   -125.8226      8.3923      8.2506      9.7139    119.1267
  1847.7500   -126.6308      8.4540      8.2773      9.8930    121.5500
  1848.0000   -127.5325      8.5281      8.3085     10.0992    126.6134
  1848.2500   -128.4483      8.6136      8.3474     10.3059    129.7529
  1848.5000   -129.2898      8.7097      8.3977     10.4888    132.8575
  1848.7500   -129.9793      8.8162      8.4643     10.6369    133.7341
  1849.0000   -130.4637      8.9336      8.5524     10.7587    133.6725
  1849.2500   -130.7277      9.0629      8.6676     10.8815    133.0937
  1849.5000   -130.7998      9.2057      8.8154     11.0452    132.0699
  1849.7500   -130.7491      9.3635      9.0007     11.2935    131.5359
  1850.0000   -130.6663      9.5375      9.2270     11.6644    130.9335
  1850.2500   -130.6394      9.7286      9.4964     12.1847    130.4048
  1850.5000   -130.7305      9.9373      9.8084     12.8672    128.8952
  1850.7500   -130.9535     10.1638     10.1597     13.7115    127.1923
  1851.0000   -131.2744     10.4085     10.5441     14.7032    123.3204
  1851.2500   -131.6216     10.6713     10.9526     15.8091    119.7637
  1851.5000   -131.9095     10.9525     11.3749     16.9701    113.1564
  1851.7500   -132.0635     11.2515     11.8003     18.0962    108.3542
  1852.0000   -132.0335     11.5662     12.2198     19.0712    101.9147
  1852.2500   -131.8082     11.8937     12.6274     19.7724     99.0197
  1852.5000   -131.4128     12.2286     13.0208     20.1034     97.5858
  1852.7500   -130.9019     12.5638     13.4012     20.0283     98.3010
  1853.0000   -130.3476     12.8901     13.7720     19.5909    100.5450
  1853.2500   -129.8262     13.1972     14.1370     18.9093    102.1218
  1853.5000   -129.4097     13.4739     14.4977     18.1455    104.1754
  1853.7500   -129.1524     13.7091     14.8511     17.4605    105.4081
  1854.0000   -129.0863     13.8930     15.1884     16.9734    107.2468
  1854.2500   -129.2160     14.0177     15.4944     16.7369    108.5457
  1854.5000   -129.5180     14.0785     15.7479     16.7344    110.6787
  1854.7500   -129.9443     14.0743     15.9257     16.8946    112.1232
  1855.0000   -130.4275     14.0072     16.0058     17.1188    113.8940
  1855.2500   -130.9015     13.8825     15.9726     17.3072    114.6527
  1855.5000   -131.3109     13.7077     15.8209     17.3810    115.3697
  1855.7500   -131.6281     13.4914     15.5569     17.2929    115.8049
  1856.0000   -131.8575     13.2427     15.1974     17.0273    116.4729
  1856.2500   -132.0294     12.9705     14.7656     16.5938    116.6904
  1856.5000   -132.1874     12.6831     14.2873     16.0203    116.0713
  1856.7500   -132.3702     12.3884     13.7868     15.3463    114.8732
  1857.0000   -132.5965     12.0928     13.2845     14.6188    112.5207
  1857.2500   -132.8599     11.8017     12.7958     13.8874    111.4087
  1857.5000   -133.1279     11.5189     12.3311     13.1980    111.7126
  1857.7500   -133.3551     11.2473     11.8969     12.5861    113.3916
  1858.0000   -133.4998     10.9882     11.4968     12.0723    117.3924
  1858.2500   -133.5384     10.7425     11.1327     11.6624    120.4626
  1858.5000   -133.4786     10.5107     10.8057     11.3512    125.0180
  1858.7500   -133.3584     10.2935     10.5168     11.1285    127.7481
  1859.0000   -133.2393     10.0919     10.2667     10.9830    130.7713
  1859.2500   -133.1825      9.9075     10.0558     10.9055    131.8026
  1859.5000   -133.2304      9.7418      9.8844     10.8876    132.2168
  1859.7500   -133.3847      9.5967      9.7515     10.9199    132.3931
  1860.0000   -133.6016      9.4742      9.6555     10.9904    133.6005
  1860.2500   -133.8006      9.3754      9.5934     11.0842    135.2517
  1860.5000   -133.8820      9.3009      9.5617     11.1844    138.4882
  1860.7500   -133.7542      9.2502      9.5560     11.2755    140.5011
  1861.0000   -133.3580      9.2213      9.5718     11.3458    142.1167
  1861.2500   -132.6740      9.2109      9.6046     11.3895    141.8421
  1861.5000   -131.7203      9.2137      9.6501     11.4068    139.5989
  1861.7500   -130.5397      9.2235      9.7041     11.4029    137.5668
  1862.0000   -129.1874      9.2329      9.7621     11.3879    135.2885
  1862.2500   -127.7254      9.2346      9.8192     11.3743    134.8044
  1862.5000   -126.2327      9.2223      9.8699     11.3743    135.0818
  1862.7500   -124.8132      9.1913      9.9077     11.3955    135.0926
  1863.0000   -123.6001      9.1395      9.9261     11.4367    133.7557
  1863.2500   -122.7414      9.0677      9.9192     11.4859    131.8646
  1863.5000   -122.3604      8.9791      9.8827     11.5221    128.1805
  1863.7500   -122.5173      8.8790      9.8146     11.5212    125.8427
  1864.0000   -123.1704      8.7736      9.7161     11.4637    123.6820
  1864.2500   -124.1724      8.6689      9.5910     11.3411    123.4147
  1864.5000   -125.2957      8.5698      9.4457     11.1592    124.2679
  1864.7500   -126.2884      8.4796      9.2877     10.9349    125.1301
  1865.0000   -126.9286      8.3996      9.1248     10.6904    126.3730
  1865.2500   -127.0736      8.3294      8.9640     10.4472    127.2147
  1865.5000   -126.6765      8.2672      8.8112     10.2222    128.5782
  1865.7500   -125.7805      8.2103      8.6704     10.0264    129.4225
  1866.0000   -124.4903      8.1560      8.5444      9.8655    130.3376
  1866.2500   -122.9448      8.1017      8.4346      9.7403    130.6277
  1866.5000   -121.2905      8.0463      8.3410      9.6444    130.2236
  1866.7500   -119.6663      7.9893      8.2632      9.5639    129.0578
  1867.0000   -118.1974      7.9320      8.1997      9.4794    125.8047
  1867.2500   -116.9893      7.8763      8.1485      9.3719    122.9274
  1867.5000   -116.1211      7.8246      8.1073      9.2314    118.0884
  1867.7500   -115.6342      7.7796      8.0734      9.0624    114.6013
  1868.0000   -115.5269      7.7432      8.0442      8.8849    109.0612
  1868.2500   -115.7517      7.7168      8.0176      8.7274    105.3574
  1868.5000   -116.2275      7.7011      7.9923      8.6167    100.2208
  1868.7500   -116.8581      7.6962      7.9680      8.5678     97.3084
  1869.0000   -117.5502      7.7019      7.9454      8.5798     94.1615
  1869.2500   -118.2272      7.7180      7.9260      8.6391     93.1779
  1869.5000   -118.8300      7.7447      7.9120      8.7280     93.7733
  1869.7500   -119.3065      7.7821      7.9055      8.8352     95.5197
  1870.0000   -119.6051      7.8306      7.9089      8.9605     99.2686
  1870.2500   -119.6756      7.8906      7.9239      9.1130    101.6027
  1870.5000   -119.4816      7.9623      7.9524      9.3043    103.5965
  1870.7500   -119.0189      8.0452      7.9955      9.5393    103.8344
  1871.0000   -118.3330      8.1391      8.0543      9.8111    103.2475
  1871.2500   -117.5217      8.2431      8.1298     10.1011    102.6481
