~Version Information
VERS.                      2.0: CWLS Log ASCII Standard - VERSION 2.0
WRAP.                       NO: One line per depth step
~Well Information Block
STRT.FT               866.0000: 
STOP.FT              2027.5000: 
STEP.FT                 0.1000: 
NULL.                -999.2500: 
COMP.          Petrogulf Corporation: COMPANY
WELL.             State 16-21R: WELL
FLD.           Purgatorie River: FIELD
LOC.           203' FNL & 1560' FWL: LOCATION
PROV.                 Colorado: PROVINCE
CNTY.               Las Animas: COUNTRY
SRVC.                Patterson: SERVICE COMPANY
DATE.          Tue Aug 16 13:32:09 2005: LOG DATE
UWI.                071 08313 : UNIQUE WELL ID
~Curve Information Block
DEPT.FT            0 000 00 00: Depth
DCAL.in                       : CDL Caliper
RHOB.g/cc                     : CDL Bulk Density
RHOC.g/cc                     : CDL Density Correction
DPOR.pu                       : CDL Density Porosity
GR.GAPI                       : Gamma Ray
NPOR.pu                       : Neutron Porosity
~Parameter Information Block
~A  Depth       DCAL        RHOB        RHOC        DPOR         GR         NPOR    
# ...
  1403.6000      8.0407      2.4797      0.0482     10.3203     99.6551     24.6741
  1403.7000      8.0407      2.4702      0.0315     10.8998     97.0163     24.7054
  1403.8000      7.9889      2.4592      0.0485     11.5633     94.6279     24.9617
  1403.9000      7.9889      2.4535      0.0178     11.9105     95.2428     25.3466
  1404.0000      7.9965      2.4620      0.0065     11.3932     98.1386     25.5336
  1404.1000      7.9965      2.4889      0.0683      9.7626     99.5302     25.3059
  1404.2000      7.9965      2.5235      0.0635      7.6683     98.8905     24.9543
  1404.3000      7.9701      2.5451      0.1092      6.3578     97.0060     24.9259
  1404.4000      7.9701      2.5423      0.1017      6.5278     93.5795     25.1340
  1404.5000      7.9939      2.5268      0.0952      7.4685     91.2339     25.2080
  1404.6000      7.9939      2.5144      0.0887      8.2189     91.3645     24.9842
  1404.7000      7.9939      2.5029      0.1084      8.9179     90.9146     24.5488
  1404.8000      8.0050      2.4812      0.0992     10.2316     90.8300     24.2883
  1404.9000      8.0050      2.4543      0.0624     11.8633     92.8335     24.3191
  1405.0000      8.0275      2.4398      0.0721     12.7398     94.7945     24.2726
  1405.1000      8.0275      2.4445      0.0596     12.4555     95.8079     24.1200
  1405.2000      8.0275      2.4613      0.1025     11.4335     96.6804     24.2135
  1405.3000      8.0774      2.4858      0.0798      9.9544     96.8258     24.4766
  1405.4000      8.0774      2.5190      0.1121      7.9393     95.7432     24.6122
  1405.5000      8.1055      2.5523      0.1892      5.9236     95.9135     24.7012
  1405.6000      8.1055      2.5692      0.2088      4.8976     98.2636     24.8330
  1405.7000      8.1055      2.5639      0.1781      5.2194    101.4931     24.6307
  1405.8000      8.0967      2.5447      0.1445      6.3817    105.8924     24.0455
  1405.9000      8.0967      2.5241      0.1117      7.6329    111.2192     23.8143
  1406.0000      8.0847      2.5021      0.1264      8.9615    115.5918     24.1997
  1406.1000      8.0847      2.4735      0.0699     10.6943    117.8444     24.6077
  1406.2000      8.0847      2.4525      0.0249     11.9722    120.1290     24.5698
  1406.3000      8.0193      2.4598      0.0223     11.5301    124.4399     24.2928
  1406.4000      8.0193      2.4910      0.0696      9.6338    128.5876     24.3026
  1406.5000      8.0279      2.5246      0.1183      7.5994    129.2883     24.8094
  1406.6000      8.0279      2.5516      0.0985      5.9648    125.7005     25.4870
  1406.7000      8.0279      2.5797      0.0959      4.2632    121.1187     25.9023
  1406.8000      8.0772      2.6040      0.1408      2.7872    120.1376     26.0380
  1406.9000      8.0772      2.6075      0.1108      2.5752    122.4383     26.0672
  1407.0000      8.1140      2.5919      0.0626      3.5219    123.9953     25.8627
  1407.1000      8.1140      2.5704      0.1000      4.8244    122.5588     25.3751
  1407.2000      8.1140      2.5555      0.0271      5.7251    116.7146     24.8560
  1407.3000      8.1061      2.5585      0.0620      5.5450    106.8919     24.6190
  1407.4000      8.1061      2.5722      0.0327      4.7180     97.1029     24.6261
  1407.5000      8.1024      2.5844      0.0141      3.9758     90.4338     24.5651
  1407.6000      8.1024      2.6026     -0.0128      2.8751     85.7759     24.3782
  1407.7000      8.1024      2.6369      0.0859      0.7926     80.6131     23.9413
  1407.8000      8.0409      2.6897      0.0233     -2.4086     74.8639     22.9929
  1407.9000      8.0409      2.7629      0.1164     -6.8429     71.0232     21.8235
  1408.0000      7.9522      2.8382      0.1850    -11.4062     69.4852     20.9285
  1408.1000      7.9522      2.8877      0.2200    -14.4053     67.3651     20.3688
  1408.2000      7.9522      2.9020      0.2097    -15.2741     63.1366     19.9708
  1408.3000      7.8599      2.8905      0.1842    -14.5771     59.4647     19.5199
  1408.4000      7.8599      2.8648      0.1472    -13.0196     59.5035     18.9269
  1408.5000      7.7623      2.8238      0.1179    -10.5332     61.9251     18.3828
  1408.6000      7.7623      2.7633      0.0037     -6.8652     63.7160     17.9542
  1408.7000      7.7623      2.6991     -0.0657     -2.9730     64.9373     17.4309
  1408.8000      7.8225      2.6550     -0.0696     -0.3018     67.8921     16.9317
  1408.9000      7.8225      2.6289     -0.0075      1.2817     72.3250     16.6530
  1409.0000      7.8949      2.6022      0.0216      2.8995     75.8758     16.3223
  1409.1000      7.8949      2.5763      0.0189      4.4696     77.6245     15.7526
  1409.2000      7.8949      2.5644      0.0263      5.1883     77.9847     15.2385
  1409.3000      7.9426      2.5654      0.0806      5.1243     77.6731     15.0536
  1409.4000      7.9426      2.5661      0.0629      5.0843     77.5958     15.1751
  1409.5000      7.9245      2.5597      0.0601      5.4722     77.7731     15.3850
  1409.6000      7.9245      2.5500      0.0823      6.0580     78.6309     15.3870
  1409.7000      7.9245      2.5434      0.0740      6.4622     80.4084     15.2525
  1409.8000      7.9284      2.5437      0.0424      6.4415     81.4556     15.3339
  1409.9000      7.9284      2.5470      0.0631      6.2423     80.7579     15.6708
  1410.0000      7.9333      2.5417      0.0524      6.5633     79.0255     15.9624
  1410.1000      7.9333      2.5209      0.0754      7.8235     77.2539     15.9429
  1410.2000      7.9333      2.4983      0.0123      9.1957     75.6417     15.5934
  1410.3000      7.9268      2.4973      0.0182      9.2543     75.8700     15.0509
  1410.4000      7.9268      2.5196      0.0357      7.9010     79.0725     14.6979
  1410.5000      7.9378      2.5479      0.0721      6.1885     82.7403     14.7213
  1410.6000      7.9378      2.5681      0.1093      4.9638     84.8144     14.8118
  1410.7000      7.9378      2.5771      0.0848      4.4163     84.8971     14.7277
  1410.8000      7.9249      2.5741      0.1018      4.5973     84.6909     14.4307
  1410.9000      7.9249      2.5618      0.0777      5.3452     87.0497     14.0712
  1411.0000      7.9290      2.5531      0.0752      5.8734     91.0742     13.8504
  1411.1000      7.9290      2.5543      0.0954      5.7981     93.4049     13.8714
  1411.2000      7.9290      2.5607      0.1022      5.4123     93.3412     14.0975
  1411.3000      7.9280      2.5714      0.0890      4.7608     91.5893     14.2387
  1411.4000      7.9280      2.5862      0.1010      3.8657     88.9063     13.9515
  1411.5000      7.9330      2.5982      0.1240      3.1410     85.7112     13.3156
  1411.6000      7.9330      2.6081      0.0887      2.5424     82.9376     12.8607
  1411.7000      7.9330      2.6253      0.1261      1.4975     82.1887     12.8452
  1411.8000      7.9333      2.6445      0.1551      0.3343     82.7561     12.9100
  1411.9000      7.9333      2.6485      0.1663      0.0939     82.8629     12.7835
  1412.0000      7.9164      2.6352      0.1123      0.8985     82.5075     12.6348
  1412.1000      7.9164      2.6209      0.0887      1.7654     82.3307     12.5749
  1412.2000      7.9164      2.6208      0.0640      1.7709     84.0911     12.6254
  1412.3000      7.8881      2.6321      0.0975      1.0871     88.5301     12.8804
  1412.4000      7.8881      2.6363      0.0955      0.8328     94.3553     13.1045
  1412.5000      7.9041      2.6281      0.0673      1.3281     99.4781     13.0047
  1412.6000      7.9041      2.6202      0.0816      1.8049     99.9107     12.9844
  1412.7000      7.9041      2.6170      0.0739      2.0000     95.0806     13.3649
  1412.8000      7.9224      2.6133      0.0596      2.2229     90.6414     13.7792
  1412.9000      7.9224      2.6135      0.0726      2.2111     91.5180     13.9521
  1413.0000      7.8875      2.6277      0.0755      1.3505     96.1479     14.1598
  1413.1000      7.8875      2.6522      0.0824     -0.1304     99.8669     14.7434
