~Version Information
VERS.                      2.0: CWLS Log ASCII Standard - VERSION 2.0
WRAP.                       NO: One line per depth step
~Well Information Block
STRT.FT                -7.5000: 
STOP.FT              1877.2500: 
STEP.FT                 0.2500: 
NULL.                -999.2500: 
COMP.          Pioneer Natural Resources: COMPANY
WELL.            Nova 11-14 Tr: WELL
FLD.           Purgatorie River: FIELD
LOC.           706' FNL & 1109' FWL--: LOCATION
PROV.                       CO: PROVINCE
CNTY.               Las Animas: COUNTRY
SRVC.          Patterson Wireline: SERVICE COMPANY
DATE.          Tue Jul 26 15:08:01 2005: LOG DATE
UWI.           05 071 08434 00: UNIQUE WELL ID
~Curve Information Block
DEPT.FT            0 000 00 00: Depth
CCL.                          : Casing Collar Locator
TT3.usec                      : CBL 3' Travel Time
AMP3.mV                       : CBL 3' Amplitude
GR.GAPI                       : Gamma Ray
~Parameter Information Block
~A  Depth       CCL         TT3         AMP3         GR     
# ...
  1098.0000      0.0000    742.5496      8.6423    136.9900
  1098.2500      0.0000    743.1255      8.6269    137.2199
  1098.5000      0.0000    745.0107      8.6294    136.1632
  1098.7500      0.0000    749.1292      8.6308    132.1332
  1099.0000      0.0000    755.6711      8.6184    125.4298
  1099.2500      0.0000    762.8580      8.5934    118.1386
  1099.5000      0.0000    766.1105      8.5681    112.2045
  1099.7500      0.0000    760.0407      8.5450    108.0093
  1100.0000      0.0000    744.1426      8.4890    104.9386
  1100.2500      0.0000    727.1091      8.3273    102.5755
  1100.5000      0.0000    722.7711      8.0070    100.7977
  1100.7500      0.0000    739.2983      7.5707     99.3239
  1101.0000      0.0000    772.2181      7.1534     97.8825
  1101.2500      0.0000    808.0201      6.8823     96.5570
  1101.5000      0.0000    834.1387      6.7834     95.5589
  1101.7500      2.0000    846.3849      6.7908     94.9185
  1102.0000      0.0000    848.5352      6.8212     94.6115
  1102.2500     -2.0000    846.0912      6.8261     94.5650
  1102.5000      0.0000    841.0154      6.8021     94.2580
  1102.7500      0.0000    831.9941      6.7843     92.6926
  1103.0000      0.0000    817.8326      6.8278     89.1798
  1103.2500      0.0000    799.1420      6.9742     84.1194
  1103.5000      0.0000    778.0302      7.2215     78.8114
  1103.7500      0.0000    758.0176      7.5226     74.5075
  1104.0000      0.0000    743.3502      7.8090     71.7134
  1104.2500      0.0000    736.4025      8.0275     70.2178
  1104.5000      0.0000    735.9557      8.1649     69.4773
  1104.7500      0.0000    738.9600      8.2385     69.0568
  1105.0000      0.0000    743.7146      8.2677     69.0423
  1105.2500      0.0000    750.9366      8.2616     70.0772
  1105.5000      0.0000    762.0086      8.2292     72.6920
  1105.7500      0.0000    776.3265      8.1894     76.3548
  1106.0000      0.0000    790.3897      8.1652     79.3146
  1106.2500      0.0000    800.1109      8.1739     79.9131
  1106.5000      0.0000    804.2927      8.2245     78.3928
  1106.7500      0.0000    805.4161      8.3260     76.9253
  1107.0000      0.0000    806.9003      8.4903     77.2814
  1107.2500      0.0000    810.0065      8.7161     78.7564
  1107.5000      0.0000    813.4503      8.9661     78.9810
  1107.7500      0.0000    815.5746      9.1732     76.6793
  1108.0000      0.0000    816.2188      9.2813     72.9703
  1108.2500      0.0000    816.0798      9.2804     69.7535
  1108.5000      0.0000    814.9060      9.2036     67.4714
  1108.7500      0.0000    811.6009      9.0952     65.0098
  1109.0000      0.0000    806.2769      8.9834     61.4309
  1109.2500      0.0000    800.8713      8.8691     57.1799
  1109.5000      0.0000    796.8079      8.7316     53.5854
  1109.7500      0.0000    792.8669      8.5465     51.6136
  1110.0000      0.0000    786.8740      8.3037     51.3393
  1110.2500      0.0000    779.2918      8.0117     52.3847
  1110.5000      0.0000    773.2485      7.6912     54.3791
  1110.7500      0.0000    770.4678      7.3650     56.7565
  1111.0000      0.0000    769.0165      7.0518     58.5275
  1111.2500      0.0000    766.1901      6.7634     58.9158
  1111.5000      0.0000    762.2220      6.5046     58.3059
  1111.7500      0.0000    759.7311      6.2749     58.0767
  1112.0000      0.0000    760.3470      6.0742     59.2394
  1112.2500      0.0000    762.8459      5.9080     61.3947
  1112.5000      0.0000    763.6378      5.7862     63.2120
  1112.7500      0.0000    758.2872      5.7171     63.9011
  1113.0000      0.0000    744.1915      5.7007     64.1224
  1113.2500      0.0000    723.6942      5.7259     65.4341
  1113.5000      0.0000    704.1875      5.7702     68.8818
  1113.7500      0.0000    693.8262      5.8045     73.9558
  1114.0000      0.0000    696.5524      5.8031     78.8119
  1114.2500      0.0000    709.9399      5.7552     81.6842
  1114.5000      0.0000    726.3641      5.6703     82.2421
  1114.7500      0.0000    737.0900      5.5717     81.5314
  1115.0000      0.0000    737.6301      5.4838     80.7435
  1115.2500      0.0000    730.0320      5.4192     80.2301
  1115.5000      0.0000    719.6092      5.3735     79.5357
  1115.7500      0.0000    709.7668      5.3317     78.1136
  1116.0000      0.0000    700.5057      5.2779     76.0083
  1116.2500      0.0000    690.9749      5.2011     73.8988
  1116.5000      0.0000    681.8272      5.0987     72.5224
  1116.7500      0.0000    674.7377      4.9800     72.0164
  1117.0000      0.0000    670.8431      4.8660     71.8107
  1117.2500      0.0000    670.5884      4.7812     71.1804
  1117.5000      0.0000    674.6873      4.7443     69.9122
  1117.7500      0.0000    684.1743      4.7640     68.4187
  1118.0000      0.0000    698.5892      4.8418     67.3398
  1118.2500      0.0000    713.9334      4.9729     67.0243
  1118.5000      0.0000    723.8163      5.1445     67.2552
  1118.7500      0.0000    724.5821      5.3362     67.4206
  1119.0000      0.0000    719.4999      5.5250     67.0020
  1119.2500      0.0000    715.9939      5.6909     65.9467
  1119.5000      0.0000    717.7309      5.8226     64.6872
  1119.7500      0.0000    720.6338      5.9228     63.8674
  1120.0000      0.0000    717.7784      6.0103     63.8898
  1120.2500      0.0000    707.1897      6.1124     64.5307
  1120.5000      0.0000    693.4812      6.2521     64.9893
  1120.7500      0.0000    682.8669      6.4339     64.4687
  1121.0000      0.0000    678.4070      6.6400     62.8773
  1121.2500      0.0000    679.5591      6.8394     61.0608
  1121.5000      0.0000    684.1488      7.0057     60.3631
  1121.7500      0.0000    689.9753      7.1294     61.8798
  1122.0000      0.0000    695.3462      7.2185     66.0077
  1122.2500      0.0000    698.9955      7.2926     72.3529
  1122.5000      0.0000    700.1766      7.3754     79.6768
  1122.7500      0.0000    699.3713      7.4855     86.1519
  1123.0000      0.0000    698.5658      7.6266     90.4176
  1123.2500      0.0000    699.8868      7.7837     92.7491
  1123.5000      0.0000    703.7146      7.9308     94.8856
  1123.7500      0.0000    708.5131      8.0449     98.5102
  1124.0000      0.0000    712.4445      8.1157    104.0326
  1124.2500      0.0000    714.7415      8.1458    110.6828
  1124.5000      0.0000    715.6932      8.1462    117.3082
  1124.7500      0.0000    715.9557      8.1276    123.0154
  1125.0000      0.0000    716.1388      8.0914    127.4284
  1125.2500      0.0000    716.8804      8.0294    130.6366
  1125.5000      0.0000    719.1336      7.9348    132.9350
  1125.7500      0.0000    724.2355      7.8118    134.4971
  1126.0000      0.0000    733.2074      7.6700    135.1269
  1126.2500      0.0000    745.4808      7.5122    134.1231
  1126.5000      0.0000    758.5744      7.3335    130.3849
  1126.7500      0.0000    769.8091      7.1324    122.9638
  1127.0000      0.0000    778.3803      6.9153    111.8225
  1127.2500      0.0000    785.2911      6.6866     98.2196
  1127.5000      0.0000    791.5995      6.4443     84.5199
  1127.7500      0.0000    797.2950      6.1897     73.5683
  1128.0000      0.0000    801.4792      5.9351     67.6582
  1128.2500      0.0000    803.1617      5.6957     67.4066
  1128.5000      0.0000    802.1758      5.4770     71.3723
  1128.7500      0.0000    799.5377      5.2756     76.8546
  1129.0000      0.0000    796.7313      5.0922     81.3006
  1129.2500      0.0000    794.6832      4.9382     83.3719
  1129.5000      0.0000    793.5491      4.8282     83.0594
  1129.7500      0.0000    793.2087      4.7665     80.9830
  1130.0000      0.0000    793.8937      4.7446     77.6363
  1130.2500      0.0000    796.8669      4.7522     73.2787
  1130.5000      0.0000    805.1873      4.7893     68.4697
  1130.7500      0.0000    823.2011      4.8688     64.4023
  1131.0000      0.0000    852.8547      5.0095     62.3215
  1131.2500      0.0000    888.4857      5.2243     62.5838
