~Version Information
VERS.                      2.0: CWLS Log ASCII Standard - VERSION 2.0
WRAP.                       NO: One line per depth step
~Well Information Block
STRT.FT                -3.0000: 
STOP.FT              1828.0000: 
STEP.FT                 0.2500: 
NULL.                -999.2500: 
COMP.          Pioneer Natural Resources: COMPANY
WELL.           Guajardo 24-16: WELL
FLD.           Purgatorie River: FIELD
LOC.           883' FSL & 2147' FWL--: LOCATION
PROV.                       CO: PROVINCE
CNTY.               Las Animas: COUNTRY
SRVC.          Patterson Wireline: SERVICE COMPANY
DATE.          Wed Aug 10 11:02:25 2005: LOG DATE
UWI.           05 071 08377 00: UNIQUE WELL ID
~Curve Information Block
DEPT.FT            0 000 00 00: Depth
CCL.                          : Casing Collar Locator
TT3.usec                      : CBL 3' Travel Time
AMP3.mV                       : CBL 3' Amplitude
GR.GAPI                       : Gamma Ray
~Parameter Information Block
~A  Depth       CCL         TT3         AMP3         GR     
# ...
  1672.0000      0.0000    704.4021      6.5512     86.0843
  1672.2500     -2.0000    719.6871      6.3306     82.5654
  1672.5000      0.0000    735.7543      6.0549     77.3505
  1672.7500      0.0000    749.2950      5.8130     70.8659
  1673.0000      0.0000    757.6684      5.6779     63.4887
  1673.2500      0.0000    760.8018      5.6428     56.0599
  1673.5000      0.0000    761.3560      5.6435     50.0592
  1673.7500      0.0000    762.6263      5.6528     46.9064
  1674.0000      0.0000    765.3546      5.7189     47.2453
  1674.2500      0.0000    766.5627      5.8854     50.9192
  1674.5000      0.0000    762.1366      6.1131     57.3431
  1674.7500      0.0000    750.7103      6.3177     65.6030
  1675.0000      0.0000    735.1401      6.4621     74.1935
  1675.2500      0.0000    720.4683      6.5751     81.1913
  1675.5000      0.0000    710.3467      6.6970     85.3996
  1675.7500      0.0000    704.4589      6.8348     87.2590
  1676.0000      0.0000    698.2808      6.9668     87.9067
  1676.2500      0.0000    685.4222      7.0647     87.3616
  1676.5000      0.0000    661.9247      7.1101     84.5237
  1676.7500      0.0000    630.3066      7.1026     79.0823
  1677.0000      0.0000    600.0615      7.0628     72.5637
  1677.2500      0.0000    582.9882      7.0223     67.1219
  1677.5000      0.0000    586.0618      7.0057     63.7763
  1677.7500      0.0000    607.2866      7.0204     62.0565
  1678.0000      0.0000    637.6135      7.0575     60.8566
  1678.2500      0.0000    666.9875      7.1032     59.2953
  1678.5000      0.0000    689.6488      7.1501     57.2139
  1678.7500      0.0000    705.1343      7.1989     55.3226
  1679.0000      0.0000    715.4709      7.2513     54.6414
  1679.2500      0.0000    721.9924      7.3029     55.4245
  1679.5000      0.0000    724.5847      7.3450     56.8941
  1679.7500      0.0000    723.0784      7.3713     58.4199
  1680.0000      0.0000    718.4692      7.3818     60.6624
  1680.2500      0.0000    712.4492      7.3814     64.9215
  1680.5000      0.0000    706.0404      7.3741     71.2914
  1680.7500      0.0000    698.9833      7.3596     77.9094
  1681.0000      0.0000    690.4987      7.3361     82.3056
  1681.2500      0.0000    680.5762      7.3065     83.2661
  1681.5000      0.0000    670.7039      7.2784     81.1777
  1681.7500      0.0000    663.4868      7.2569     77.1024
  1682.0000      0.0000    661.1697      7.2386     72.1935
  1682.2500      0.0000    663.8126      7.2139     67.6944
  1682.5000      0.0000    668.5428      7.1732     64.6410
  1682.7500      0.0000    671.0640      7.1137     63.2935
  1683.0000      0.0000    668.6802      7.0429     63.1335
  1683.2500      0.0000    662.1447      6.9786     63.5584
  1683.5000      0.0000    654.7476      6.9403     64.4506
  1683.7500      0.0000    649.9735      6.9378     65.9206
  1684.0000      0.0000    649.8461      6.9641     67.6126
  1684.2500      0.0000    654.4678      7.0013     68.5349
  1684.5000      0.0000    662.3264      7.0320     67.7031
  1684.7500      0.0000    671.0181      7.0452     64.9303
  1685.0000      0.0000    678.2918      7.0339     61.0690
  1685.2500      0.0000    682.7634      6.9958     57.5598
  1685.5000      0.0000    683.6571      6.9401     55.7216
  1685.7500      0.0000    679.7674      6.8882     56.3361
  1686.0000      0.0000    668.9129      6.8617     59.5345
  1686.2500      0.0000    649.1522      6.8680     64.7331
  1686.5000      0.0000    621.4186      6.8986     70.7151
  1686.7500      0.0000    591.2938      6.9382     75.9819
  1687.0000      0.0000    567.5732      6.9745     79.1793
  1687.2500      0.0000    558.1191      7.0021     79.4567
  1687.5000      0.0000    566.1213      7.0188     76.8300
  1687.7500      0.0000    589.0844      7.0247     72.4137
  1688.0000      0.0000    620.2758      7.0257     68.1178
  1688.2500      0.0000    651.3748      7.0337     65.6186
  1688.5000      0.0000    675.4807      7.0597     65.2501
  1688.7500      0.0000    689.3522      7.1045     65.9261
  1689.0000      0.0000    693.7144      7.1592     66.2729
  1689.2500      0.0000    691.7859      7.2139     65.8763
  1689.5000      0.0000    687.2632      7.2664     65.5362
  1689.7500      0.0000    682.6566      7.3225     66.3802
  1690.0000      0.0000    678.6855      7.3871     68.6535
  1690.2500      0.0000    675.0627      7.4562     71.2435
  1690.5000      0.0000    671.6421      7.5157     72.3325
  1690.7500      0.0000    668.6163      7.5503     70.6341
  1691.0000      0.0000    666.0311      7.5536     66.2529
  1691.2500      0.0000    663.7667      7.5326     60.5357
  1691.5000      0.0000    662.0151      7.5067     55.2117
  1691.7500      0.0000    661.3348      7.5000     51.6535
  1692.0000      0.0000    661.9940      7.5252     50.6408
  1692.2500      0.0000    663.3619      7.5700     52.3434
  1692.5000      0.0000    663.9159      7.6040     56.3308
  1692.7500      0.0000    661.3880      7.6015     61.7798
  1693.0000      0.0000    652.8467      7.5598     67.8735
  1693.2500      0.0000    635.7308      7.4965     74.0321
  1693.5000      0.0000    610.2571      7.4351     79.7730
  1693.7500      0.0000    580.9750      7.3892     84.5071
  1694.0000      0.0000    554.8392      7.3588     87.6740
  1694.2500      0.0000    537.1208      7.3342     89.0323
  1694.5000      0.0000    529.2795      7.3064     88.5331
  1694.7500      0.0000    530.0778      7.2722     85.9932
  1695.0000      0.0000    537.4766      7.2342     81.4371
  1695.2500      0.0000    549.4127      7.1963     75.8739
  1695.5000      0.0000    564.0658      7.1629     71.1134
  1695.7500      0.0000    580.3758      7.1394     68.4308
  1696.0000      0.0000    598.1298      7.1303     67.6786
  1696.2500      0.0000    616.9078      7.1348     67.7638
  1696.5000      0.0000    634.9370      7.1445     67.6357
  1696.7500      0.0000    649.5751      7.1476     66.8622
  1697.0000      0.0000    659.1610      7.1355     65.6782
  1697.2500      0.0000    664.0568      7.1079     64.5984
  1697.5000      0.0000    665.9102      7.0723     63.7956
  1697.7500      0.0000    666.3342      7.0383     62.8417
  1698.0000      0.0000    666.2784      7.0114     61.1832
  1698.2500      0.0000    666.1284      6.9917     58.7998
  1698.5000      0.0000    665.9908      6.9764     56.2449
  1698.7500      0.0000    665.8729      6.9630     54.1641
  1699.0000      0.0000    665.7557      6.9493     52.9052
  1699.2500      0.0000    665.6177      6.9329     52.4011
  1699.5000      0.0000    665.4540      6.9106     52.3247
  1699.7500      0.0000    665.2827      6.8787     52.5285
  1700.0000      0.0000    665.1343      6.8361     53.3182
  1700.2500      0.0000    665.0321      6.7861     55.0147
  1700.5000      0.0000    664.9755      6.7342     57.2907
  1700.7500      0.0000    664.9428      6.6822     59.1802
  1701.0000      0.0000    664.9045      6.6200     59.6967
  1701.2500      0.0000    664.8575      6.5256     58.4376
  1701.5000      0.0000    664.8893      6.3772     55.7430
  1701.7500      0.0000    665.2563      6.1677     52.4243
  1702.0000      0.0000    666.3027      5.9078     49.4498
  1702.2500      0.0000    668.0383      5.6130     47.6809
  1702.5000      0.0000    669.6673      5.2927     47.3502
  1702.7500      0.0000    669.8600      4.9519     47.6515
  1703.0000      0.0000    667.8438      4.5995     47.3721
  1703.2500      0.0000    664.1083      4.2482     46.1953
  1703.5000      0.0000    659.8403      3.9085     45.0070
  1703.7500      0.0000    656.0328      3.5867     44.6810
  1704.0000      0.0000    653.5070      3.2923     44.9590
  1704.2500      0.0000    653.4953      3.0437     44.9269
  1704.5000      0.0000    657.4608      2.8636     44.4427
  1704.7500      0.0000    665.7437      2.7669     44.5402
  1705.0000      0.0000    676.2683      2.7525     46.2737
  1705.2500      0.0000    685.1030      2.8065     49.5809
