~Version Information
VERS.                      2.0: CWLS Log ASCII Standard - VERSION 2.0
WRAP.                       NO: One line per depth step
~Well Information Block
STRT.FT                -3.0000: 
STOP.FT              1679.2500: 
STEP.FT                 0.2500: 
NULL.                -999.2500: 
COMP.          Evergreen Operating Corp.: COMPANY
WELL.            Rimrock 14-29: WELL
FLD.           Purgatorie River: FIELD
LOC.           945' FSL & 604' FWL--: LOCATION
PROV.                       CO: PROVINCE
CNTY.               Las Animas: COUNTRY
SRVC.                         : SERVICE COMPANY
DATE.          Mon Oct 04 13:02:21 2004: LOG DATE
UWI.           05 071 08136 00: UNIQUE WELL ID
~Curve Information Block
DEPT.FT            0 000 00 00: Depth
GR.GAPI                       : Gamma Ray
CCL.                          : Casing Collar Locator
TT3.usec                      : CBL 3' Travel Time
AMP3.mV                       : CBL 3' Amplitude
~Parameter Information Block
~A  Depth        GR         CCL         TT3         AMP3    
# ...
  1102.5000     96.4558      0.0000    655.9459      5.5772
  1102.7500     87.2197      0.0000    659.4734      5.6927
  1103.0000     82.6887      0.0000    661.3992      5.7563
  1103.2500     82.4212      0.0000    662.3102      5.7543
  1103.5000     85.5929      0.0000    663.3242      5.6858
  1103.7500     91.9528      0.0000    665.6978      5.5668
  1104.0000    101.8721      0.0000    669.8032      5.4273
  1104.2500    115.3710      0.0000    673.0565      5.2993
  1104.5000    130.9738      0.0000    669.1580      5.2064
  1104.7500    145.6078      0.0000    651.7147      5.1566
  1105.0000    156.0832      0.0000    620.0621      5.1453
  1105.2500    161.0657      0.0000    580.9470      5.1662
  1105.5000    161.6568      0.0000    544.3911      5.2163
  1105.7500    160.1188      0.0000    518.8781      5.2846
  1106.0000    158.3931      0.0000    510.0353      5.3429
  1106.2500    157.6280      0.0000    521.1699      5.3592
  1106.5000    158.0582      0.0000    552.1711      5.3219
  1106.7500    158.5940      0.0000    597.0321      5.2473
  1107.0000    156.9346      0.0000    644.0703      5.1640
  1107.2500    151.0554      0.0000    680.9146      5.0926
  1107.5000    141.1378      0.0000    700.5504      5.0409
  1107.7500    129.9402      0.0000    703.4905      5.0074
  1108.0000    120.9812      0.0000    695.4618      4.9853
  1108.2500    116.0893      0.0000    683.3051      4.9635
  1108.5000    114.3686      0.0000    671.8215      4.9266
  1108.7500    113.3295      0.0000    663.1044      4.8624
  1109.0000    111.0840      0.0000    657.7798      4.7747
  1109.2500    107.5791      0.0000    656.2272      4.6872
  1109.5000    103.9860      0.0000    658.9022      4.6247
  1109.7500    101.3974      0.0000    666.3860      4.5883
  1110.0000    100.1790      0.0000    679.4088      4.5542
  1110.2500     99.9064      0.0000    697.7338      4.4959
  1110.5000     99.5857      0.0000    717.7949      4.4078
  1110.7500     98.3893      0.0000    732.3736      4.3099
  1111.0000     96.4679      0.0000    735.1625      4.2349
  1111.2500     94.8057      0.0000    726.1255      4.2118
  1111.5000     94.2769      0.0000    710.7688      4.2541
  1111.7500     95.1497      0.0000    694.6368      4.3511
  1112.0000     97.3917      0.0000    680.3986      4.4673
  1112.2500    101.0598      0.0000    669.1125      4.5560
  1112.5000    106.0419      0.0000    661.3456      4.5857
  1112.7500    111.2509      0.0000    656.7734      4.5577
  1113.0000    114.4465      0.0000    654.1160      4.5010
  1113.2500    113.5621      0.0000    651.8778      4.4483
  1113.5000    108.3312      0.0000    649.1277      4.4180
  1113.7500    100.4326      0.0000    645.8710      4.4166
  1114.0000     92.3604      0.0000    642.5773      4.4486
  1114.2500     86.4037      0.0000    639.3291      4.5172
  1114.5000     84.0340      0.0000    635.8705      4.6145
  1114.7500     85.3150      0.0000    632.3667      4.7124
  1115.0000     88.7716      0.0000    629.4777      4.7711
  1115.2500     92.3224      0.0000    627.6890      4.7607
  1115.5000     94.6484      0.0000    626.9872      4.6826
  1115.7500     95.7348      0.0000    627.1846      4.5725
  1116.0000     96.2767      0.0000    628.3815      4.4817
  1116.2500     96.9059      0.0000    631.1402      4.4516
  1116.5000     97.8843      0.0000    636.1319      4.4968
  1116.7500     99.0851      0.0000    643.2838      4.6013
  1117.0000    100.0365      0.0000    651.1362      4.7268
  1117.2500    100.1720      0.0000    657.2618      4.8310
  1117.5000     99.1704      0.0000    659.5148      4.8854
  1117.7500     97.0336      0.0000    657.0878      4.8819
  1118.0000     93.8821      0.0000    650.8408      4.8261
  1118.2500     89.9930      0.0000    642.9358      4.7292
  1118.5000     86.1212      0.0000    635.8011      4.6094
  1118.7500     83.2217      0.0000    630.9071      4.4976
  1119.0000     81.5239      0.0000    628.3099      4.4347
  1119.2500     80.3707      0.0000    627.2227      4.4547
  1119.5000     79.3427      0.0000    626.8432      4.5616
  1119.7500     79.1349      0.0000    626.7226      4.7216
  1120.0000     80.9420      0.0000    626.6861      4.8808
  1120.2500     85.1383      0.0000    626.6404      4.9961
  1120.5000     90.6494      0.0000    626.4445      5.0549
  1120.7500     95.4491      0.0000    625.7852      5.0660
  1121.0000     97.6862      0.0000    623.9471      5.0411
  1121.2500     96.6695      0.0000    619.6274      4.9888
  1121.5000     93.1337      0.0000    611.3472      4.9227
  1121.7500     88.7062      0.0000    598.8279      4.8639
  1122.0000     84.9057      0.0000    584.3998      4.8287
  1122.2500     82.3490      0.0000    572.4780      4.8190
  1122.5000     80.7622      0.0000    566.6885      4.8295
  1122.7500     79.7109      0.0000    567.2889      4.8595
  1123.0000     79.1884      0.0000    571.6735      4.9116
  1123.2500     79.3394      0.0000    577.2183      4.9762
  1123.5000     79.8273      0.0000    583.2734      5.0257
  1123.7500     79.8835      0.0000    590.6548      5.0306
  1124.0000     79.0397      0.0000    599.7806      4.9819
  1124.2500     77.5245      0.0000    609.5555      4.8963
  1124.5000     75.8350      0.0000    618.0124      4.8044
  1124.7500     74.2574      0.0000    623.8244      4.7381
  1125.0000     73.0675      0.0000    627.0287      4.7187
  1125.2500     72.9165      0.0000    628.4963      4.7432
  1125.5000     74.5037      0.0000    629.0746      4.7771
  1125.7500     77.8194      0.0000    629.2215      4.7739
  1126.0000     81.9725      0.0000    629.0912      4.7119
  1126.2500     85.7132      0.0000    628.6463      4.6106
  1126.5000     88.0160      0.0000    627.5804      4.5121
  1126.7500     88.5258      0.0000    625.1396      4.4496
  1127.0000     87.7908      0.0000    620.2907      4.4345
  1127.2500     86.8007      0.0000    612.7630      4.4617
  1127.5000     86.0051      0.0000    604.4197      4.5170
  1127.7500     85.0251      0.0000    599.0016      4.5808
  1128.0000     83.5381      0.0000    599.2949      4.6388
  1128.2500     82.0399      0.0000    604.2579      4.6938
  1128.5000     81.4176      0.0000    609.4331      4.7627
  1128.7500     82.0378      0.0000    610.2603      4.8587
  1129.0000     83.4518      0.0000    605.4005      4.9772
  1129.2500     84.8436      0.0000    598.2304      5.0989
  1129.5000     85.6127      0.0000    595.4421      5.2018
  1129.7500     85.4187      0.0000    602.4510      5.2723
  1130.0000     83.7587      0.0000    618.8184      5.3119
  1130.2500     80.0265      0.0000    638.4684      5.3316
  1130.5000     74.3881      0.0000    654.5015      5.3385
  1130.7500     68.3676      0.0000    663.5624      5.3243
  1131.0000     64.2146      0.0000    666.6741      5.2716
  1131.2500     63.6723      0.0000    667.3840      5.1678
  1131.5000     67.2092      0.0000    668.9722      5.0153
  1131.7500     73.8608      0.0000    672.2220      4.8310
  1132.0000     81.4653      0.0000    675.2233      4.6404
  1132.2500     87.4939      0.0000    675.4802      4.4744
  1132.5000     90.3081      0.0000    672.4240      4.3691
  1132.7500     89.9184      0.0000    667.9559      4.3581
  1133.0000     87.7036      0.0000    664.9625      4.4498
  1133.2500     85.5696      0.0000    665.7229      4.6083
  1133.5000     85.2980      0.0000    671.2347      4.7643
  1133.7500     88.3780      0.0000    680.8477      4.8579
  1134.0000     96.0037      0.0000    691.6431      4.8772
  1134.2500    108.5661      0.0000    698.5955      4.8572
  1134.5000    124.8283      0.0000    696.9324      4.8382
  1134.7500    142.0419      0.0000    686.2518      4.8259
  1135.0000    157.2755      0.0000    672.7704      4.7954
  1135.2500    168.3547      0.0000    665.9011      4.7294
  1135.5000    173.5747      0.0000    671.1146      4.6438
  1135.7500    171.5945      0.0000    686.1315      4.5705
