~Version Information
VERS.                      2.0: CWLS Log ASCII Standard - VERSION 2.0
WRAP.                       NO: One line per depth step
~Well Information Block
STRT.FT                -8.0000: 
STOP.FT              1540.2500: 
STEP.FT                 0.2500: 
NULL.                -999.2500: 
COMP.          Pioneer Natural Resources: COMPANY
WELL.           Telna 24-22 Tr: WELL
FLD.           Purgatorie River: FIELD
LOC.           748' FSL & 1931' FWL--: LOCATION
PROV.                       CO: PROVINCE
CNTY.               Las Animas: COUNTRY
SRVC.          Patterson Wireline: SERVICE COMPANY
DATE.          Fri May 06 12:29:21 2005: LOG DATE
UWI.           05 071 08304 00: UNIQUE WELL ID
~Curve Information Block
DEPT.FT            0 000 00 00: Depth
CCL.                          : Casing Collar Locator
TT3.usec                      : CBL 3' Travel Time
AMP3.mV                       : CBL 3' Amplitude
GR.GAPI                       : Gamma Ray
~Parameter Information Block
~A  Depth       CCL         TT3         AMP3         GR     
# ...
   394.0000      0.0000    865.2368      5.5442     96.9129
   394.2500      0.0000    866.7443      5.4238    101.3092
   394.5000      0.0000    867.3132      5.3753    104.3782
   394.7500      0.0000    867.3015      5.3617    104.1605
   395.0000      0.0000    867.1086      5.3035    100.9712
   395.2500      0.0000    866.9814      5.1775     96.9480
   395.5000      0.0000    866.9737      5.0584     94.3912
   395.7500      0.0000    866.9882      5.0555     94.4383
   396.0000      0.0000    866.8743      5.2076     96.5999
   396.2500      0.0000    866.5260      5.4383     98.9925
   396.5000      0.0000    865.9575      5.6200     99.5464
   396.7500      0.0000    865.3052      5.6894     97.7281
   397.0000      0.0000    864.6807      5.7018     94.9719
   397.2500      0.0000    863.9232      5.7672     93.1332
   397.5000      0.0000    862.4458      5.9281     92.7283
   397.7500      0.0000    859.4102      6.1053     92.6215
   398.0000      0.0000    854.3020      6.1706     90.9608
   398.2500      0.0000    847.6929      6.0742     86.5242
   398.5000      0.0000    841.4718      5.8987     79.7344
   398.7500      0.0000    837.8928      5.7879     72.6105
   399.0000      0.0000    837.9016      5.8225     67.6839
   399.2500      0.0000    840.2105      5.9636     66.7681
   399.5000      0.0000    841.6977      6.1103     70.2633
   399.7500      0.0000    838.7353      6.1985     77.0120
   400.0000      0.0000    829.7021      6.2389     84.7332
   400.2500      0.0000    818.0355      6.2605     91.0622
   400.5000      0.0000    812.1208      6.2303     94.6439
   400.7500      0.0000    819.7696      6.0578     95.5577
   401.0000      0.0000    842.2298      5.7070     94.9552
   401.2500      0.0000    874.6681      5.2869     94.2223
   401.5000      0.0000    911.3376      4.9931     94.0680
   401.7500      0.0000    948.0981      4.9497     94.1145
   402.0000     -2.0000    980.4716      5.1133     93.4115
   402.2500     -2.0000   1002.9429      5.3214     91.4930
   402.5000      0.0000   1012.0897      5.4244     88.9944
   402.7500      0.0000   1008.6839      5.3997     87.2217
   403.0000      0.0000    995.3110      5.3731     87.0511
   403.2500      0.0000    973.6445      5.5245     88.1900
   403.5000      0.0000    945.6307      5.9265     89.5179
   403.7500      0.0000    915.7743      6.4549     90.1145
   404.0000      0.0000    889.7154      6.8779     89.9164
   404.2500      0.0000    870.5795      7.0316     89.4117
   404.5000      0.0000    857.9460      6.9053     89.0077
   404.7500      0.0000    849.9915      6.6031     89.0153
   405.0000      0.0000    845.7404      6.2708     90.0549
   405.2500      0.0000    845.3862      6.0323     92.7912
   405.5000      0.0000    848.8596      5.9329     96.9039
   405.7500      0.0000    854.6026      5.9212    100.6548
   406.0000      0.0000    859.9388      5.9026    101.9826
   406.2500      0.0000    862.7370      5.8260    100.1985
   406.5000      0.0000    862.6689      5.7186     96.5470
   406.7500      0.0000    861.2020      5.6396     93.0091
   407.0000      0.0000    860.4463      5.6064     90.4820
   407.2500      0.0000    861.6136      5.5781     88.2695
   407.5000      0.0000    864.2963      5.5102     85.6239
   407.7500      0.0000    867.1837      5.4147     83.4827
   408.0000      0.0000    869.2720      5.3521     83.8904
   408.2500      0.0000    870.3489      5.3608     87.5844
   408.5000      0.0000    870.7330      5.4037     92.9292
   408.7500      0.0000    870.9406      5.3985     97.5446
   409.0000      0.0000    871.5629      5.3041    100.3420
   409.2500      0.0000    873.1053      5.1706    101.5638
   409.5000      0.0000    875.5543      5.0961    101.6175
   409.7500      0.0000    877.9864      5.1325    100.6216
   410.0000      0.0000    878.9616      5.2368     98.7037
   410.2500      0.0000    877.7015      5.3171     96.1209
   410.5000      0.0000    874.7495      5.3263     93.2138
   410.7500      0.0000    871.2214      5.3049     90.5000
   411.0000      0.0000    867.7043      5.3258     88.5893
   411.2500      0.0000    864.3004      5.4043     87.8170
   411.5000      0.0000    861.5162      5.4824     88.1468
   411.7500      0.0000    860.4105      5.5073     89.4140
   412.0000      0.0000    861.5548      5.5029     91.3215
   412.2500      0.0000    864.2408      5.5374     93.3032
   412.5000      0.0000    867.0447      5.6329     94.9570
   412.7500      0.0000    868.8959      5.7362     96.5796
   413.0000      0.0000    869.3792      5.7824     98.6349
   413.2500      0.0000    868.4344      5.7587    100.6286
   413.5000      0.0000    866.3721      5.6966    101.1460
   413.7500      0.0000    864.1943      5.6239     99.1696
   414.0000      0.0000    863.3140      5.5442     95.1114
   414.2500      0.0000    864.4676      5.4538     90.6671
   414.5000      0.0000    867.0463      5.3632     87.7559
   414.7500      0.0000    869.7389      5.2976     87.1027
   415.0000      0.0000    871.6533      5.2779     87.5532
   415.2500      0.0000    872.6567      5.3033     87.1353
   415.5000      0.0000    872.9617      5.3477     84.9084
   415.7500      0.0000    872.7447      5.3726     81.5142
   416.0000      0.0000    872.1417      5.3543     78.1368
   416.2500      0.0000    871.3892      5.3031     75.3936
   416.5000      0.0000    870.8266      5.2551     73.1867
   416.7500      0.0000    870.7850      5.2407     71.1782
   417.0000      0.0000    871.5432      5.2655     69.2701
   417.2500      0.0000    873.4715      5.3186     67.8834
   417.5000      0.0000    877.1719      5.3866     67.8358
   417.7500      0.0000    883.2358      5.4562     69.5763
   418.0000      0.0000    891.5364      5.5149     72.4970
   418.2500      0.0000    900.7350      5.5546     75.4634
   418.5000      0.0000    908.8130      5.5739     78.0831
   418.7500      0.0000    914.3231      5.5784     81.1004
   419.0000      0.0000    916.9727      5.5781     85.5252
   419.2500      0.0000    916.9768      5.5863     91.5616
   419.5000      0.0000    914.0283      5.6113     98.1475
   419.7500      0.0000    907.3464      5.6417    103.3842
   420.0000      0.0000    897.4036      5.6505    105.7739
   420.2500      0.0000    887.7773      5.6239    105.2411
   420.5000      0.0000    884.0063      5.5750    102.7852
   420.7500      0.0000    889.2704      5.5217     99.3091
   421.0000      0.0000    901.6227      5.4699     95.2423
   421.2500      0.0000    915.9995      5.4226     91.0525
   421.5000      0.0000    928.1799      5.3889     87.4129
   421.7500      0.0000    936.6995      5.3774     84.6638
   422.0000      0.0000    942.1014      5.3859     82.4860
   422.2500      0.0000    944.7760      5.3930     80.3492
   422.5000      0.0000    943.7808      5.3644     78.2608
   422.7500      0.0000    938.4911      5.2750     76.9773
   423.0000      0.0000    930.5694      5.1197     77.3214
   423.2500      0.0000    922.7324      4.9087     79.1447
   423.5000      0.0000    915.7070      4.6630     81.0420
   423.7500      0.0000    907.2498      4.4091     81.3439
   424.0000      0.0000    893.7610      4.1632     79.4272
   424.2500      0.0000    872.6425      3.9266     76.0337
   424.5000      0.0000    844.1184      3.7019     72.4898
   424.7500      0.0000    812.0635      3.4998     69.7382
   425.0000      0.0000    783.5577      3.3280     68.0715
   425.2500      0.0000    766.4479      3.1827     67.6454
   425.5000      0.0000    765.3706      3.0443     68.8039
   425.7500      0.0000    779.0488      2.8843     71.3544
   426.0000      0.0000    801.7130      2.6947     73.7413
   426.2500      0.0000    827.1339      2.5177     73.8769
   426.5000      0.0000    851.0375      2.4256     71.2000
   426.7500      0.0000    870.7575      2.4628     67.3054
   427.0000      0.0000    884.4662      2.6176     64.1107
   427.2500      0.0000    890.7552      2.8419     62.0515
