~Version Information
VERS.                      2.0: CWLS Log ASCII Standard - VERSION 2.0
WRAP.                       NO: One line per depth step
~Well Information Block
STRT.FT               858.7000: 
STOP.FT              2478.2000: 
STEP.FT                 0.1000: 
NULL.                -999.2500: 
COMP.          Petrogulf Corporation: COMPANY
WELL.           Torcom 17-33 V: WELL
FLD.           Purgatoire River: FIELD
LOC.           1544' FSL & 1746' FEL: LOCATION
PROV.                 Colorado: PROVINCE
CNTY.               Las Animas: COUNTRY
SRVC.                Patterson: SERVICE COMPANY
DATE.          Wed Dec 03 09:22:08 2003: LOG DATE
UWI.                          : UNIQUE WELL ID
~Curve Information Block
DEPT.FT            0 000 00 00: Depth
DCAL.in                       : CDL Caliper
RHOB.g/cc                     : CDL Bulk Density
RHOC.g/cc                     : CDL Density Correction
DPOR.pu                       : CDL Density Porosity
GR.GAPI                       : Gamma Ray
NPOR.pu                       : Neutron Porosity
~Parameter Information Block
~A  Depth       DCAL        RHOB        RHOC        DPOR         GR         NPOR    
# ...
  1626.7000      8.5365      2.5763      0.2400      4.4651    183.5193     27.0989
  1626.8000      8.5124      2.5744      0.1714      4.5795    191.5800     26.9249
  1626.9000      8.5124      2.5740      0.1309      4.6075    192.8774     26.9134
  1627.0000      8.4614      2.5734      0.1352      4.6402    180.6089     26.9299
  1627.1000      8.4614      2.5907      0.1078      3.5924    168.8714     26.8250
  1627.2000      8.4614      2.6344      0.2392      0.9465    170.4236     26.7539
  1627.3000      8.5500      2.6712      0.2785     -1.2832    174.5619     27.3442
  1627.4000      8.5500      2.6709      0.2669     -1.2659    171.3053     28.3406
  1627.5000      8.4344      2.6397      0.2455      0.6245    165.3235     28.8055
  1627.6000      8.4344      2.6041      0.1744      2.7833    161.3856     28.9387
  1627.7000      8.4344      2.5896      0.1164      3.6628    161.1855     29.1587
  1627.8000      8.4515      2.5903      0.1837      3.6186    162.9581     29.2446
  1627.9000      8.4515      2.5853      0.0750      3.9187    162.0202     29.1873
  1628.0000      8.3553      2.5866     -0.0041      3.8401    157.5315     28.9397
  1628.1000      8.3553      2.5960      0.1445      3.2714    153.1041     28.5490
  1628.2000      8.3553      2.5939      0.0713      3.4014    149.5502     28.5407
  1628.3000      8.3477      2.5936      0.0949      3.4207    145.3904     28.9670
  1628.4000      8.3477      2.6069      0.1433      2.6092    141.6253     29.1291
  1628.5000      8.3391      2.6165      0.1143      2.0330    141.7371     28.3018
  1628.6000      8.3391      2.6075      0.1047      2.5734    145.2919     26.9165
  1628.7000      8.3391      2.5851      0.0685      3.9314    148.4190     26.3726
  1628.8000      8.3365      2.5679      0.0645      4.9734    149.9731     26.9597
  1628.9000      8.3365      2.5639      0.1118      5.2193    148.7753     27.6205
  1629.0000      8.2767      2.5539      0.0793      5.8222    146.9028     27.5671
  1629.1000      8.2767      2.5223      0.0746      7.7381    148.9037     27.2929
  1629.2000      8.2767      2.4820      0.0683     10.1836    156.3511     27.4341
  1629.3000      8.2659      2.4557      0.0624     11.7739    166.7820     27.5461
  1629.4000      8.2659      2.4521      0.0639     11.9930    170.9695     27.4579
  1629.5000      8.2712      2.4663      0.0791     11.1355    165.3152     27.5301
  1629.6000      8.2712      2.5031      0.0481      8.9013    159.2844     27.6482
  1629.7000      8.2712      2.5658      0.1256      5.1020    156.2804     27.6928
  1629.8000      8.2689      2.6211      0.2103      1.7523    152.2907     27.7116
  1629.9000      8.2689      2.6284      0.2518      1.3117    151.0964     27.6986
  1630.0000      8.2667      2.5977      0.1308      3.1673    156.2166     27.3144
  1630.1000      8.2667      2.5749      0.1328      4.5530    160.4565     26.4586
  1630.2000      8.2667      2.5649      0.2064      5.1571    159.2451     25.7242
  1630.3000      8.2838      2.5268      0.1950      7.4678    158.2760     25.2142
  1630.4000      8.2838      2.4554      0.1142     11.7962    157.1699     24.8053
  1630.5000      8.3261      2.4035      0.0184     14.9390    152.7895     24.5906
  1630.6000      8.3261      2.3941      0.0593     15.5111    149.6456     24.4158
  1630.7000      8.3261      2.3828      0.1596     16.1960    150.6848     23.8285
  1630.8000      8.3424      2.3422      0.0285     18.6525    152.8342     22.5753
  1630.9000      8.3424      2.3035      0.1071     20.9974    154.9144     21.2177
  1631.0000      8.3597      2.2953      0.2516     21.4963    159.2556     20.6456
  1631.1000      8.3597      2.3296      0.2289     19.4206    163.5798     21.0097
  1631.2000      8.3597      2.4155      0.2919     14.2138    162.7493     21.7580
  1631.3000      8.4187      2.5199      0.5444      7.8831    157.9182     22.6438
  1631.4000      8.4187      2.5847      0.5599      3.9574    156.1859     23.2100
  1631.5000      8.5540      2.5903      0.5858      3.6167    160.2037     23.0995
  1631.6000      8.5540      2.5450      0.5823      6.3627    164.8680     22.8835
  1631.7000      8.5540      2.4675      0.4969     11.0621    164.8891     23.0727
  1631.8000      8.5747      2.3890      0.4176     15.8183    160.7100     23.6483
  1631.9000      8.5747      2.3371      0.2765     18.9607    158.3657     24.6711
  1632.0000      8.5213      2.3402      0.2204     18.7758    162.2612     25.9443
  1632.1000      8.5213      2.4124      0.3314     14.4023    170.6988     26.7974
  1632.2000      8.5213      2.5144      0.5084      8.2201    176.5217     26.7906
  1632.3000      8.5188      2.5686      0.7220      4.9341    175.5531     26.1085
  1632.4000      8.5188      2.5579      0.4677      5.5813    170.2912     25.0730
  1632.5000      8.6121      2.5596      0.3266      5.4798    163.4901     23.7328
  1632.6000      8.6121      2.6052      0.4216      2.7154    158.5109     22.3846
  1632.7000      8.6121      2.6348      0.3053      0.9184    155.5623     21.3128
  1632.8000      8.4509      2.6242      0.1788      1.5638    151.2317     20.4181
  1632.9000      8.4509      2.6043      0.2329      2.7706    147.7848     19.8699
  1633.0000      8.4141      2.5903      0.2269      3.6170    148.1220     20.0498
  1633.1000      8.4141      2.5733      0.2534      4.6457    150.8917     20.9393
  1633.2000      8.4141      2.5383      0.2756      6.7671    155.1040     22.0212
  1633.3000      8.3156      2.4818      0.1675     10.1926    157.8891     22.8870
  1633.4000      8.3156      2.4253      0.0970     13.6164    158.7625     23.4816
  1633.5000      8.3328      2.3930      0.1612     15.5735    159.0643     23.7348
  1633.6000      8.3328      2.3908      0.1602     15.7093    155.8980     23.7071
  1633.7000      8.3328      2.4189      0.2279     14.0071    149.2210     23.5491
  1633.8000      8.4092      2.4661      0.3504     11.1434    143.8938     23.6437
  1633.9000      8.4092      2.5113      0.3024      8.4056    141.1431     24.1678
  1634.0000      8.3987      2.5453      0.3438      6.3445    136.6120     24.2341
  1634.1000      8.3987      2.5598      0.3224      5.4682    129.8320     23.2784
  1634.2000      8.3987      2.5499      0.2857      6.0679    125.0636     22.0485
  1634.3000      8.2408      2.5342      0.2362      7.0202    123.1128     21.3230
  1634.4000      8.2408      2.5329      0.2173      7.0990    123.5861     21.1468
  1634.5000      8.2583      2.5372      0.1941      6.8370    128.1260     21.3071
  1634.6000      8.2583      2.5253      0.1653      7.5552    135.4533     21.4922
  1634.7000      8.2583      2.5004      0.0236      9.0661    142.4699     21.2400
  1634.8000      8.2211      2.4874      0.0374      9.8529    146.8543     20.9061
  1634.9000      8.2211      2.4925      0.1044      9.5447    149.0284     21.5011
  1635.0000      8.2142      2.4957      0.1005      9.3509    150.4114     22.8227
  1635.1000      8.2142      2.4830      0.1274     10.1224    149.4907     23.9598
  1635.2000      8.2142      2.4608      0.1021     11.4687    144.2949     24.8181
  1635.3000      8.2813      2.4360      0.1089     12.9713    136.8789     25.6925
  1635.4000      8.2813      2.4013      0.1098     15.0722    131.8384     26.4567
  1635.5000      8.2827      2.3570      0.0672     17.7565    132.7528     27.1510
  1635.6000      8.2827      2.3217      0.0514     19.8985    136.5344     27.8992
  1635.7000      8.2827      2.3196      0.0499     20.0227    136.6270     28.2203
  1635.8000      8.1955      2.3709      0.1121     16.9150    131.6848     27.3789
  1635.9000      8.1955      2.4717      0.2121     10.8081    126.0419     25.8552
  1636.0000      8.1581      2.5895      0.3771      3.6642    123.8167     25.2043
  1636.1000      8.1581      2.6919      0.4397     -2.5410    123.8131     25.0738
  1636.2000      8.1581      2.7649      0.4277     -6.9664    122.8237     23.3730
