~Version Information
VERS.                      2.0: CWLS Log ASCII Standard - VERSION 2.0
WRAP.                       NO: One line per depth step
~Well Information Block
STRT.FT               -17.7500: 
STOP.FT              1590.5000: 
STEP.FT                 0.2500: 
NULL.                -999.2500: 
COMP.          Petrogulf Corporation: COMPANY
WELL.          Great Plains 22-21V: WELL
FLD.           Purgatorie River: FIELD
LOC.           63' FNL & 1895' FWL--: LOCATION
CNTY.               Las Animas: COUNTY
SRVC.          Superior Well Services: SERVICE COMPANY
DATE.          Fri Dec 08 14:45:19 2006: LOG DATE
UWI.           05 071 08346 00: UNIQUE WELL ID
STAT.                       CO: STATE
~Curve Information Block
DEPT.FT            0 000 00 00: Depth
CCL.                          : Casing Collar Locator
TT3.usec                      : CBL 3' Travel Time
AMP3.mV                       : CBL 3' Amplitude
GR.GAPI                       : Gamma Ray
~Parameter Information Block
~A  Depth       CCL         TT3         AMP3         GR     
# ...
   920.2500      0.0000    311.7017     20.8181    136.1846
   920.5000      0.0000    314.8802     19.6600    133.3459
   920.7500      0.0000    315.0374     18.8965    132.5192
   921.0000      0.0000    312.1823     18.5818    133.5723
   921.2500      0.0000    308.0559     18.5633    135.3576
   921.5000      0.0000    304.5577     18.6410    136.7633
   921.7500      0.0000    302.4529     18.7054    137.5682
   922.0000      0.0000    301.4964     18.7537    138.0235
   922.2500      0.0000    301.3247     18.8062    137.8861
   922.5000      0.0000    302.0836     18.8289    136.6349
   922.7500      0.0000    304.4371     18.7377    134.6561
   923.0000      0.0000    309.1597     18.4650    133.4516
   923.2500      0.0000    316.6212     18.0135    134.3026
   923.5000      0.0000    326.7559     17.4457    136.7537
   923.7500      0.0000    339.5122     16.8318    138.3431
   924.0000      0.0000    354.7693     16.2201    136.0990
   924.2500      0.0000    371.1796     15.6442    129.0078
   924.5000      0.0000    385.4322     15.1354    119.2235
   924.7500      0.0000    393.8101     14.7251    110.4179
   925.0000      0.0000    395.6121     14.4334    105.0906
   925.2500      0.0000    396.4515     14.2346    103.9064
   925.5000      0.0000    408.5653     14.0297    106.7718
   925.7500      0.0000    445.1156     13.6891    113.0399
   926.0000      0.0000    509.9717     13.1555    120.6270
   926.2500      0.0000    591.6957     12.4994    126.3603
   926.5000      0.0000    669.2682     11.8658    128.1568
   926.7500      0.0000    725.0916     11.3785    126.5699
   927.0000      0.0000    753.0591     11.0951    123.9428
   927.2500      0.0000    756.6917     11.0200    122.5473
   927.5000      0.0000    742.7590     11.1258    123.6042
   927.7500      0.0000    717.2470     11.3580    127.0927
   928.0000      0.0000    686.1825     11.6282    131.8080
   928.2500      0.0000    658.5861     11.8183    136.0407
   928.5000      0.0000    645.2729     11.8126    138.8184
   928.7500      0.0000    651.6418     11.5438    140.2557
   929.0000      0.0000    672.8079     11.0160    140.5241
   929.2500      0.0000    698.5279     10.2903    139.1704
   929.5000      0.0000    722.1315      9.4635    135.9389
   929.7500      0.0000    743.3005      8.6558    131.5292
   930.0000      0.0000    763.8446      7.9832    126.7596
   930.2500      0.0000    783.2832      7.5156    121.3510
   930.5000      0.0000    798.8161      7.2579    114.2950
   930.7500      0.0000    807.7307      7.1729    105.5494
   931.0000      0.0000    807.6835      7.2193     97.1849
   931.2500      0.0000    795.3398      7.3722     92.6700
   931.5000      0.0000    767.5102      7.6245     94.4375
   931.7500      0.0000    723.7529      7.9847    101.4972
   932.0000      0.0000    666.3009      8.4800    109.5063
   932.2500      0.0000    598.8232      9.1435    113.8143
   932.5000      0.0000    527.3085      9.9663    113.0639
   932.7500      0.0000    461.3379     10.8404    110.2098
   933.0000      0.0000    412.3877     11.5561    110.0358
   933.2500      0.0000    390.2438     11.8868    115.1141
   933.5000      0.0000    401.1266     11.7072    123.6659
   933.7500      0.0000    447.3808     11.0503    131.2893
   934.0000      0.0000    524.9373     10.0668    134.4413
   934.2500      0.0000    619.0841      8.9419    131.8340
   934.5000      0.0000    705.9728      7.8376    123.4455
   934.7500      0.0000    764.2940      6.8736    109.9925
   935.0000      0.0000    788.4584      6.1246     93.5459
   935.2500      0.0000    789.2804      5.6215     77.1713
   935.5000      0.0000    781.7346      5.3556     63.2435
   935.7500      0.0000    774.2183      5.2887     52.5596
   936.0000      0.0000    768.3569      5.3714     45.0775
   936.2500      0.0000    762.9501      5.5721     40.9861
   936.5000      0.0000    754.7507      5.8945     41.0193
   936.7500      0.0000    738.1661      6.3664     45.9606
   937.0000      0.0000    707.3961      7.0080     55.6966
   937.2500      0.0000    660.7168      7.8117     68.5484
   937.5000      0.0000    603.9594      8.7424     81.7786
   937.7500      0.0000    548.3253      9.7521     93.0543
   938.0000      0.0000    501.5146     10.8069    101.3251
   938.2500      0.0000    461.9908     11.8933    106.4876
   938.5000      0.0000    424.7858     12.9759    108.9255
   938.7500      0.0000    390.3151     13.9588    109.5254
   939.0000      0.0000    363.6544     14.7318    109.5107
   939.2500      0.0000    347.4865     15.2762    110.0319
   939.5000      0.0000    339.3461     15.7058    112.0353
   939.7500      0.0000    334.5182     16.1883    116.0104
   940.0000      0.0000    329.3656     16.8200    121.1574
   940.2500      0.0000    322.5708     17.5633    125.1514
   940.5000      0.0000    314.8882     18.2870    125.7317
   940.7500      0.0000    308.0087     18.8737    122.8911
   941.0000      0.0000    303.1314     19.3083    119.1557
   941.2500      0.0000    300.3297     19.6703    117.5793
   941.5000      0.0000    298.9324     20.0476    119.5926
   941.7500      0.0000    298.2451     20.4668    124.4934
   942.0000      0.0000    297.8857     20.9018    130.3400
   942.2500      0.0000    297.7128     21.3233    135.2416
   942.5000      0.0000    297.6628     21.7215    138.2721
   942.7500      0.0000    297.6855     22.0781    139.3343
   943.0000      0.0000    297.7643     22.3293    138.2502
   943.2500      0.0000    297.9665     22.3701    134.7370
   943.5000      0.0000    298.5045     22.0992    129.6907
   943.7500      0.0000    299.8202     21.4722    125.6359
   944.0000      0.0000    302.5746     20.5356    124.8142
   944.2500      0.0000    307.3309     19.4296    126.8239
   944.5000      0.0000    313.9531     18.3477    128.5155
   944.7500      0.0000    321.2831     17.4644    126.1749
   945.0000      0.0000    327.6423     16.8713    118.0314
   945.2500      0.0000    331.7803     16.5619    105.4519
   945.5000      0.0000    333.2586     16.4725     92.2750
   945.7500      0.0000    332.0550     16.5423     82.8215
   946.0000      0.0000    328.2259     16.7535     79.8093
   946.2500      0.0000    322.2079     17.1271     83.4092
   946.5000      0.0000    315.2091     17.6793     91.8908
   946.7500      0.0000    308.9199     18.3694    103.0195
   947.0000      0.0000    304.7560     19.0693    114.8093
   947.2500      0.0000    303.5700     19.5637    125.3861
   947.5000      0.0000    305.8852     19.6257    133.0400
   947.7500      0.0000    311.8351     19.1838    136.9272
   948.0000      0.0000    320.5959     18.4279    137.5096
   948.2500      0.0000    330.2370     17.6613    136.0957
   948.5000      0.0000    338.5521     17.0335    134.0606
   948.7500      0.0000    344.1506     16.5021    132.3804
   949.0000      0.0000    347.2953     16.0244    131.3264
   949.2500      0.0000    350.4385     15.6447    130.3160
   949.5000      0.0000    358.2133     15.3852    128.6485
   949.7500     -2.0000    375.4516     15.1715    126.6393
   950.0000     -2.0000    402.1810     14.9182    125.3129
   950.2500      0.0000    428.9725     14.6626    124.7284
   950.5000      0.0000    440.4736     14.5870    123.5837
   950.7500      0.0000    428.0001     14.8798    120.9841
   951.0000      0.0000    397.9436     15.5522    117.8735
   951.2500      0.0000    365.2337     16.4397    116.2114
   951.5000      0.0000    340.2779     17.4378    117.1905
   951.7500      0.0000    324.2533     18.6626    120.3276
   952.0000      0.0000    313.8779     20.2921    123.8029
   952.2500      0.0000    306.6524     22.2999    125.9114
   952.5000      0.0000    301.7828     24.4280    126.8099
   952.7500      0.0000    298.9087     26.3998    128.5859
   953.0000      0.0000    297.4598     28.1018    133.0446
   953.2500      0.0000    296.8213     29.5304    139.6525
   953.5000      0.0000    296.6194     30.5751    145.9196
