~Version Information
VERS.                      2.0: CWLS Log ASCII Standard - VERSION 2.0
WRAP.                       NO: One line per depth step
~Well Information Block
STRT.FT               483.5000: 
STOP.FT              2348.7500: 
STEP.FT                 0.2500: 
NULL.                -999.2500: 
COMP.          Pioneer Natural Resources: COMPANY
WELL.          Hill Climb 22-2: WELL
FLD.           Purgatoire River: FIELD
LOC.           1820' FNL & 2193' FWL: LOCATION
PROV.                 Colorado: PROVINCE
CNTY.               Las Animas: COUNTRY
SRVC.                Patterson: SERVICE COMPANY
DATE.          Wed Oct 20 08:57:51 2004: LOG DATE
UWI.           05 071 08175 00: UNIQUE WELL ID
~Curve Information Block
DEPT.FT            0 000 00 00: Depth
DIR.Ohm-m                     : IEL Induction Resistivity
SN.Ohm-m                      : IEL Short Normal
SP.mV                         : IEL Spontaneous Potential
GR.GAPI                       : Gamma Ray
~Parameter Information Block
~A  Depth       DIR          SN          SP          GR     
# ...
  1086.5000     26.1734     33.9891    117.0434     77.6231
  1086.7500     28.4142     35.8997    116.9869     81.8279
  1087.0000     30.3516     37.6404    116.8913     87.4837
  1087.2500     31.7699     39.1760    116.7634     91.3054
  1087.5000     32.6211     40.3963    116.6078     98.1382
  1087.7500     33.0336     41.2250    116.4256    103.4408
  1088.0000     33.2206     41.6937    116.2160    110.5422
  1088.2500     33.3805     41.9288    115.9791    112.7820
  1088.5000     33.6524     42.0971    115.7182    109.8556
  1088.7500     34.1234     42.3575    115.4425    103.5238
  1089.0000     34.8457     42.8334    115.1668     89.5757
  1089.2500     35.8342     43.5903    114.9081     79.6566
  1089.5000     37.0435     44.6147    114.6801     68.1420
  1089.7500     38.3506     45.8009    114.4884     64.0332
  1090.0000     39.5699     46.9612    114.3270     62.1817
  1090.2500     40.5137     47.8824    114.1810     62.0494
  1090.5000     41.0699     48.4208    114.0323     61.0527
  1090.7500     41.2419     48.5817    113.8685     59.4529
  1091.0000     41.1178     48.5131    113.6887     56.2876
  1091.2500     40.8068     48.4046    113.5060     54.2076
  1091.5000     40.3920     48.3656    113.3434     51.4918
  1091.7500     39.9179     48.3789    113.2256     49.8235
  1092.0000     39.4007     48.3682    113.1698     47.5286
  1092.2500     38.8517     48.2979    113.1789     46.4976
  1092.5000     38.3007     48.2004    113.2411     46.4039
  1092.7500     37.7998     48.1244    113.3344     47.3538
  1093.0000     37.4030     48.0795    113.4344     49.6950
  1093.2500     37.1348     48.0225    113.5210     51.3917
  1093.5000     36.9778     47.8827    113.5820     53.7189
  1093.7500     36.8868     47.6202    113.6137     55.2264
  1094.0000     36.8188     47.2780    113.6186     57.7022
  1094.2500     36.7581     46.9710    113.6036     59.3674
  1094.5000     36.7275     46.8213    113.5770     61.3471
  1094.7500     36.7778     46.9046    113.5459     62.2279
  1095.0000     36.9558     47.2363    113.5149     63.1064
  1095.2500     37.2672     47.7715    113.4852     63.2940
  1095.5000     37.6586     48.4027    113.4552     62.1959
  1095.7500     38.0432     48.9747    113.4234     60.2561
  1096.0000     38.3514     49.3288    113.3904     56.2142
  1096.2500     38.5620     49.3795    113.3599     53.7111
  1096.5000     38.6785     49.1825    113.3378     51.5678
  1096.7500     38.6861     48.9144    113.3296     51.2172
  1097.0000     38.5355     48.7430    113.3385     51.2201
  1097.2500     38.1689     48.6930    113.3655     51.0351
  1097.5000     37.5593     48.6354    113.4100     50.6507
  1097.7500     36.7365     48.3892    113.4722     50.8082
  1098.0000     35.7921     47.8220    113.5533     52.0909
  1098.2500     34.8563     46.8894    113.6559     53.4012
  1098.5000     34.0534     45.6396    113.7825     55.2097
  1098.7500     33.4523     44.1820    113.9343     56.0146
  1099.0000     33.0429     42.6006    114.1100     56.8427
  1099.2500     32.7419     40.8862    114.3057     57.5434
  1099.5000     32.4205     38.9894    114.5148     59.5607
  1099.7500     31.9419     36.9518    114.7293     61.8345
  1100.0000     31.1992     34.9522    114.9413     66.2091
  1100.2500     30.1391     33.2111    115.1445     68.8678
  1100.5000     28.7655     31.8571    115.3350     71.0839
  1100.7500     27.1374     30.8779    115.5118     71.6239
  1101.0000     25.3666     30.1589    115.6760     73.1663
  1101.2500     23.6004     29.5503    115.8300     75.7666
  1101.5000     21.9823     28.9203    115.9755     81.7774
  1101.7500     20.6143     28.1892    116.1110     86.1003
  1102.0000     19.5423     27.3384    116.2312     91.5008
  1102.2500     18.7641     26.3876    116.3277     94.1058
  1102.5000     18.2482     25.3573    116.3932     96.3396
  1102.7500     17.9517     24.2722    116.4260     96.5272
  1103.0000     17.8336     23.2239    116.4322     95.0003
  1103.2500     17.8655     22.4398    116.4244     93.2125
  1103.5000     18.0382     22.2509    116.4175     90.1698
  1103.7500     18.3612     22.9193    116.4247     88.3149
  1104.0000     18.8517     24.4125    116.4562     86.6185
  1104.2500     19.5074     26.3142    116.5193     86.4953
  1104.5000     20.2720     27.9909    116.6192     87.4141
  1104.7500     21.0147     28.9173    116.7572     88.2919
  1105.0000     21.5575     28.9136    116.9286     89.8517
  1105.2500     21.7523     28.1340    117.1214     91.4290
  1105.5000     21.5543     26.8744    117.3186     95.1869
  1105.7500     21.0232     25.3904    117.5025     98.4406
  1106.0000     20.2638     23.8500    117.6606    103.3670
  1106.2500     19.3735     22.3837    117.7878    106.1526
  1106.5000     18.4309     21.1264    117.8860    109.7440
  1106.7500     17.5081     20.1961    117.9601    112.3530
  1107.0000     16.6754     19.6405    118.0152    117.3312
  1107.2500     15.9919     19.4182    118.0549    121.0921
  1107.5000     15.4944     19.4321    118.0826    126.1023
  1107.7500     15.1927     19.5756    118.1043    128.4911
  1108.0000     15.0734     19.7593    118.1298    130.8015
  1108.2500     15.1062     19.9191    118.1706    131.8374
  1108.5000     15.2520     20.0151    118.2368    132.4592
  1108.7500     15.4702     20.0225    118.3328    131.4349
  1109.0000     15.7271     19.9222    118.4551    125.9740
  1109.2500     15.9985     19.7043    118.5933    119.4672
  1109.5000     16.2678     19.3760    118.7326    107.5005
  1109.7500     16.5196     18.9629    118.8571    100.3084
  1110.0000     16.7367     18.4953    118.9530     93.9723
  1110.2500     16.9028     17.9956    119.0097     93.2225
  1110.5000     17.0086     17.4885    119.0212     95.9510
  1110.7500     17.0562     17.0340    118.9866     99.3134
  1111.0000     17.0573     16.7461    118.9110    105.8384
  1111.2500     17.0263     16.7574    118.8067    110.7628
  1111.5000     16.9741     17.1366    118.6922    117.1190
  1111.7500     16.9055     17.8127    118.5899    119.3189
  1112.0000     16.8228     18.5794    118.5227    119.1226
  1112.2500     16.7318     19.1997    118.5086    118.0210
  1112.5000     16.6478     19.5361    118.5572    118.3832
  1112.7500     16.5939     19.5988    118.6671    121.2726
  1113.0000     16.5909     19.4892    118.8273    128.9982
  1113.2500     16.6466     19.3127    119.0198    134.4037
  1113.5000     16.7520     19.1342    119.2245    138.2193
  1113.7500     16.8876     18.9844    119.4236    136.1142
  1114.0000     17.0328     18.8827    119.6041    127.2365
  1114.2500     17.1694     18.8466    119.7584    120.3487
  1114.5000     17.2797     18.8860    119.8821    113.0665
  1114.7500     17.3440     18.9990    119.9722    111.0125
  1115.0000     17.3457     19.1738    120.0248    111.0776
  1115.2500     17.2791     19.3807    120.0375    112.4210
  1115.5000     17.1509     19.5580    120.0111    115.3409
  1115.7500     16.9764     19.6299    119.9526    117.2265
  1116.0000     16.7744     19.5601    119.8750    118.8712
  1116.2500     16.5663     19.3796    119.7948    118.8563
  1116.5000     16.3784     19.1554    119.7272    117.3272
  1116.7500     16.2376     18.9395    119.6832    115.7859
  1117.0000     16.1622     18.7375    119.6676    114.2014
  1117.2500     16.1506     18.4890    119.6800    114.5640
  1117.5000     16.1778     18.0730    119.7163    117.4832
  1117.7500     16.2035     17.3654    119.7706    119.9031
  1118.0000     16.1895     16.3342    119.8372    121.3015
  1118.2500     16.1176     15.1032    119.9107    119.6465
  1118.5000     15.9972     13.9300    119.9866    113.7913
  1118.7500     15.8567     13.1036    120.0605    109.1567
  1119.0000     15.7231     12.8161    120.1279    104.2707
  1119.2500     15.6052     13.0809    120.1839    103.6760
  1119.5000     15.4888     13.7364    120.2241    107.0635
  1119.7500     15.3494     14.5239    120.2465    111.1910
