~Version Information
 VERS.                                  2.0 : CWLS LAS VERSION
 WRAP.                                   NO : WRAPING MODE
 SWARE .                 MController 2.5.0J : SOFTWARE VERSION
~Well Information
 WELL.                      Robinson 15-12R : WELL
 COMP.                Petrogulf Corporation : COMPANY
 FLD.                      Purgatoire River : FIELD
 LOC.                SW/NW Sec 15 T33S R67W : LOCATION
 DATE.                          09/12-13/05 : DATE(S) LOGGED
 SRVC.       BLANCO Geological Services LLC : SERVICE COMPANY
 STAT.                                   CO : STATE
 CNTY.                           Las Animas : COUNTY
 CTRY.                                  USA : COUNTRY
 API.                       05-071-08307-00 : API NUMBER
 STRT.FT                               1.00 : START DEPTH
 STOP.FT                            1460.00 : STOP DEPTH
 STEP.FT                               1.00 : DEPTH INCREMENT
 NULL.                                -9999 : NULL VALUE
~Curve information
 DEPTH.FT                                   :
 ROP.MIN/FT                                 :
 GAS.UNITS                                  :
~ASCII Log data
# ...
       401.0         0.17        101.1 
       402.0         0.17         99.7 
       403.0         0.20         99.1 
       404.0         0.30         98.4 
       405.0         0.20         98.1 
       406.0         0.20         99.3 
       407.0         0.20         99.2 
       408.0         0.17         98.4 
       409.0         0.20         95.1 
       410.0         0.23         89.5 
       411.0         0.17         83.0 
       412.0         0.13         78.2 
       413.0         0.15         73.5 
       414.0         0.17         68.1 
       415.0         0.13         69.9 
       416.0         1.63        280.0 
       417.0         0.27        118.0 
       418.0         0.20        109.4 
       419.0         0.23        105.0 
       420.0         0.20        102.3 
       421.0         0.17        101.9 
       422.0         0.22        101.4 
       423.0         0.17         99.7 
       424.0         0.17         98.8 
       425.0         0.20         98.3 
       426.0         0.13         98.4 
       427.0         0.17         98.4 
       428.0         0.13         98.6 
       429.0         0.20         98.6 
       430.0         0.17         98.8 
       431.0         0.17         99.2 
       432.0         0.20        100.2 
       433.0         0.20        101.0 
       434.0         0.20        101.4 
       435.0         0.20        101.0 
       436.0         0.20        101.4 
       437.0         0.20         99.9 
       438.0         0.20         90.1 
       439.0         0.23         78.5 
       440.0         0.13         67.3 
       441.0         0.15         62.3 
       442.0         0.10         57.7 
       443.0         0.17         60.2 
       444.0         0.17         72.8 
       445.0         0.17        107.4 
       446.0         1.50        260.1 
       447.0         0.27        114.5 
       448.0         0.23        106.2 
       449.0         0.17        102.9 
       450.0         0.20        103.7 
       451.0         0.18        103.4 
       452.0         0.17        102.3 
       453.0         0.17        101.1 
       454.0         0.13        100.3 
       455.0         0.10         99.5 
       456.0         0.13         98.6 
       457.0         0.20         97.7 
       458.0         0.17         97.0 
       459.0         0.20         96.8 
       460.0         0.20         96.6 
       461.0         0.17         96.3 
       462.0         0.20         96.3 
       463.0         0.17         96.5 
       464.0         0.17         96.9 
       465.0         0.20         97.5 
       466.0         0.17         97.9 
       467.0         0.20         97.9 
       468.0         0.17         94.9 
       469.0         0.17         87.5 
       470.0         0.18         78.5 
       471.0         0.20         69.6 
       472.0         0.17         63.4 
       473.0         0.20         66.4 
       474.0         0.17         77.6 
       475.0         0.17         92.8 
       476.0         1.50        278.4 
       477.0         0.27        119.6 
       478.0         0.25        110.6 
       479.0         0.17        105.6 
       480.0         0.23        103.8 
       481.0         0.20        101.6 
       482.0         0.17        100.6 
       483.0         0.17        100.1 
       484.0         0.17         99.5 
       485.0         0.20         98.9 
       486.0         0.17         98.4 
       487.0         0.13         98.3 
       488.0         0.17         98.3 
       489.0         0.17         98.3 
       490.0         0.17         98.2 
       491.0         0.13         97.9 
       492.0         0.17         98.1 
       493.0         0.13         97.9 
       494.0         0.17         97.6 
       495.0         0.13         97.2 
       496.0         0.17         97.0 
       497.0         0.10         95.0 
       498.0         0.18         92.5 
       499.0         0.20         85.5 
       500.0         0.10         77.2 
       501.0         0.10         73.2 
       502.0         0.17         69.4 
       503.0         0.10         68.5 
       504.0         0.13         72.8 
       505.0         0.13         84.3 
       506.0         1.77        303.5 
       507.0         0.22        128.6 
       508.0         0.13        121.6 
       509.0         0.17        118.8 
       510.0         0.30        115.0 
       511.0         0.37        108.1 
       512.0         0.33        103.3 
       513.0         0.23        105.9 
       514.0         0.17        106.3 
       515.0         0.10        106.2 
       516.0         0.10        105.6 
       517.0         0.13        102.1 
       518.0         0.17         92.6 
       519.0         0.17         83.6 
       520.0         0.17         93.7 
       521.0         0.22        112.3 
       522.0         0.17        116.8 
       523.0         0.13        117.7 
       524.0         0.10        117.4 
       525.0         0.13        115.6 
       526.0         0.10        111.1 
       527.0         0.07        106.1 
       528.0         0.10        102.3 
       529.0         0.13         96.4 
       530.0         0.13         89.0 
       531.0         0.13         83.4 
       532.0         0.20         77.2 
       533.0         0.20         82.3 
       534.0         0.13         93.8 
       535.0         0.10        106.0 
       536.0         0.17        135.1 
       537.0         0.10        170.3 
       538.0         1.02        424.2 
       539.0         0.23        304.5 
       540.0         0.23        241.4 
       541.0         0.23        188.9 
       542.0         0.20        151.8 
       543.0         0.20        131.5 
       544.0         0.17        111.0 
       545.0         0.17        100.7 
       546.0         0.20         95.8 
       547.0         0.20        101.8 
       548.0         0.20        105.2 
       549.0         0.23        104.8 
       550.0         0.20         97.4 
       551.0         0.13        106.7 
       552.0         0.17        118.7 
       553.0         0.17        125.6 
       554.0         0.13        129.3 
       555.0         0.15        131.6 
       556.0         0.10        133.2 
       557.0         0.10        134.0 
       558.0         0.20        134.3 
       559.0         0.20        133.6 
       560.0         0.13        130.0 
       561.0         0.13        127.9 
       562.0         0.30        166.0 
       563.0         0.17        182.0 
       564.0         0.17        187.4 
       565.0         0.17        185.6 
       566.0         0.10        172.4 
       567.0         0.17        161.5 
       568.0         3.75       1463.6 
       569.0         0.23        590.2 
       570.0         0.27        561.0 
       571.0         0.17        604.4 
       572.0         0.18        612.4 
       573.0         0.13        594.0 
       574.0         0.17        561.9 
       575.0         0.13        515.3 
       576.0         0.10        480.4 
       577.0         0.20        462.9 
       578.0         0.17        459.1 
       579.0         0.17        481.9 
       580.0         0.20        511.8 
       581.0         0.23        563.5 
       582.0         0.10        591.4 
       583.0         0.20        640.6 
       584.0         0.17        659.4 
       585.0         0.23        672.4 
       586.0         0.20        676.8 
       587.0         0.20        690.8 
       588.0         0.20        747.0 
       589.0         0.27        787.3 
       590.0         0.07        787.3 
       591.0         0.15        782.2 
       592.0         0.30        758.1 
       593.0         0.27        704.7 
       594.0         0.23        649.5 
       595.0         0.23        607.3 
       596.0         0.20        585.1 
       597.0         0.20        595.2 
       598.0         6.80       1789.2 
       599.0         0.23       1164.9 
       600.0         0.27        992.0 
