~Version Information
 VERS.                                  2.0 : CWLS LAS VERSION
 WRAP.                                   NO : WRAPING MODE
 SWARE .                  MController 2.6.3 : SOFTWARE VERSION
~Well Information
 WELL.                       Stampede 42-18 : WELL
 COMP.    Pioneer Natural Resources USA Inc : COMPANY
 FLD.                      Purgatoire River : FIELD
 LOC.                SE/NE Sec 18 T32S R65W : LOCATION
 DATE.                           6/8-9/2007 : DATE(S) LOGGED
 SRVC.       Blanco Geological Services LLC : SERVICE COMPANY
 STAT.                                   CO : STATE
 CNTY.                           Las Animas : COUNTY
 CTRY.                                  USA : COUNTRY
 API.                       05-071-08237-00 : API NUMBER
 STRT.FT                             561.00 : START DEPTH
 STOP.FT                            1934.00 : STOP DEPTH
 STEP.FT                               1.00 : DEPTH INCREMENT
 NULL.                                -9999 : NULL VALUE
~Curve information
 DEPTH.FT                                   :
 ROP.MIN/FT                                 :
 GAS.UNITS                                  :
~ASCII Log data
      561.00     -9999.00          4.3 
      562.00         0.40          5.5 
      563.00         0.27          5.7 
      564.00         0.17          5.3 
      565.00         0.47          5.5 
      566.00         0.30          5.2 
      567.00         0.65          5.4 
      568.00         0.20          5.5 
      569.00         0.13          5.5 
      570.00         0.13          5.5 
      571.00         0.13          5.6 
      572.00         0.10          5.5 
      573.00         0.17          5.6 
      574.00         0.13          5.5 
      575.00         0.10          5.1 
      576.00         0.30          5.3 
      577.00         0.30          5.3 
      578.00         0.30          4.8 
      579.00         0.27          5.3 
      580.00         0.27          5.4 
      581.00         0.30          5.7 
      582.00         0.25          5.6 
      583.00         0.17          5.2 
      584.00         0.17          5.0 
      585.00         0.13          5.1 
      586.00         0.27          4.8 
      587.00         0.33          5.3 
      588.00         0.30          5.3 
      589.00         0.30          5.7 
      590.00         0.33          5.6 
      591.00         0.37          5.5 
      592.00         3.42          5.6 
      593.00         0.27          5.4 
      594.00         0.23          4.8 
      595.00         0.23          5.5 
      596.00         0.35          5.0 
      597.00         0.40          4.5 
      598.00         0.17          5.1 
      599.00         0.30          5.1 
      600.00         0.30          5.5 
      601.00         0.30          4.9 
      602.00         0.23          5.3 
      603.00         0.27          4.8 
      604.00         0.27          5.8 
      605.00         0.20          6.9 
      606.00         0.13          6.7 
      607.00         0.13          6.5 
      608.00         0.13          7.1 
      609.00         0.10          6.1 
      610.00         0.15          6.8 
      611.00         0.13          6.0 
      612.00         0.13          6.3 
      613.00         0.17          6.5 
      614.00         0.17          5.2 
      615.00         0.20         79.6 
      616.00         0.20        116.8 
      617.00         0.27         76.5 
      618.00         0.27         48.4 
      619.00         0.23        623.7 
      620.00         0.23       1503.6 
      621.00         0.23       1998.7 
      622.00         2.75       2519.4 
      623.00         0.20        879.7 
      624.00         0.37       2959.1 
      625.00         0.40       3050.6 
      626.00         0.37       2785.8 
      627.00         0.30       3109.0 
      628.00         0.25       3275.3 
      629.00         0.27       3285.6 
      630.00         0.23       3118.6 
      631.00         0.13       2963.1 
      632.00         0.23       2814.2 
      633.00         0.27       2695.7 
      634.00         0.23       2557.2 
      635.00         0.30       2411.2 
      636.00         0.23       2372.1 
      637.00         0.27       2436.5 
      638.00         0.20       2443.3 
      639.00         0.23       2241.1 
      640.00         0.27       1154.2 
      641.00         0.23       1400.9 
      642.00         0.32       1575.7 
      643.00         0.27       1927.8 
      644.00         0.27       2180.9 
      645.00         0.23       2313.0 
      646.00         0.20       2375.6 
      647.00         0.23       2426.6 
      648.00         0.10       2437.9 
      649.00         0.13       2454.7 
      650.00         0.17       2468.9 
      651.00         0.30       2488.1 
      652.00         4.23       4364.0 
      653.00         0.37       3866.2 
      654.00         0.33       3279.9 
      655.00         0.30       3190.3 
      656.00         0.27       3506.7 
      657.00         0.27       3612.9 
      658.00         0.27       3614.3 
      659.00         0.27       3539.8 
      660.00         0.27       3408.8 
      661.00         0.23       3274.4 
      662.00         0.17       3191.7 
      663.00         0.23       3127.2 
      664.00         0.35       3067.9 
      665.00         0.53       2995.9 
      666.00         0.53       2879.0 
      667.00         0.50       2830.8 
      668.00         0.50       2830.4 
      669.00         0.50       2783.6 
      670.00         0.47       2659.1 
      671.00         0.42       2621.2 
      672.00         0.43       2601.2 
      673.00         0.27       2604.0 
      674.00         0.23       2591.9 
      675.00         0.23       2580.2 
      676.00         0.27       2569.5 
      677.00         0.27       2500.2 
      678.00         0.23       2455.7 
      679.00         0.23       2483.0 
      680.00         0.30       2528.5 
      681.00         0.27       2555.7 
      682.00         2.88       2713.8 
      683.00         0.27       4445.1 
      684.00         0.27       4820.7 
      685.00         0.37       4473.8 
      686.00         0.45       3595.2 
      687.00         0.33       3362.9 
      688.00         0.27       3800.8 
      689.00         0.33       4154.0 
      690.00         0.30       4165.0 
      691.00         0.30       4007.2 
      692.00         0.33       3787.7 
      693.00         0.33       3607.0 
      694.00         0.23       3484.8 
      695.00         0.23       3441.1 
      696.00         0.20       3415.2 
      697.00         0.32       3399.6 
      698.00         0.40       3355.6 
      699.00         0.50       3283.6 
      700.00         0.30       3465.4 
      701.00         0.57       3681.4 
      702.00         0.40       2261.0 
      703.00         0.50       2006.5 
      704.00         0.33       2981.7 
      705.00         0.28       2794.4 
      706.00         0.50       2365.9 
      707.00         0.53       3362.2 
      708.00         0.30       3898.5 
      709.00         0.27       3942.1 
      710.00         0.57       3833.7 
      711.00         0.47       3614.9 
      712.00         2.88       5353.5 
      713.00         0.33       5277.4 
      714.00         0.37       4082.6 
      715.00         0.35       3474.4 
      716.00         0.27       3548.1 
      717.00         0.20       4001.6 
      718.00         0.23       4278.9 
      719.00         0.17       4285.5 
      720.00         0.20       4253.3 
      721.00         0.27       4126.3 
      722.00         0.30       3908.2 
      723.00         0.27       3645.0 
      724.00         0.30       3542.2 
      725.00         0.27       3497.2 
      726.00         0.30       3497.2 
      727.00         0.30       3476.4 
      728.00         0.35       3456.7 
      729.00         0.37       3444.3 
      730.00         0.27       3458.1 
      731.00         0.27       3495.5 
      732.00         0.30       3524.6 
      733.00         0.30       3493.4 
      734.00         0.30       3299.9 
      735.00         0.30       3246.6 
      736.00         0.23       3262.2 
      737.00         0.27       3289.5 
      738.00         0.27       3308.2 
      739.00         0.27       3301.3 
      740.00         0.25       3258.0 
      741.00         0.27       3228.6 
      742.00         3.38       5740.4 
      743.00         0.17       5599.7 
      744.00         0.17       5090.7 
      745.00         0.27       4105.4 
      746.00         0.27       3878.6 
      747.00         0.30       4206.7 
      748.00         0.30       4280.0 
      749.00         0.30       4274.8 
      750.00         0.17       4205.0 
      751.00         0.27       4113.0 
      752.00         0.33       3968.1 
      753.00         0.33       3789.7 
      754.00         0.32       3669.4 
      755.00         0.33       3610.7 
      756.00         0.33       3554.3 
      757.00         0.27       3490.3 
      758.00         0.27       3449.5 
      759.00         0.27       3410.8 
      760.00         0.30       3365.9 
