~Version Information
VERS.                      2.0: CWLS Log ASCII Standard - VERSION 2.0
WRAP.                       NO: One line per depth step
~Well Information Block
STRT.FT               480.1000: 
STOP.FT              2029.0000: 
STEP.FT                 0.1000: 
NULL.                -999.2500: 
COMP.          Petrogulf Corporation: COMPANY
WELL.            Montoya 7-12R: WELL
FLD.           Purgatorie River: FIELD
LOC.           1769' FNL & 658' FWL: LOCATION
CNTY.               Las Animas: COUNTY
SRVC.                         : SERVICE COMPANY
DATE.          Mon Nov 22 07:21:54 2004: LOG DATE
UWI.           05 071 08240 00: UNIQUE WELL ID
STAT.                 Colorado: STATE
~Curve Information Block
DEPT.FT            0 000 00 00: Depth
DCAL.in                       : CDL Caliper
RHOB.g/cc                     : CDL Bulk Density
RHOC.g/cc                     : CDL Density Correction
DPOR.pu                       : CDL Density Porosity
GR.GAPI                       : Gamma Ray
NPOR.pu                       : Neutron Porosity
~Parameter Information Block
~A  Depth       DCAL        RHOB        RHOC        DPOR         GR         NPOR    
# ...
   902.5000      8.1058      2.5490      0.0603      6.1210    130.2992     32.4473
   902.6000      8.1058      2.5527      0.0755      5.8973    128.7641     32.2220
   902.7000      8.1058      2.5555      0.1180      5.7257    128.7810     31.4304
   902.8000      8.1273      2.5582      0.0926      5.5640    129.1795     30.7075
   902.9000      8.1273      2.5625      0.0548      5.3043    129.5602     30.4096
   903.0000      8.1159      2.5657      0.0581      5.1087    132.0128     29.8486
   903.1000      8.1159      2.5690      0.0287      4.9098    135.1155     28.8900
   903.2000      8.1159      2.5794      0.0285      4.2808    135.3370     28.0227
   903.3000      8.1242      2.5876      0.0913      3.7825    132.3745     27.3471
   903.4000      8.1242      2.5754      0.0237      4.5213    128.0227     26.7480
   903.5000      8.1177      2.5578     -0.0308      5.5903    125.9328     26.1630
   903.6000      8.1177      2.5570      0.0173      5.6363    129.0317     25.8318
   903.7000      8.1177      2.5618      0.0402      5.3465    132.8685     25.5618
   903.8000      8.0945      2.5555      0.0306      5.7283    132.2245     24.8199
   903.9000      8.0945      2.5435     -0.0167      6.4543    127.9825     24.2695
   904.0000      8.0995      2.5377      0.0451      6.8069    121.5957     24.8771
   904.1000      8.0995      2.5369      0.0239      6.8532    114.4299     25.9689
   904.2000      8.0995      2.5415     -0.0078      6.5730    108.5190     26.1337
   904.3000      8.0997      2.5533      0.0051      5.8610    105.4256     25.8669
   904.4000      8.0997      2.5683      0.0213      4.9504    107.6113     26.4696
   904.5000      8.0943      2.5850      0.0653      3.9382    113.0541     27.6976
   904.6000      8.0943      2.6015      0.0436      2.9422    116.5555     28.2087
   904.7000      8.0943      2.6079      0.0677      2.5538    119.9377     27.4467
   904.8000      8.1000      2.5937      0.0749      3.4142    125.8032     26.4655
   904.9000      8.1000      2.5645      0.0104      5.1845    129.2463     26.3568
   905.0000      8.1077      2.5376      0.0260      6.8132    126.9414     26.7641
   905.1000      8.1077      2.5281     -0.0220      7.3862    122.6815     26.8224
   905.2000      8.1077      2.5398      0.0698      6.6789    121.0019     26.9336
   905.3000      8.1149      2.5509      0.1261      6.0083    123.6986     27.6603
   905.4000      8.1149      2.5374      0.0841      6.8268    128.4394     28.7222
   905.5000      8.1018      2.5106      0.0411      8.4457    132.9750     29.4799
   905.6000      8.1018      2.4999      0.0726      9.0980    138.1473     29.4447
   905.7000      8.1018      2.5130      0.0568      8.3057    142.1383     29.2914
   905.8000      8.0947      2.5365      0.1386      6.8818    141.6591     29.9096
   905.9000      8.0947      2.5551      0.0920      5.7514    137.8083     30.8440
   906.0000      8.1157      2.5588      0.0895      5.5295    134.0388     31.1055
   906.1000      8.1157      2.5373      0.0992      6.8319    131.1660     30.6187
   906.2000      8.1157      2.4928      0.0916      9.5246    127.5232     29.8991
   906.3000      8.1009      2.4529      0.0379     11.9460    124.6353     29.5679
   906.4000      8.1009      2.4409      0.0682     12.6698    124.6320     30.2363
   906.5000      8.0985      2.4482      0.0808     12.2319    126.0886     31.4900
   906.6000      8.0985      2.4566      0.1220     11.7239    126.6826     32.1552
   906.7000      8.0985      2.4593      0.1215     11.5575    123.2175     31.8307
   906.8000      8.1137      2.4572      0.1101     11.6841    115.4291     30.8600
   906.9000      8.1137      2.4607      0.0656     11.4739    109.4883     29.7786
   907.0000      8.1292      2.4847      0.0865     10.0210    109.6091     29.3110
   907.1000      8.1292      2.5214      0.0623      7.7919    112.9407     29.6261
   907.2000      8.1292      2.5519      0.0352      5.9433    114.1608     30.0949
   907.3000      8.1664      2.5746      0.0219      4.5681    111.7793     30.2892
   907.4000      8.1664      2.5921      0.0466      3.5096    110.8938     30.2328
   907.5000      8.0950      2.6027      0.0207      2.8679    111.1037     30.0164
   907.6000      8.0950      2.6138      0.0469      2.1944    108.9515     29.8302
   907.7000      8.0950      2.6363      0.0597      0.8322    107.4639     29.8013
   907.8000      8.0624      2.6672      0.0805     -1.0441    108.5842     29.6766
   907.9000      8.0624      2.6911      0.0996     -2.4912    110.4940     29.2435
   908.0000      8.0471      2.7054      0.0213     -3.3593    111.4907     28.6299
   908.1000      8.0471      2.7229      0.0409     -4.4186    112.3717     28.0732
   908.2000      8.0471      2.7471      0.0263     -5.8869    114.1015     27.7248
   908.3000      8.0492      2.7717      0.0638     -7.3758    114.3080     27.3452
   908.4000      8.0492      2.7822      0.1454     -8.0137    111.3145     26.6783
   908.5000      8.0537      2.7749      0.0391     -7.5721    107.7184     25.9480
   908.6000      8.0537      2.7603      0.1075     -6.6861    103.5750     25.4471
   908.7000      8.0537      2.7287      0.0423     -4.7678     99.1603     25.4616
   908.8000      8.0822      2.6810     -0.0659     -1.8785     97.6013     25.9136
   908.9000      8.0822      2.6409      0.0169      0.5534     97.7983     26.3220
   909.0000      8.0778      2.6207     -0.0013      1.7787     97.0156     26.7362
   909.1000      8.0778      2.6227      0.0178      1.6571     95.8545     27.1721
   909.2000      8.0778      2.6387      0.0275      0.6866     96.8409     27.5552
   909.3000      8.0627      2.6551      0.0285     -0.3108    103.2365     28.3099
   909.4000      8.0627      2.6603      0.0724     -0.6225    112.9941     28.8584
   909.5000      8.0467      2.6477      0.0672      0.1399    118.1760     28.4727
   909.6000      8.0467      2.6276      0.0200      1.3594    120.0830     27.9157
   909.7000      8.0467      2.6115      0.0235      2.3347    125.4732     27.7689
   909.8000      8.0579      2.6050      0.0146      2.7282    131.0544     28.1079
   909.9000      8.0579      2.6163      0.0077      2.0427    132.6246     28.7517
   910.0000      8.0705      2.6348      0.0743      0.9213    132.8946     28.9719
   910.1000      8.0705      2.6374      0.0596      0.7618    130.2673     28.9111
   910.2000      8.0705      2.6263      0.0521      1.4341    121.8045     29.1691
   910.3000      8.0781      2.6165      0.0589      2.0278    116.0192     29.4737
   910.4000      8.0781      2.6080      0.0368      2.5465    119.5622     29.7051
   910.5000      8.0606      2.5940      0.0231      3.3915    124.1879     30.0805
   910.6000      8.0606      2.5730      0.0602      4.6655    121.7416     30.3204
   910.7000      8.0606      2.5462      0.0422      6.2885    117.2552     30.4379
   910.8000      8.0971      2.5257     -0.0483      7.5310    117.5483     30.4724
   910.9000      8.0971      2.5235     -0.0062      7.6655    118.8694     30.1903
   911.0000      8.0554      2.5287      0.0301      7.3512    118.3498     29.3167
   911.1000      8.0554      2.5283     -0.0015      7.3783    118.7806     27.7305
   911.2000      8.0554      2.5336     -0.0161      7.0533    118.4071     26.5151
   911.3000      8.0436      2.5628      0.0208      5.2820    116.4239     26.7794
   911.4000      8.0436      2.6076      0.0611      2.5680    116.4746     27.4606
   911.5000      8.0430      2.6281      0.0442      1.3255    119.2066     27.1078
   911.6000      8.0430      2.5986      0.0079      3.1168    121.4537     26.1978
   911.7000      8.0430      2.5480      0.0114      6.1824    119.8531     25.5679
   911.8000      8.0446      2.5208      0.0068      7.8277    117.4586     25.7429
   911.9000      8.0446      2.5221      0.0669      7.7519    120.9999     26.9549
   912.0000      8.0272      2.5273      0.0506      7.4364    126.7869     28.3950
