~Version Information
VERS.                      2.0: CWLS Log ASCII Standard - VERSION 2.0
WRAP.                       NO: One line per depth step
~Well Information Block
STRT.FT               745.0000: 
STOP.FT              2945.7000: 
STEP.FT                 0.1000: 
NULL.                -999.2500: 
COMP.          Pioneer Natural Resources: COMPANY
WELL.          Old Yeller 31-32: WELL
FLD.           Purgatoire River: FIELD
LOC.           1832' FEL & 793' FNL--: LOCATION
STAT.                 Colorado: State
CNTY.               Las Animas: COUNTY
CTRY. USA : Country
SECT. 32 : Section
TOWN. 32S : Township
RANG. 67W : Range
SRVC.                Patterson: SERVICE COMPANY
DATE.          Mon Aug 29 11:12:35 2005: LOG DATE
API.           05 071 08356 00: UNIQUE WELL ID
~Curve Information Block
DEPT.FT            0 000 00 00: Depth
DCAL.in                       : CDL Caliper
RHOB.g/cc                     : CDL Bulk Density
RHOC.g/cc                     : CDL Density Correction
DPOR.pu                       : CDL Density Porosity
NPOR.pu                       : Neutron Porosity
GR.GAPI                       : Gamma Ray
~Parameter Information Block
~A  Depth       DCAL        RHOB        RHOC        DPOR        NPOR         GR     
# ...
  1033.0000     16.2575      1.4342      0.1195     73.6843     33.6137    118.7081
  1033.1000     16.2575      1.4462      0.1421     72.9604     33.0167    123.0551
  1033.2000     16.2575      1.4817      0.1400     70.8078     32.4523    124.0920
  1033.3000     15.6645      1.5559      0.1288     66.3070     32.4125    125.2267
  1033.4000     15.6645      1.6773      0.2012     58.9518     32.7443    124.5437
  1033.5000     14.5667      1.8290      0.2362     49.7602     32.7032    121.6995
  1033.6000     14.5667      1.9856      0.2924     40.2684     32.1083    122.5484
  1033.7000     14.5667      2.1266      0.3201     31.7217     31.6134    127.1613
  1033.8000     12.9290      2.2456      0.3383     24.5107     31.5325    132.1126
  1033.9000     12.9290      2.3526      0.3118     18.0248     31.2874    137.2430
  1034.0000     11.3045      2.4518      0.3061     12.0123     30.5443    139.3847
  1034.1000     11.3045      2.5346      0.3025      6.9921     29.9537    136.8160
  1034.2000     11.3045      2.5926      0.3744      3.4773     30.0093    134.0692
  1034.3000      9.7618      2.6157      0.3390      2.0788     30.4035    133.2758
  1034.4000      9.7618      2.5972      0.2794      3.1998     30.5291    135.1778
  1034.5000      8.6620      2.5499      0.1546      6.0676     30.2800    141.7070
  1034.6000      8.6620      2.5046      0.0899      8.8132     29.9885    148.1250
  1034.7000      8.6620      2.4876      0.0760      9.8407     29.9830    150.6125
  1034.8000      8.2479      2.4981      0.1051      9.2041     30.2152    151.7842
  1034.9000      8.2479      2.5149      0.1139      8.1865     30.4175    152.9830
  1035.0000      8.1755      2.5312      0.0621      7.2018     30.3725    149.4292
  1035.1000      8.1755      2.5503      0.0810      6.0406     30.0805    138.9535
  1035.2000      8.1755      2.5570      0.1041      5.6374     29.8161    129.4125
  1035.3000      8.1700      2.5399      0.0666      6.6755     29.5336    127.8570
  1035.4000      8.1700      2.5130      0.0596      8.3022     29.1458    133.3898
  1035.5000      8.1691      2.4907      0.0344      9.6564     28.8884    139.8098
  1035.6000      8.1691      2.4824      0.0583     10.1592     28.9683    140.5500
  1035.7000      8.1691      2.4957      0.0512      9.3511     29.5125    137.9438
  1035.8000      8.1736      2.5200      0.1109      7.8776     30.1100    140.2445
  1035.9000      8.1736      2.5323      0.1453      7.1345     30.1208    145.6530
  1036.0000      8.1953      2.5271      0.1047      7.4507     29.6279    148.0927
  1036.1000      8.1953      2.5159      0.1262      8.1293     29.3198    149.8945
  1036.2000      8.1953      2.5091      0.0847      8.5394     29.6618    155.2649
  1036.3000      8.2142      2.5144      0.1594      8.2196     30.1518    160.7820
  1036.4000      8.2142      2.5198      0.1819      7.8932     30.0651    160.1544
  1036.5000      8.1970      2.5045      0.1302      8.8162     29.4790    155.6742
  1036.6000      8.1970      2.4713      0.0954     10.8328     28.9418    151.1234
  1036.7000      8.1970      2.4449      0.0466     12.4280     28.8743    145.9321
  1036.8000      8.1729      2.4444      0.0260     12.4635     29.2665    143.0116
  1036.9000      8.1729      2.4595      0.0813     11.5441     29.6966    145.5385
  1037.0000      8.1706      2.4748      0.0338     10.6200     29.8221    151.1640
  1037.1000      8.1706      2.4908      0.0133      9.6493     29.5191    154.9501
  1037.2000      8.1706      2.4969      0.0525      9.2816     28.8854    152.7890
  1037.3000      8.1889      2.4784      0.0151     10.3978     28.1850    147.0196
  1037.4000      8.1889      2.4421      0.0225     12.5982     27.7503    143.3734
  1037.5000      8.2201      2.4004     -0.0175     15.1292     27.6034    141.2504
  1037.6000      8.2201      2.3682      0.0019     17.0808     27.2888    138.5106
  1037.7000      8.2201      2.3568     -0.0153     17.7670     26.5921    136.6759
  1037.8000      8.2465      2.3636      0.0476     17.3562     26.2600    135.6684
  1037.9000      8.2465      2.3852      0.0110     16.0499     26.8092    136.1232
  1038.0000      8.2693      2.4219      0.0576     13.8255     27.4908    136.9158
  1038.1000      8.2693      2.4655      0.0878     11.1796     27.8027    133.2588
  1038.2000      8.2693      2.5054      0.1112      8.7652     28.2479    124.3715
  1038.3000      8.3031      2.5452      0.1545      6.3517     28.6057    116.7906
  1038.4000      8.3031      2.6063      0.1902      2.6456     28.0768    118.9266
  1038.5000      8.3244      2.6962      0.3084     -2.7983     27.0331    129.5472
  1038.6000      8.3244      2.7862      0.3536     -8.2558     26.1470    136.7415
  1038.7000      8.3244      2.8499      0.3040    -12.1123     25.4172    134.7217
  1038.8000      8.2800      2.8840      0.3093    -14.1844     24.8712    131.5809
  1038.9000      8.2800      2.8953      0.2757    -14.8689     24.8069    130.7011
  1039.0000      8.1736      2.8932      0.2453    -14.7407     24.7888    125.9725
  1039.1000      8.1736      2.8686      0.2787    -13.2483     24.0486    118.2394
  1039.2000      8.1736      2.8050      0.1564     -9.3934     23.1131    112.2956
  1039.3000      8.0905      2.7120      0.1150     -3.7586     23.0034    106.6950
  1039.4000      8.0905      2.6217     -0.0022      1.7157     23.5099    100.0957
  1039.5000      8.0615      2.5731      0.0009      4.6579     23.6769     95.7437
  1039.6000      8.0615      2.5792      0.0421      4.2916     23.1918     96.6134
  1039.7000      8.0615      2.6185      0.0102      1.9096     22.5279    102.1630
  1039.8000      8.0558      2.6619      0.0945     -0.7196     22.3712    110.2904
  1039.9000      8.0558      2.6909      0.0834     -2.4792     22.7927    119.6437
  1040.0000      8.0560      2.7077      0.0775     -3.4947     23.0131    125.3247
  1040.1000      8.0560      2.7178      0.0834     -4.1116     22.6094    122.0308
  1040.2000      8.0560      2.7223      0.0659     -4.3791     22.2494    113.9543
  1040.3000      8.0578      2.7232      0.0703     -4.4380     22.3462    108.7362
  1040.4000      8.0578      2.7130      0.1072     -3.8193     22.3108    107.7581
  1040.5000      8.0584      2.6838      0.0318     -2.0460     21.9320    107.4572
  1040.6000      8.0584      2.6525      0.0046     -0.1538     21.6948    106.7375
  1040.7000      8.0584      2.6357      0.0399      0.8685     21.5846    103.8856
  1040.8000      8.0581      2.6290      0.0235      1.2717     21.5194     96.9157
  1040.9000      8.0581      2.6325      0.0111      1.0631     21.5764     91.9481
  1041.0000      8.0572      2.6470      0.0109      0.1829     21.2704     94.0329
  1041.1000      8.0572      2.6586      0.1126     -0.5241     20.4058     95.8103
  1041.2000      8.0572      2.6612      0.0647     -0.6802     19.3871     91.3585
  1041.3000      8.0564      2.6594      0.1081     -0.5674     18.7799     86.9392
  1041.4000      8.0564      2.6417      0.1116      0.5027     18.5929     88.6827
  1041.5000      8.0573      2.6111      0.0071      2.3593     18.1590     92.0175
  1041.6000      8.0573      2.5942      0.0204      3.3790     17.5321     91.8831
  1041.7000      8.0573      2.5908      0.0467      3.5879     17.4002     91.8744
  1041.8000      8.0571      2.5844      0.0103      3.9739     17.7295     94.7667
  1041.9000      8.0571      2.5786      0.0281      4.3259     18.0425     94.9089
  1042.0000      8.0561      2.5787      0.0380      4.3216     18.2226     89.7562
  1042.1000      8.0561      2.5879      0.0132      3.7612     18.5349     85.0305
  1042.2000      8.0561      2.6052      0.0750      2.7125     19.0234     81.2153
  1042.3000      8.0558      2.6191      0.0537      1.8721     19.2756     77.1293
  1042.4000      8.0558      2.6258      0.0568      1.4688     19.4305     80.0901
  1042.5000      8.0555      2.6242      0.0499      1.5643     19.7821     92.2228
