~Version Information
VERS.                      2.0: CWLS Log ASCII Standard - VERSION 2.0
WRAP.                       NO: One line per depth step
~Well Information Block
STRT.FT               750.0000: 
STOP.FT              2431.5000: 
STEP.FT                 0.1000: 
NULL.                -999.2500: 
COMP.          Petrogulf Corporation: COMPANY
WELL.           McDaniel 9-34V: WELL
FLD.           Purgatorie River: FIELD
LOC.           620' FSL & 1800' FEL: LOCATION
PROV.                 Colorado: PROVINCE
CNTY.               Las Animas: COUNTRY
SRVC.                Patterson: SERVICE COMPANY
DATE.          Wed Sep 28 07:18:04 2005: LOG DATE
UWI.                          : UNIQUE WELL ID
~Curve Information Block
DEPT.FT            0 000 00 00: Depth
DCAL.in                       : CDL Caliper
RHOB.g/cc                     : CDL Bulk Density
RHOC.g/cc                     : CDL Density Correction
DPOR.pu                       : CDL Density Porosity
GR.GAPI                       : Gamma Ray
NPOR.pu                       : Neutron Porosity
~Parameter Information Block
~A  Depth       DCAL        RHOB        RHOC        DPOR         GR         NPOR    
# ...
  1748.4000      7.9429      2.4106      0.0449     14.5084    116.7036     30.6110
  1748.5000      7.9452      2.4407      0.0831     12.6822    118.1525     30.1667
  1748.6000      7.9452      2.4747      0.0817     10.6253    119.9424     29.6902
  1748.7000      7.9452      2.4904      0.0692      9.6727    123.9565     29.6038
  1748.8000      7.9372      2.4895      0.0626      9.7301    126.4224     29.7810
  1748.9000      7.9372      2.4960      0.0605      9.3309    123.3793     29.7630
  1749.0000      7.9411      2.5174      0.0750      8.0359    118.9291     29.1873
  1749.1000      7.9411      2.5355      0.0569      6.9417    117.4304     28.0616
  1749.2000      7.9411      2.5373      0.0385      6.8280    117.3700     26.8449
  1749.3000      7.9432      2.5293      0.0257      7.3167    115.5512     26.1007
  1749.4000      7.9432      2.5254      0.0532      7.5508    113.0571     26.1948
  1749.5000      7.9534      2.5297      0.0155      7.2931    113.7016     26.9286
  1749.6000      7.9534      2.5372      0.0242      6.8353    116.0498     27.4234
  1749.7000      7.9534      2.5454     -0.0097      6.3401    115.6099     27.1312
  1749.8000      7.9536      2.5525      0.0338      5.9104    114.6367     26.5520
  1749.9000      7.9536      2.5556     -0.0011      5.7189    117.9843     26.0671
  1750.0000      7.9526      2.5553      0.0438      5.7416    123.8153     25.2702
  1750.1000      7.9526      2.5470      0.0502      6.2406    127.2227     24.3040
  1750.2000      7.9526      2.5276      0.0213      7.4207    127.7364     24.2611
  1750.3000      7.9535      2.5106      0.0189      8.4511    128.4609     25.4016
  1750.4000      7.9535      2.5095      0.0601      8.5177    131.3664     26.6357
  1750.5000      7.9576      2.5165      0.0511      8.0893    134.9937     27.0434
  1750.6000      7.9576      2.5145      0.0560      8.2139    137.3610     26.7096
  1750.7000      7.9576      2.4907      0.0478      9.6538    138.8377     26.2694
  1750.8000      7.9910      2.4447      0.0385     12.4448    137.8781     26.2233
  1750.9000      7.9910      2.3929      0.0095     15.5843    134.5675     26.6357
  1751.0000      8.0369      2.3546      0.0052     17.9050    134.0005     27.2179
  1751.1000      8.0369      2.3408     -0.0336     18.7368    136.4780     27.6664
  1751.2000      8.0369      2.3656      0.0073     17.2384    138.8543     27.9990
  1751.3000      8.1096      2.4344      0.0254     13.0655    141.3662     28.3846
  1751.4000      8.1096      2.5285      0.1016      7.3609    143.9414     28.7307
  1751.5000      8.1480      2.6186      0.1649      1.9046    141.7118     28.7876
  1751.6000      8.1480      2.6817      0.2828     -1.9225    133.3321     28.5747
  1751.7000      8.1480      2.7004      0.3241     -3.0525    125.6879     28.4823
  1751.8000      8.1895      2.6679      0.3103     -1.0862    123.7891     28.8329
  1751.9000      8.1895      2.6027      0.2170      2.8644    125.2592     29.3982
  1752.0000      8.1098      2.5414      0.0946      6.5809    127.2653     29.5915
  1752.1000      8.1098      2.5073      0.0283      8.6496    130.2374     29.2211
  1752.2000      8.1098      2.4941      0.0004      9.4508    133.1354     28.5668
  1752.3000      8.1304      2.4873      0.0028      9.8636    134.1869     27.9585
  1752.4000      8.1304      2.4774      0.0264     10.4586    133.7555     27.7421
  1752.5000      8.1332      2.4610     -0.0018     11.4554    135.2112     28.1739
  1752.6000      8.1332      2.4460      0.0472     12.3642    139.6727     28.9192
  1752.7000      8.1332      2.4426      0.0350     12.5690    143.1505     29.2627
  1752.8000      8.1349      2.4492      0.0701     12.1712    142.3488     29.2215
  1752.9000      8.1349      2.4493      0.1326     12.1622    139.2175     29.3158
  1753.0000      8.1224      2.4276      0.1468     13.4800    138.1745     29.5792
  1753.1000      8.1224      2.3920      0.1458     15.6367    140.6498     29.7697
  1753.2000      8.1224      2.3674      0.1202     17.1246    145.2821     29.8348
  1753.3000      8.1043      2.3646      0.1493     17.2956    149.8081     29.8820
  1753.4000      8.1043      2.3631      0.2379     17.3872    153.2197     30.0483
  1753.5000      8.2649      2.3348      0.2344     19.1038    157.4713     30.4073
  1753.6000      8.2649      2.2857      0.1971     22.0804    161.0397     30.7291
  1753.7000      8.2649      2.2462      0.1839     24.4752    158.8241     30.7766
  1753.8000      8.5564      2.2264      0.2612     25.6717    152.6332     30.6940
  1753.9000      8.5564      2.2134      0.2271     26.4630    147.8407     30.8007
  1754.0000      8.4933      2.2046      0.2316     26.9948    145.7079     31.2731
  1754.1000      8.4933      2.2098      0.2042     26.6763    144.8029     31.7839
  1754.2000      8.4933      2.2212      0.3267     25.9891    143.7702     31.9719
  1754.3000      8.5402      2.2055      0.3940     26.9370    142.9320     32.0502
  1754.4000      8.5402      2.1468      0.3291     30.4969    144.2159     32.2820
  1754.5000      8.8550      2.0702      0.3040     35.1421    146.8889     32.4917
  1754.6000      8.8550      2.0022      0.3153     39.2584    146.4741     32.3721
  1754.7000      8.8550      1.9475      0.2645     42.5737    142.9121     32.1148
  1754.8000      9.2448      1.9124      0.2480     44.7007    142.0002     32.2457
  1754.9000      9.2448      1.9125      0.2329     44.6966    145.5442     32.8683
  1755.0000      9.9323      1.9508      0.2381     42.3743    145.9005     33.6426
  1755.1000      9.9323      2.0177      0.2467     38.3204    140.1726     34.2741
  1755.2000      9.9323      2.1056      0.2770     32.9938    136.9359     34.4979
  1755.3000     10.1258      2.2015      0.3297     27.1848    138.1375     34.3499
  1755.4000     10.1258      2.2892      0.3403     21.8638    138.2139     34.1142
  1755.5000      9.3719      2.3655      0.3506     17.2434    138.0167     33.6774
  1755.6000      9.3719      2.4336      0.3229     13.1131    139.6062     33.0296
  1755.7000      9.3719      2.4928      0.2920      9.5289    139.1092     32.4707
  1755.8000      8.2797      2.5343      0.2353      7.0093    135.0480     32.0908
  1755.9000      8.2797      2.5500      0.1553      6.0602    131.9653     31.7290
  1756.0000      8.1025      2.5490      0.1092      6.1214    131.0370     31.2397
  1756.1000      8.1025      2.5533      0.0550      5.8624    128.1730     30.6439
  1756.2000      8.1025      2.5642      0.0792      5.2016    123.6006     29.9319
  1756.3000      8.0935      2.5634      0.0535      5.2459    121.1372     29.0694
  1756.4000      8.0935      2.5539      0.0041      5.8248    120.2790     28.4017
  1756.5000      8.0934      2.5572     -0.0274      5.6251    117.5739     28.0219
  1756.6000      8.0934      2.5798      0.0499      4.2524    114.4728     27.6192
  1756.7000      8.0934      2.6043      0.0562      2.7707    116.2683     27.3797
  1756.8000      8.0968      2.6108      0.0516      2.3747    123.3197     27.5345
  1756.9000      8.0968      2.5928      0.0415      3.4651    129.1778     27.6664
  1757.0000      8.0987      2.5582      0.0050      5.5643    129.4510     27.3079
  1757.1000      8.0987      2.5307     -0.0155      7.2327    126.2408     26.7436
  1757.2000      8.0987      2.5332     -0.0482      7.0764    123.1245     26.5196
  1757.3000      8.0953      2.5608      0.0269      5.4073    121.1765     26.6790
  1757.4000      8.0953      2.5918      0.0288      3.5285    120.1466     27.1644
  1757.5000      8.0998      2.6099      0.0700      2.4302    117.8262     27.8420
  1757.6000      8.0998      2.6039      0.0657      2.7953    111.4912     28.3462
  1757.7000      8.0998      2.5816      0.0186      4.1456    103.5286     28.4928
  1757.8000      8.1147      2.5660      0.0122      5.0935     99.3398     28.1124
  1757.9000      8.1147      2.5681      0.0234      4.9608    100.2587     27.0995
