~Version Information
VERS.                      2.0: CWLS Log ASCII Standard - VERSION 2.0
WRAP.                       NO: One line per depth step
~Well Information Block
STRT.FT               962.7000: 
STOP.FT              2435.5000: 
STEP.FT                 0.1000: 
NULL.                -999.2500: 
COMP.          Petrogulf Corporation: COMPANY
WELL.              Hand 8-44 V: WELL
FLD.           Purgatorie River: FIELD
LOC.           1076' FEL & 820' FSL: LOCATION
CNTY.               Las Animas: COUNTY
SRVC.                         : SERVICE COMPANY
DATE.          Fri Nov 21 14:12:41 2003: LOG DATE
UWI.                          : UNIQUE WELL ID
STAT.                 Colorado: STATE
~Curve Information Block
DEPT.FT            0 000 00 00: Depth
DCAL.in                       : CDL Caliper
RHOB.g/cc                     : CDL Bulk Density
RHOC.g/cc                     : CDL Density Correction
DPOR.pu                       : CDL Density Porosity
GR.GAPI                       : Gamma Ray
NPOR.pu                       : Neutron Porosity
~Parameter Information Block
~A  Depth       DCAL        RHOB        RHOC        DPOR         GR         NPOR    
# ...
  1557.9000      8.2293      2.6370      0.1460      0.7876    140.7239     31.0706
  1558.0000      8.2159      2.6802      0.1481     -1.8303    138.0690     30.4437
  1558.1000      8.2159      2.7091      0.1077     -3.5794    138.3878     29.7614
  1558.2000      8.2159      2.7288      0.1538     -4.7749    141.6677     29.1067
  1558.3000      8.2061      2.7063      0.2243     -3.4109    147.8622     28.7826
  1558.4000      8.2061      2.6353      0.0480      0.8926    150.5302     28.7166
  1558.5000      8.1983      2.5768     -0.0208      4.4354    147.0981     28.4630
  1558.6000      8.1983      2.5753     -0.0276      4.5246    138.8354     27.9205
  1558.7000      8.1983      2.5984      0.0590      3.1250    129.3361     27.2260
  1558.8000      8.1965      2.5958      0.0185      3.2871    126.1283     26.5947
  1558.9000      8.1965      2.5645     -0.0226      5.1827    128.7184     26.2656
  1559.0000      8.1868      2.5364     -0.0395      6.8875    128.9615     26.2193
  1559.1000      8.1868      2.5353      0.0114      6.9488    126.7365     26.1540
  1559.2000      8.1868      2.5606     -0.0236      5.4203    128.8658     25.9453
  1559.3000      8.2096      2.5988      0.0101      3.1039    134.6974     25.8317
  1559.4000      8.2096      2.6306      0.0865      1.1783    137.9448     25.8827
  1559.5000      8.2222      2.6457      0.0660      0.2628    137.0927     25.9638
  1559.6000      8.2222      2.6478      0.0839      0.1344    136.9620     25.9428
  1559.7000      8.2222      2.6360      0.1128      0.8486    141.1994     25.7315
  1559.8000      8.2227      2.6055      0.1032      2.6960    145.3833     25.4026
  1559.9000      8.2227      2.5620      0.0815      5.3339    144.8422     24.7525
  1560.0000      8.2257      2.5255     -0.0602      7.5461    145.2591     23.5160
  1560.1000      8.2257      2.5103      0.0685      8.4644    150.0658     21.9060
  1560.2000      8.2257      2.5122      0.0056      8.3540    152.7712     19.9771
  1560.3000      8.2518      2.5198      0.0832      7.8883    150.3625     17.6967
  1560.4000      8.2518      2.5173      0.0576      8.0441    148.1660     15.7102
  1560.5000      8.3341      2.5030      0.0725      8.9119    151.9635     14.6773
  1560.6000      8.3341      2.4801      0.0456     10.2992    161.0391     14.5651
  1560.7000      8.3341      2.4343      0.0350     13.0703    168.6503     15.3817
  1560.8000      8.4093      2.3681      0.0503     17.0854    169.3187     17.1530
  1560.9000      8.4093      2.3061      0.0085     20.8448    165.6816     19.2877
  1561.0000      8.3975      2.2363      0.0893     25.0715    164.8703     21.3787
  1561.1000      8.3975      2.1178     -0.0433     32.2569    165.9417     23.3520
  1561.2000      8.3975      1.9600     -0.0473     41.8201    161.9320     25.0415
  1561.3000      8.3804      1.8281     -0.0996     49.8098    152.1692     26.6660
  1561.4000      8.3804      1.7750     -0.0358     53.0279    141.9956     28.4005
  1561.5000      8.3627      1.8001      0.0581     51.5103    135.9848     29.9000
  1561.6000      8.3627      1.8899      0.0574     46.0691    133.7956     31.0351
  1561.7000      8.3627      2.0424      0.1661     36.8272    131.7876     31.7318
  1561.8000      8.2434      2.2150      0.3500     26.3625    128.1928     31.8869
  1561.9000      8.2434      2.3434      0.3777     18.5843    123.4191     31.5850
  1562.0000      8.2651      2.4249      0.3210     13.6419    116.0700     30.8143
  1562.1000      8.2651      2.4921      0.3686      9.5686    106.1445     29.8566
  1562.2000      8.2651      2.5334      0.3752      7.0665     98.8341     29.1248
  1562.3000      8.3741      2.5383      0.0662      6.7681     99.0168     28.6368
  1562.4000      8.3741      2.5487      0.0066      6.1390    105.6080     28.3336
  1562.5000      8.3403      2.5871      0.0897      3.8093    112.3236     28.1762
  1562.6000      8.3403      2.6313      0.0960      1.1353    115.2619     27.8585
  1562.7000      8.3403      2.6589      0.1069     -0.5367    115.5074     27.2538
  1562.8000      8.2227      2.6682      0.0870     -1.1005    114.2718     26.7895
  1562.9000      8.2227      2.6725      0.0942     -1.3665    113.9339     26.7570
  1563.0000      8.1936      2.6731      0.0977     -1.4027    116.4070     26.9427
  1563.1000      8.1936      2.6485      0.1241      0.0881    120.4854     26.8989
  1563.2000      8.1936      2.5974      0.0219      3.1890    124.3686     26.6977
  1563.3000      8.1833      2.5582     -0.0457      5.5611    126.5943     26.7821
  1563.4000      8.1833      2.5511      0.0619      5.9941    126.0700     26.9368
  1563.5000      8.1757      2.5547     -0.0405      5.7761    124.8727     26.9007
  1563.6000      8.1757      2.5487      0.0534      6.1407    125.6482     26.7718
  1563.7000      8.1757      2.5331     -0.0228      7.0844    129.1812     26.4581
  1563.8000      8.1680      2.5286      0.0094      7.3546    132.8257     25.9945
  1563.9000      8.1680      2.5446      0.0609      6.3890    133.0472     25.8745
  1564.0000      8.1893      2.5596      0.1050      5.4789    131.8765     26.1619
  1564.1000      8.1893      2.5564      0.0651      5.6711    132.0455     26.4506
  1564.2000      8.1893      2.5449      0.0743      6.3725    131.1514     26.5507
  1564.3000      8.1794      2.5383      0.0626      6.7718    127.0110     26.3283
  1564.4000      8.1794      2.5414      0.0868      6.5789    121.7974     26.1208
  1564.5000      8.2082      2.5525      0.0845      5.9082    120.4241     26.5433
  1564.6000      8.2082      2.5689      0.0886      4.9123    125.8407     27.2597
  1564.7000      8.2082      2.5925      0.0670      3.4829    135.9518     27.4250
  1564.8000      8.2242      2.6202      0.1108      1.8053    144.3351     27.0999
  1564.9000      8.2242      2.6346      0.1241      0.9337    146.2252     26.9973
  1565.0000      8.2203      2.6194      0.0775      1.8548    142.6772     27.4395
  1565.1000      8.2203      2.5909      0.0313      3.5836    136.6170     28.2768
  1565.2000      8.2203      2.5864      0.0577      3.8544    133.7498     29.1425
  1565.3000      8.2278      2.6057      0.1353      2.6832    138.1637     29.7028
  1565.4000      8.2278      2.6116      0.1465      2.3282    144.6392     29.6663
  1565.5000      8.2209      2.5890      0.1085      3.6948    145.6674     29.0925
  1565.6000      8.2209      2.5587      0.0738      5.5313    143.4510     28.4552
  1565.7000      8.2209      2.5408      0.0604      6.6175    144.4039     27.9629
  1565.8000      8.2166      2.5342      0.0678      7.0194    147.7179     27.4265
  1565.9000      8.2166      2.5307      0.0010      7.2303    147.9308     26.8142
  1566.0000      8.2180      2.5358      0.0017      6.9237    143.5986     26.4265
  1566.1000      8.2180      2.5620      0.0473      5.3318    135.8494     26.2442
  1566.2000      8.2180      2.6107      0.1317      2.3792    127.6370     26.0590
  1566.3000      8.2185      2.6616      0.1777     -0.7030    124.3711     25.7665
  1566.4000      8.2185      2.6890      0.1690     -2.3638    127.0795     25.2455
  1566.5000      8.2120      2.6908      0.1437     -2.4722    126.7403     24.7900
  1566.6000      8.2120      2.6867      0.0988     -2.2242    117.6423     24.8812
  1566.7000      8.2120      2.6763      0.1332     -1.5961    107.9687     25.5005
  1566.8000      8.1945      2.6358      0.1624      0.8617    104.5851     26.0522
  1566.9000      8.1945      2.5717      0.0941      4.7425    105.4837     26.0964
  1567.0000      8.1893      2.5289     -0.0233      7.3417    110.1327     25.9755
  1567.1000      8.1893      2.5376      0.0015      6.8133    115.1574     26.2160
  1567.2000      8.1893      2.5855      0.0306      3.9078    111.0123     26.4916
  1567.3000      8.1953      2.6345      0.1013      0.9371     98.9672     26.3861
  1567.4000      8.1953      2.6429      0.1549      0.4331     89.9727     26.3266
