~Version Information
VERS.                      2.0: CWLS Log ASCII Standard - VERSION 2.0
WRAP.                       NO: One line per depth step
~Well Information Block
STRT.FT                 0.0000: 
STOP.FT              2234.2500: 
STEP.FT                 0.2500: 
NULL.                -999.2500: 
COMP.          Pioner Natural Resources: COMPANY
WELL.          Casablanca 11-28 Tr: WELL
FLD.           Purgatoire River: FIELD
LOC.           422' FNL & 215' FWL--: LOCATION
PROV.                 Colorado: PROVINCE
CNTY.               Las Animas: COUNTRY
SRVC.                         : SERVICE COMPANY
DATE.          Fri Mar 11 13:02:46 2005: LOG DATE
UWI.           005 071 08314  : UNIQUE WELL ID
~Curve Information Block
DEPT.FT            0 000 00 00: Depth
CCL.                          : Casing Collar Locator
TT3.usec                      : CBL 3' Travel Time
AMP3.mV                       : CBL 3' Amplitude
AMP5.mV                       : CBL 5' Amplitude
GR.GAPI                       : Gamma Ray
~Parameter Information Block
~A  Depth       CCL         TT3         AMP3        AMP5         GR     
# ...
   308.0000      0.0000    792.6201      5.7292      1.9539     63.6457
   308.2500      0.0000    793.7350      5.5258      2.3021     60.8664
   308.5000      0.0000    795.1592      5.3504      1.3446     56.8185
   308.7500      0.0000    796.4933      5.2582      1.5186     53.4651
   309.0000      0.0000    797.3738      5.2643      0.8223     52.2489
   309.2500      0.0000    797.7967      5.3414      0.8223     53.6217
   309.5000      0.0000    797.9486      5.4421      0.9093     57.5262
   309.7500      0.0000    797.9899      5.5219      1.1705     63.9984
   310.0000      0.0000    797.9985      5.5574      1.0834     72.9777
   310.2500      0.0000    798.0000      5.5549      0.9093     83.6716
   310.5000      0.0000    798.0000      5.5368      0.8223     94.3731
   310.7500      0.0000    798.0000      5.5166      0.9093    103.0295
   311.0000      0.0000    798.0000      5.4914      0.7352    108.1798
   311.2500      0.0000    798.0000      5.4577      0.5611    109.6533
   311.5000      0.0000    798.0000      5.4237      1.6057    108.5039
   311.7500      0.0000    798.0000      5.4003      2.1280    106.2396
   312.0000      0.0000    798.0000      5.3899      1.6057    104.1123
   312.2500      0.0000    798.0000      5.3850      1.9539    102.9736
   312.5000      0.0000    798.0000      5.3735      0.8223    103.3342
   312.7500      0.0000    798.0000      5.3430      0.9093    105.2094
   313.0000      0.0000    798.0000      5.2916      2.4762    108.0439
   313.2500      0.0000    798.0000      5.2376      2.2150    110.9692
   313.5000      0.0000    797.9951      5.2098      2.6503    113.0412
   313.7500      0.0000    797.9684      5.2250      2.4762    113.4139
   314.0000      0.0000    797.8393      5.2774      1.3446    111.8848
   314.2500      0.0000    797.3644      5.3448      0.5611    109.5763
   314.5000      0.0000    796.0423      5.3988      0.7352    108.6184
   314.7500      0.0000    793.3037      5.4148      0.3870    110.6810
   315.0000      0.0000    789.2262      5.3831     -0.1352    115.7312
   315.2500      0.0000    785.2342      5.3132      0.7352    122.1255
   315.5000      0.0000    783.5345      5.2249      1.4316    127.7685
   315.7500      0.0000    785.2342      5.1403      1.5186    131.2000
   316.0000      0.0000    789.2262      5.0846      1.3446    131.8285
   316.2500      0.0000    793.3037      5.0822     -0.0482    129.7307
   316.5000      0.0000    796.0423      5.1377      0.7352    125.7794
   316.7500      0.0000    797.3644      5.2189     -0.7446    121.5314
   317.0000      0.0000    797.8393      5.2660     -0.5705    118.0729
   317.2500      0.0000    797.9684      5.2298     -0.9187    115.0403
   317.5000      0.0000    797.9902      5.1066     -0.3964    111.4549
   317.7500      0.0000    797.9626      4.9388      0.3870    107.3625
   318.0000      0.0000    797.7974      4.7859      1.3446    104.0655
   318.2500      0.0000    797.1481      4.6952      0.8223    102.9371
   318.5000      0.0000    795.1609      4.6847      0.2129    104.3465
   318.7500      0.0000    790.4688      4.7358     -0.5705    107.4223
   319.0000      0.0000    782.0211      4.8001     -0.7446    110.5234
   319.2500      0.0000    770.7539      4.8285     -0.5705    112.2555
   319.5000      0.0000    760.5057      4.7984     -0.7446    112.4647
   319.7500      0.0000    756.2382      4.7168      0.3000    112.0441
   320.0000      0.0000    760.3161      4.6070      0.3870    111.5425
   320.2500      0.0000    770.4850      4.5031     -0.7446    110.3711
   320.5000      0.0000    781.7939      4.4440     -0.3964    107.7538
   320.7500      0.0000    790.3334      4.4524      0.7352    103.9408
   321.0000      0.0000    795.1011      4.5171      0.5611    100.0558
   321.2500      0.0000    797.1280      4.6046     -0.4834     97.2704
   321.5000      0.0000    797.7922      4.6851      0.3870     96.4388
   321.7500      0.0000    797.9615      4.7415      0.9964     97.8557
   322.0000      0.0000    797.9949      4.7672      0.3870    100.7733
   322.2500      0.0000    798.0000      4.7704      0.6482    103.4364
   322.5000      0.0000    797.9955      4.7749      0.8223    103.9725
   322.7500      0.0000    797.9708      4.8057      2.3891    101.4837
   323.0000      0.0000    797.8515      4.8759      2.5632     96.7923
   323.2500      0.0000    797.4128      4.9913      1.4316     92.5018
   323.5000      0.0000    796.1913      5.1546      2.2150     91.6934
   323.7500      0.0000    793.6611      5.3548      2.8243     95.5754
   324.0000      0.0000    789.8939      5.5607      2.2150    102.2526
   324.2500      0.0000    786.2041      5.7319      1.6057    108.2501
   324.5000      0.0000    784.6210      5.8361      0.1259    111.3380
   324.7500      0.0000    786.1267      5.8496     -0.0482    111.7479
   325.0000      0.0000    789.5483      5.7558     -0.7446    110.9652
   325.2500      0.0000    792.4594      5.5579     -1.0057    109.9389
   325.5000      0.0000    792.8806      5.2933      0.3870    108.6814
   325.7500      0.0000    790.1478      5.0230     -1.0057    107.2228
   326.0000      0.0000    785.0518      4.7975     -0.6575    106.3405
   326.2500      0.0000    779.5713      4.6352     -0.0482    107.0115
   326.5000      0.0000    775.7800      4.5323     -1.1798    109.2972
   326.7500      0.0000    774.5342      4.4801     -1.6150    111.9490
   327.0000      0.0000    775.5545      4.4662     -1.5280    113.0470
   327.2500      0.0000    778.5349      4.4718     -1.2668    111.2103
   327.5000      0.0000    783.2076      4.4793     -1.5280    106.7397
   327.7500      0.0000    788.5322      4.4819     -5.0098    101.8148
   328.0000      0.0000    792.8354      4.4799     -1.5280     99.1185
   328.2500      0.0000    794.7028      4.4740     -0.3964     99.6853
   328.5000      0.0000    793.0547      4.4638     -0.4834    101.9382
   328.7500      0.0000    786.5992      4.4514     -0.6575    103.0636
   329.0000      0.0000    774.3978      4.4424     -1.4409    101.4967
   329.2500      0.0000    757.5690      4.4426     -1.1798     98.0908
   329.5000      0.0000    739.6121      4.4567     -0.9187     95.0637
   329.7500      0.0000    723.9683      4.4903     -1.0057     94.1445
   330.0000      0.0000    711.7975      4.5518     -0.2223     95.6351
   330.2500      0.0000    703.0815      4.6543      0.9093     98.5294
   330.5000      0.0000    699.0239      4.8134      0.6482    101.0778
   330.7500      0.0000    702.0555      5.0347      0.1259    101.6622
   331.0000      0.0000    713.6948      5.2951     -0.0482     99.7180
   331.2500      0.0000    732.6192      5.5391     -1.2668     95.8763
   331.5000      0.0000    754.4223      5.7050     -0.7446     91.1698
   331.7500      0.0000    773.6358      5.7586      0.3870     86.3216
   332.0000      0.0000    786.7983      5.7087     -0.3964     81.7268
   332.2500      0.0000    793.8276      5.5958     -0.2223     77.6949
   332.5000      0.0000    796.7560      5.4653     -1.0927     74.5861
   332.7500      0.0000    797.7054      5.3456     -0.5705     72.9042
   333.0000      0.0000    797.9455      5.2437     -1.3539     73.2870
   333.2500      0.0000    797.9857      5.1566     -1.0057     76.0965
   333.5000      0.0000    797.9542      5.0846     -1.4409     80.7730
   333.7500      0.0000    797.7600      5.0356     -1.5280     85.7977
   334.0000      0.0000    797.0327      5.0181     -1.0927     89.5930
   334.2500      0.0000    794.9281      5.0298     -1.3539     91.6055
   334.5000      0.0000    790.2662      5.0534     -1.3539     92.6687
   334.7500      0.0000    782.4278      5.0672     -1.5280     94.2573
   335.0000      0.0000    772.6404      5.0627     -1.4409     97.0246
   335.2500      0.0000    764.1844      5.0535     -1.0927     99.9572
   335.5000      0.0000    760.5965      5.0636     -1.0927    101.2557
   335.7500      0.0000    763.0046      5.1062     -1.3539    100.1345
