~Version Information
VERS.                      2.0: CWLS Log ASCII Standard - VERSION 2.0
WRAP.                       NO: One line per depth step
~Well Information Block
STRT.FT               259.0000: 
STOP.FT              2382.0000: 
STEP.FT                 0.2500: 
NULL.                -999.2500: 
COMP.          Pioneer Natural Resources: COMPANY
WELL.          Foothills 12-36: WELL
FLD.           Purgatoire River: FIELD
LOC.           2450' FNL & 201' FWL: LOCATION
PROV.                 Colorado: PROVINCE
CNTY.               Las Animas: COUNTRY
SRVC.                Patterson: SERVICE COMPANY
DATE.          Thu Apr 21 03:00:58 2005: LOG DATE
UWI.           05 071 08339 00: UNIQUE WELL ID
~Curve Information Block
DEPT.FT            0 000 00 00: Depth
SN.Ohm-m                      : IEL Short Normal
SP.mV                         : IEL Spontaneous Potential
DIR.Ohm-m                     : IEL Induction Resistivity
GR.GAPI                       : Gamma Ray
~Parameter Information Block
~A  Depth        SN          SP         DIR          GR     
# ...
  2068.0000     12.2627     17.9180     10.1092    104.8021
  2068.2500     12.0837     17.9815     10.0046    104.8352
  2068.5000     12.0006     18.0946      9.9441    103.7431
  2068.7500     11.9789     18.2697      9.9307    102.1050
  2069.0000     11.9237     18.4783      9.9666     98.6225
  2069.2500     11.8336     18.6672     10.0517     95.9577
  2069.5000     11.7903     18.7896     10.1804     91.9950
  2069.7500     11.9081     18.8245     10.3404     89.7198
  2070.0000     12.2446     18.7810     10.5148     87.2466
  2070.2500     12.6694     18.6929     10.6873     86.0506
  2070.5000     12.9801     18.6049     10.8489     84.0895
  2070.7500     13.1355     18.5509     11.0016     82.3860
  2071.0000     13.2276     18.5376     11.1559     79.8986
  2071.2500     13.3225     18.5487     11.3249     79.1514
  2071.5000     13.4128     18.5652     11.5192     80.4095
  2071.7500     13.4634     18.5788     11.7446     82.5893
  2072.0000     13.4653     18.5859     11.9995     86.3533
  2072.2500     13.4467     18.5719     12.2709     88.3044
  2072.5000     13.4345     18.5051     12.5333     89.5210
  2072.7500     13.4441     18.3478     12.7548     89.0628
  2073.0000     13.4929     18.0729     12.9130     86.9422
  2073.2500     13.5800     17.6739     13.0082     85.2302
  2073.5000     13.6733     17.1657     13.0624     83.3198
  2073.7500     13.7395     16.5781     13.1060     82.6607
  2074.0000     13.7772     15.9451     13.1637     82.0529
  2074.2500     13.8195     15.2882     13.2495     81.5234
  2074.5000     13.8829     14.6056     13.3700     80.5501
  2074.7500     13.9553     13.8772     13.5269     80.1716
  2075.0000     14.0532     13.0922     13.7182     80.6114
  2075.2500     14.2089     12.2753     13.9363     81.5337
  2075.5000     14.4101     11.4890     14.1677     83.1248
  2075.7500     14.5937     10.8052     14.3958     83.8152
  2076.0000     14.7092     10.2731     14.6066     83.8988
  2076.2500     14.7863      9.9054     14.7930     83.4983
  2076.5000     14.8785      9.6837     14.9547     82.9064
  2076.7500     14.9758      9.5680     15.0939     82.8030
  2077.0000     15.0747      9.5063     15.2157     83.1231
  2077.2500     15.2023      9.4498     15.3333     83.5931
  2077.5000     15.3146      9.3691     15.4696     84.7029
  2077.7500     15.3379      9.2604     15.6477     85.6334
  2078.0000     15.3104      9.1344     15.8761     86.7606
  2078.2500     15.3494      9.0022     16.1415     86.9889
  2078.5000     15.5191      8.8705     16.4175     86.5474
  2078.7500     15.7949      8.7377     16.6819     85.9626
  2079.0000     16.0857      8.5810     16.9304     84.6721
  2079.2500     16.2939      8.3476     17.1740     83.2838
  2079.5000     16.4368      7.9638     17.4267     80.3043
  2079.7500     16.6664      7.3573     17.6944     78.0723
  2080.0000     17.0535      6.4797     17.9764     75.0258
  2080.2500     17.4660      5.3262     18.2749     73.2203
  2080.5000     17.7961      3.9445     18.6019     70.5025
  2080.7500     18.0727      2.4236     18.9756     68.7425
  2081.0000     18.2943      0.8715     19.4136     67.0983
  2081.2500     18.4599     -0.6072     19.9279     67.3397
  2081.5000     18.6709     -1.9281     20.5233     70.0471
  2081.7500     18.9790     -3.0394     21.1918     72.8192
  2082.0000     19.3058     -3.9273     21.9072     76.5020
  2082.2500     19.5552     -4.6144     22.6291     77.6606
  2082.5000     19.7102     -5.1481     23.3198     76.9842
  2082.7500     19.8432     -5.5773     23.9626     75.3486
  2083.0000     20.0644     -5.9255     24.5631     72.2675
  2083.2500     20.4734     -6.1787     25.1340     70.2904
  2083.5000     21.1031     -6.2984     25.6777     67.7182
  2083.7500     21.8676     -6.2495     26.1794     66.2197
  2084.0000     22.6295     -6.0253     26.6136     64.2590
  2084.2500     23.3259     -5.6546     26.9564     63.2073
  2084.5000     23.9450     -5.1916     27.1957     62.0006
  2084.7500     24.4292     -4.6978     27.3385     61.2895
  2085.0000     24.6937     -4.2245     27.4167     60.2456
  2085.2500     24.7308     -3.7980     27.4888     59.8043
  2085.5000     24.6687     -3.4168     27.6271     60.0780
  2085.7500     24.6199     -3.0622     27.8905     60.8252
  2086.0000     24.5255     -2.7148     28.2975     61.8412
  2086.2500     24.3226     -2.3656     28.8099     61.8579
  2086.5000     24.0866     -2.0171     29.3395     60.7598
  2086.7500     23.9130     -1.6811     29.7717     59.7174
  2087.0000     23.8304     -1.3724     30.0054     58.5373
  2087.2500     23.8197     -1.0979     29.9911     58.2157
  2087.5000     23.8614     -0.8508     29.7480     58.3129
  2087.7500     23.9688     -0.6176     29.3493     58.5895
  2088.0000     24.1568     -0.3945     28.8873     58.9576
  2088.2500     24.4086     -0.1957     28.4442     58.8757
  2088.5000     24.6891     -0.0427     28.0764     57.7250
  2088.7500     24.9638      0.0580     27.8115     56.1424
  2089.0000     25.1976      0.1277     27.6491     52.9090
  2089.2500     25.3676      0.2042     27.5562     50.6656
  2089.5000     25.4784      0.3133     27.4578     48.0416
  2089.7500     25.5548      0.4469     27.2319     47.0814
  2090.0000     25.6442      0.5625     26.7283     46.7783
  2090.2500     25.7942      0.6061     25.8239     47.0373
  2090.5000     26.0101      0.5481     24.4983     47.3293
  2090.7500     26.2742      0.4098     22.8713     46.9917
  2091.0000     26.5678      0.2498     21.1602     45.4139
  2091.2500     26.8490      0.1174     19.5833     44.0072
  2091.5000     27.0748      0.0188     18.2840     42.3856
  2091.7500     27.2750     -0.0696     17.3157     41.8839
  2092.0000     27.5357     -0.1696     16.6718     41.5467
  2092.2500     27.8589     -0.2932     16.3300     41.2848
  2092.5000     28.1344     -0.4516     16.2972     41.0185
  2092.7500     28.3044     -0.6560     16.6581     41.3254
  2093.0000     28.4533     -0.9080     17.6470     42.9259
  2093.2500     28.6984     -1.1992     19.8092     44.6607
  2093.5000     29.0851     -1.5207     24.5155     47.8201
  2093.7500     29.5824     -1.8694     36.3024     50.0269
  2094.0000     30.0791     -2.2440     84.8195     52.8827
  2094.2500     30.4368     -2.6416 100000.0000     53.9533
  2094.5000     30.6630     -3.0625 100000.0000     53.5134
  2094.7500     30.9128     -3.5183 100000.0000     51.8908
  2095.0000     31.2484     -4.0320 100000.0000     48.5308
  2095.2500     31.5735     -4.6290 100000.0000     46.4196
  2095.5000     31.8278     -5.3291 100000.0000     43.9900
  2095.7500     32.0607     -6.1435 100000.0000     42.7525
  2096.0000     32.2642     -7.0763 100000.0000     41.3183
  2096.2500     32.2723     -8.1265 100000.0000     40.8068
  2096.5000     31.8655     -9.2839 100000.0000     41.0006
  2096.7500     30.9596    -10.5259 100000.0000     41.6641
  2097.0000     29.7255    -11.8236 100000.0000     42.9285
  2097.2500     28.4350    -13.1602 100000.0000     43.7270
  2097.5000     27.2314    -14.5536 100000.0000     44.8884
  2097.7500     26.1531    -16.0667 100000.0000     45.7712
  2098.0000     25.2141    -17.8019 100000.0000     47.2188
  2098.2500     24.3654    -19.8762 100000.0000     48.0021
  2098.5000     23.5340    -22.3891 100000.0000     48.4622
  2098.7500     22.7098    -25.4034 100000.0000     48.3526
  2099.0000     21.8998    -28.9585 100000.0000     48.3381
  2099.2500     21.0707    -33.1049 100000.0000     49.0251
  2099.5000     20.1973    -37.9434 100000.0000     51.7115
  2099.7500     19.3169    -43.6676 100000.0000     54.5018
  2100.0000     18.4673    -50.6256 100000.0000     59.2951
  2100.2500     17.5666    -59.3951     11.8052     62.1689
  2100.5000     16.4084    -70.8201      3.1156     64.8429
  2100.7500     14.7584    -85.9456      1.7081     65.1796
  2101.0000     12.4719   -105.7791      1.2070     63.8893
  2101.2500      9.7082   -130.8578      0.9770     62.6634
