~Version Information
VERS.                      2.0: CWLS Log ASCII Standard - VERSION 2.0
WRAP.                       NO: One line per depth step
~Well Information Block
STRT.FT               241.5000: 
STOP.FT              2340.7500: 
STEP.FT                 0.2500: 
NULL.                -999.2500: 
COMP.          Petrogulf Corporation: COMPANY
WELL.            Montoya 1-24V: WELL
FLD.           Purgatorie River: FIELD
LOC.           605' FSL & 2557' FWL: LOCATION
CNTY.               Las Animas: COUNTY
SRVC.                         : SERVICE COMPANY
DATE.          Tue Nov 30 10:28:39 2004: LOG DATE
UWI.           05 071 08194 00: UNIQUE WELL ID
STAT.                 Colorado: STATE
~Curve Information Block
DEPT.FT            0 000 00 00: Depth
GR.GAPI                       : Gamma Ray
CCL.                          : Casing Collar Locator
TT3.usec                      : CBL 3' Travel Time
AMP3.mV                       : CBL 3' Amplitude
~Parameter Information Block
~A  Depth        GR         CCL         TT3         AMP3    
# ...
  2184.5000     93.4783      0.0000    642.0495      2.2562
  2184.7500     94.4572      0.0000    639.4207      2.2644
  2185.0000     99.6095      0.0000    635.1557      2.2686
  2185.2500    108.1557      0.0000    629.4314      2.2383
  2185.5000    117.9905      0.0000    624.0717      2.1442
  2185.7500    126.6804      0.0000    620.3507      1.9897
  2186.0000    132.6138      0.0000    618.2186      1.8169
  2186.2500    135.3504      0.0000    617.0275      1.6827
  2186.5000    134.8574      0.0000    616.2774      1.6250
  2186.7500    130.9848      0.0000    615.7923      1.6432
  2187.0000    124.1831      0.0000    615.5973      1.7044
  2187.2500    116.2740      0.0000    615.7809      1.7678
  2187.5000    109.8346      0.0000    616.3580      1.8105
  2187.7500    106.7567      0.0000    617.1828      1.8340
  2188.0000    107.4036      0.0000    617.9874      1.8522
  2188.2500    110.8618      0.0000    618.5895      1.8789
  2188.5000    115.8314      0.0000    619.1195      1.9226
  2188.7500    121.3477      0.0000    620.0820      1.9825
  2189.0000    126.7045      0.0000    622.1925      2.0455
  2189.2500    130.9479      0.0000    626.0140      2.0923
  2189.5000    133.1048      0.0000    631.5378      2.1133
  2189.7500    133.2672      0.0000    638.0858      2.1190
  2190.0000    133.0078      0.0000    644.8715      2.1364
  2190.2500    134.1692      0.0000    651.7735      2.1911
  2190.5000    137.1620      0.0000    659.3464      2.2845
  2190.7500    140.6131      0.0000    667.9063      2.3860
  2191.0000    142.7015      0.0000    676.7762      2.4543
  2191.2500    142.7195      0.0000    684.5700      2.4705
  2191.5000    141.2183      0.0000    690.0966      2.4497
  2191.7500    138.8084      0.0000    693.0485      2.4223
  2192.0000    135.3775      0.0000    694.1808      2.4100
  2192.2500    130.8509      0.0000    694.8615      2.4214
  2192.5000    126.2891      0.0000    696.0931      2.4577
  2192.7500    123.5135      0.0000    697.8669      2.5124
  2193.0000    123.8275      0.0000    699.5362      2.5694
  2193.2500    127.6781      0.0000    700.6281      2.6067
  2193.5000    134.8228      0.0000    701.1520      2.6063
  2193.7500    143.4656      0.0000    701.3078      2.5619
  2194.0000    149.5952      0.0000    701.0679      2.4826
  2194.2500    149.0800      0.0000    699.8941      2.3930
  2194.5000    141.4039      0.0000    696.7481      2.3270
  2194.7500    130.9012      0.0000    690.6398      2.3123
  2195.0000    123.7374      0.0000    681.6160      2.3521
  2195.2500    123.5213      0.0000    671.2714      2.4204
  2195.5000    129.4685      0.0000    661.9357      2.4778
  2195.7500    137.9261      0.0000    655.1239      2.4933
  2196.0000    145.1275      0.0000    650.7868      2.4575
  2196.2500    149.1365      0.0000    647.8305      2.3836
  2196.5000    150.4279      0.0000    645.0663      2.2976
  2196.7500    151.0271      0.0000    641.8543      2.2215
  2197.0000    152.6290      0.0000    638.3549      2.1601
  2197.2500    155.2261      0.0000    635.3774      2.1000
  2197.5000    157.5906      0.0000    633.8174      2.0237
  2197.7500    158.9925      0.0000    634.0270      1.9284
  2198.0000    160.0552      0.0000    635.5917      1.8340
  2198.2500    161.7125      0.0000    637.6275      1.7722
  2198.5000    163.5683      0.0000    639.3167      1.7633
  2198.7500    163.8364      0.0000    640.2237      1.8017
  2199.0000    161.0993      0.0000    640.1802      1.8614
  2199.2500    155.7612      0.0000    639.0387      1.9146
  2199.5000    149.3979      0.0000    636.7927      1.9456
  2199.7500    142.9807      0.0000    634.0482      1.9510
  2200.0000    136.4458      0.0000    632.1109      1.9333
  2200.2500    130.0351      0.0000    632.1171      1.8963
  2200.5000    125.2686      0.0000    633.9388      1.8458
  2200.7500    123.8000      0.0000    636.1234      1.7895
  2201.0000    125.2754      0.0000    636.9360      1.7361
  2201.2500    126.9255      0.0000    635.4197      1.6936
  2201.5000    125.8144      0.0000    631.7905      1.6679
  2201.7500    121.3566      0.0000    627.2335      1.6593
  2202.0000    115.3375      0.0000    623.2802      1.6607
  2202.2500    109.8259      0.0000    621.1193      1.6655
  2202.5000    105.7061      0.0000    621.3133      1.6756
  2202.7500    103.2208      0.0000    623.8856      1.6978
  2203.0000    103.0426      0.0000    628.3019      1.7310
  2203.2500    105.9298      0.0000    633.3785      1.7606
  2203.5000    111.2637      0.0000    637.6096      1.7692
  2203.7500    116.5748      0.0000    639.9356      1.7519
  2204.0000    119.1472      0.0000    640.3871      1.7219
  2204.2500    118.2124      0.0000    640.1662      1.7019
  2204.5000    115.4217      0.0000    641.1431      1.7091
  2204.7500    113.0590      0.0000    644.9318      1.7440
  2205.0000    111.8458      0.0000    651.8990      1.7928
  2205.2500    110.7021      0.0000    660.4627      1.8402
  2205.5000    108.6590      0.0000    667.2377      1.8779
  2205.7500    106.5289      0.0000    668.7251      1.9048
  2206.0000    106.2494      0.0000    664.0290      1.9252
  2206.2500    108.7114      0.0000    656.2745      1.9496
  2206.5000    112.5118      0.0000    651.0403      1.9879
  2206.7500    114.8547      0.0000    652.7065      2.0357
  2207.0000    113.6522      0.0000    661.1104      2.0710
  2207.2500    108.8727      0.0000    671.0002      2.0726
  2207.5000    102.2127      0.0000    675.6724      2.0412
  2207.7500     95.9197      0.0000    672.3475      1.9995
  2208.0000     91.9333      0.0000    663.8284      1.9730
  2208.2500     91.4188      0.0000    654.8425      1.9737
  2208.5000     94.3599      0.0000    647.7799      1.9979
  2208.7500     99.5787      0.0000    642.1167      2.0326
  2209.0000    105.5142      0.0000    636.6150      2.0644
  2209.2500    110.9402      0.0000    631.0825      2.0814
  2209.5000    114.7722      0.0000    626.3120      2.0698
  2209.7500    115.7253      0.0000    623.0436      2.0168
  2210.0000    113.0213      0.0000    621.3212      1.9278
  2210.2500    107.5917      0.0000    620.7306      1.8383
  2210.5000    101.9123      0.0000    621.0401      1.7977
  2210.7500     98.0850      0.0000    622.6692      1.8345
  2211.0000     96.1924      0.0000    626.6619      1.9360
  2211.2500     94.8018      0.0000    633.9945      2.0614
  2211.5000     92.8537      0.0000    644.5074      2.1767
  2211.7500     90.6241      0.0000    656.5203      2.2799
  2212.0000     89.1081      0.0000    667.6940      2.3980
  2212.2500     89.2046      0.0000    676.4120      2.5684
  2212.5000     91.4554      0.0000    682.6448      2.8199
  2212.7500     95.7521      0.0000    687.7612      3.1595
  2213.0000    101.0148      0.0000    693.0617      3.5605
  2213.2500    105.5906      0.0000    698.1574      3.9651
  2213.5000    108.2971      0.0000    701.3717      4.3147
  2213.7500    109.2433      0.0000    701.8491      4.5859
  2214.0000    109.6796      0.0000    700.4753      4.7944
  2214.2500    110.9174      0.0000    698.7346      4.9652
  2214.5000    113.3820      0.0000    697.4767      5.1009
  2214.7500    116.8059      0.0000    696.8464      5.1774
  2215.0000    121.0666      0.0000    696.7259      5.1660
  2215.2500    126.2250      0.0000    697.0195      5.0605
  2215.5000    131.5620      0.0000    697.7899      4.8853
  2215.7500    135.2970      0.0000    699.5089      4.6792
  2216.0000    135.9950      0.0000    703.3322      4.4798
  2216.2500    134.1637      0.0000    711.0345      4.3274
  2216.5000    132.0960      0.0000    724.1215      4.2691
  2216.7500    132.0850      0.0000    742.1777      4.3399
  2217.0000    134.6624      0.0000    761.4584      4.5299
  2217.2500    138.3402      0.0000    775.3771      4.7781
  2217.5000    140.9680      0.0000    777.7042      5.0017
  2217.7500    141.3200      0.0000    766.6572      5.1348
