~Version Information
 VERS.                                  2.0 : CWLS LAS VERSION
 WRAP.                                   NO : WRAPING MODE
 SWARE .                 MController 2.5.0J : SOFTWARE VERSION
~Well Information
 WELL.                         Sebring42-29 : WELL
 COMP.    Pioneer Natural Resources USA Inc : COMPANY
 FLD.                      Purgatoire River : FIELD
 LOC.                SE/NE Sec 29 T32S R67W : LOCATION
 DATE.                             08/12/05 : DATE(S) LOGGED
 SRVC.       BLANCO Geological Services LLC : SERVICE COMPANY
 STAT.                                   CO : STATE
 CNTY.                           Las Animas : COUNTY
 CTRY.                                  USA : COUNTRY
 API.                       05-071-08293-00 : API NUMBER
 STRT.FT                             750.00 : START DEPTH
 STOP.FT                            2880.00 : STOP DEPTH
 STEP.FT                               1.00 : DEPTH INCREMENT
 NULL.                                -9999 : NULL VALUE
~Curve information
 DEPTH.FT                                   :
 ROP.MIN/FT                                 :
 GAS.UNITS                                  :
~ASCII Log data
# ...
      1350.0         0.50        298.7 
      1351.0         2.92       1455.6 
      1352.0         0.30       1161.8 
      1353.0         0.33       1029.1 
      1354.0         0.43        683.1 
      1355.0         0.33        440.0 
      1356.0         0.30         82.2 
      1357.0         0.40         47.6 
      1358.0         0.42         26.4 
      1359.0         0.43         17.8 
      1360.0         0.43         20.7 
      1361.0         0.50         27.0 
      1362.0         0.33         30.5 
      1363.0         0.23         31.6 
      1364.0         0.23         31.9 
      1365.0         0.23         31.4 
      1366.0         0.27         30.7 
      1367.0         0.23         31.0 
      1368.0         0.30         31.9 
      1369.0         0.25         32.6 
      1370.0         0.27         33.6 
      1371.0         0.23         34.1 
      1372.0         0.20         37.4 
      1373.0         0.20         42.4 
      1374.0         0.23         53.2 
      1375.0         0.17         64.6 
      1376.0         0.17         78.7 
      1377.0         0.23        101.7 
      1378.0         0.23        125.8 
      1379.0         0.27        151.7 
      1380.0         0.23        173.0 
      1381.0         4.57       1373.4 
      1382.0         0.43       1052.7 
      1383.0         0.57        636.3 
      1384.0         0.43        440.0 
      1385.0         0.33         59.0 
      1386.0         0.23         38.3 
      1387.0         0.27         28.6 
      1388.0         0.23         23.5 
      1389.0         0.20         20.8 
      1390.0         0.25         20.8 
      1391.0         0.57         28.6 
      1392.0         0.53         38.7 
      1393.0         1.07         47.3 
      1394.0         0.43         46.8 
      1395.0         0.57         48.0 
      1396.0         0.55         51.2 
      1397.0         0.90         60.0 
      1398.0         0.70         66.4 
      1399.0         0.77         88.6 
      1400.0         0.78        100.0 
      1401.0         0.57         82.3 
      1402.0         0.13         55.8 
      1403.0         0.10         49.3 
      1404.0         0.20         44.8 
      1405.0         0.33         39.4 
      1406.0         0.23         48.1 
      1407.0         0.33         73.1 
      1408.0         0.30        103.2 
      1409.0         0.23        130.5 
      1410.0         0.30        170.0 
      1411.0         4.97       1625.1 
      1412.0         0.40        814.8 
      1413.0         0.43        440.0 
      1414.0         0.50         56.2 
      1415.0         0.30         24.8 
      1416.0         0.38         22.0 
      1417.0         0.27         27.1 
      1418.0         0.30         30.6 
      1419.0         0.30         32.4 
      1420.0         0.30         35.6 
      1421.0         0.40         39.9 
      1422.0         0.17         40.8 
      1423.0         0.33         40.8 
      1424.0         0.43         39.8 
      1425.0         0.30         38.6 
      1426.0         0.30         40.0 
      1427.0         0.38         44.6 
      1428.0         0.27         48.1 
      1429.0         0.30         52.4 
      1430.0         0.23         54.7 
      1431.0         0.27         55.5 
      1432.0         0.27         55.4 
      1433.0         0.20         54.4 
      1434.0         0.20         53.6 
      1435.0         0.30         58.0 
      1436.0         0.27         68.8 
      1437.0         0.30         89.4 
      1438.0         0.27        116.2 
      1439.0         0.28        148.0 
      1440.0         0.30        187.2 
      1441.0         5.92       1287.8 
      1442.0         0.45         38.4 
      1443.0         0.37         19.4 
      1444.0         0.13         14.0 
      1445.0         0.17         13.2 
      1446.0         0.10         12.6 
      1447.0         0.13         12.7 
      1448.0         0.10         13.1 
      1449.0         0.17         14.4 
      1450.0         0.27         16.3 
      1451.0         0.27         18.5 
      1452.0         0.27         20.1 
      1453.0         0.30         22.5 
      1454.0         0.20         24.0 
      1455.0         0.23         25.5 
      1456.0         0.17         26.1 
      1457.0         0.27         30.6 
      1458.0         0.25         36.3 
      1459.0         0.17         41.5 
      1460.0         0.30         53.4 
      1461.0         0.33         60.7 
      1462.0         0.33         60.5 
      1463.0         0.33         55.4 
      1464.0         0.27         49.3 
      1465.0         0.13         45.2 
      1466.0         0.13         43.9 
      1467.0         0.27         43.7 
      1468.0         0.27         45.5 
      1469.0         0.23         50.1 
      1470.0         0.23         56.1 
      1471.0         8.38       1289.9 
      1472.0         0.37         34.2 
      1473.0         0.33         18.3 
      1474.0         0.33         13.1 
      1475.0         0.40         11.6 
      1476.0         0.33         12.3 
      1477.0         0.12         13.0 
      1478.0         0.37         20.4 
      1479.0         0.47         27.9 
      1480.0         0.43         34.9 
      1481.0         0.27         41.3 
      1482.0         0.23         47.5 
      1483.0         0.27         54.2 
      1484.0         0.30         62.2 
      1485.0         0.30         69.2 
      1486.0         0.30         75.2 
      1487.0         0.27         78.9 
      1488.0         0.25         79.5 
      1489.0         0.20         79.3 
      1490.0         0.23         76.7 
      1491.0         0.20         70.1 
      1492.0         0.23         61.6 
      1493.0         0.20         51.9 
      1494.0         0.23         46.9 
      1495.0         0.27         47.7 
      1496.0         0.20         56.1 
      1497.0         0.13         65.2 
      1498.0         0.20         82.4 
      1499.0         0.27        109.1 
      1500.0         0.33        143.1 
      1501.0         4.33       1090.4 
      1502.0         0.30       1030.1 
      1503.0         0.23       1016.6 
      1504.0         0.17        838.7 
      1505.0         0.33        651.8 
      1506.0         0.27        440.0 
      1507.0         0.27         82.1 
      1508.0         0.27         43.3 
      1509.0         0.33         25.3 
      1510.0         0.30         16.6 
      1511.0         0.33         12.8 
      1512.0         0.32         12.5 
      1513.0         0.27         15.9 
      1514.0         0.37         23.4 
      1515.0         0.43         34.4 
      1516.0         0.37         43.1 
      1517.0         0.60         59.1 
      1518.0         0.40         68.5 
      1519.0         0.53         71.7 
      1520.0         0.25         71.8 
      1521.0         0.23         70.8 
      1522.0         0.27         67.5 
      1523.0         0.23         61.5 
      1524.0         0.23         56.6 
      1525.0         0.40         58.3 
      1526.0         0.30         71.5 
      1527.0         0.27         91.4 
      1528.0         0.27        117.0 
      1529.0         0.30        147.6 
      1530.0         0.33        180.9 
      1531.0         4.40       1053.0 
      1532.0         0.30        862.3 
      1533.0         0.40        741.7 
      1534.0         0.43        440.0 
      1535.0         0.37         74.8 
      1536.0         0.33         45.2 
      1537.0         0.30         38.7 
      1538.0         0.23         35.6 
      1539.0         0.27         35.6 
      1540.0         0.28         36.9 
      1541.0         0.27         39.1 
      1542.0         0.10         39.5 
      1543.0         0.20         39.9 
      1544.0         0.10         40.2 
      1545.0         0.17         41.1 
      1546.0         0.10         41.6 
      1547.0         0.17         42.1 
      1548.0         0.30         41.5 
      1549.0         0.33         36.3 
