~Version Information
VERS.                      2.0: CWLS Log ASCII Standard - VERSION 2.0
WRAP.                       NO: One line per depth step
~Well Information Block
STRT.FT                -7.0000: 
STOP.FT              1329.7500: 
STEP.FT                 0.2500: 
NULL.                -999.2500: 
COMP.          Pioneer Natural Resources: COMPANY
WELL.             Raptor 44-26: WELL
FLD.           Purgatorie River: FIELD
LOC.           180' FSL & 812' FEL--: LOCATION
PROV.                       CO: PROVINCE
CNTY.               Las Animas: COUNTRY
SRVC.          Patterson Wireline: SERVICE COMPANY
DATE.          Wed Mar 30 12:38:23 2005: LOG DATE
UWI.           05 071 08187 00: UNIQUE WELL ID
~Curve Information Block
DEPT.FT            0 000 00 00: Depth
CCL.                          : Casing Collar Locator
TT3.usec                      : CBL 3' Travel Time
AMP3.mV                       : CBL 3' Amplitude
GR.GAPI                       : Gamma Ray
~Parameter Information Block
MINATTN.db/ft           0.8000: Minimum Attenuation
~A  Depth       CCL         TT3         AMP3         GR     
# ...
   763.5000      0.0000    824.3862      6.5458    155.3790
   763.7500      0.0000    826.5461      6.6541    152.4688
   764.0000      0.0000    825.8610      6.7186    150.3960
   764.2500      0.0000    823.6230      6.7384    149.2156
   764.5000      0.0000    821.2312      6.7198    149.3422
   764.7500      0.0000    820.1562      6.6741    150.7118
   765.0000      0.0000    821.1778      6.6149    151.9286
   765.2500      0.0000    823.7498      6.5558    151.3839
   765.5000      0.0000    826.3031      6.5092    149.1179
   765.7500      0.0000    826.9901      6.4820    146.5178
   766.0000      0.0000    824.3300      6.4677    144.1357
   766.2500      0.0000    818.0090      6.4483    140.8705
   766.5000      0.0000    809.4379      6.4069    135.6268
   766.7500      0.0000    800.5332      6.3363    128.9537
   767.0000      0.0000    791.0613      6.2395    122.6418
   767.2500      0.0000    778.1629      6.1292    118.2342
   767.5000      0.0000    760.0921      6.0263    116.2893
   767.7500      0.0000    740.4004      5.9503    116.8003
   768.0000      0.0000    727.0952      5.9076    119.8645
   768.2500      0.0000    726.7478      5.8911    125.8815
   768.5000      0.0000    738.9834      5.8868    135.0146
   768.7500      0.0000    756.2747      5.8770    146.0716
   769.0000      0.0000    769.3881      5.8468    156.0614
   769.2500      0.0000    773.9516      5.7945    161.7324
   769.5000      0.0000    772.4734      5.7352    161.9343
   769.7500      0.0000    770.4608      5.6880    158.1966
   770.0000      0.0000    771.4693      5.6613    153.0959
   770.2500      0.0000    776.1163      5.6512    148.4785
   770.5000      0.0000    784.2481      5.6527    144.9025
   770.7500      0.0000    795.8982      5.6663    141.6645
   771.0000      0.0000    809.9243      5.6935    137.0233
   771.2500      0.0000    823.2512      5.7288    129.4210
   771.5000      0.0000    832.5662      5.7579    119.3288
   771.7500      0.0000    836.6075      5.7654    109.6419
   772.0000      0.0000    836.5330      5.7489    103.7881
   772.2500      0.0000    834.4232      5.7210    103.6263
   772.5000      0.0000    831.5143      5.6957    109.0436
   772.7500      0.0000    827.2134      5.6784    118.6497
   773.0000      0.0000    819.2773      5.6649    130.2606
   773.2500      0.0000    805.2580      5.6477    141.3771
   773.5000      0.0000    784.9755      5.6224    150.1532
   773.7500      0.0000    762.2123      5.5919    156.1002
   774.0000      0.0000    743.6015      5.5675    159.7704
   774.2500      0.0000    734.9157      5.5616    162.0024
   774.5000      0.0000    737.7069      5.5798    163.3855
   774.7500      0.0000    748.9000      5.6194    163.7518
   775.0000      0.0000    763.4309      5.6729    161.8453
   775.2500      0.0000    777.7372      5.7342    156.0184
   775.5000      0.0000    791.2620      5.8035    145.7672
   775.7500      0.0000    804.8935      5.8866    132.6293
   776.0000      0.0000    818.1467      5.9863    119.5903
   776.2500      0.0000    828.3842      6.0976    109.4451
   776.5000      0.0000    833.3193      6.2109    103.1579
   776.7500      0.0000    833.9025      6.3200     99.6008
   777.0000      0.0000    833.8145      6.4243     97.1067
   777.2500      0.0000    835.9133      6.5201     95.2704
   777.5000      0.0000    839.7988      6.5960     94.9757
   777.7500      0.0000    842.7635      6.6387     96.8234
   778.0000      0.0000    842.0966      6.6403     99.9010
   778.2500      0.0000    836.2285      6.6011    102.1348
   778.5000      0.0000    825.0513      6.5301    101.6954
   778.7500      0.0000    810.2124      6.4407     98.2729
   779.0000      0.0000    794.6703      6.3444     93.4074
   779.2500      0.0000    781.0544      6.2521     89.5835
   779.5000      0.0000    770.3032      6.1777     88.5086
   779.7500      0.0000    761.9401      6.1368     89.9904
   780.0000      0.0000    755.1936      6.1380     92.6371
   780.2500      0.0000    749.5997      6.1733     95.5598
   780.5000      0.0000    745.0459      6.2217     98.9751
   780.7500      0.0000    741.7766      6.2657    103.1131
   781.0000      0.0000    740.3396      6.3005    107.0356
   781.2500      0.0000    741.3672      6.3286    108.9367
   781.5000      0.0000    745.2767      6.3532    107.6053
   781.7500      0.0000    751.9385      6.3733    103.2868
   782.0000      0.0000    760.5101      6.3861     96.9773
   782.2500      0.0000    769.5827      6.3950     89.4763
   782.5000      0.0000    777.3918      6.4072     81.8437
   782.7500      0.0000    782.1079      6.4254     76.3073
   783.0000      0.0000    782.6644      6.4494     75.4385
   783.2500      0.0000    779.7136      6.4773     80.0795
   783.5000      0.0000    775.3660      6.5021     88.5888
   783.7500      0.0000    771.6760      6.5130     98.0171
   784.0000      0.0000    769.4844      6.5070    105.6327
   784.2500      0.0000    768.5461      6.4940    109.8961
   784.5000      0.0000    768.2424      6.4876    110.8887
   784.7500      0.0000    767.9716      6.4901    109.8515
   785.0000      0.0000    767.1268      6.4921    108.1083
   785.2500      0.0000    765.0739      6.4842    106.5665
   785.5000      0.0000    761.5414      6.4601    106.1520
   785.7500      0.0000    757.3270      6.4170    108.0925
   786.0000      0.0000    754.3674      6.3607    113.2168
   786.2500      0.0000    754.4000      6.3041    121.0405
   786.5000      0.0000    757.2450      6.2613    130.0176
   786.7500      0.0000    760.7921      6.2452    138.7814
   787.0000      0.0000    762.9230      6.2598    146.6728
   787.2500      0.0000    763.1937      6.2934    153.0858
   787.5000      0.0000    762.3806      6.3273    157.0549
   787.7500      0.0000    760.6055      6.3492    158.0286
   788.0000      0.0000    756.4109      6.3530    156.8404
   788.2500      0.0000    747.9341      6.3396    155.3900
   788.5000      0.0000    734.6680      6.3219    155.0094
   788.7500      0.0000    717.4564      6.3129    155.1581
   789.0000      0.0000    696.7682      6.3125    153.9296
   789.2500      0.0000    672.2738      6.3142    149.8509
   789.5000      0.0000    645.9497      6.3188    143.0329
   789.7500      0.0000    625.3466      6.3360    134.7430
   790.0000      0.0000    620.7463      6.3787    126.4746
   790.2500      0.0000    636.5982      6.4489    119.4575
   790.5000      0.0000    666.2512      6.5252    114.3415
   790.7500      0.0000    696.5858      6.5733    111.0906
   791.0000      0.0000    717.7596      6.5720    109.5022
   791.2500      0.0000    728.1281      6.5243    109.7316
   791.5000      0.0000    731.4440      6.4524    111.7815
   791.7500      0.0000    731.8103      6.3849    114.4127
   792.0000      0.0000    731.3881      6.3363    115.0007
   792.2500      0.0000    730.7668      6.2987    110.9194
   792.5000      0.0000    729.6036      6.2580    101.4151
   792.7500      0.0000    726.3300      6.2129     88.4344
   793.0000      0.0000    717.1171      6.1786     75.6358
   793.2500      0.0000    695.7504      6.1756     66.2797
   793.5000      0.0000    657.2396      6.2077     61.5991
   793.7500      0.0000    605.3598      6.2516     60.7978
   794.0000      0.0000    557.0208      6.2757     62.3351
   794.2500      0.0000    534.5892      6.2611     65.0819
   794.5000      0.0000    549.4489      6.2077     68.4700
   794.7500      0.0000    592.9150      6.1350     72.1335
   795.0000      0.0000    644.0847      6.0710     75.9796
   795.2500      0.0000    685.4142      6.0287     80.5893
   795.5000      0.0000    710.9399      6.0031     87.0527
   795.7500      0.0000    723.7037      5.9925     95.9842
   796.0000      0.0000    729.4755      5.9992    106.6490
   796.2500      0.0000    732.8727      6.0125    117.4264
   796.5000      0.0000    736.4345      6.0136    127.4442
   796.7500      0.0000    740.8428      5.9925    137.3830
