~Version Information
VERS.                      2.0: CWLS Log ASCII Standard - VERSION 2.0
WRAP.                       NO: One line per depth step
~Well Information Block
STRT.FT              1727.9000: 
STOP.FT              1961.0000: 
STEP.FT                 0.1000: 
NULL.                -999.2500: 
COMP.          Petrogulf Corporation: COMPANY
WELL.              Royal 8-33R: WELL
FLD.           Purgatorie River: FIELD
LOC.           2401' FSL & 2270' FEL: LOCATION
CNTY.               Las Animas: COUNTY
SRVC.                         : SERVICE COMPANY
DATE.          Mon Apr 26 06:57:24 2004: LOG DATE
UWI.           05 071 08041 00: UNIQUE WELL ID
STAT.                 Colorado: STATE
~Curve Information Block
DEPT.FT            0 000 00 00: Depth
DCAL.in                       : CDL Caliper
RHOB.g/cc                     : CDL Bulk Density
RHOC.g/cc                     : CDL Density Correction
DPOR.pu                       : CDL Density Porosity
GR.GAPI                       : Gamma Ray
~Parameter Information Block
~A  Depth       DCAL        RHOB        RHOC        DPOR         GR     
# ...
  1862.3000      7.8752      2.2991     -0.0462     21.2651     48.6840
  1862.4000      7.8752      2.3027      0.0358     21.0481     41.9860
  1862.5000      7.8731      2.3156     -0.0110     20.2639     40.1552
  1862.6000      7.8731      2.3304     -0.0053     19.3672     40.7012
  1862.7000      7.8731      2.3411      0.0416     18.7222     41.1889
  1862.8000      7.8689      2.3402      0.0379     18.7727     40.0442
  1862.9000      7.8689      2.3369     -0.0124     18.9766     38.0219
  1863.0000      7.8681      2.3528      0.0087     18.0116     39.0658
  1863.1000      7.8681      2.3878      0.0582     15.8889     42.9038
  1863.2000      7.8681      2.4183      0.0625     14.0419     42.2622
  1863.3000      7.8663      2.4283      0.0961     13.4391     37.6653
  1863.4000      7.8663      2.4221      0.1073     13.8096     33.5445
  1863.5000      7.8650      2.4106      0.0812     14.5064     31.0593
  1863.6000      7.8650      2.3988      0.0964     15.2219     33.7255
  1863.7000      7.8650      2.3914      0.0205     15.6716     41.7411
  1863.8000      7.8509      2.3852      0.1228     16.0486     48.4002
  1863.9000      7.8509      2.3728      0.0469     16.8014     48.4855
  1864.0000      7.8543      2.3688      0.0244     17.0422     45.5639
  1864.1000      7.8543      2.3834      0.1304     16.1555     44.3746
  1864.2000      7.8543      2.3960      0.0988     15.3913     42.6654
  1864.3000      7.8659      2.3979      0.1242     15.2803     38.4439
  1864.4000      7.8659      2.4017      0.1297     15.0507     34.7519
  1864.5000      7.8699      2.4158      0.0145     14.1938     32.1132
  1864.6000      7.8699      2.4339      0.1526     13.0967     31.2628
  1864.7000      7.8699      2.4424      0.0666     12.5812     34.0869
  1864.8000      7.8754      2.4475      0.0290     12.2756     40.1079
  1864.9000      7.8754      2.4536      0.1435     11.9019     47.7785
  1865.0000      7.8857      2.4426      0.1000     12.5669     52.4409
  1865.1000      7.8857      2.4204      0.1220     13.9165     51.0935
  1865.2000      7.8857      2.4302      0.0378     13.3199     48.7330
  1865.3000      7.8871      2.4862      0.1363      9.9264     55.3264
  1865.4000      7.8871      2.5398      0.0969      6.6797     72.4011
  1865.5000      7.8936      2.5413      0.1614      6.5850     82.8991
  1865.6000      7.8936      2.4945      0.0122      9.4235     78.6571
  1865.7000      7.8936      2.4540      0.0252     11.8772     79.7272
  1865.8000      7.8833      2.4731      0.0213     10.7214     98.3742
  1865.9000      7.8833      2.5356      0.0996      6.9345    127.2358
  1866.0000      7.8716      2.5807      0.1273      4.1999    157.0428
  1866.1000      7.8716      2.5883      0.0357      3.7369    176.0123
  1866.2000      7.8716      2.5734      0.0457      4.6432    174.3930
  1866.3000      7.8740      2.5537      0.0231      5.8384    154.9543
  1866.4000      7.8740      2.5506      0.0141      6.0214    131.9346
  1866.5000      7.8755      2.5623      0.1149      5.3132    125.1159
  1866.6000      7.8755      2.5690      0.0602      4.9096    135.5675
  1866.7000      7.8755      2.5552      0.1044      5.7429    136.9453
  1866.8000      7.8910      2.5115      0.0661      8.3964    113.6123
  1866.9000      7.8910      2.4534      0.0040     11.9126     84.6914
  1867.0000      7.8980      2.4145      0.0363     14.2737     72.1539
  1867.1000      7.8980      2.4102      0.0016     14.5344     75.2691
  1867.2000      7.8980      2.4318      0.0870     13.2267     79.2905
  1867.3000      7.8901      2.4522      0.0584     11.9877     74.2201
  1867.4000      7.8901      2.4562      0.0657     11.7440     62.9576
  1867.5000      7.8769      2.4541      0.0270     11.8740     54.0615
  1867.6000      7.8769      2.4563      0.0775     11.7396     48.3314
  1867.7000      7.8769      2.4650      0.0963     11.2151     46.1372
  1867.8000      7.8801      2.4731      0.1530     10.7225     49.4366
  1867.9000      7.8801      2.4661      0.0978     11.1437     52.4031
  1868.0000      7.8868      2.4490      0.1117     12.1801     49.4887
  1868.1000      7.8868      2.4484      0.1047     12.2192     43.2444
  1868.2000      7.8868      2.4732      0.1439     10.7122     36.9806
  1868.3000      7.8827      2.5068      0.0269      8.6799     31.9488
  1868.4000      7.8827      2.5250      0.1877      7.5752     28.9407
  1868.5000      7.8819      2.5073      0.1585      8.6457     31.7825
  1868.6000      7.8819      2.4694      0.1218     10.9474     39.4179
  1868.7000      7.8819      2.4459      0.1103     12.3688     41.0529
  1868.8000      7.8868      2.4441      0.0835     12.4797     36.0867
  1868.9000      7.8868      2.4306      0.1546     13.2980     36.2056
  1869.0000      7.8821      2.3799      0.0422     16.3686     45.2418
  1869.1000      7.8821      2.3368     -0.0999     18.9794     52.5869
  1869.2000      7.8821      2.3585      0.0154     17.6644     49.7349
  1869.3000      7.8837      2.4215      0.1065     13.8497     45.6649
  1869.4000      7.8837      2.4608      0.1118     11.4645     49.1485
  1869.5000      7.8795      2.4523      0.1079     11.9790     51.5252
  1869.6000      7.8795      2.4189      0.0781     14.0045     45.4307
  1869.7000      7.8795      2.3950      0.0144     15.4522     39.3797
  1869.8000      7.8739      2.3947      0.0216     15.4733     40.3995
  1869.9000      7.8739      2.4120      0.0693     14.4266     44.5044
  1870.0000      7.8703      2.4434      0.0845     12.5237     46.0243
  1870.1000      7.8703      2.4873      0.1123      9.8611     48.2736
  1870.2000      7.8703      2.5339      0.0831      7.0377     58.9617
  1870.3000      7.8565      2.5729      0.1844      4.6718     77.4054
  1870.4000      7.8565      2.5999      0.1842      3.0343     97.6267
  1870.5000      7.8646      2.6224      0.1323      1.6756    114.5531
  1870.6000      7.8646      2.6360      0.1475      0.8492    124.6912
  1870.7000      7.8646      2.6220      0.1031      1.6948    133.4293
  1870.8000      7.8746      2.5970      0.0980      3.2091    150.9325
  1870.9000      7.8746      2.6037      0.0401      2.8035    172.8300
  1871.0000      7.8744      2.6468      0.2235      0.1970    185.7623
  1871.1000      7.8744      2.6875      0.2276     -2.2716    183.2269
  1871.2000      7.8744      2.6963      0.2516     -2.8075    164.6527
  1871.3000      7.8752      2.6690      0.1910     -1.1490    139.4282
  1871.4000      7.8752      2.6141      0.2155      2.1734    124.6394
  1871.5000      7.9010      2.5482      0.0990      6.1725    130.8941
  1871.6000      7.9010      2.5033      0.0070      8.8924    151.9057
  1871.7000      7.9010      2.4907      0.1130      9.6548    163.7849
  1871.8000      7.8871      2.4821      0.0992     10.1780    157.0882
  1871.9000      7.8871      2.4512      0.0663     12.0482    149.4622
  1872.0000      7.8843      2.3898      0.1108     15.7726    151.7846
  1872.1000      7.8843      2.3433     -0.0400     18.5854    155.8376
  1872.2000      7.8843      2.3730     -0.0021     16.7880    152.4823
  1872.3000      7.8813      2.4401      0.0850     12.7205    144.5405
  1872.4000      7.8813      2.4804      0.0248     10.2816    140.3015
  1872.5000      7.8806      2.4898      0.0441      9.7069    141.7190
  1872.6000      7.8806      2.4711      0.1072     10.8420    141.8592
  1872.7000      7.8806      2.4400     -0.0459     12.7257    144.9090
  1872.8000      7.8776      2.4520     -0.0926     11.9972    157.6065
  1872.9000      7.8776      2.5191      0.0573      7.9360    165.2176
  1873.0000      7.8677      2.5850      0.1064      3.9389    155.2234
  1873.1000      7.8677      2.6195      0.1308      1.8487    136.8645
  1873.2000      7.8677      2.6368      0.1552      0.7984    123.0267
  1873.3000      7.8509      2.6375      0.2277      0.7556    114.8189
  1873.4000      7.8509      2.6223      0.1342      1.6795    107.8120
