~Version Information
VERS.                      2.0: CWLS Log ASCII Standard - VERSION 2.0
WRAP.                       NO: One line per depth step
~Well Information Block
STRT.FT               682.0000: 
STOP.FT              2190.5000: 
STEP.FT                 0.1000: 
NULL.                -999.2500: 
COMP.          Pioneer Natural Resources: COMPANY
WELL.               King 22-13: WELL
FLD.           Purgatoire River: FIELD
LOC.           2419' FNL & 1806' FWL----: LOCATION
PROV.                 Colorado: PROVINCE
CNTY.               Las Animas: COUNTRY
SRVC.                Patterson: SERVICE COMPANY
DATE.          Fri Apr 01 07:38:12 2005: LOG DATE
UWI.           05 071 08318 00: UNIQUE WELL ID
~Curve Information Block
DEPT.FT            0 000 00 00: Depth
DCAL.in                       : CDL Caliper
RHOB.g/cc                     : CDL Bulk Density
RHOC.g/cc                     : CDL Density Correction
DPOR.pu                       : CDL Density Porosity
NPOR.pu                       : Neutron Porosity
GR.GAPI                       : Gamma Ray
~Parameter Information Block
~A  Depth       DCAL        RHOB        RHOC        DPOR        NPOR         GR     
# ...
  1478.8000      8.0765      2.5551      0.0728      5.7497     20.8906     61.3566
  1478.9000      8.0765      2.5546      0.0728      5.7831     21.0732     70.7803
  1479.0000      8.0745      2.5454      0.0994      6.3371     21.1785     72.8315
  1479.1000      8.0745      2.5257      0.0358      7.5332     21.2810     69.5871
  1479.2000      8.0745      2.5029      0.0456      8.9166     21.6016     71.0178
  1479.3000      8.0735      2.4889      0.0234      9.7621     21.9128     79.1024
  1479.4000      8.0735      2.4927      0.0371      9.5353     22.0470     86.0548
  1479.5000      8.0755      2.5070      0.0566      8.6680     22.1906     88.0182
  1479.6000      8.0755      2.5146      0.0531      8.2064     22.1804     87.7929
  1479.7000      8.0755      2.5115      0.0156      8.3934     21.6721     85.2204
  1479.8000      8.0781      2.5090      0.0094      8.5455     20.9650     76.5518
  1479.9000      8.0781      2.5162      0.0075      8.1099     20.6668     65.3610
  1480.0000      8.0796      2.5263      0.0444      7.4951     20.9856     60.2146
  1480.1000      8.0796      2.5286      0.0634      7.3602     21.5058     61.9019
  1480.2000      8.0796      2.5303      0.0460      7.2548     21.3955     66.7583
  1480.3000      8.0798      2.5410      0.0342      6.6057     20.5337     72.5377
  1480.4000      8.0798      2.5534      0.0748      5.8573     19.8412     76.4587
  1480.5000      8.0796      2.5577      0.0408      5.5918     19.9380     77.6118
  1480.6000      8.0796      2.5485      0.0737      6.1540     20.5182     77.2386
  1480.7000      8.0796      2.5260      0.0209      7.5122     20.7174     75.1526
  1480.8000      8.0790      2.5063      0.0210      8.7084     20.1889     73.4123
  1480.9000      8.0790      2.5035      0.0019      8.8806     19.5283     74.8113
  1481.0000      8.0785      2.5072      0.0861      8.6574     19.0445     79.6901
  1481.1000      8.0785      2.4952      0.0274      9.3823     18.6284     84.8242
  1481.2000      8.0785      2.4773     -0.0124     10.4672     18.2113     85.5826
  1481.3000      8.0773      2.4841     -0.0128     10.0538     17.8067     80.8287
  1481.4000      8.0773      2.5167      0.0144      8.0771     17.5735     72.9464
  1481.5000      8.0747      2.5420      0.0591      6.5438     17.5401     66.9735
  1481.6000      8.0747      2.5411     -0.0160      6.5996     17.5269     66.5436
  1481.7000      8.0747      2.5367     -0.0105      6.8663     17.3111     68.1813
  1481.8000      8.0732      2.5468      0.0470      6.2570     17.0040     66.6499
  1481.9000      8.0732      2.5560      0.0659      5.6973     16.7439     63.1502
  1482.0000      8.0734      2.5540      0.0307      5.8185     16.3659     61.0657
  1482.1000      8.0734      2.5494      0.0320      6.0990     15.9105     62.9815
  1482.2000      8.0734      2.5408      0.0382      6.6164     15.7539     70.5405
  1482.3000      8.0732      2.5267      0.0283      7.4731     15.9775     78.3730
  1482.4000      8.0732      2.5288      0.0050      7.3443     16.3853     79.9152
  1482.5000      8.0742      2.5568      0.0163      5.6469     17.0809     77.2991
  1482.6000      8.0742      2.5769      0.0814      4.4274     17.9940     74.3966
  1482.7000      8.0742      2.5638      0.0240      5.2236     18.7199     71.8340
  1482.8000      8.0748      2.5459      0.0023      6.3081     19.0737     70.7041
  1482.9000      8.0748      2.5511      0.0365      5.9926     18.9818     71.2369
  1483.0000      8.0726      2.5557      0.0919      5.7167     18.8587     73.2523
  1483.1000      8.0726      2.5347      0.0237      6.9876     19.4328     76.8402
  1483.2000      8.0726      2.5067     -0.0148      8.6855     20.3492     81.2764
  1483.3000      8.0708      2.4941     -0.0123      9.4479     20.9649     86.8629
  1483.4000      8.0708      2.4990     -0.0074      9.1543     21.6888     94.5874
  1483.5000      8.0703      2.5090      0.0191      8.5448     22.6349    103.1612
  1483.6000      8.0703      2.5061      0.0333      8.7223     23.0005    108.7927
  1483.7000      8.0703      2.5005      0.0110      9.0630     22.7846    110.5940
  1483.8000      8.0717      2.5205      0.0225      7.8495     22.7670    111.8762
  1483.9000      8.0717      2.5571      0.0890      5.6323     23.2820    115.3133
  1484.0000      8.0748      2.5774      0.1161      4.4019     23.9920    120.0878
  1484.1000      8.0748      2.5703      0.0954      4.8282     24.4601    122.1618
  1484.2000      8.0748      2.5425      0.0911      6.5122     24.8675    121.4717
  1484.3000      8.0769      2.5092     -0.0014      8.5339     25.4102    123.2630
  1484.4000      8.0769      2.4900      0.0079      9.6948     25.8468    129.6895
  1484.5000      8.0795      2.4845      0.0305     10.0286     26.1316    138.6085
  1484.6000      8.0795      2.4749      0.0384     10.6142     26.6341    148.2635
  1484.7000      8.0795      2.4490      0.0182     12.1788     27.4706    156.8380
  1484.8000      8.0843      2.4052     -0.0108     14.8368     28.3723    156.5809
  1484.9000      8.0843      2.3552     -0.0467     17.8644     28.8504    145.4484
  1485.0000      8.0925      2.3186     -0.0434     20.0845     28.5114    135.1472
  1485.1000      8.0925      2.3012     -0.0379     21.1371     27.9442    133.6170
  1485.2000      8.0925      2.2981     -0.0177     21.3288     27.9071    136.3098
  1485.3000      8.1028      2.3058      0.0236     20.8614     27.9772    136.1225
  1485.4000      8.1028      2.3224      0.0534     19.8541     27.4297    131.6687
  1485.5000      8.1161      2.3477      0.0537     18.3236     26.3859    127.9012
  1485.6000      8.1161      2.3844      0.1003     16.0958     25.4732    126.4500
  1485.7000      8.1161      2.4334      0.1351     13.1285     25.0136    123.6851
  1485.8000      8.1205      2.4906      0.0864      9.6632     24.9702    119.9954
  1485.9000      8.1205      2.5456      0.1142      6.3292     24.8861    120.1442
  1486.0000      8.1024      2.5806      0.1310      4.2086     24.4816    124.0036
  1486.1000      8.1024      2.5889      0.0625      3.7034     24.0019    128.2209
  1486.2000      8.1024      2.5827      0.0824      4.0813     23.9610    132.1721
  1486.3000      8.0800      2.5746      0.0421      4.5711     24.8240    135.1827
  1486.4000      8.0800      2.5697      0.0739      4.8657     26.2644    137.3752
  1486.5000      8.0700      2.5626      0.0537      5.2985     27.4419    138.7767
  1486.6000      8.0700      2.5421      0.0309      6.5372     28.1550    140.6258
  1486.7000      8.0700      2.5025      0.0370      8.9372     28.6601    145.5324
  1486.8000      8.0711      2.4574     -0.0469     11.6704     29.2807    147.5127
  1486.9000      8.0711      2.4356     -0.0080     12.9944     30.2588    140.8552
  1487.0000      8.0750      2.4400      0.0873     12.7256     31.1108    129.3207
  1487.1000      8.0750      2.4458      0.0667     12.3728     31.0980    116.4401
  1487.2000      8.0750      2.4392      0.0944     12.7785     30.1780    105.5312
  1487.3000      8.0749      2.4241      0.0762     13.6906     28.8824    100.6797
  1487.4000      8.0749      2.4114      0.0742     14.4634     27.6937     99.7565
  1487.5000      8.0704      2.4078      0.0991     14.6788     26.7984    100.9694
  1487.6000      8.0704      2.4136      0.0709     14.3247     26.0362    104.0288
  1487.7000      8.0704      2.4246      0.0914     13.6603     24.8950    105.9270
  1487.8000      8.0683      2.4296      0.1167     13.3577     23.4567    106.6702
  1487.9000      8.0683      2.4320      0.0069     13.2123     22.5778    107.1150
  1488.0000      8.0696      2.4585     -0.0290     11.6069     22.4332    109.9842
  1488.1000      8.0696      2.5104      0.0476      8.4592     22.4616    115.2816
  1488.2000      8.0696      2.5526      0.0533      5.9060     22.3057    113.7502
  1488.3000      8.0658      2.5637      0.0933      5.2287     21.8071    101.2271
