~Version Information
 VERS.                                  2.0 : CWLS LAS VERSION
 WRAP.                                   NO : WRAPING MODE
 SWARE .                 MController 2.5.0N : SOFTWARE VERSION
~Well Information
 WELL.                   Sand Pebbles 13-33 : WELL
 COMP.    Pioneer Natural Resources USA Inc : COMPANY
 FLD.                      Purgatoire River : FIELD
 LOC.                 NW/SW Sec 33 T32S R67W : LOCATION
 DATE.                           3/08-10/05 : DATE(S) LOGGED
 SRVC.         Blanco Geological Services LLC : SERVICE COMPANY
 STAT.                                   CO : STATE
 CNTY.                           Las Animas : COUNTY
 CTRY.                                  USA : COUNTRY
 API.                       05-071-08224-00 : API NUMBER
 STRT.FT                             655.00 : START DEPTH
 STOP.FT                            2730.00 : STOP DEPTH
 STEP.FT                               1.00 : DEPTH INCREMENT
 NULL.                                -9999 : NULL VALUE
~Curve information
 DEPTH.FT                                   :
 ROP.MIN/FT                                 :
 GAS.UNITS                                  :
~ASCII Log data
       655.0     -9999.00          7.5 
       656.0        55.45          1.2 
       657.0         0.60          0.9 
       658.0         0.67          0.4 
       659.0         0.72          0.2 
       660.0         0.57         -0.2 
       661.0         0.80         -0.8 
       662.0         0.80         -0.3 
       663.0         0.73          0.5 
       664.0         0.52          0.2 
       665.0         0.47          0.4 
       666.0         0.23          0.4 
       667.0         0.27          0.6 
       668.0         0.33          0.3 
       669.0         0.27          0.6 
       670.0         0.20          0.8 
       671.0         0.17          0.6 
       672.0         0.13          0.5 
       673.0         0.13          0.7 
       674.0         0.10          0.4 
       675.0         0.13          0.6 
       676.0         0.17          0.5 
       677.0         0.13          0.7 
       678.0         0.15          0.6 
       679.0         0.20          0.5 
       680.0         0.27          0.4 
       681.0         0.27          0.8 
       682.0         0.27          0.5 
       683.0         0.23          0.6 
       684.0         0.23          1.1 
       685.0         0.17          1.3 
       686.0         0.33          1.3 
       687.0         0.30          1.1 
       688.0         0.17          1.0 
       689.0         3.85          1.1 
       690.0         1.22          0.9 
       691.0         0.40          0.7 
       692.0         0.40          0.8 
       693.0         0.23          0.8 
       694.0         0.23          0.9 
       695.0         0.33          0.9 
       696.0         0.30          0.8 
       697.0         0.27          0.8 
       698.0         0.48          0.9 
       699.0         0.53          0.5 
       700.0         0.43          0.8 
       701.0         0.17          0.8 
       702.0         0.20          0.6 
       703.0         0.20          0.6 
       704.0         0.23          0.6 
       705.0         0.23          0.5 
       706.0         0.20          0.3 
       707.0         0.27          0.6 
       708.0         0.20          0.8 
       709.0         0.23          0.7 
       710.0         0.17          0.6 
       711.0         0.18          0.8 
       712.0         0.13          0.6 
       713.0         0.17          0.8 
       714.0         0.20          0.7 
       715.0         0.17          0.9 
       716.0         0.17          0.8 
       717.0         0.20          0.8 
       718.0         0.20          0.5 
       719.0         0.20          0.4 
       720.0         5.02          0.8 
       721.0         0.32          0.8 
       722.0         0.33          0.8 
       723.0         0.30          1.1 
       724.0         0.60          0.8 
       725.0         0.43          1.0 
       726.0         0.27          0.9 
       727.0         0.27          0.7 
       728.0         0.23          0.7 
       729.0         0.23          0.9 
       730.0         0.23          0.7 
       731.0         0.20          0.7 
       732.0         0.22          0.8 
       733.0         0.17          0.6 
       734.0         0.20          0.7 
       735.0         0.17          0.6 
       736.0         0.17          0.9 
       737.0         0.23          0.4 
       738.0         0.20          0.7 
       739.0         0.27          0.7 
       740.0         0.17          0.4 
       741.0         0.20          0.5 
       742.0         0.17          0.5 
       743.0         0.13          0.4 
       744.0         0.17          0.6 
       745.0         0.17          0.4 
       746.0         0.17          0.5 
       747.0         0.20          0.5 
       748.0         0.17          0.6 
       749.0         0.17          0.6 
       750.0        28.35          1.0 
       751.0         5.37          0.9 
       752.0         0.77          1.0 
       753.0         0.97          0.9 
       754.0         0.77          0.5 
       755.0         0.88         -0.1 
       756.0         0.80         -0.3 
       757.0       240.05          6.1 
       758.0         1.82         16.1 
       759.0         0.27         11.4 
       760.0         0.27          7.3 
       761.0         0.23          5.0 
       762.0         0.27          3.3 
       763.0         0.30          2.7 
       764.0         0.28          2.6 
       765.0         0.30          1.9 
       766.0         0.27          2.2 
       767.0         0.27          2.3 
       768.0         0.30          2.0 
       769.0         0.27          1.9 
       770.0         0.27          2.2 
       771.0         0.23          2.2 
       772.0         0.17          2.4 
       773.0         0.20          2.0 
       774.0         0.20          2.2 
       775.0         0.20          2.0 
       776.0         0.27          2.1 
       777.0         0.30          2.3 
       778.0         0.38          2.2 
       779.0         0.27          2.5 
       780.0         0.30          2.4 
       781.0         5.62          7.1 
       782.0         0.45          8.3 
       783.0         0.27          7.1 
       784.0         0.23          5.6 
       785.0         0.20          4.1 
       786.0         0.23          3.1 
       787.0         0.23          2.8 
       788.0         0.20          2.2 
       789.0         0.20          2.4 
       790.0         0.17          2.7 
       791.0         0.17          2.6 
       792.0         0.20          2.6 
       793.0         0.17          2.5 
       794.0         0.20          2.7 
       795.0         0.23          2.7 
       796.0         0.23          2.4 
       797.0         0.32          2.7 
       798.0         0.27          2.0 
       799.0         0.27          2.1 
       800.0         0.23          2.5 
       801.0         0.23          2.0 
       802.0         0.27          2.0 
       803.0         0.27          2.1 
       804.0         0.23          1.8 
       805.0         0.20          2.1 
       806.0         0.20          1.8 
       807.0         0.23          1.8 
       808.0         0.23          2.0 
       809.0         0.23          2.0 
       810.0         0.23          2.0 
       811.0         5.33          9.4 
       812.0         0.23         10.7 
       813.0         0.20         11.9 
       814.0         0.20         13.2 
       815.0         0.17         14.3 
       816.0         0.17         15.2 
       817.0         0.17         15.4 
       818.0         0.23         13.5 
       819.0         0.35          7.8 
       820.0         0.37          3.6 
       821.0         0.27          2.4 
       822.0         0.23          1.9 
       823.0         0.13          2.2 
       824.0         0.20          2.0 
       825.0         0.17          2.0 
       826.0         0.20          1.9 
       827.0         0.17          1.8 
       828.0         0.13          1.6 
       829.0         0.20          1.6 
       830.0         0.27          1.5 
       831.0         0.27          1.5 
       832.0         0.23          1.7 
       833.0         0.28          1.8 
       834.0         0.27          1.6 
       835.0         0.23          1.7 
       836.0         0.27          2.0 
       837.0         0.23          1.8 
       838.0         0.23          1.9 
       839.0         0.23          2.0 
       840.0         0.20          1.5 
       841.0         4.72          4.8 
       842.0         0.38          7.7 
       843.0         0.30         12.3 
       844.0         0.30         16.7 
       845.0         0.30         15.5 
       846.0         0.30         10.4 
       847.0         0.33          5.9 
       848.0         0.30          3.2 
       849.0         0.30          2.4 
       850.0         0.23          2.0 
       851.0         0.23          1.9 
       852.0         0.17          1.7 
       853.0         0.17          1.6 
       854.0         0.13          1.8 
