~Version Information
VERS.                      2.0: CWLS Log ASCII Standard - VERSION 2.0
WRAP.                       NO: One line per depth step
~Well Information Block
STRT.FT               858.7000: 
STOP.FT              2478.2000: 
STEP.FT                 0.1000: 
NULL.                -999.2500: 
COMP.          Petrogulf Corporation: COMPANY
WELL.           Torcom 17-33 V: WELL
FLD.           Purgatoire River: FIELD
LOC.           1544' FSL & 1746' FEL: LOCATION
PROV.                 Colorado: PROVINCE
CNTY.               Las Animas: COUNTRY
SRVC.                Patterson: SERVICE COMPANY
DATE.          Wed Dec 03 09:22:08 2003: LOG DATE
UWI.                          : UNIQUE WELL ID
~Curve Information Block
DEPT.FT            0 000 00 00: Depth
DCAL.in                       : CDL Caliper
RHOB.g/cc                     : CDL Bulk Density
RHOC.g/cc                     : CDL Density Correction
DPOR.pu                       : CDL Density Porosity
GR.GAPI                       : Gamma Ray
NPOR.pu                       : Neutron Porosity
~Parameter Information Block
~A  Depth       DCAL        RHOB        RHOC        DPOR         GR         NPOR    
# ...
  1098.7000      8.2613      2.5411      0.2044      6.5993    157.9759     27.5800
  1098.8000      8.3337      2.5802      0.2155      4.2333    153.3922     27.4393
  1098.9000      8.3337      2.5971      0.2512      3.2042    152.9322     27.8747
  1099.0000      8.4124      2.5842      0.2160      3.9899    152.3860     29.2138
  1099.1000      8.4124      2.5461      0.2248      6.2982    149.0638     30.5669
  1099.2000      8.4124      2.4920      0.1764      9.5773    146.0779     31.2633
  1099.3000      8.3793      2.4545      0.0231     11.8467    145.4738     31.2347
  1099.4000      8.3793      2.4680      0.0927     11.0330    146.0723     30.7232
  1099.5000      8.3369      2.5081      0.1587      8.5986    148.5051     30.2030
  1099.6000      8.3369      2.5383      0.1320      6.7709    151.0671     29.8582
  1099.7000      8.3369      2.5688      0.0568      4.9199    149.2883     29.4792
  1099.8000      8.3246      2.6155      0.0992      2.0883    145.0149     28.9162
  1099.9000      8.3246      2.6600      0.1352     -0.6044    142.9810     27.9126
  1100.0000      8.3433      2.6775      0.0548     -1.6642    143.3277     26.1213
  1100.1000      8.3433      2.6686      0.0522     -1.1280    146.0091     23.5623
  1100.2000      8.3433      2.6447      0.0791      0.3188    149.5513     20.5586
  1100.3000      8.3248      2.6098      0.0797      2.4389    146.8179     17.6782
  1100.4000      8.3248      2.5849     -0.0198      3.9447    137.8331     15.1982
  1100.5000      8.3092      2.5798      0.0705      4.2528    131.3811     12.9274
  1100.6000      8.3092      2.5555      0.0804      5.7269    131.5638     10.9271
  1100.7000      8.3092      2.5007     -0.0036      9.0470    134.9755      9.5687
  1100.8000      8.3401      2.4526     -0.0545     11.9656    135.8388      9.0083
  1100.9000      8.3401      2.4065     -0.0099     14.7570    133.0276      8.6877
  1101.0000      8.3450      2.3185     -0.0290     20.0922    129.1456      8.1335
  1101.1000      8.3450      2.1947     -0.0624     27.5933    126.4429      7.6008
  1101.2000      8.3450      2.0961     -0.0681     33.5692    126.2019      7.4246
  1101.3000      8.3638      2.0446      0.0453     36.6902    126.9757      7.7084
  1101.4000      8.3638      2.0024      0.1019     39.2473    125.3644      8.4200
  1101.5000      8.4831      1.9448      0.0738     42.7420    119.7423      9.3789
  1101.6000      8.4831      1.8751      0.0911     46.9619    109.9420     10.4622
  1101.7000      8.4831      1.7946      0.0719     51.8438     99.2873     11.5979
  1101.8000      8.5243      1.7129      0.0867     56.7940     94.1675     12.5738
  1101.9000      8.5243      1.6541      0.1130     60.3552     93.9030     13.2596
  1102.0000      8.3813      1.6311      0.1265     61.7531     92.9580     14.0604
  1102.1000      8.3813      1.6394      0.1021     61.2485     91.6596     15.2803
  1102.2000      8.3813      1.6624      0.1242     59.8552     91.8596     16.4363
  1102.3000      8.3253      1.6809      0.0718     58.7337     89.6479     17.2336
  1102.4000      8.3253      1.6880      0.1108     58.3030     84.2343     17.8670
  1102.5000      8.3237      1.6851      0.1700     58.4770     81.7976     18.4269
  1102.6000      8.3237      1.6849      0.1926     58.4927     83.4326     19.1758
  1102.7000      8.3237      1.7048      0.1714     57.2845     81.3169     20.3408
  1102.8000      8.3472      1.7465      0.2160     54.7598     76.0258     21.7147
  1102.9000      8.3472      1.7939      0.2090     51.8869     77.4790     23.1043
  1103.0000      8.3720      1.8363      0.1687     49.3180     86.2123     24.7887
  1103.1000      8.3720      1.8781      0.0966     46.7788     93.1949     26.7513
  1103.2000      8.3720      1.9272      0.0842     43.8071     93.6687     28.2465
  1103.3000      8.3198      1.9851      0.1202     40.2995     93.5145     28.8800
  1103.4000      8.3198      2.0497      0.1659     36.3812     98.7699     29.0479
  1103.5000      8.3477      2.1166      0.1909     32.3301    106.0453     28.9766
  1103.6000      8.3477      2.1756      0.2360     28.7512    111.0632     28.8594
  1103.7000      8.3477      2.2220      0.1887     25.9409    116.1634     29.2422
  1103.8000      8.3063      2.2667      0.1894     23.2330    125.9542     30.1480
  1103.9000      8.3063      2.3205      0.1879     19.9714    137.7970     30.5887
  1104.0000      8.2544      2.3861      0.1715     15.9913    142.6012     29.9271
  1104.1000      8.2544      2.4656      0.1139     11.1772    141.0886     28.9200
  1104.2000      8.2544      2.5480      0.2202      6.1806    144.1855     28.6112
  1104.3000      8.2377      2.6135      0.2192      2.2124    150.4644     29.0974
  1104.4000      8.2377      2.6572      0.2149     -0.4367    150.5891     29.6190
  1104.5000      8.2483      2.6761      0.2182     -1.5827    147.1370     29.5814
  1104.6000      8.2483      2.6652      0.2147     -0.9186    146.6783     29.1913
  1104.7000      8.2483      2.6382      0.2108      0.7143    146.9195     28.8332
  1104.8000      8.2067      2.6159      0.1799      2.0643    146.5545     28.4627
  1104.9000      8.2067      2.6030      0.1402      2.8511    146.9850     27.8573
  1105.0000      8.2040      2.5882      0.1249      3.7465    144.7427     26.9455
  1105.1000      8.2040      2.5722      0.0000      4.7173    139.1168     25.7121
  1105.2000      8.2040      2.5678      0.0659      4.9808    134.6288     24.8268
  1105.3000      8.2016      2.5678      0.0646      4.9823    135.4121     24.8056
  1105.4000      8.2016      2.5562      0.0424      5.6849    142.5118     25.1076
  1105.5000      8.1871      2.5394     -0.0185      6.7000    151.8382     25.3436
  1105.6000      8.1871      2.5306      0.0591      7.2375    155.0971     25.8768
  1105.7000      8.1871      2.5283      0.0236      7.3766    150.3197     27.0794
  1105.8000      8.1891      2.5348      0.0714      6.9797    143.9165     28.4912
  1105.9000      8.1891      2.5522      0.0955      5.9290    140.0404     29.2386
  1106.0000      8.1927      2.5648      0.0990      5.1613    136.7441     29.3158
  1106.1000      8.1927      2.5643      0.0705      5.1967    133.4787     29.3450
  1106.2000      8.1927      2.5579      0.1031      5.5820    133.3242     29.4742
  1106.3000      8.1849      2.5523      0.0459      5.9184    137.7711     29.2246
  1106.4000      8.1849      2.5638      0.0333      5.2266    143.4077     28.5013
  1106.5000      8.1969      2.5937      0.0922      3.4139    147.1842     27.8309
  1106.6000      8.1969      2.6140      0.1240      2.1804    151.2203     27.4233
  1106.7000      8.1969      2.6066      0.1165      2.6274    155.2646     27.1103
  1106.8000      8.2296      2.5801      0.0509      4.2377    153.1011     26.6246
  1106.9000      8.2296      2.5554      0.0128      5.7355    139.3799     26.0915
  1107.0000      8.2180      2.5459      0.0014      6.3098    123.4426     25.7950
  1107.1000      8.2180      2.5448      0.0184      6.3781    118.4003     25.4376
  1107.2000      8.2180      2.5390     -0.0126      6.7294    123.5431     24.9666
  1107.3000      8.2396      2.5266     -0.0015      7.4782    132.7402     24.6507
  1107.4000      8.2396      2.5132     -0.0033      8.2891    143.1419     24.2916
  1107.5000      8.2549      2.5014     -0.0022      9.0059    151.5982     24.0499
  1107.6000      8.2549      2.4920     -0.0180      9.5735    154.1758     24.6340
  1107.7000      8.2549      2.4883      0.0141      9.7978    151.8303     25.6252
  1107.8000      8.2717      2.4827      0.0352     10.1404    148.5706     26.0106
  1107.9000      8.2717      2.4727      0.0177     10.7458    145.4835     25.8543
  1108.0000      8.2884      2.4789      0.0180     10.3717    141.9466     25.6420
  1108.1000      8.2884      2.5056      0.0861      8.7531    137.8871     25.3457
  1108.2000      8.2884      2.5226      0.1253      7.7232    133.0645     24.6053
