~Version Information
VERS.                      2.0: CWLS Log ASCII Standard - VERSION 2.0
WRAP.                       NO: One line per depth step
~Well Information Block
STRT.FT               472.0000: 
STOP.FT              2641.5000: 
STEP.FT                 0.1000: 
NULL.                -999.2500: 
COMP.          Pioneer Natural Resources: COMPANY
WELL.              Wagner 13-9: WELL
FLD.           Purgatoire River: FIELD
LOC.           1819' FSL & 1111' FWL: LOCATION
PROV.                 Colorado: PROVINCE
CNTY.               Las Animas: COUNTRY
SRVC.                Patterson: SERVICE COMPANY
DATE.          Tue Apr 19 08:56:38 2005: LOG DATE
UWI.           05 071 08302 00: UNIQUE WELL ID
~Curve Information Block
DEPT.FT            0 000 00 00: Depth
DCAL.in                       : CDL Caliper
RHOB.g/cc                     : CDL Bulk Density
RHOC.g/cc                     : CDL Density Correction
DPOR.pu                       : CDL Density Porosity
GR.GAPI                       : Gamma Ray
NPOR.pu                       : Neutron Porosity
~Parameter Information Block
~A  Depth       DCAL        RHOB        RHOC        DPOR         GR         NPOR    
# ...
  1768.0000      7.9183      2.6360      0.0137      0.8478     86.1597     19.4377
  1768.1000      7.9183      2.6389      0.0569      0.6720     88.1020     19.9937
  1768.2000      7.9183      2.6336      0.0434      0.9946     91.6150     20.2461
  1768.3000      7.9186      2.6125      0.0411      2.2722     95.9211     19.5155
  1768.4000      7.9186      2.5904      0.0045      3.6128     97.5352     18.6213
  1768.5000      7.9193      2.5777      0.0547      4.3810     95.4639     18.2885
  1768.6000      7.9193      2.5632      0.0413      5.2584     92.0424     18.5560
  1768.7000      7.9193      2.5404     -0.0186      6.6418     90.6784     19.0390
  1768.8000      7.9198      2.5181     -0.0077      7.9935     91.6846     19.6543
  1768.9000      7.9198      2.4931      0.0425      9.5088     92.7136     20.4728
  1769.0000      7.9200      2.4539      0.0287     11.8873     96.4208     20.9742
  1769.1000      7.9200      2.4132     -0.0133     14.3500    105.1438     20.8895
  1769.2000      7.9200      2.3953      0.0009     15.4361    111.2467     20.7885
  1769.3000      7.9201      2.4054      0.0207     14.8242    108.9949     21.3104
  1769.4000      7.9201      2.4348      0.0683     13.0420    102.5127     22.0826
  1769.5000      7.9201      2.4699      0.1346     10.9133     97.3743     22.1191
  1769.6000      7.9201      2.4983      0.1507      9.1928     96.2066     21.6583
  1769.7000      7.9201      2.5166      0.1846      8.0863     96.7683     21.6980
  1769.8000      7.9203      2.5287      0.2002      7.3519     97.0837     21.9472
  1769.9000      7.9203      2.5400      0.1667      6.6688     98.2999     21.2938
  1770.0000      7.9242      2.5492      0.2092      6.1110    100.1539     19.8756
  1770.1000      7.9242      2.5548      0.1346      5.7676    102.5220     18.6581
  1770.2000      7.9242      2.5637      0.1577      5.2287    106.1033     18.2357
  1770.3000      7.9403      2.5782      0.1703      4.3498    110.6091     18.7394
  1770.4000      7.9403      2.5879      0.2005      3.7618    112.1591     19.8536
  1770.5000      7.9698      2.5820      0.1410      4.1222    107.8032     20.8779
  1770.6000      7.9698      2.5690      0.0768      4.9091    103.1328     21.6742
  1770.7000      7.9698      2.5642      0.0975      5.1986    103.2427     22.3778
  1770.8000      8.0010      2.5731      0.1001      4.6609    106.1179     22.2769
  1770.9000      8.0010      2.5886      0.1192      3.7196    107.2336     21.4236
  1771.0000      8.0358      2.5947      0.0860      3.3507    104.5966     20.7469
  1771.1000      8.0358      2.5903      0.0635      3.6209    101.3006     20.1150
  1771.2000      8.0358      2.5837      0.0961      4.0160    101.3376     19.2787
  1771.3000      8.0713      2.5712      0.1057      4.7768    102.0344     18.8039
  1771.4000      8.0713      2.5498      0.0919      6.0756     99.8022     19.2650
  1771.5000      8.0903      2.5273      0.0272      7.4359     97.7036     20.2687
  1771.6000      8.0903      2.5102      0.0402      8.4740     98.9766     20.8835
  1771.7000      8.0903      2.5011     -0.0069      9.0249    100.1851     20.9873
  1771.8000      8.0948      2.4971      0.0190      9.2640     99.2990     21.0135
  1771.9000      8.0948      2.4932     -0.0118      9.5047    100.5595     20.7652
  1772.0000      8.0955      2.4976      0.0129      9.2364    103.6735     19.9981
  1772.1000      8.0955      2.5124      0.0356      8.3378    104.8650     19.2453
  1772.2000      8.0955      2.5200      0.0786      7.8783    104.2886     19.1411
  1772.3000      8.0967      2.5107      0.0408      8.4429    101.4771     19.7282
  1772.4000      8.0967      2.4902      0.0732      9.6856     95.8353     20.4978
  1772.5000      8.0993      2.4677     -0.0073     11.0482     91.5892     20.6838
  1772.6000      8.0993      2.4542     -0.0208     11.8653     92.7472     20.4973
  1772.7000      8.0993      2.4461      0.0338     12.3566     98.5666     20.8719
  1772.8000      8.1019      2.4271      0.0399     13.5094    104.8076     21.8500
  1772.9000      8.1019      2.3917      0.0277     15.6569    108.0157     23.1034
  1773.0000      8.1048      2.3458      0.0265     18.4355    109.7709     24.3324
  1773.1000      8.1048      2.2952     -0.0271     21.5008    115.0928     25.6654
  1773.2000      8.1048      2.2335      0.0260     25.2420    121.7042     27.1108
  1773.3000      8.1080      2.1451     -0.0325     30.5989    122.1308     28.2724
  1773.4000      8.1080      2.0283     -0.0127     37.6798    117.1098     29.0208
  1773.5000      8.1160      1.8936     -0.0335     45.8399    112.2117     29.4914
  1773.6000      8.1160      1.7637     -0.0827     53.7148    106.8723     29.9133
  1773.7000      8.1160      1.6695     -0.0857     59.4235     98.7581     30.5439
  1773.8000      8.1478      1.6196     -0.0611     62.4469     89.6350     31.5706
  1773.9000      8.1478      1.5876     -0.0296     64.3854     79.7901     32.6910
  1774.0000      8.2157      1.5406      0.0123     67.2383     69.8229     33.4108
  1774.1000      8.2157      1.4788      0.0355     70.9824     62.6673     33.8189
  1774.2000      8.2157      1.4312      0.0606     73.8664     57.9537     33.9720
  1774.3000      8.3179      1.4122      0.0903     75.0194     54.8170     33.6739
  1774.4000      8.3179      1.4137      0.1030     74.9270     55.1559     33.6544
  1774.5000      8.4242      1.4284      0.0870     74.0381     58.6827     34.6820
  1774.6000      8.4242      1.4526      0.0899     72.5717     58.7008     35.7025
  1774.7000      8.4242      1.4787      0.0619     70.9887     51.3647     35.4789
  1774.8000      8.4745      1.5028      0.0784     69.5288     44.0765     34.3398
  1774.9000      8.4745      1.5305      0.1175     67.8484     44.4676     33.2811
  1775.0000      8.5001      1.5704      0.1247     65.4310     50.7722     33.0770
  1775.1000      8.5001      1.6256      0.1244     62.0828     55.5978     33.6329
  1775.2000      8.5001      1.6917      0.1350     58.0806     57.5679     33.8801
  1775.3000      8.4848      1.7678      0.1182     53.4642     61.2595     33.4720
  1775.4000      8.4848      1.8642      0.1680     47.6241     67.7128     33.1945
  1775.5000      8.3548      1.9867      0.1937     40.1990     77.8575     32.9656
  1775.6000      8.3548      2.1263      0.1642     31.7391     89.9047     32.5086
  1775.7000      8.3548      2.2518      0.3418     24.1316     96.9722     32.1730
  1775.8000      8.1870      2.3300      0.3105     19.3962    101.3009     32.2013
  1775.9000      8.1870      2.3631      0.3674     17.3868    109.1181     32.6486
  1776.0000      8.1170      2.3754      0.3445     16.6432    118.2592     33.2162
  1776.1000      8.1170      2.3927      0.2874     15.5948    125.0952     33.1610
  1776.2000      8.1170      2.4321      0.2217     13.2064    126.6301     32.1141
  1776.3000      8.1037      2.4826      0.2238     10.1430    121.6023     30.7995
  1776.4000      8.1037      2.5151      0.2160      8.1746    115.3562     29.8568
  1776.5000      8.0708      2.5141      0.1710      8.2392    117.6701     28.8060
  1776.6000      8.0708      2.4925      0.1661      9.5427    127.9816     27.7064
  1776.7000      8.0708      2.4785      0.0968     10.3954    133.1642     27.5248
  1776.8000      8.0504      2.4784      0.2019     10.4030    128.6962     27.9465
  1776.9000      8.0504      2.4751      0.0737     10.5982    123.9790     27.7607
  1777.0000      8.0529      2.4710      0.0506     10.8487    125.2164     26.7599
  1777.1000      8.0529      2.4772      0.0700     10.4736    128.7714     25.8203
  1777.2000      8.0529      2.4926      0.0469      9.5404    130.4276     25.6951
  1777.3000      8.0505      2.5073      0.1137      8.6512    128.7204     26.0581
  1777.4000      8.0505      2.5091      0.0610      8.5382    128.7766     26.1349
  1777.5000      8.0402      2.5016      0.0975      8.9965    137.7423     26.0131
