~Version Information
VERS.                      2.0: CWLS Log ASCII Standard - VERSION 2.0
WRAP.                       NO: One line per depth step
~Well Information Block
STRT.FT               550.0000: 
STOP.FT              2359.0000: 
STEP.FT                 0.1000: 
NULL.                -999.2500: 
COMP.          Pioneer Natural Resources: COMPANY
WELL.              Whinny 42-2: WELL
FLD.           Purgatoire River: FIELD
LOC.           1836' FNL & 466' FEL: LOCATION
PROV.                 Colorado: PROVINCE
CNTY.               Las Animas: COUNTRY
SRVC.                Patterson: SERVICE COMPANY
DATE.          Mon Aug 22 07:28:42 2005: LOG DATE
UWI.           05 071 08406 00: UNIQUE WELL ID
~Curve Information Block
DEPT.FT            0 000 00 00: Depth
DCAL.in                       : CDL Caliper
RHOB.g/cc                     : CDL Bulk Density
RHOC.g/cc                     : CDL Density Correction
DPOR.pu                       : CDL Density Porosity
GR.GAPI                       : Gamma Ray
NPOR.pu                       : Neutron Porosity
~Parameter Information Block
~A  Depth       DCAL        RHOB        RHOC        DPOR         GR         NPOR    
# ...
  1030.0000      7.9775      2.5646     -0.0103      5.1755     70.6264     21.0391
  1030.1000      7.9775      2.5700      0.0460      4.8503     71.5557     21.2202
  1030.2000      7.9775      2.5710     -0.0049      4.7866     79.6508     21.4514
  1030.3000      7.9766      2.5644     -0.0808      5.1874     89.3623     21.9007
  1030.4000      7.9766      2.5554     -0.0229      5.7341     93.0786     23.1402
  1030.5000      7.9812      2.5457     -0.0370      6.3221     89.4726     25.4962
  1030.6000      7.9812      2.5457     -0.0438      6.3230     81.1422     27.6776
  1030.7000      7.9812      2.5618     -0.0129      5.3441     73.0853     28.4154
  1030.8000      7.9855      2.5812      0.0405      4.1726     70.2708     28.2604
  1030.9000      7.9855      2.5902      0.0580      3.6242     71.4984     28.0041
  1031.0000      7.9861      2.5931      0.0274      3.4456     72.7220     27.5736
  1031.1000      7.9861      2.5902      0.0948      3.6228     74.0592     26.3056
  1031.2000      7.9861      2.5674      0.0394      5.0035     76.1088     23.6037
  1031.3000      7.9862      2.5284      0.0177      7.3688     74.1372     20.5749
  1031.4000      7.9862      2.4950     -0.0314      9.3959     69.0215     19.3538
  1031.5000      7.9842      2.4827      0.0151     10.1418     66.8069     20.5494
  1031.6000      7.9842      2.4982     -0.0346      9.2027     66.7725     23.3451
  1031.7000      7.9842      2.5349      0.0382      6.9776     66.6205     26.4256
  1031.8000      7.9881      2.5719      0.0048      4.7325     66.3387     28.5730
  1031.9000      7.9881      2.5970      0.0578      3.2150     66.0273     29.2776
  1032.0000      8.0022      2.6070      0.0921      2.6040     66.7952     28.8880
  1032.1000      8.0022      2.6132      0.0249      2.2322     68.4581     27.9345
  1032.2000      8.0022      2.6230      0.0917      1.6378     70.8935     26.7448
  1032.3000      7.9803      2.6234      0.0653      1.6138     76.4615     25.7054
  1032.4000      7.9803      2.6111      0.0738      2.3570     83.6730     24.9839
  1032.5000      7.9899      2.5966      0.1084      3.2341     87.8336     24.4348
  1032.6000      7.9899      2.5849      0.0485      3.9438     87.9219     24.1634
  1032.7000      7.9899      2.5756      0.0038      4.5113     84.6286     24.5637
  1032.8000      7.9765      2.5660      0.0501      5.0890     79.8253     25.4753
  1032.9000      7.9765      2.5516      0.0770      5.9654     79.1937     26.2438
  1033.0000      7.9927      2.5297      0.0538      7.2915     85.0466     26.6873
  1033.1000      7.9927      2.5088     -0.0106      8.5560     88.5826     26.9737
  1033.2000      7.9927      2.4979      0.0581      9.2208     82.7154     27.0704
  1033.3000      8.0002      2.4923      0.0449      9.5602     75.5368     26.6061
  1033.4000      8.0002      2.4928     -0.0012      9.5259     77.8832     25.0796
  1033.5000      7.9735      2.5066      0.0346      8.6933     87.4764     22.5341
  1033.6000      7.9735      2.5252      0.0392      7.5649     93.1551     20.3202
  1033.7000      7.9735      2.5342      0.0644      7.0162     89.3840     20.2465
  1033.8000      7.9905      2.5308      0.0593      7.2272     81.2367     22.4962
  1033.9000      7.9905      2.5264      0.0370      7.4904     77.2363     25.3256
  1034.0000      7.9903      2.5335      0.0170      7.0632     79.3582     26.9502
  1034.1000      7.9903      2.5483      0.0551      6.1623     82.0758     27.0659
  1034.2000      7.9903      2.5588      0.0428      5.5246     81.4837     26.5475
  1034.3000      7.9879      2.5574      0.0203      5.6092     81.8796     26.3926
  1034.4000      7.9879      2.5448      0.0420      6.3765     85.4157     26.7948
  1034.5000      7.9866      2.5294      0.0021      7.3112     88.4863     27.1135
  1034.6000      7.9866      2.5249     -0.0138      7.5838     90.3678     26.8750
  1034.7000      7.9866      2.5303     -0.0138      7.2527     90.5000     26.3909
  1034.8000      7.9890      2.5300      0.0330      7.2727     87.0502     26.1122
  1034.9000      7.9890      2.5242     -0.0316      7.6223     80.6338     26.0067
  1035.0000      7.9886      2.5292      0.0579      7.3204     76.3848     25.5570
  1035.1000      7.9886      2.5425      0.0878      6.5169     77.7460     24.6818
  1035.2000      7.9886      2.5455      0.1141      6.3340     81.5024     24.1155
  1035.3000      7.9967      2.5297      0.0060      7.2885     82.4902     24.2841
  1035.4000      7.9967      2.5023      0.0172      8.9523     79.8711     24.7069
  1035.5000      7.9968      2.4835     -0.0684     10.0936     77.6494     24.8476
  1035.6000      7.9968      2.4933      0.0476      9.4983     77.7819     24.3109
  1035.7000      7.9968      2.5166      0.0814      8.0831     76.8698     22.5951
  1035.8000      7.9961      2.5269      0.0241      7.4603     73.4236     20.1348
  1035.9000      7.9961      2.5221      0.0639      7.7491     70.2291     18.4332
  1036.0000      7.9987      2.5119      0.0077      8.3688     67.7146     18.2510
  1036.1000      7.9987      2.5067      0.0391      8.6826     64.7619     18.7142
  1036.2000      7.9987      2.5068      0.0144      8.6813     62.1339     18.8907
  1036.3000      7.9944      2.5068      0.0136      8.6783     63.1876     19.0385
  1036.4000      7.9944      2.5060      0.0283      8.7252     68.6969     19.3589
  1036.5000      7.9889      2.4995      0.0501      9.1195     73.2126     19.4645
  1036.6000      7.9889      2.4833      0.0354     10.1050     74.0337     19.3740
  1036.7000      7.9889      2.4666     -0.0005     11.1182     72.5524     19.3590
  1036.8000      7.9851      2.4680     -0.0162     11.0280     70.4571     19.5714
  1036.9000      7.9851      2.4945      0.0354      9.4271     70.9463     20.5934
  1037.0000      7.9968      2.5225      0.0849      7.7266     71.9872     22.8211
  1037.1000      7.9968      2.5258      0.0529      7.5286     70.5278     25.3016
  1037.2000      7.9968      2.5119      0.0105      8.3671     70.9050     26.5102
  1037.3000      7.9890      2.5078      0.0001      8.6170     74.8094     26.2205
  1037.4000      7.9890      2.5178      0.0152      8.0141     76.7134     25.4912
  1037.5000      8.0063      2.5227      0.0494      7.7124     76.6885     24.9900
  1037.6000      8.0063      2.5176      0.0476      8.0235     77.3473     24.6720
  1037.7000      8.0063      2.5229     -0.0090      7.7029     76.1880     24.6711
  1037.8000      8.0084      2.5481      0.0678      6.1760     71.9706     25.1558
  1037.9000      8.0084      2.5751      0.0227      4.5424     68.2548     25.7596
  1038.0000      7.9986      2.5895      0.0624      3.6668     68.1302     25.9606
  1038.1000      7.9986      2.5935      0.0576      3.4270     70.9712     25.6706
  1038.2000      7.9986      2.5932      0.0429      3.4416     73.3511     25.2945
  1038.3000      8.0013      2.5877      0.0672      3.7777     72.6072     24.6948
  1038.4000      8.0013      2.5719      0.0333      4.7350     68.8073     23.0988
  1038.5000      8.0073      2.5584     -0.0246      5.5537     64.3807     20.7445
  1038.6000      8.0073      2.5531      0.0290      5.8752     60.8949     19.1256
  1038.7000      8.0073      2.5394     -0.0064      6.7022     61.2251     19.6784
  1038.8000      8.0040      2.5214     -0.0369      7.7964     67.8409     22.2198
  1038.9000      8.0040      2.5129      0.0110      8.3072     73.6640     24.7956
  1039.0000      8.0040      2.5023      0.0065      8.9511     70.5502     25.8778
  1039.1000      8.0040      2.4820     -0.0508     10.1823     64.3155     25.9113
  1039.2000      8.0040      2.4669     -0.0226     11.0950     63.0767     25.8544
  1039.3000      8.0056      2.4614     -0.0212     11.4283     64.0829     25.8610
  1039.4000      8.0056      2.4613     -0.0208     11.4379     62.8037     25.7362
  1039.5000      8.0101      2.4678      0.0323     11.0405     59.4759     25.4495
