~Version Information
VERS.                      2.0: CWLS Log ASCII Standard - VERSION 2.0
WRAP.                       NO: One line per depth step
~Well Information Block
STRT.FT               550.0000: 
STOP.FT              1577.7500: 
STEP.FT                 0.2500: 
NULL.                -999.2500: 
COMP.          Pioneer Natural Resources: COMPANY
WELL.          Kristin 22-23 Tr: WELL
FLD.           Purgatoire River: FIELD
LOC.           2273' FNL & 2029' FWL: LOCATION
PROV.                 Colorado: PROVINCE
CNTY.               Las Animas: COUNTRY
SRVC.                Patterson: SERVICE COMPANY
DATE.          Thu Jan 20 21:18:23 2005: LOG DATE
UWI.           05 071 08259 00: UNIQUE WELL ID
~Curve Information Block
DEPT.FT            0 000 00 00: Depth
SN.Ohm-m                      : IEL Short Normal
SP.mV                         : IEL Spontaneous Potential
DIR.Ohm-m                     : IEL Induction Resistivity
GR.GAPI                       : Gamma Ray
~Parameter Information Block
~A  Depth        SN          SP         DIR          GR     
# ...
  1421.0000     16.7258    -21.1031     13.2846    117.5960
  1421.2500     17.3162    -21.3879     13.8205    119.2333
  1421.5000     17.9360    -21.7138     14.3791    121.9853
  1421.7500     18.5487    -22.0812     14.9346    122.9600
  1422.0000     19.1256    -22.4824     15.4693    121.6877
  1422.2500     19.6625    -22.8993     15.9806    118.7523
  1422.5000     20.1764    -23.3085     16.4828    112.1829
  1422.7500     20.6858    -23.6907     17.0004    107.5080
  1423.0000     21.1984    -24.0377     17.5550    101.7424
  1423.2500     21.7200    -24.3549     18.1554     98.9817
  1423.5000     22.2686    -24.6566     18.7921     95.9508
  1423.7500     22.8708    -24.9598     19.4421     94.5363
  1424.0000     23.5411    -25.2832     20.0755     94.0129
  1424.2500     24.2668    -25.6512     20.6598     95.1849
  1424.5000     25.0108    -26.0976     21.1567     98.9669
  1424.7500     25.7226    -26.6625     21.5197    102.1884
  1425.0000     26.3535    -27.3791     21.7016    107.1547
  1425.2500     26.8731    -28.2543     21.6807    110.2668
  1425.5000     27.2759    -29.2542     21.4929    113.8756
  1425.7500     27.5731    -30.3028     21.2431    114.8665
  1426.0000     27.7755    -31.2954     21.0757    113.3608
  1426.2500     27.8815    -32.1214     21.1117    110.4642
  1426.5000     27.8740    -32.6914     21.3911    104.4651
  1426.7500     27.7355    -32.9565     21.8482    100.3323
  1427.0000     27.4716    -32.9186     22.3338     95.5457
  1427.2500     27.1181    -32.6225     22.6771     94.0382
  1427.5000     26.7097    -32.1353     22.7532     94.9288
  1427.7500     26.2349    -31.5196     22.5144     97.3531
  1428.0000     25.6275    -30.8132     21.9757    102.0056
  1428.2500     24.8083    -30.0269     21.1884    104.5503
  1428.5000     23.7424    -29.1577     20.2235    106.6881
  1428.7500     22.4665    -28.2096     19.1655    107.5976
  1429.0000     21.0776    -27.2071     18.1037    109.8713
  1429.2500     19.6958    -26.1949     17.1162    112.4258
  1429.5000     18.4238    -25.2261     16.2548    117.3931
  1429.7500     17.3189    -24.3464     15.5388    121.0401
  1430.0000     16.3887    -23.5846     14.9589    126.3631
  1430.2500     15.6098    -22.9496     14.4886    129.1704
  1430.5000     14.9576    -22.4351     14.0959    130.6012
  1430.7500     14.4277    -22.0257     13.7531    129.0485
  1431.0000     14.0361    -21.7033     13.4431    123.7816
  1431.2500     13.7995    -21.4517     13.1609    119.8280
  1431.5000     13.7102    -21.2601     12.9118    115.7200
  1431.7500     13.7299    -21.1240     12.7062    114.7222
  1432.0000     13.8096    -21.0450     12.5521    115.4000
  1432.2500     13.9140    -21.0272     12.4489    116.8963
  1432.5000     14.0252    -21.0725     12.3862    120.1154
  1432.7500     14.1293    -21.1769     12.3488    122.4036
  1433.0000     14.2094    -21.3301     12.3235    124.9098
  1433.2500     14.2551    -21.5166     12.3034    125.4606
  1433.5000     14.2702    -21.7184     12.2866    124.2999
  1433.7500     14.2669    -21.9145     12.2740    122.2449
  1434.0000     14.2541    -22.0790     12.2660    117.7366
  1434.2500     14.2286    -22.1791     12.2576    114.4515
  1434.5000     14.1741    -22.1766     12.2330    110.5996
  1434.7500     14.0681    -22.0328     12.1639    109.4129
  1435.0000     13.8919    -21.7167     12.0194    110.0587
  1435.2500     13.6393    -21.2128     11.7823    112.0411
  1435.5000     13.3165    -20.5262     11.4615    117.4397
  1435.7500     12.9366    -19.6856     11.0875    122.8905
  1436.0000     12.5084    -18.7412     10.6956    133.5827
  1436.2500     12.0316    -17.7585     10.3102    141.3639
  1436.5000     11.5016    -16.8077      9.9405    151.4717
  1436.7500     10.9187    -15.9518      9.5875    156.1712
  1437.0000     10.2988    -15.2386      9.2549    160.0841
  1437.2500      9.6854    -14.6981      8.9538    161.1380
  1437.5000      9.1589    -14.3484      8.7008    161.2198
  1437.7500      8.8250    -14.2032      8.5129    160.4414
  1438.0000      8.7765    -14.2797      8.4042    158.1567
  1438.2500      9.0507    -14.6002      8.3847    156.3043
  1438.5000      9.6148    -15.1904      8.4624    154.3439
  1438.7500     10.3916    -16.0704      8.6450    154.0116
  1439.0000     11.3054    -17.2441      8.9388    153.8778
  1439.2500     12.3119    -18.6865      9.3472    152.4861
  1439.5000     13.3952    -20.3331      9.8680    145.9462
  1439.7500     14.5441    -22.0752     10.4926    138.1818
  1440.0000     15.7318    -23.7654     11.2073    123.1290
  1440.2500     16.9199    -25.2333     11.9945    112.8369
  1440.5000     18.0803    -26.3112     12.8311    100.3178
  1440.7500     19.1986    -26.8614     13.6854     94.8665
  1441.0000     20.2351    -26.8017     14.5145     91.0966
  1441.2500     21.0736    -26.1211     15.2592     91.4168
  1441.5000     21.5246    -24.8835     15.8373     96.4138
  1441.7500     21.4084    -23.2174     16.1488    102.7138
  1442.0000     20.6626    -21.2913     16.1141    115.1748
  1442.2500     19.3902    -19.2805     15.7301    123.8888
  1442.5000     17.8170    -17.3329     15.0879    134.5695
  1442.7500     16.2015    -15.5467     14.3272    138.9209
  1443.0000     14.7624    -13.9650     13.5724    141.3103
  1443.2500     13.6527    -12.5903     12.9014    141.2436
  1443.5000     12.9573    -11.4078     12.3506    140.8510
  1443.7500     12.6916    -10.4076     11.9313    141.0101
  1444.0000     12.8009     -9.5940     11.6429    141.6325
  1444.2500     13.1758     -8.9810     11.4801    141.8802
  1444.5000     13.6831     -8.5778     11.4348    141.4786
  1444.7500     14.2006     -8.3745     11.4948    140.4400
  1445.0000     14.6428     -8.3354     11.6419    137.1486
  1445.2500     14.9704     -8.4016     11.8491    133.6255
  1445.5000     15.1849     -8.5027     12.0814    127.0367
  1445.7500     15.3147     -8.5700     12.3008    122.6230
  1446.0000     15.3980     -8.5495     12.4775    116.9681
  1446.2500     15.4650     -8.4107     12.6008    113.8039
  1446.5000     15.5290     -8.1509     12.6816    109.6732
  1446.7500     15.5886     -7.7934     12.7367    107.6605
  1447.0000     15.6311     -7.3798     12.7688    107.1404
  1447.2500     15.6351     -6.9597     12.7581    109.1793
  1447.5000     15.5820     -6.5804     12.6759    116.0352
  1447.7500     15.4735     -6.2828     12.5101    122.6280
  1448.0000     15.3381     -6.1057     12.2794    134.0564
  1448.2500     15.2179     -6.0964     12.0270    141.8028
  1448.5000     15.1476     -6.3210     11.8027    152.2605
  1448.7500     15.1372     -6.8654     11.6480    157.6542
  1449.0000     15.1699     -7.8211     11.5912    161.7306
  1449.2500     15.2206     -9.2520     11.6489    160.7835
  1449.5000     15.2953    -11.1541     11.8310    152.8535
  1449.7500     15.4681    -13.4213     12.1451    143.4765
  1450.0000     15.8824    -15.8394     12.5967    125.3605
  1450.2500     16.6965    -18.1145     13.1871    112.4217
  1450.5000     17.9856    -19.9324     13.9077     94.7369
  1450.7500     19.6494    -21.0278     14.7335     85.1499
  1451.0000     21.3976    -21.2400     15.6127     74.3263
  1451.2500     22.8498    -20.5396     16.4535     69.1591
  1451.5000     23.6921    -19.0246     17.1214     64.4230
  1451.7500     23.7818    -16.8918     17.4713     63.8411
  1452.0000     23.1475    -14.3956     17.4129     68.0234
  1452.2500     21.9280    -11.8018     16.9635     74.2752
  1452.5000     20.3176     -9.3466     16.2377     87.5906
  1452.7500     18.5437     -7.2073     15.3849     97.9232
  1453.0000     16.8497     -5.4891     14.5305    113.4843
  1453.2500     15.4512     -4.2275     13.7536    122.6335
  1453.5000     14.4711     -3.4014     13.0923    132.6942
  1453.7500     13.8977     -2.9499     12.5584    136.5483
  1454.0000     13.6047     -2.7884     12.1503    138.5865
  1454.2500     13.4263     -2.8203     11.8592    137.8923
