~Version Information
VERS.                      2.0: CWLS Log ASCII Standard - VERSION 2.0
WRAP.                       NO: One line per depth step
~Well Information Block
STRT.FT               -11.0000: 
STOP.FT              1896.2500: 
STEP.FT                 0.2500: 
NULL.                -999.2500: 
COMP.          Pioneer Natural Resources: COMPANY
WELL.            Summers 21-19: WELL
FLD.           Purgatoire River: FIELD
LOC.           900' FNL & 1950' FWL--: LOCATION
PROV.                 Colorado: PROVINCE
CNTY.               Las Animas: COUNTRY
SRVC.                Patterson: SERVICE COMPANY
DATE.          Thu Oct 20 15:06:00 2005: LOG DATE
UWI.           05 071 08315 00: UNIQUE WELL ID
~Curve Information Block
DEPT.FT            0 000 00 00: Depth
GR.GAPI                       : Gamma Ray
CCL.                          : Casing Collar Locator
TT3.usec                      : CBL 3' Travel Time
AMP3.mV                       : CBL 3' Amplitude
~Parameter Information Block
~A  Depth        GR         CCL         TT3         AMP3    
# ...
  1630.5000     68.4806      0.0000    300.1620     29.1885
  1630.7500     78.6994      0.0000    300.0583     29.6832
  1631.0000     88.9053      0.0000    299.9025     30.3785
  1631.2500     96.9568      0.0000    299.7134     31.3082
  1631.5000    101.6013      0.0000    299.5296     32.3784
  1631.7500    102.7544      0.0000    299.3933     33.4005
  1632.0000    100.7188      0.0000    299.3266     34.1844
  1632.2500     95.4889      0.0000    299.3282     34.6164
  1632.5000     87.2415      0.0000    299.3914     34.6745
  1632.7500     77.3771      0.0000    299.5179     34.3903
  1633.0000     68.5780      0.0000    299.7106     33.8050
  1633.2500     63.5219      0.0000    299.9604     32.9608
  1633.5000     63.5582      0.0000    300.2435     31.9213
  1633.7500     68.4496      0.0000    300.5317     30.7839
  1634.0000     76.7097      0.0000    300.8057     29.6633
  1634.2500     85.8822      0.0000    301.0597     28.6562
  1634.5000     93.2261      0.0000    301.2982     27.8071
  1634.7500     96.9838      0.0000    301.5323     27.0990
  1635.0000     97.1069      0.0000    301.7744     26.4813
  1635.2500     94.7183      0.0000    302.0321     25.9122
  1635.5000     91.1748      0.0000    302.3051     25.3759
  1635.7500     87.5865      0.0000    302.5922     24.8681
  1636.0000     84.7015      0.0000    302.8941     24.3820
  1636.2500     82.8842      0.0000    303.2050     23.9135
  1636.5000     82.0825      0.0000    303.5061     23.4674
  1636.7500     81.8312      0.0000    303.7760     23.0502
  1637.0000     81.6500      0.0000    304.0110     22.6581
  1637.2500     81.7945      0.0000    304.2311     22.2787
  1637.5000     83.3136      0.0000    304.4693     21.9081
  1637.7500     86.8219      0.0000    304.7727     21.5616
  1638.0000     91.3130      0.0000    305.3303     21.2674
  1638.2500     94.7267      0.0000    306.8369     21.0415
  1638.5000     95.7750      0.0000    311.0457     20.8626
  1638.7500     94.8707      0.0000    321.0990     20.6720
  1639.0000     93.3456      0.0000    340.8815     20.4142
  1639.2500     92.2904      0.0000    373.4728     20.0785
  1639.5000     92.2287      0.0000    419.9824     19.6950
  1639.7500     93.2892      0.0000    479.0396     19.2963
  1640.0000     95.2342      0.0000    545.5523     18.9011
  1640.2500     97.4178      0.0000    609.5632     18.5422
  1640.5000     98.9781      0.0000    658.8580     18.2917
  1640.7500     99.1527      0.0000    684.3465     18.2332
  1641.0000     97.5400      0.0000    682.7726     18.4004
  1641.2500     94.1832      0.0000    656.3054     18.7478
  1641.5000     89.3466      0.0000    613.3420     19.1807
  1641.7500     83.3768      0.0000    568.4547     19.6143
  1642.0000     77.1371      0.0000    535.2441     20.0128
  1642.2500     72.3223      0.0000    516.2781     20.3905
  1642.5000     70.5791      0.0000    503.5573     20.7865
  1642.7500     72.2120      0.0000    490.1208     21.2447
  1643.0000     76.1450      0.0000    475.9498     21.8113
  1643.2500     80.9006      0.0000    460.6554     22.5263
  1643.5000     85.1420      0.0000    438.2006     23.3822
  1643.7500     87.8480      0.0000    404.7179     24.2759
  1644.0000     88.8622      0.0000    366.5102     25.0268
  1644.2500     89.1379      0.0000    334.8758     25.4738
  1644.5000     89.8046      0.0000    315.8820     25.5714
  1644.7500     90.9284      0.0000    308.0977     25.4004
  1645.0000     91.4738      0.0000    307.5029     25.0953
  1645.2500     90.4525      0.0000    311.4490     24.7636
  1645.5000     87.9172      0.0000    318.6844     24.4510
  1645.7500     84.9154      0.0000    327.9837     24.1539
  1646.0000     82.6441      0.0000    338.4615     23.8461
  1646.2500     81.5945      0.0000    351.0009     23.5009
  1646.5000     81.2747      0.0000    367.3848     23.1119
  1646.7500     80.6089      0.0000    386.7439     22.7069
  1647.0000     78.7156      0.0000    404.3713     22.3345
  1647.2500     75.5802      0.0000    415.5681     22.0334
  1647.5000     72.0680      0.0000    420.2872     21.8175
  1647.7500     69.1682      0.0000    423.7189     21.6763
  1648.0000     67.2455      0.0000    433.6163     21.5733
  1648.2500     66.1510      0.0000    457.3736     21.4484
  1648.5000     65.8057      0.0000    499.0446     21.2489
  1648.7500     66.2894      0.0000    555.6830     20.9691
  1649.0000     67.4349      0.0000    616.2224     20.6552
  1649.2500     68.6778      0.0000    666.7194     20.3725
  1649.5000     69.4142      0.0000    698.8044     20.1677
  1649.7500     69.4404      0.0000    713.2686     20.0487
  1650.0000     69.0195      0.0000    716.4730     19.9861
  1650.2500     68.6055      0.0000    715.0467     19.9285
  1650.5000     68.5792      0.0000    713.4736     19.8237
  1650.7500     69.1606      0.0000    713.9139     19.6318
  1651.0000     70.3733      0.0000    716.3581     19.3298
  1651.2500     71.9993      0.0000    718.8888     18.9130
  1651.5000     73.5989      0.0000    718.5415     18.3940
  1651.7500     74.6705      0.0000    712.1700     17.7933
  1652.0000     74.9549      0.0000    697.2470     17.1178
  1652.2500     74.6152      0.0000    673.3832     16.3551
  1652.5000     74.0040      0.0000    643.6964     15.5123
  1652.7500     73.3403      0.0000    613.3057     14.6479
  1653.0000     72.7680      0.0000    586.6002     13.8079
  1653.2500     72.5196      0.0000    568.4099     12.9205
  1653.5000     72.6665      0.0000    566.4148     11.8392
  1653.7500     72.7935      0.0000    586.3043     10.5649
  1654.0000     72.2941      0.0000    623.2155      9.3670
  1654.2500     70.9730      0.0000    662.7291      8.5962
  1654.5000     69.0951      0.0000    691.5468      8.3880
  1654.7500     66.9394     -2.0000    703.7361      8.5932
  1655.0000     64.6328      0.0000    696.9973      8.9665
  1655.2500     62.4759      0.0000    668.6626      9.3996
  1655.5000     61.1892      0.0000    619.4909     10.0338
  1655.7500     61.5980      0.0000    560.5427     11.1611
  1656.0000     64.0399      0.0000    512.7020     12.9151
  1656.2500     68.0229      0.0000    495.0268     15.0275
  1656.5000     72.4063      0.0000    509.2896     17.0140
  1656.7500     76.1015      0.0000    534.4679     18.6422
  1657.0000     78.7816      0.0000    539.9146     20.0814
  1657.2500     80.7771      0.0000    508.7431     21.5617
  1657.5000     82.2081      0.0000    449.9037     23.0412
  1657.7500     82.6211      0.0000    387.7180     24.2676
  1658.0000     81.6473      0.0000    341.6224     25.0477
  1658.2500     79.4592      0.0000    316.1381     25.3794
  1658.5000     76.2521      0.0000    305.4123     25.3963
  1658.7500     71.8951      0.0000    301.9677     25.2774
  1659.0000     66.6765      0.0000    301.0973     25.2003
  1659.2500     62.1246      0.0000    300.8341     25.3049
  1659.5000     60.5975      0.0000    300.6079     25.6520
  1659.7500     63.8048      0.0000    300.3549     26.2029
  1660.0000     71.3991      0.0000    300.1131     26.8544
  1660.2500     80.7860      0.0000    299.9171     27.5125
  1660.5000     88.6756      0.0000    299.7739     28.1457
  1660.7500     93.3700      0.0000    299.6849     28.7553
  1661.0000     95.7506      0.0000    299.6601     29.3026
  1661.2500     98.0161      0.0000    299.7185     29.6879
  1661.5000    101.4798      0.0000    299.8812     29.8041
  1661.7500    105.5067      0.0000    300.1620     29.6013
  1662.0000    108.2841      0.0000    300.5608     29.1063
  1662.2500    108.4594      0.0000    301.0562     28.4010
  1662.5000    106.1868      0.0000    301.6089     27.5940
  1662.7500    102.7793      0.0000    302.2144     26.7961
  1663.0000     99.5697      0.0000    303.1165     26.0847
  1663.2500     97.2831      0.0000    305.4021     25.4686
  1663.5000     96.1372      0.0000    312.0993     24.8939
  1663.7500     95.8932      0.0000    329.0172     24.2990
