~Version Information
VERS.                      2.0: CWLS Log ASCII Standard - VERSION 2.0
WRAP.                       NO: One line per depth step
~Well Information Block
STRT.FT               362.0000: 
STOP.FT               983.0000: 
STEP.FT                 0.1000: 
NULL.                -999.2500: 
COMP.          Pioneer Natural Resources: COMPANY
WELL.             Tomcat 32-10: WELL
FLD.           Purgatoire River: FIELD
LOC.           2286' FNL & 2463' FEL: LOCATION
PROV.                 Colorado: PROVINCE
CNTY.               Las Animas: COUNTRY
SRVC.                Patterson: SERVICE COMPANY
DATE.          Tue Mar 22 11:24:45 2005: LOG DATE
UWI.           05 071 08301 00: UNIQUE WELL ID
~Curve Information Block
DEPT.FT            0 000 00 00: Depth
DCAL.in                       : CDL Caliper
RHOB.g/cc                     : CDL Bulk Density
RHOC.g/cc                     : CDL Density Correction
DPOR.pu                       : CDL Density Porosity
GR.GAPI                       : Gamma Ray
NPOR.pu                       : Neutron Porosity
~Parameter Information Block
~A  Depth       DCAL        RHOB        RHOC        DPOR         GR         NPOR    
# ...
   765.2000      8.0291      2.5876      0.0452      3.7798     78.4253     24.9995
   765.3000      8.0456      2.6016      0.1302      2.9362     80.8404     24.8775
   765.4000      8.0456      2.6062      0.0626      2.6527     80.7282     24.8574
   765.5000      8.0257      2.6050      0.0616      2.7288     77.7277     24.8552
   765.6000      8.0257      2.5947      0.0491      3.3511     75.7815     24.6851
   765.7000      8.0257      2.5665      0.0856      5.0618     77.4401     24.6916
   765.8000      8.0087      2.5289      0.0374      7.3373     78.9248     25.2945
   765.9000      8.0087      2.4997     -0.0142      9.1091     78.4976     25.9417
   766.0000      7.9753      2.4822      0.0020     10.1703     78.2729     26.0337
   766.1000      7.9753      2.4775     -0.0481     10.4526     79.7913     25.8909
   766.2000      7.9753      2.4961     -0.0167      9.3272     82.8997     25.9357
   766.3000      7.9688      2.5246      0.0668      7.5994     83.8922     26.0280
   766.4000      7.9688      2.5290      0.0523      7.3347     81.0729     25.8745
   766.5000      7.9679      2.5059      0.0303      8.7319     81.6415     25.5926
   766.6000      7.9679      2.4875     -0.0338      9.8493     90.5022     25.4199
   766.7000      7.9679      2.4882      0.0288      9.8045    100.3486     25.3772
   766.8000      8.0000      2.4864      0.0025      9.9168    101.0353     25.4160
   766.9000      8.0000      2.4766     -0.0009     10.5105     93.6377     25.5079
   767.0000      8.0054      2.4797     -0.0160     10.3229     86.7619     25.6800
   767.1000      8.0054      2.4872      0.0780      9.8683     85.9459     26.0087
   767.2000      8.0054      2.4730      0.0221     10.7269     90.6530     26.4223
   767.3000      8.0161      2.4456     -0.0043     12.3898     94.5873     26.7785
   767.4000      8.0161      2.4263     -0.0023     13.5598     94.4322     26.9377
   767.5000      8.0193      2.4204     -0.0150     13.9139     92.4772     26.7637
   767.6000      8.0193      2.4241      0.0396     13.6892     89.7655     26.4690
   767.7000      8.0193      2.4285      0.0309     13.4255     88.7039     26.2980
   767.8000      8.0084      2.4336      0.0060     13.1122     90.8261     26.3017
   767.9000      8.0084      2.4519      0.0166     12.0083     90.1224     26.5647
   768.0000      8.0033      2.4838      0.0471     10.0739     85.0259     26.8087
   768.1000      8.0033      2.5149      0.0757      8.1854     80.7555     26.5380
   768.2000      8.0033      2.5392      0.0674      6.7127     78.5676     25.8158
   768.3000      8.0062      2.5646      0.0502      5.1748     77.9089     25.2465
   768.4000      8.0062      2.5869      0.1276      3.8241     77.7855     25.2993
   768.5000      7.9967      2.5875      0.0690      3.7879     77.7141     25.8258
   768.6000      7.9967      2.5701      0.0499      4.8414     77.7999     26.2752
   768.7000      7.9967      2.5531      0.0458      5.8709     77.2390     26.3898
   768.8000      7.9634      2.5374      0.0529      6.8236     75.6606     26.3861
   768.9000      7.9634      2.5186      0.0370      7.9632     74.2602     26.4067
   769.0000      7.9861      2.5054     -0.0085      8.7627     75.5911     26.3096
   769.1000      7.9861      2.5020      0.0102      8.9713     79.6215     26.1436
   769.2000      7.9861      2.5039     -0.0381      8.8558     80.9761     26.2730
   769.3000      8.0034      2.5125      0.0040      8.3308     76.2859     26.7101
   769.4000      8.0034      2.5270      0.0271      7.4518     72.1931     27.0822
   769.5000      8.0096      2.5337      0.0485      7.0471     75.0401     27.3243
   769.6000      8.0096      2.5284     -0.0045      7.3703     77.4426     27.5188
   769.7000      8.0096      2.5323      0.0113      7.1320     71.5337     27.6350
   769.8000      7.9998      2.5597      0.0442      5.4699     65.1782     27.8501
   769.9000      7.9998      2.6026      0.0719      2.8726     67.5662     28.1260
   770.0000      7.9671      2.6478      0.0602      0.1307     74.2506     28.1371
   770.1000      7.9671      2.6826      0.1355     -1.9763     77.9670     27.8924
   770.2000      7.9671      2.6947      0.1244     -2.7113     77.0202     27.6840
   770.3000      7.9853      2.6846      0.0885     -2.0957     72.9463     27.4098
   770.4000      7.9853      2.6599      0.0641     -0.5986     69.2210     26.9437
   770.5000      7.9322      2.6233      0.0379      1.6158     68.7895     26.5059
   770.6000      7.9322      2.5772      0.0230      4.4135     71.9039     26.1322
   770.7000      7.9322      2.5342      0.0010      7.0203     73.9846     25.8344
   770.8000      7.9326      2.5086      0.0230      8.5724     70.7830     25.6973
   770.9000      7.9326      2.5034      0.0250      8.8823     67.2418     25.7320
   771.0000      7.9501      2.5138     -0.0211      8.2536     70.1089     25.8618
   771.1000      7.9501      2.5247      0.0626      7.5965     78.4070     25.8847
   771.2000      7.9501      2.5200      0.0301      7.8795     85.2872     25.7337
   771.3000      7.9808      2.5028      0.0131      8.9239     85.6227     25.5364
   771.4000      7.9808      2.4852     -0.0017      9.9890     81.7794     25.3323
   771.5000      7.9824      2.4697     -0.0067     10.9285     79.0955     25.1006
   771.6000      7.9824      2.4567     -0.0300     11.7178     78.6355     24.8684
   771.7000      7.9824      2.4576     -0.0376     11.6590     80.7468     24.7579
   771.8000      7.9719      2.4707      0.0101     10.8676     84.9888     24.9523
   771.9000      7.9719      2.4807     -0.0200     10.2635     86.4141     25.3867
   772.0000      7.9663      2.4903     -0.0171      9.6789     82.9058     25.7613
   772.1000      7.9663      2.5126      0.0446      8.3290     78.7280     25.8694
   772.2000      7.9663      2.5410      0.1250      6.6062     78.8369     25.7916
   772.3000      7.9636      2.5534      0.1235      5.8543     82.8174     25.8264
   772.4000      7.9636      2.5436      0.1264      6.4488     88.0186     26.0259
   772.5000      7.9569      2.5242      0.0682      7.6269     93.1274     26.2188
   772.6000      7.9569      2.5152      0.0575      8.1673     97.2105     26.3091
   772.7000      7.9569      2.5283      0.0648      7.3775     98.3683     26.2653
   772.8000      7.9927      2.5433      0.1545      6.4684     93.1040     25.9734
   772.9000      7.9927      2.5333      0.1080      7.0707     82.4279     25.5944
   773.0000      7.9920      2.5090      0.0182      8.5484     73.3741     25.5536
   773.1000      7.9920      2.4913      0.0285      9.6176     71.5611     25.8904
   773.2000      7.9920      2.4742      0.0575     10.6523     75.6589     26.2949
   773.3000      7.9551      2.4513      0.0105     12.0433     79.5279     26.4599
   773.4000      7.9551      2.4391     -0.0348     12.7829     78.9199     26.3026
   773.5000      7.9408      2.4460      0.0239     12.3615     74.7426     25.9093
   773.6000      7.9408      2.4580      0.0451     11.6354     72.2528     25.4663
   773.7000      7.9408      2.4721     -0.0242     10.7820     73.8062     25.0036
   773.8000      7.9398      2.4862      0.0424      9.9292     76.2447     24.5422
   773.9000      7.9398      2.4776      0.0159     10.4499     76.9819     24.3850
   774.0000      7.9704      2.4490     -0.0007     12.1832     74.5180     24.6406
   774.1000      7.9704      2.4274      0.0288     13.4909     70.2607     25.0030
   774.2000      7.9704      2.4178     -0.0157     14.0728     67.6920     25.1203
   774.3000      7.9861      2.4105      0.0023     14.5157     66.3754     24.9704
   774.4000      7.9861      2.3958      0.0193     15.4046     63.2868     24.8867
   774.5000      7.9616      2.3680     -0.0496     17.0898     56.4816     25.0978
   774.6000      7.9616      2.3383     -0.0285     18.8894     49.3085     25.2848
   774.7000      7.9616      2.3344     -0.0120     19.1251     47.0743     25.3164
