~Version Information
VERS.                      2.0: CWLS Log ASCII Standard - VERSION 2.0
WRAP.                       NO: One line per depth step
~Well Information Block
STRT.FT               507.5000: 
STOP.FT              2145.0000: 
STEP.FT                 0.2500: 
NULL.                -999.2500: 
COMP.          Petrogulf Corporation: COMPANY
WELL.            Montoya 1-44R: WELL
FLD.           Purgatorie River: FIELD
LOC.           658' FSL & 1052' FWL: LOCATION
CNTY.               Las Animas: COUNTY
SRVC.                         : SERVICE COMPANY
DATE.          Tue Nov 16 02:59:24 2004: LOG DATE
UWI.           05 071 08239 00: UNIQUE WELL ID
STAT.                 Colorado: STATE
~Curve Information Block
DEPT.FT            0 000 00 00: Depth
SP.mV                         : DIL Spontaneous Potential
RILD.Ohm-m                    : DIL Deep Resistivity
RILM.Ohm-m                    : DIL Medium Resistivity
RLL3.Ohm-m                    : DIL Shallow Resistivity
GR.GAPI                       : Gamma Ray
~Parameter Information Block
~A  Depth        SP         RILD        RILM        RLL3         GR     
# ...
  1795.5000     12.1956     12.5902     13.6424     15.1561    152.9464
  1795.7500     11.7665     12.3623     13.0887     13.8124    154.4496
  1796.0000     10.9535     12.1239     12.5883     12.8684    155.8799
  1796.2500      9.9020     11.8785     12.1448     12.2351    156.5025
  1796.5000      8.7446     11.6332     11.7603     11.8323    156.3674
  1796.7500      7.5855     11.3973     11.4355     11.5961    155.2401
  1797.0000      6.5044     11.1799     11.1701     11.4782    152.6953
  1797.2500      5.5506     10.9882     10.9622     11.4408    151.5064
  1797.5000      4.7413     10.8264     10.8088     11.4536    151.9859
  1797.7500      4.0495     10.6950     10.7052     11.4925    153.7834
  1798.0000      3.3995     10.5918     10.6453     11.5385    157.1184
  1798.2500      2.6858     10.5115     10.6213     11.5765    158.5594
  1798.5000      1.8044     10.4473     10.6246     11.5961    158.2468
  1798.7500      0.6911     10.3920     10.6458     11.5923    156.4332
  1799.0000     -0.6534     10.3384     10.6754     11.5667    152.5443
  1799.2500     -2.1540     10.2805     10.7045     11.5278    150.1039
  1799.5000     -3.6821     10.2139     10.7255     11.4910    147.6623
  1799.7500     -5.0852     10.1362     10.7320     11.4740    146.9088
  1800.0000     -6.2251     10.0471     10.7187     11.4911    146.8359
  1800.2500     -7.0046      9.9480     10.6817     11.5463    147.4741
  1800.5000     -7.3797      9.8417     10.6180     11.6285    149.5651
  1800.7500     -7.3635      9.7319     10.5261     11.7125    151.6230
  1801.0000     -7.0103      9.6230     10.4060     11.7658    155.1982
  1801.2500     -6.4051      9.5187     10.2603     11.7588    157.5434
  1801.5000     -5.6448      9.4221     10.0943     11.6749    160.5169
  1801.7500     -4.8197      9.3353      9.9159     11.5145    162.0185
  1802.0000     -4.0045      9.2595      9.7348     11.2937    163.5968
  1802.2500     -3.2551      9.1948      9.5617     11.0381    164.2182
  1802.5000     -2.6153      9.1411      9.4070     10.7760    164.2245
  1802.7500     -2.1264      9.0986      9.2796     10.5337    163.3150
  1803.0000     -1.8358      9.0679      9.1868     10.3345    160.3334
  1803.2500     -1.7900      9.0504      9.1331     10.1996    157.4991
  1803.5000     -2.0180      9.0484      9.1209     10.1471    152.8464
  1803.7500     -2.5126      9.0642      9.1500     10.1912    149.8478
  1804.0000     -3.2178      9.1004      9.2185     10.3381    145.3285
  1804.2500     -4.0335      9.1585      9.3223     10.5826    141.8756
  1804.5000     -4.8350      9.2394      9.4565     10.9063    135.7327
  1804.7500     -5.4948      9.3427      9.6153     11.2778    131.4069
  1805.0000     -5.9082      9.4666      9.7930     11.6575    125.7729
  1805.2500     -6.0010      9.6090      9.9847     12.0041    122.9956
  1805.5000     -5.7357      9.7668     10.1865     12.2828    120.2236
  1805.7500     -5.1128      9.9369     10.3961     12.4729    119.1663
  1806.0000     -4.1694     10.1165     10.6127     12.5720    118.8378
  1806.2500     -2.9808     10.3034     10.8363     12.5966    119.5588
  1806.5000     -1.6563     10.4960     11.0676     12.5776    121.9680
  1806.7500     -0.3241     10.6938     11.3075     12.5512    124.1877
  1807.0000      0.9013     10.8967     11.5562     12.5496    127.5715
  1807.2500      1.9482     11.1053     11.8143     12.5931    129.2030
  1807.5000      2.8002     11.3197     12.0818     12.6878    129.7635
  1807.7500      3.5017     11.5401     12.3592     12.8296    128.7132
  1808.0000      4.1253     11.7660     12.6475     13.0127    125.6922
  1808.2500      4.7377     11.9967     12.9481     13.2389    123.5784
  1808.5000      5.3611     12.2317     13.2634     13.5231    121.6703
  1808.7500      5.9488     12.4712     13.5960     13.8928    121.4852
  1809.0000      6.3851     12.7169     13.9488     14.3810    122.0268
  1809.2500      6.5048     12.9717     14.3247     15.0135    122.1023
  1809.5000      6.1395     13.2402     14.7264     15.7988    120.6871
  1809.7500      5.1626     13.5278     15.1565     16.7215    118.6499
  1810.0000      3.5353     13.8399     15.6170     17.7443    114.9599
  1810.2500      1.3318     14.1814     16.1094     18.8181    112.9082
  1810.5000     -1.2665     14.5558     16.6345     19.8963    111.0285
  1810.7500     -4.0034     14.9645     17.1922     20.9452    110.1975
  1811.0000     -6.5995     15.4072     17.7814     21.9477    108.6236
  1811.2500     -8.8010     15.8818     18.4008     22.8967    107.1648
  1811.5000    -10.4162     16.3852     19.0491     23.7856    104.5775
  1811.7500    -11.3273     16.9144     19.7261     24.6022    102.7121
  1812.0000    -11.4822     17.4671     20.4339     25.3354     99.9515
  1812.2500    -10.8749     18.0418     21.1774     25.9915     98.5352
  1812.5000     -9.5400     18.6382     21.9645     26.6142     97.9513
  1812.7500     -7.5505     19.2552     22.8060     27.2935     98.7773
  1813.0000     -5.0292     19.8899     23.7129     28.1540    101.1687
  1813.2500     -2.1599     20.5361     24.6947     29.3221    102.8250
  1813.5000      0.8206     21.1842     25.7559     30.8849    104.3650
  1813.7500      3.6498     21.8223     26.8929     32.8585    104.4085
  1814.0000      6.0748     22.4385     28.0921     35.1818    102.8411
  1814.2500      7.8945     23.0241     29.3299     37.7392    100.8644
  1814.5000      8.9889     23.5762     30.5747     40.4023     97.0479
  1814.7500      9.3254     24.0986     31.7937     43.0724     94.3211
  1815.0000      8.9498     24.5993     32.9600     45.7073     90.5721
  1815.2500      7.9629     25.0869     34.0600     48.3199     88.4198
  1815.5000      6.5078     25.5659     35.0964     50.9571     85.1315
  1815.7500      4.7487     26.0325     36.0845     53.6691     82.3385
  1816.0000      2.8622     26.4742     37.0458     56.4790     77.0191
  1816.2500      1.0238     26.8724     37.9969     59.3586     73.2511
  1816.5000     -0.6038     27.2074     38.9394     62.2089     68.5186
  1816.7500     -1.8928     27.4657     39.8564     64.8493     66.3454
  1817.0000     -2.7648     27.6463     40.7136     67.0244     64.3822
  1817.2500     -3.2052     27.7625     41.4686     68.4397     63.7034
  1817.5000     -3.2605     27.8385     42.0841     68.8300     63.6447
  1817.7500     -3.0350     27.9046     42.5428     68.0487     64.4879
  1818.0000     -2.6669     27.9873     42.8537     66.1452     67.2824
  1818.2500     -2.3097     28.1030     43.0525     63.3949     69.9416
  1818.5000     -2.0998     28.2532     43.1912     60.2623     74.4228
  1818.7500     -2.1227     28.4242     43.3275     57.2983     77.4270
  1819.0000     -2.3971     28.5902     43.5130     55.0079     81.5401
  1819.2500     -2.8634     28.7200     43.7864     53.7323     83.5313
  1819.5000     -3.4026     28.7877     44.1717     53.5834     84.0005
  1819.7500     -3.8667     28.7796     44.6764     54.4469     82.0217
  1820.0000     -4.1192     28.6997     45.2931     56.0469     76.1189
  1820.2500     -4.0655     28.5667     45.9966     58.0408     71.4706
  1820.5000     -3.6716     28.4077     46.7443     60.1108     65.8756
  1820.7500     -2.9513     28.2476     47.4704     62.0219     63.8807
  1821.0000     -1.9484     28.1027     48.0895     63.6349     63.4024
  1821.2500     -0.7157     27.9747     48.4999     64.8767     64.1582
  1821.5000      0.6993     27.8521     48.5959     65.6875     65.7521
  1821.7500      2.2499     27.7130     48.2915     65.9743     66.6926
  1822.0000      3.8836     27.5338     47.5402     65.5941     67.8690
  1822.2500      5.5218     27.2947     46.3528     64.3824     68.8102
  1822.5000      7.0545     26.9850     44.7995     62.2170     71.2497
  1822.7500      8.3423     26.6049     42.9934     59.0901     73.9728
  1823.0000      9.2390     26.1634     41.0671     55.1570     79.9421
  1823.2500      9.6212     25.6751     39.1454     50.7363     84.8727
