~Version Information
VERS.                      2.0: CWLS Log ASCII Standard - VERSION 2.0
WRAP.                       NO: One line per depth step
~Well Information Block
STRT.FT               710.0000: 
STOP.FT              2921.0000: 
STEP.FT                 0.1000: 
NULL.                -999.2500: 
COMP.          Petrogulf Corporation: COMPANY
WELL.            Montoya 1-41V: WELL
FLD.           Purgatorie River: FIELD
LOC.           610' FNL & 1205' FEL: LOCATION
PROV.                 Colorado: PROVINCE
CNTY.               Las Animas: COUNTRY
SRVC.                Patterson: SERVICE COMPANY
DATE.          Mon Aug 22 07:54:27 2005: LOG DATE
UWI.                          : UNIQUE WELL ID
~Curve Information Block
DEPT.FT            0 000 00 00: Depth
DCAL.in                       : CDL Caliper
RHOB.g/cc                     : CDL Bulk Density
RHOC.g/cc                     : CDL Density Correction
DPOR.pu                       : CDL Density Porosity
GR.GAPI                       : Gamma Ray
NPOR.pu                       : Neutron Porosity
~Parameter Information Block
~A  Depth       DCAL        RHOB        RHOC        DPOR         GR         NPOR    
# ...
  2178.8000      8.0948      2.5152     -0.0173      8.1687    154.2105     28.5547
  2178.9000      8.0948      2.5113      0.0170      8.4048    155.5581     28.3561
  2179.0000      8.0734      2.5314      0.0600      7.1874    158.2773     28.1682
  2179.1000      8.0734      2.5450      0.0628      6.3653    159.5880     27.9249
  2179.2000      8.0734      2.5492      0.0286      6.1114    158.1873     27.6082
  2179.3000      8.0613      2.5636      0.0771      5.2388    154.1203     27.5744
  2179.4000      8.0613      2.5870      0.0719      3.8182    148.8609     27.7985
  2179.5000      8.0671      2.6030      0.0961      2.8463    143.2670     27.8081
  2179.6000      8.0671      2.6011      0.1199      2.9629    136.8831     27.5719
  2179.7000      8.0671      2.5817      0.0960      4.1403    131.8215     27.3364
  2179.8000      8.0508      2.5566      0.0763      5.6615    128.8841     27.1879
  2179.9000      8.0508      2.5424      0.0536      6.5228    126.6121     27.0519
  2180.0000      8.0200      2.5468      0.0386      6.2528    125.3086     26.7719
  2180.1000      8.0200      2.5647      0.0931      5.1696    126.7813     26.3601
  2180.2000      8.0200      2.5814      0.0952      4.1583    131.7831     26.0837
  2180.3000      7.9710      2.5816      0.1046      4.1481    137.0326     26.0165
  2180.4000      7.9710      2.5660      0.0310      5.0898    138.9079     26.0201
  2180.5000      7.9831      2.5546      0.0513      5.7825    138.3567     26.0536
  2180.6000      7.9831      2.5579      0.0669      5.5811    139.0142     26.1408
  2180.7000      7.9831      2.5661      0.0791      5.0824    141.6185     26.1481
  2180.8000      7.9850      2.5691      0.0861      4.9007    143.6827     25.9663
  2180.9000      7.9850      2.5686      0.0841      4.9363    145.7182     25.8847
  2181.0000      7.9628      2.5687      0.0825      4.9257    149.4154     26.1601
  2181.1000      7.9628      2.5697      0.0907      4.8667    152.1771     26.6950
  2181.2000      7.9628      2.5702      0.0813      4.8336    150.4180     27.2814
  2181.3000      7.9688      2.5705      0.0715      4.8190    146.6786     27.6739
  2181.4000      7.9688      2.5697      0.0880      4.8666    146.3214     27.7721
  2181.5000      7.9787      2.5672      0.0745      5.0196    147.9467     27.5881
  2181.6000      7.9787      2.5597      0.0914      5.4753    147.1355     27.2403
  2181.7000      7.9787      2.5445      0.0458      6.3945    144.9346     27.0282
  2181.8000      7.9829      2.5346      0.0405      6.9945    143.9252     27.1175
  2181.9000      7.9829      2.5433      0.0731      6.4665    143.8232     27.2538
  2182.0000      8.0203      2.5648      0.0322      5.1630    142.6887     27.0727
  2182.1000      8.0203      2.5841      0.0989      3.9945    141.0901     26.7346
  2182.2000      8.0203      2.5909      0.0691      3.5817    140.8983     26.8345
  2182.3000      7.9957      2.5904      0.0607      3.6128    140.2875     27.3917
  2182.4000      7.9957      2.5905      0.0623      3.6048    139.5140     27.8455
  2182.5000      8.0033      2.5904      0.0613      3.6142    141.9503     27.9829
  2182.6000      8.0033      2.5857      0.0956      3.8955    146.9130     27.8457
  2182.7000      8.0033      2.5737      0.0684      4.6245    149.9467     27.5570
  2182.8000      8.0207      2.5574      0.0432      5.6100    148.4689     27.5371
  2182.9000      8.0207      2.5454      0.0210      6.3397    144.7360     27.7578
  2183.0000      7.9954      2.5403      0.0268      6.6472    142.0113     27.8485
  2183.1000      7.9954      2.5339      0.0686      7.0344    141.4867     27.8524
  2183.2000      7.9954      2.5262      0.0078      7.5058    144.2604     27.8704
  2183.3000      7.9851      2.5329      0.0519      7.0944    149.8591     27.8886
  2183.4000      7.9851      2.5551      0.0789      5.7533    154.4896     28.1421
  2183.5000      8.0289      2.5710      0.0779      4.7869    155.1154     28.5890
  2183.6000      8.0289      2.5623      0.0664      5.3177    153.0393     28.7452
  2183.7000      8.0289      2.5326      0.0197      7.1124    150.0345     28.6528
  2183.8000      8.0281      2.5062      0.0121      8.7122    146.6173     28.5843
  2183.9000      8.0281      2.5041     -0.0209      8.8395    143.3372     28.3815
  2184.0000      8.0585      2.5260      0.0132      7.5136    140.2556     28.0703
  2184.1000      8.0585      2.5542      0.0385      5.8050    137.5875     27.8329
  2184.2000      8.0585      2.5734      0.0698      4.6416    135.6456     27.6363
  2184.3000      8.0472      2.5792      0.0792      4.2881    134.0920     27.3464
  2184.4000      8.0472      2.5770      0.0423      4.4215    129.5243     26.6708
  2184.5000      8.0359      2.5783      0.0791      4.3428    122.6698     25.8358
  2184.6000      8.0359      2.5890      0.0726      3.6994    120.7551     25.5523
  2184.7000      8.0359      2.6039      0.0978      2.7913    125.6590     25.9119
  2184.8000      7.9772      2.6077      0.1232      2.5627    133.0806     26.4473
  2184.9000      7.9772      2.5944      0.0751      3.3668    139.2403     26.6809
  2185.0000      7.9616      2.5822      0.0211      4.1095    142.5090     26.4080
  2185.1000      7.9616      2.5805      0.0724      4.2109    142.9469     25.9625
  2185.2000      7.9616      2.5726      0.1083      4.6910    141.0990     25.8473
  2185.3000      7.9506      2.5531      0.0742      5.8700    138.3131     26.0125
  2185.4000      7.9506      2.5423      0.0657      6.5275    136.7556     26.1052
  2185.5000      7.9447      2.5508      0.1065      6.0107    137.6931     26.1881
  2185.6000      7.9447      2.5693      0.0943      4.8921    140.8546     26.5337
  2185.7000      7.9447      2.5838      0.1499      4.0121    144.0988     27.1525
  2185.8000      7.9583      2.5853      0.1210      3.9190    146.3334     27.7085
  2185.9000      7.9583      2.5771      0.0827      4.4200    148.1535     27.8316
  2186.0000      7.9633      2.5658      0.0842      5.1045    149.9053     27.6051
  2186.1000      7.9633      2.5500      0.0784      6.0580    152.6924     27.4181
  2186.2000      7.9633      2.5275      0.0736      7.4248    157.0749     27.4082
  2186.3000      7.9859      2.5096      0.0050      8.5117    159.0719     27.4128
  2186.4000      7.9859      2.5133      0.0288      8.2830    156.2747     27.2438
  2186.5000      7.9951      2.5331      0.0466      7.0869    151.5320     27.0549
  2186.6000      7.9951      2.5478      0.0824      6.1950    146.2283     27.1419
  2186.7000      7.9951      2.5488      0.0605      6.1350    141.1067     27.3469
  2186.8000      8.0229      2.5425      0.0688      6.5180    138.4136     27.3546
  2186.9000      8.0229      2.5402      0.0401      6.6516    136.3314     27.3355
  2187.0000      8.0375      2.5479      0.0340      6.1869    132.0659     27.3514
  2187.1000      8.0375      2.5579      0.0625      5.5824    126.6136     27.2028
  2187.2000      8.0375      2.5667      0.0232      5.0464    121.1179     26.9729
  2187.3000      8.0534      2.5784      0.0850      4.3385    114.8943     26.8000
  2187.4000      8.0534      2.5855      0.0464      3.9115    105.5884     26.8185
  2187.5000      8.0627      2.5777      0.0875      4.3837     93.4535     26.9055
  2187.6000      8.0627      2.5586      0.0313      5.5389     85.3774     26.6224
  2187.7000      8.0627      2.5485     -0.0152      6.1511     84.7768     25.9831
  2187.8000      8.0346      2.5550      0.0589      5.7596     84.7671     25.3690
  2187.9000      8.0346      2.5599      0.0617      5.4603     78.4496     24.7678
  2188.0000      8.0378      2.5537     -0.0200      5.8377     66.0536     24.0660
  2188.1000      8.0378      2.5445      0.0250      6.3949     54.5207     23.3675
  2188.2000      8.0378      2.5342      0.0456      7.0169     50.2472     22.8020
  2188.3000      7.9987      2.5204      0.0293      7.8526     50.9886     22.4252
