~Version Information
VERS.                      2.0: CWLS Log ASCII Standard - VERSION 2.0
WRAP.                       NO: One line per depth step
~Well Information Block
STRT.FT               -12.3000: 
STOP.FT              1768.7000: 
STEP.FT                 0.1000: 
NULL.                -999.2500: 
COMP.          Petrogulf Corporation: COMPANY
WELL.          Alexander 9-43R: WELL
FLD.           Purgatorie River: FIELD
LOC.           1652' FSL & 1049' FEL--: LOCATION
CNTY.               Las Animas: COUNTY
SRVC.                         : SERVICE COMPANY
DATE.          Tue Sep 28 14:27:54 2004: LOG DATE
UWI.                          : UNIQUE WELL ID
STAT.                       CO: STATE
~Curve Information Block
DEPT.FT            0 000 00 00: Depth
GR.GAPI                       : Gamma Ray
CCL.                          : Casing Collar Locator
TT3.usec                      : CBL 3' Travel Time
AMP3.mV                       : CBL 3' Amplitude
~Parameter Information Block
~A  Depth        GR         CCL         TT3         AMP3    
# ...
   577.3000    129.4115      0.0000    807.1141     13.8575
   577.4000    129.4115      0.0000    807.1141     13.8575
   577.5000    144.0827      0.0000    794.6320     14.1398
   577.6000    144.0827      0.0000    794.6320     14.1398
   577.7000    144.0827      0.0000    794.6320     14.1398
   577.8000    153.3781      0.0000    780.1586     14.3927
   577.9000    153.3781      0.0000    780.1586     14.3927
   578.0000    156.4925      0.0000    768.0651     14.5611
   578.1000    156.4925      0.0000    768.0651     14.5611
   578.2000    156.4925      0.0000    768.0651     14.5611
   578.3000    154.6329      0.0000    761.1656     14.5877
   578.4000    154.6329      0.0000    761.1656     14.5877
   578.5000    150.0549      0.0000    760.5914     14.4542
   578.6000    150.0549      0.0000    760.5914     14.4542
   578.7000    150.0549      0.0000    760.5914     14.4542
   578.8000    145.3529      0.0000    765.7579     14.1974
   578.9000    145.3529      0.0000    765.7579     14.1974
   579.0000    142.5402      0.0000    774.5622     13.8864
   579.1000    142.5402      0.0000    774.5622     13.8864
   579.2000    142.5402      0.0000    774.5622     13.8864
   579.3000    142.1075      0.0000    784.0675     13.5862
   579.4000    142.1075      0.0000    784.0675     13.5862
   579.5000    143.1944      0.0000    791.4263     13.3356
   579.6000    143.1944      0.0000    791.4263     13.3356
   579.7000    143.1944      0.0000    791.4263     13.3356
   579.8000    144.7243      0.0000    794.7599     13.1532
   579.9000    144.7243      0.0000    794.7599     13.1532
   580.0000    146.0683      0.0000    793.7697     13.0585
   580.1000    146.0683      0.0000    793.7697     13.0585
   580.2000    146.0683      0.0000    793.7697     13.0585
   580.3000    146.9736      0.0000    789.8499     13.0809
   580.4000    146.9736      0.0000    789.8499     13.0809
   580.5000    147.3779      0.0000    785.2963     13.2471
   580.6000    147.3779      0.0000    785.2963     13.2471
   580.7000    147.3779      0.0000    785.2963     13.2471
   580.8000    147.0760      0.0000    781.6176     13.5491
   580.9000    147.0760      0.0000    781.6176     13.5491
   581.0000    145.4482      0.0000    778.5306     13.9192
   581.1000    145.4482      0.0000    778.5306     13.9192
   581.2000    145.4482      0.0000    778.5306     13.9192
   581.3000    142.0607      0.0000    775.3185     14.2521
   581.4000    142.0607      0.0000    775.3185     14.2521
   581.5000    137.7128      0.0000    772.9373     14.4747
   581.6000    137.7128      0.0000    772.9373     14.4747
   581.7000    137.7128      0.0000    772.9373     14.4747
   581.8000    134.2807      0.0000    773.5023     14.5881
   581.9000    134.2807      0.0000    773.5023     14.5881
   582.0000    133.1178      0.0000    777.1830     14.6328
   582.1000    133.1178      0.0000    777.1830     14.6328
   582.2000    133.1178      0.0000    777.1830     14.6328
   582.3000    133.9682      0.0000    780.0173     14.6325
   582.4000    133.9682      0.0000    780.0173     14.6325
   582.5000    135.5997      0.0000    774.8085     14.5857
   582.6000    135.5997      0.0000    774.8085     14.5857
   582.7000    135.5997      0.0000    774.8085     14.5857
   582.8000    136.9840      0.0000    754.4680     14.4816
   582.9000    136.9840      0.0000    754.4680     14.4816
   583.0000    137.5527      0.0000    717.1916     14.2937
   583.1000    137.5527      0.0000    717.1916     14.2937
   583.2000    137.5527      0.0000    717.1916     14.2937
   583.3000    136.9008      0.0000    671.8842     13.9725
   583.4000    136.9008      0.0000    671.8842     13.9725
   583.5000    135.0930      0.0000    637.7207     13.4788
   583.6000    135.0930      0.0000    637.7207     13.4788
   583.7000    135.0930      0.0000    637.7207     13.4788
   583.8000    133.0948      0.0000    632.7587     12.8257
   583.9000    133.0948      0.0000    632.7587     12.8257
   584.0000    132.0461      0.0000    659.8834     12.0724
   584.1000    132.0461      0.0000    659.8834     12.0724
   584.2000    132.0461      0.0000    659.8834     12.0724
   584.3000    131.9814      0.0000    705.7385     11.2895
   584.4000    131.9814      0.0000    705.7385     11.2895
   584.5000    131.6466      0.0000    753.2158     10.5509
   584.6000    131.6466      0.0000    753.2158     10.5509
   584.7000    131.6466      0.0000    753.2158     10.5509
   584.8000    129.2886      0.0000    792.0223      9.9406
   584.9000    129.2886      0.0000    792.0223      9.9406
   585.0000    123.6141      0.0000    819.0472      9.5209
   585.1000    123.6141      0.0000    819.0472      9.5209
   585.2000    123.6141      0.0000    819.0472      9.5209
   585.3000    114.9005     -2.0000    834.6227      9.3014
   585.4000    114.9005      2.0000    834.6227      9.3014
   585.5000    105.5883      0.0000    840.7556      9.2647
   585.6000    105.5883      0.0000    840.7556      9.2647
   585.7000    105.5883      0.0000    840.7556      9.2647
   585.8000     99.1692      0.0000    840.6071      9.4079
   585.9000     99.1692      0.0000    840.6071      9.4079
   586.0000     98.1749      0.0000    836.9477      9.7471
   586.1000     98.1749      0.0000    836.9477      9.7471
   586.2000     98.1749      0.0000    836.9477      9.7471
   586.3000    103.1723      0.0000    829.5932     10.2880
   586.4000    103.1723      0.0000    829.5932     10.2880
   586.5000    112.9229      0.0000    814.9735     10.9761
   586.6000    112.9229      0.0000    814.9735     10.9761
   586.7000    112.9229      0.0000    814.9735     10.9761
   586.8000    124.8202      0.0000    790.4593     11.6552
   586.9000    124.8202      0.0000    790.4593     11.6552
   587.0000    135.6433      0.0000    760.2421     12.1207
   587.1000    135.6433      0.0000    760.2421     12.1207
   587.2000    135.6433      0.0000    760.2421     12.1207
   587.3000    142.8863      0.0000    735.1803     12.2766
   587.4000    142.8863      0.0000    735.1803     12.2766
   587.5000    145.6796      0.0000    724.4127     12.2188
   587.6000    145.6796      0.0000    724.4127     12.2188
   587.7000    145.6796      0.0000    724.4127     12.2188
   587.8000    144.5031      0.0000    727.4579     12.1321
   587.9000    144.5031      0.0000    727.4579     12.1321
   588.0000    140.4739      0.0000    736.0784     12.1416
   588.1000    140.4739      0.0000    736.0784     12.1416
   588.2000    140.4739      0.0000    736.0784     12.1416
   588.3000    134.9345      0.0000    742.4662     12.2823
   588.4000    134.9345      0.0000    742.4662     12.2823
   588.5000    129.1173      0.0000    743.2844     12.5481
   588.6000    129.1173      0.0000    743.2844     12.5481
   588.7000    129.1173      0.0000    743.2844     12.5481
   588.8000    123.8802      0.0000    737.0532     12.9253
   588.9000    123.8802      0.0000    737.0532     12.9253
   589.0000    119.6588      0.0000    721.0400     13.3890
   589.1000    119.6588      0.0000    721.0400     13.3890
   589.2000    119.6588      0.0000    721.0400     13.3890
   589.3000    116.3931      0.0000    692.2946     13.8903
   589.4000    116.3931      0.0000    692.2946     13.8903
   589.5000    113.5904      0.0000    651.4305     14.3536
   589.6000    113.5904      0.0000    651.4305     14.3536
   589.7000    113.5904      0.0000    651.4305     14.3536
   589.8000    110.8592      0.0000    605.3489     14.6991
   589.9000    110.8592      0.0000    605.3489     14.6991
   590.0000    108.4073      0.0000    566.6639     14.8779
   590.1000    108.4073      0.0000    566.6639     14.8779
   590.2000    108.4073      0.0000    566.6639     14.8779
   590.3000    106.7054      0.0000    549.1898     14.8847
   590.4000    106.7054      0.0000    549.1898     14.8847
   590.5000    105.7266      0.0000    561.0176     14.7359
   590.6000    105.7266      0.0000    561.0176     14.7359
