~Version Information
VERS.                      2.0: CWLS Log ASCII Standard - VERSION 2.0
WRAP.                       NO: One line per depth step
~Well Information Block
STRT.FT               741.2000: 
STOP.FT              2461.0000: 
STEP.FT                 0.1000: 
NULL.                -999.2500: 
COMP.          Petrogulf Corporation: COMPANY
WELL.           Montoya 12-44V: WELL
FLD.           Purgatorie River: FIELD
LOC.           698' FSL & 599' FEL: LOCATION
CNTY.               Las Animas: COUNTY
SRVC.                         : SERVICE COMPANY
DATE.          Mon Aug 09 06:09:04 2004: LOG DATE
UWI.           05 071 08094 00: UNIQUE WELL ID
STAT.                 Colorado: STATE
~Curve Information Block
DEPT.FT            0 000 00 00: Depth
DCAL.in                       : CDL Caliper
RHOB.g/cc                     : CDL Bulk Density
RHOC.g/cc                     : CDL Density Correction
DPOR.pu                       : CDL Density Porosity
GR.GAPI                       : Gamma Ray
NPOR.pu                       : Neutron Porosity
~Parameter Information Block
~A  Depth       DCAL        RHOB        RHOC        DPOR         GR         NPOR    
# ...
  2450.0000      7.5373      2.5396      0.0804      6.6894   -999.2500   -999.2500
  2450.1000      7.5373      2.5252      0.0185      7.5617   -999.2500   -999.2500
  2450.2000      7.5373      2.5313      0.0400      7.1946   -999.2500   -999.2500
  2450.3000      7.5799      2.5504      0.0578      6.0341   -999.2500   -999.2500
  2450.4000      7.5799      2.5575      0.0844      5.6044   -999.2500   -999.2500
  2450.5000      7.5873      2.5437      0.0442      6.4437   -999.2500   -999.2500
  2450.6000      7.5873      2.5236      0.0587      7.6593   -999.2500   -999.2500
  2450.7000      7.5873      2.5083      0.0639      8.5870   -999.2500   -999.2500
  2450.8000      7.5886      2.4963      0.0335      9.3138   -999.2500   -999.2500
  2450.9000      7.5886      2.4798      0.0623     10.3163   -999.2500   -999.2500
  2451.0000      7.5977      2.4517      0.0413     12.0208   -999.2500   -999.2500
  2451.1000      7.5977      2.4245      0.0008     13.6691   -999.2500   -999.2500
  2451.2000      7.5977      2.4152      0.0554     14.2327   -999.2500   -999.2500
  2451.3000      7.6068      2.4199      0.0425     13.9467   -999.2500   -999.2500
  2451.4000      7.6068      2.4284      0.0536     13.4330   -999.2500   -999.2500
  2451.5000      7.6118      2.4349      0.0808     13.0391   -999.2500   -999.2500
  2451.6000      7.6118      2.4388      0.0678     12.8009   -999.2500   -999.2500
  2451.7000      7.6118      2.4388      0.1054     12.7995   -999.2500   -999.2500
  2451.8000      7.6116      2.4298      0.0406     13.3439   -999.2500   -999.2500
  2451.9000      7.6116      2.4177      0.0549     14.0758   -999.2500   -999.2500
  2452.0000      7.6073      2.4116      0.0336     14.4500   -999.2500   -999.2500
  2452.1000      7.6073      2.4123      0.0538     14.4090   -999.2500   -999.2500
  2452.2000      7.6073      2.4189      0.0639     14.0042   -999.2500   -999.2500
  2452.3000      7.5922      2.4258      0.1057     13.5897   -999.2500   -999.2500
  2452.4000      7.5922      2.4265      0.0854     13.5485   -999.2500   -999.2500
  2452.5000      7.5923      2.4295      0.0738     13.3627   -999.2500   -999.2500
  2452.6000      7.5923      2.4437      0.0682     12.5003   -999.2500   -999.2500
  2452.7000      7.5923      2.4624      0.0939     11.3717   -999.2500   -999.2500
  2452.8000      7.5895      2.4747      0.1208     10.6244   -999.2500   -999.2500
  2452.9000      7.5895      2.4795      0.0823     10.3304   -999.2500   -999.2500
  2453.0000      7.5904      2.4814      0.0939     10.2203   -999.2500   -999.2500
  2453.1000      7.5904      2.4752      0.0875     10.5939   -999.2500   -999.2500
  2453.2000      7.5904      2.4531      0.0907     11.9333   -999.2500   -999.2500
  2453.3000      7.5894      2.4245      0.0633     13.6637   -999.2500   -999.2500
  2453.4000      7.5894      2.4134      0.0364     14.3374   -999.2500   -999.2500
  2453.5000      7.5699      2.4280      0.0767     13.4538   -999.2500   -999.2500
  2453.6000      7.5699      2.4530      0.0994     11.9422   -999.2500   -999.2500
  2453.7000      7.5699      2.4741      0.0874     10.6582   -999.2500   -999.2500
  2453.8000      7.5641      2.4907      0.0839      9.6526   -999.2500   -999.2500
  2453.9000      7.5641      2.5083      0.0998      8.5876   -999.2500   -999.2500
  2454.0000      7.5647      2.5251      0.1344      7.5675   -999.2500   -999.2500
  2454.1000      7.5647      2.5311      0.1251      7.2058   -999.2500   -999.2500
  2454.2000      7.5647      2.5249      0.1226      7.5817   -999.2500   -999.2500
  2454.3000      7.5672      2.5135      0.1029      8.2725   -999.2500   -999.2500
  2454.4000      7.5672      2.4987      0.1210      9.1683   -999.2500   -999.2500
  2454.5000      7.5732      2.4784      0.0659     10.3987   -999.2500   -999.2500
  2454.6000      7.5732      2.4547      0.0746     11.8342   -999.2500   -999.2500
  2454.7000      7.5732      2.4298      0.0562     13.3459   -999.2500   -999.2500
  2454.8000      7.5830      2.4108      0.0371     14.4989   -999.2500   -999.2500
  2454.9000      7.5830      2.4119      0.0360     14.4328   -999.2500   -999.2500
  2455.0000      7.5801      2.4342      0.0696     13.0817   -999.2500   -999.2500
  2455.1000      7.5801      2.4617      0.0478     11.4134   -999.2500   -999.2500
  2455.2000      7.5801      2.4802      0.1031     10.2907   -999.2500   -999.2500
  2455.3000      7.5677      2.4843      0.0838     10.0437   -999.2500   -999.2500
  2455.4000      7.5677      2.4785      0.0942     10.3939   -999.2500   -999.2500
  2455.5000      7.5674      2.4729      0.0592     10.7319   -999.2500   -999.2500
  2455.6000      7.5674      2.4701      0.0987     10.9021   -999.2500   -999.2500
  2455.7000      7.5674      2.4652      0.0664     11.1985   -999.2500   -999.2500
  2455.8000      7.5689      2.4627      0.0579     11.3497   -999.2500   -999.2500
  2455.9000      7.5689      2.4672      0.0877     11.0767   -999.2500   -999.2500
  2456.0000      7.5688      2.4727      0.0406     10.7454   -999.2500   -999.2500
  2456.1000      7.5688      2.4757      0.0766     10.5640   -999.2500   -999.2500
  2456.2000      7.5688      2.4758      0.0618     10.5574   -999.2500   -999.2500
  2456.3000      7.5688      2.4773      0.0421     10.4647   -999.2500   -999.2500
  2456.4000      7.5688      2.4808      0.0786     10.2560   -999.2500   -999.2500
  2456.5000      7.5698      2.4757      0.0850     10.5628   -999.2500   -999.2500
  2456.6000      7.5698      2.4660      0.0399     11.1501   -999.2500   -999.2500
  2456.7000      7.5698      2.4677      0.0722     11.0474   -999.2500   -999.2500
  2456.8000      7.5712      2.4769      0.0750     10.4889   -999.2500   -999.2500
  2456.9000      7.5712      2.4845      0.0459     10.0285   -999.2500   -999.2500
  2457.0000      7.5725      2.4941      0.0683      9.4473   -999.2500   -999.2500
  2457.1000      7.5725      2.5018      0.0935      8.9841   -999.2500   -999.2500
  2457.2000      7.5725      2.4988      0.0669      9.1654   -999.2500   -999.2500
  2457.3000      7.5875      2.4892      0.0558      9.7439   -999.2500   -999.2500
  2457.4000      7.5875      2.4823      0.0702     10.1653   -999.2500   -999.2500
  2457.5000      7.5784      2.4821      0.0633     10.1786   -999.2500   -999.2500
  2457.6000      7.5784      2.4877      0.0681      9.8371   -999.2500   -999.2500
  2457.7000      7.5784      2.4888      0.0805      9.7704   -999.2500   -999.2500
  2457.8000      7.5670      2.4722      0.0844     10.7746   -999.2500   -999.2500
  2457.9000      7.5670      2.4459      0.0118     12.3676   -999.2500   -999.2500
  2458.0000      7.5259      2.4335      0.0423     13.1229   -999.2500   -999.2500
  2458.1000      7.5259      2.4412      0.0491     12.6565   -999.2500   -999.2500
  2458.2000      7.5259      2.4565      0.0575     11.7297   -999.2500   -999.2500
  2458.3000      7.5023      2.4642      0.0614     11.2611   -999.2500   -999.2500
  2458.4000      7.5023      2.4545      0.0668     11.8502   -999.2500   -999.2500
  2458.5000      7.4514      2.4547      0.0795     11.8346   -999.2500   -999.2500
  2458.6000      7.4514      2.6305      0.0664      1.1829   -999.2500   -999.2500
  2458.7000      7.4514      3.2716      0.0558    -37.6732   -999.2500   -999.2500
  2458.8000      7.1593      4.1477      0.5167    -90.7687   -999.2500   -999.2500
  2458.9000      7.1593      4.0320      1.7683    -83.7549   -999.2500   -999.2500
  2459.0000      5.7389      2.4685      0.0000     10.9984   -999.2500   -999.2500
  2459.1000      5.7389      0.8671   -999.2500    108.0563   -999.2500   -999.2500
  2459.2000      5.7389      0.1674   -999.2500    150.4584   -999.2500   -999.2500
  2459.3000      0.7568      0.0174   -999.2500    159.5509   -999.2500   -999.2500
  2459.4000      0.7568      0.0010   -999.2500    160.5483   -999.2500   -999.2500
  2459.5000      0.0957      0.0000   -999.2500    160.6061   -999.2500   -999.2500
