~Version Information
VERS.                      2.0: CWLS Log ASCII Standard - VERSION 2.0
WRAP.                       NO: One line per depth step
~Well Information Block
STRT.FT               533.0000: 
STOP.FT              1578.0000: 
STEP.FT                 0.2500: 
NULL.                -999.2500: 
COMP.          Pioneer Natural Resources: COMPANY
WELL.           Telna 24-22 Tr: WELL
FLD.           Purgatoire River: FIELD
LOC.           748' FSL & 1931' FWL: LOCATION
PROV.                 Colorado: PROVINCE
CNTY.               Las Animas: COUNTRY
SRVC.                Patterson: SERVICE COMPANY
DATE.          Sun May 01 14:14:42 2005: LOG DATE
UWI.           05 071 08304 00: UNIQUE WELL ID
~Curve Information Block
DEPT.FT            0 000 00 00: Depth
SN.Ohm-m                      : IEL Short Normal
SP.mV                         : IEL Spontaneous Potential
DIR.Ohm-m                     : IEL Induction Resistivity
GR.GAPI                       : Gamma Ray
~Parameter Information Block
~A  Depth        SN          SP         DIR          GR     
# ...
   935.0000      2.0309   -299.8981 100000.0000     68.2758
   935.2500      2.0113   -299.9823 100000.0000     72.9739
   935.5000      1.9982   -299.9981 100000.0000     80.4129
   935.7500      1.9818   -300.0002 100000.0000     84.0327
   936.0000      1.9655   -300.0002 100000.0000     85.3348
   936.2500      1.9610   -300.0002 100000.0000     83.1346
   936.5000      1.9755   -300.0002 100000.0000     76.5944
   936.7500      2.0038   -300.0002 100000.0000     71.6282
   937.0000      2.0288   -300.0002 100000.0000     65.8510
   937.2500      2.0373   -300.0002 100000.0000     63.9166
   937.5000      2.0252   -300.0002 100000.0000     63.8408
   937.7500      1.9920   -299.9977 100000.0000     65.1400
   938.0000      1.9643   -299.9831 100000.0000     67.9349
   938.2500      2.0083   -299.9084 100000.0000     69.6976
   938.5000      2.1682   -299.6199 100000.0000     71.3539
   938.7500      2.3981   -298.7454 100000.0000     71.5548
   939.0000      2.5935   -296.6601 100000.0000     70.3980
   939.2500      2.6907   -292.6787 100000.0000     68.7800
   939.5000      2.6990   -286.4201 100000.0000     65.8396
   939.7500      2.6628   -277.9627 100000.0000     64.2830
   940.0000      2.6413   -267.6152 100000.0000     63.7869
   940.2500      2.6870   -255.6642 100000.0000     64.9947
   940.5000      2.7689   -242.3976     29.2580     68.7004
   940.7500      2.7568   -228.1970      3.7038     71.8142
   941.0000      2.5813   -213.4895      1.4667     76.2395
   941.2500      2.3624   -198.7074      0.7864     78.4240
   941.5000      2.2791   -184.3208      0.5002     80.0016
   941.7500      2.3512   -170.7440      0.3627     80.0200
   942.0000      2.4461   -158.0915      0.2984     79.2324
   942.2500      2.4621   -146.0446      0.2784     78.6243
   942.5000      2.4389   -133.9673      0.2920     78.1660
   942.7500      2.5167   -121.1702      0.3381     78.4754
   943.0000      2.7963   -107.2796      0.4224     80.3767
   943.2500      3.3108    -92.5841      0.5562     82.6880
   943.5000      4.2323    -78.0331      0.7571     87.2345
   943.7500      5.9935    -64.7027      1.0488     90.4890
   944.0000      8.9722    -53.1899      1.4588     95.0149
   944.2500     12.9561    -43.5019      2.0204     97.5481
   944.5000     17.1319    -35.3863      2.7963    100.0184
   944.7500     20.7332    -28.6163      3.9456    100.2523
   945.0000     23.4721    -23.0285      5.8968     98.0892
   945.2500     25.3981    -18.4630      9.9846     95.5028
   945.5000     26.6480    -14.7462     22.6429     91.8339
   945.7500     27.3394    -11.7099    335.5822     90.5886
   946.0000     27.5894     -9.2104 100000.0000     91.1964
   946.2500     27.5673     -7.1381 100000.0000     92.8327
   946.5000     27.4448     -5.4201 100000.0000     95.5354
   946.7500     27.2876     -4.0155 100000.0000     96.6206
   947.0000     27.0498     -2.8989 100000.0000     96.6741
   947.2500     26.6833     -2.0353 100000.0000     96.0129
   947.5000     26.2267     -1.3623 100000.0000     95.0520
   947.7500     25.7798     -0.7927 100000.0000     94.9809
   948.0000     25.3920     -0.2382 100000.0000     96.3232
   948.2500     25.0260      0.3626 100000.0000     98.2860
   948.5000     24.6167      1.0308 100000.0000    102.5622
   948.7500     24.1031      1.7527 100000.0000    106.0347
   949.0000     23.4785      2.4977 100000.0000    111.8757
   949.2500     22.8427      3.2339 100000.0000    115.9854
   949.5000     22.3073      3.9397 100000.0000    121.4306
   949.7500     21.8808      4.6081 100000.0000    123.5448
   950.0000     21.4996      5.2476    706.7702    122.9153
   950.2500     21.1397      5.8738     67.2751    119.8451
   950.5000     20.8594      6.4966     37.0966    112.5482
   950.7500     20.7383      7.1085     26.7054    106.9797
   951.0000     20.7969      7.6847     21.5239     98.9122
   951.2500     20.9566      8.1996     18.4588     94.0575
   951.5000     21.0388      8.6473     16.4831     88.0302
   951.7500     20.8400      9.0483     15.1644     85.4842
   952.0000     20.2588      9.4354     14.2867     85.4929
   952.2500     19.3530      9.8284     13.7316     88.7232
   952.5000     18.2809     10.2193     13.4336     97.8981
   952.7500     17.1796     10.5791     13.3531    105.5685
   953.0000     16.0878     10.8796     13.4518    116.5590
   953.2500     14.9976     11.1095     13.6749    122.3906
   953.5000     13.9575     11.2744     13.9475    128.4835
   953.7500     13.0875     11.3828     14.1898    131.1904
   954.0000     12.4990     11.4362     14.3460    134.0031
   954.2500     12.2147     11.4315     14.4074    135.1545
   954.5000     12.1482     11.3715     14.4102    135.6837
   954.7500     12.1580     11.2715     14.4100    135.4704
   955.0000     12.1388     11.1564     14.4507    135.3947
   955.2500     12.0740     11.0506     14.5486    136.1382
   955.5000     12.0217     10.9660     14.6960    138.7726
   955.7500     12.0572     10.8955     14.8771    141.1768
   956.0000     12.2036     10.8168     15.0802    144.2537
   956.2500     12.4124     10.7057     15.2972    144.8327
   956.5000     12.6157     10.5476     15.5145    142.3600
   956.7500     12.7839     10.3417     15.7059    138.7870
   957.0000     12.9453     10.0974     15.8378    132.1278
   957.2500     13.1763      9.8294     15.8822    127.6071
   957.5000     13.5451      9.5542     15.8286    121.4108
   957.7500     14.0212      9.2904     15.6858    118.1402
   958.0000     14.4595      9.0600     15.4740    115.8106
   958.2500     14.6959      8.8835     15.2132    116.5622
   958.5000     14.6490      8.7711     14.9149    120.8922
   958.7500     14.3267      8.7187     14.5813    125.0587
   959.0000     13.7788      8.7138     14.2116    131.4521
   959.2500     13.0806      8.7462     13.8126    134.9944
   959.5000     12.3319      8.8125     13.4050    138.2395
   959.7500     11.6315      8.9131     13.0185    138.5580
   960.0000     11.0389      9.0434     12.6788    135.7502
   960.2500     10.5552      9.1851     12.3954    131.8320
   960.5000     10.1416      9.3099     12.1591    124.3214
   960.7500      9.7607      9.3943     11.9508    119.5424
   961.0000      9.4154      9.4327     11.7535    114.4974
   961.2500      9.1570      9.4340     11.5610    112.7512
   961.5000      9.0340      9.4069     11.3799    111.8817
   961.7500      9.0477      9.3512     11.2252    112.1319
   962.0000      9.1725      9.2608     11.1149    113.6584
   962.2500      9.3758      9.1327     11.0655    115.3723
   962.5000      9.6199      8.9726     11.0873    118.4763
   962.7500      9.8796      8.7915     11.1806    120.4450
   963.0000     10.1437      8.5995     11.3346    122.3875
   963.2500     10.3995      8.4015     11.5321    122.5619
   963.5000     10.6291      8.2002     11.7566    120.8201
   963.7500     10.8226      8.0020     11.9969    118.5645
   964.0000     10.9991      7.8195     12.2468    114.7605
   964.2500     11.2030      7.6694     12.4995    112.9384
   964.5000     11.4673      7.5673     12.7435    112.6736
   964.7500     11.7854      7.5205     12.9608    114.3273
   965.0000     12.1209      7.5220     13.1289    118.6105
   965.2500     12.4290      7.5505     13.2277    121.6975
   965.5000     12.6616      7.5791     13.2469    125.2191
   965.7500     12.7784      7.5890     13.1913    126.4613
   966.0000     12.7704      7.5771     13.0791    126.8979
   966.2500     12.6581      7.5495     12.9345    126.6296
   966.5000     12.4583      7.5063     12.7786    126.0996
   966.7500     12.1667      7.4327     12.6244    126.0044
   967.0000     11.7843      7.3060     12.4748    126.5715
   967.2500     11.3414      7.1119     12.3254    127.4380
   967.5000     10.8894      6.8558     12.1684    129.3456
   967.7500     10.4906      6.5615     11.9981    130.8842
   968.0000     10.2003      6.2577     11.8142    133.1356
   968.2500     10.0275      5.9621     11.6217    134.2464
