~Version Information
VERS.                      2.0: CWLS Log ASCII Standard - VERSION 2.0
WRAP.                       NO: One line per depth step
~Well Information Block
STRT.FT               375.0000: 
STOP.FT              2795.7000: 
STEP.FT                 0.1000: 
NULL.                -999.2500: 
COMP.          Pioneer Natural Resources: COMPANY
WELL.              Getem 21-23: WELL
FLD.           Purgatoire River: FIELD
LOC.           2623' FWL & 790' FNL--: LOCATION
PROV.                 Colorado: PROVINCE
CNTY.               Las Animas: COUNTRY
SRVC.                Patterson: SERVICE COMPANY
DATE.          Mon Jun 20 07:26:21 2005: LOG DATE
UWI.           05 071 08411 00: UNIQUE WELL ID
~Curve Information Block
DEPT.FT            0 000 00 00: Depth
DCAL.in                       : CDL Caliper
RHOB.g/cc                     : CDL Bulk Density
RHOC.g/cc                     : CDL Density Correction
DPOR.pu                       : CDL Density Porosity
NPOR.pu                       : Neutron Porosity
GR.GAPI                       : Gamma Ray
~Parameter Information Block
~A  Depth       DCAL        RHOB        RHOC        DPOR        NPOR         GR     
# ...
  2285.4000      8.1573      2.5071      0.0605      8.6616     26.9509    106.2776
  2285.5000      8.1508      2.5306      0.0756      7.2373     27.5174    104.1753
  2285.6000      8.1508      2.5546      0.1956      5.7790     27.8191    105.2922
  2285.7000      8.1508      2.5526      0.2005      5.9002     27.5588    110.3884
  2285.8000      8.1543      2.5321      0.1340      7.1463     27.2137    116.4171
  2285.9000      8.1543      2.5207      0.2124      7.8371     27.1616    119.6837
  2286.0000      8.1638      2.5156      0.2691      8.1471     27.2170    120.9679
  2286.1000      8.1638      2.4971      0.1989      9.2637     27.1549    121.5495
  2286.2000      8.1638      2.4656      0.1383     11.1763     27.0742    121.2497
  2286.3000      8.1914      2.4376      0.0822     12.8734     27.1827    120.3315
  2286.4000      8.1914      2.4189      0.1009     14.0052     27.2656    119.5375
  2286.5000      8.2401      2.4018      0.0531     15.0426     27.0295    119.7960
  2286.6000      8.2401      2.3937      0.0358     15.5317     26.6409    120.1950
  2286.7000      8.2401      2.4013      0.1367     15.0751     26.3032    119.2188
  2286.8000      8.2831      2.4038      0.1549     14.9182     26.0125    116.5935
  2286.9000      8.2831      2.3938      0.1421     15.5297     25.6765    113.4617
  2287.0000      8.2996      2.3912      0.1372     15.6877     25.0559    113.6264
  2287.1000      8.2996      2.3951      0.2751     15.4477     24.0941    119.1198
  2287.2000      8.2996      2.3756      0.2427     16.6302     23.3961    125.1779
  2287.3000      8.2934      2.3217      0.1841     19.8989     23.3984    127.1334
  2287.4000      8.2934      2.2524      0.1302     24.0972     23.5071    128.1958
  2287.5000      8.2948      2.1956      0.1198     27.5417     23.0831    131.4457
  2287.6000      8.2948      2.1631      0.1689     29.5115     22.2272    133.7499
  2287.7000      8.2948      2.1383      0.2125     31.0146     21.3679    134.5596
  2287.8000      8.2711      2.1085      0.1941     32.8174     20.9389    137.5765
  2287.9000      8.2711      2.0895      0.2574     33.9668     20.9573    140.9914
  2288.0000      8.1632      2.1039      0.3026     33.0948     21.0594    140.7948
  2288.1000      8.1632      2.1526      0.4317     30.1427     21.1398    138.3878
  2288.2000      8.1632      2.2042      0.5011     27.0185     21.2537    136.3509
  2288.3000      8.0530      2.2204      0.5262     26.0341     21.3474    133.9316
  2288.4000      8.0530      2.1907      0.4958     27.8376     21.3008    130.7948
  2288.5000      8.0308      2.1389      0.3785     30.9778     21.2687    127.4453
  2288.6000      8.0308      2.1067      0.3222     32.9282     21.4411    124.5776
  2288.7000      8.0308      2.1400      0.2897     30.9117     21.3969    122.4410
  2288.8000      8.0748      2.2537      0.4135     24.0201     20.9945    118.6499
  2288.9000      8.0748      2.3965      0.5536     15.3612     20.7483    113.5824
  2289.0000      8.1328      2.5018      0.5960      8.9848     20.9277    111.0222
  2289.1000      8.1328      2.5560      0.5801      5.6947     21.4627    111.2678
  2289.2000      8.1328      2.5833      0.5772      4.0406     22.0630    113.0200
  2289.3000      8.1560      2.5870      0.5736      3.8167     22.1082    117.1453
  2289.4000      8.1560      2.5545      0.3835      5.7866     21.4593    122.5739
  2289.5000      8.1285      2.5023      0.2440      8.9510     20.7358    124.5572
  2289.6000      8.1285      2.4511      0.2366     12.0574     20.4056    120.9519
  2289.7000      8.1285      2.3874      0.2142     15.9136     20.4767    117.2274
  2289.8000      8.0775      2.2948      0.1508     21.5263     20.7768    118.6962
  2289.9000      8.0775      2.1784      0.1496     28.5843     20.8665    123.6587
  2290.0000      8.0491      2.0673      0.0735     35.3146     20.5619    127.1118
  2290.1000      8.0491      2.0223      0.0345     38.0427     20.2066    126.2824
  2290.2000      8.0491      2.0902      0.0859     33.9243     20.3348    123.9315
  2290.3000      8.0565      2.2493      0.2725     24.2842     21.2386    124.1432
  2290.4000      8.0565      2.4305      0.4679     13.3005     22.3022    128.1131
  2290.5000      8.0805      2.5751      0.5592      4.5365     22.8693    133.0848
  2290.6000      8.0805      2.6564      0.6137     -0.3860     23.2418    133.8447
  2290.7000      8.0805      2.6749      0.5401     -1.5079     23.8505    130.0564
  2290.8000      8.0738      2.6587      0.4289     -0.5252     24.6535    126.0888
  2290.9000      8.0738      2.6475      0.3109      0.1504     25.4018    122.9018
  2291.0000      8.0285      2.6449      0.3002      0.3066     26.0856    117.9738
  2291.1000      8.0285      2.6138      0.1935      2.1935     26.6861    112.0867
  2291.2000      8.0285      2.5501      0.0370      6.0544     26.7695    110.2434
  2291.3000      7.9991      2.4864      0.0293      9.9172     26.3578    113.3276
  2291.4000      7.9991      2.4310      0.0170     13.2748     25.9186    115.6243
  2291.5000      7.9960      2.3849     -0.0313     16.0646     25.2994    114.1229
  2291.6000      7.9960      2.3664     -0.0035     17.1866     24.0992    113.0852
  2291.7000      7.9960      2.3721      0.1033     16.8398     22.6058    116.1199
  2291.8000      8.0029      2.3810      0.0834     16.3004     21.5615    120.4037
  2291.9000      8.0029      2.3921      0.0757     15.6299     21.1346    122.8924
  2292.0000      8.0125      2.4099      0.0816     14.5528     20.7134    123.7617
  2292.1000      8.0125      2.4341      0.0808     13.0832     19.9285    123.8431
  2292.2000      8.0125      2.4710      0.1174     10.8492     19.0303    124.7920
  2292.3000      8.0168      2.5156      0.1513      8.1436     18.3619    127.7573
  2292.4000      8.0168      2.5487      0.1679      6.1401     18.0577    131.7306
  2292.5000      8.0162      2.5640      0.1263      5.2120     18.2009    133.8908
  2292.6000      8.0162      2.5720      0.1063      4.7245     18.7421    131.4092
  2292.7000      8.0162      2.5805      0.1118      4.2115     19.5842    123.8180
  2292.8000      8.0152      2.5891      0.1156      3.6913     20.6720    116.2119
  2292.9000      8.0152      2.5979      0.1134      3.1567     21.6568    116.0423
  2293.0000      8.0162      2.6021      0.1350      2.9015     22.1793    121.4715
  2293.1000      8.0162      2.5892      0.1051      3.6853     22.3913    125.1601
  2293.2000      8.0162      2.5619      0.0572      5.3407     22.8807    125.7688
  2293.3000      8.0184      2.5383      0.0614      6.7694     23.8059    127.5364
  2293.4000      8.0184      2.5228      0.0678      7.7072     24.4560    130.7017
  2293.5000      8.0203      2.5055      0.0664      8.7552     24.3254    129.7936
  2293.6000      8.0203      2.4884      0.0116      9.7921     23.7790    125.4758
  2293.7000      8.0203      2.4824      0.0251     10.1598     23.4802    122.9277
  2293.8000      8.0209      2.4857      0.0073      9.9594     23.5825    123.5059
  2293.9000      8.0209      2.4943      0.0142      9.4392     23.7106    127.1701
  2294.0000      8.0214      2.5132      0.0327      8.2908     23.6397    133.0017
  2294.1000      8.0214      2.5463      0.0524      6.2835     23.3244    137.1434
  2294.2000      8.0214      2.5809      0.1194      4.1873     22.9619    138.2063
  2294.3000      8.0196      2.5956      0.1257      3.3000     22.9094    139.2810
  2294.4000      8.0196      2.5911      0.0374      3.5679     23.2337    141.7145
  2294.5000      8.0176      2.5855      0.0586      3.9071     23.6743    141.8049
  2294.6000      8.0176      2.5801      0.1148      4.2357     24.1313    136.8900
  2294.7000      8.0176      2.5658      0.1055      5.1038     24.5042    130.5627
  2294.8000      8.0192      2.5544      0.0641      5.7929     24.7145    128.3933
  2294.9000      8.0192      2.5656      0.0483      5.1150     24.8575    129.0896
