~Version Information
VERS.                      2.0: CWLS Log ASCII Standard - VERSION 2.0
WRAP.                       NO: One line per depth step
~Well Information Block
STRT.FT               521.0000: 
STOP.FT              2732.5000: 
STEP.FT                 0.2500: 
NULL.                -999.2500: 
COMP.          Petrogulf Corporation: COMPANY
WELL.              Silva 6-22V: WELL
FLD.           Purgatorie River: FIELD
LOC.           1936' FNL & 1798' FWL: LOCATION
CNTY.               Las Animas: COUNTY
SRVC.                         : SERVICE COMPANY
DATE.          Tue Nov 09 08:09:38 2004: LOG DATE
UWI.           05 071 08143 00: UNIQUE WELL ID
STAT.                 Colorado: STATE
~Curve Information Block
DEPT.FT            0 000 00 00: Depth
SP.mV                         : DIL Spontaneous Potential
RILD.Ohm-m                    : DIL Deep Resistivity
RILM.Ohm-m                    : DIL Medium Resistivity
RLL3.Ohm-m                    : DIL Shallow Resistivity
GR.GAPI                       : Gamma Ray
~Parameter Information Block
~A  Depth        SP         RILD        RILM        RLL3         GR     
# ...
   549.0000   2000.0000      9.1430 100000.0000   2000.0000     63.6949
   549.2500   2000.0000      9.0943 100000.0000   2000.0000     66.6679
   549.5000   2000.0000      9.0290 100000.0000   2000.0000     71.8567
   549.7500   2000.0000      8.9512 100000.0000   2000.0000     75.8465
   550.0000   2000.0000      8.8657 100000.0000   2000.0000     82.0244
   550.2500   2000.0000      8.7768 100000.0000   2000.0000     85.6791
   550.5000   2000.0000      8.6883 100000.0000   2000.0000     89.6412
   550.7500   2000.0000      8.6026 100000.0000   2000.0000     91.1575
   551.0000   2000.0000      8.5205 100000.0000   2000.0000     92.1717
   551.2500   2000.0000      8.4414 100000.0000   2000.0000     92.3682
   551.5000   2000.0000      8.3634 100000.0000   2000.0000     92.1862
   551.7500   2000.0000      8.2849 100000.0000   2000.0000     91.6351
   552.0000   2000.0000      8.2049 100000.0000   2000.0000     90.0649
   552.2500   2000.0000      8.1242 100000.0000   2000.0000     88.7091
   552.5000   2000.0000      8.0452 100000.0000   2000.0000     86.5690
   552.7500   2000.0000      7.9721 100000.0000   2000.0000     85.0774
   553.0000   2000.0000      7.9093 100000.0000   2000.0000     82.6840
   553.2500   2000.0000      7.8614 100000.0000   2000.0000     81.1237
   553.5000   2000.0000      7.8317 100000.0000   2000.0000     79.1968
   553.7500   2000.0000      7.8218 100000.0000   2000.0000     78.3496
   554.0000   2000.0000      7.8314 100000.0000   2000.0000     78.0937
   554.2500   2000.0000      7.8586 100000.0000   2000.0000     78.8363
   554.5000   2000.0000      7.9004 100000.0000   2000.0000     81.2831
   554.7500   2000.0000      7.9536 100000.0000   2000.0000     83.3555
   555.0000   2000.0000      8.0156 100000.0000   2000.0000     85.9623
   555.2500   2000.0000      8.0852 100000.0000   2000.0000     86.7792
   555.5000   2000.0000      8.1629 100000.0000   2000.0000     86.2024
   555.7500   2000.0000      8.2504 100000.0000   2000.0000     84.7806
   556.0000   2000.0000      8.3501 100000.0000   2000.0000     82.0023
   556.2500   2000.0000      8.4641 100000.0000   2000.0000     80.4274
   556.5000   2000.0000      8.5936 100000.0000   2000.0000     79.2974
   556.7500   2000.0000      8.7380 100000.0000   2000.0000     79.2731
   557.0000   2000.0000      8.8950 100000.0000   2000.0000     79.3125
   557.2500   2000.0000      9.0618 100000.0000   2000.0000     78.7630
   557.5000   2000.0000      9.2353 100000.0000   2000.0000     76.7173
   557.7500   2000.0000      9.4138 100000.0000   2000.0000     74.7765
   558.0000   2000.0000      9.5975 100000.0000   2000.0000     71.7082
   558.2500   2000.0000      9.7881 100000.0000   2000.0000     69.8756
   558.5000   2000.0000      9.9890 100000.0000   2000.0000     67.5542
   558.7500   2000.0000     10.2033 100000.0000   2000.0000     66.1184
   559.0000   2000.0000     10.4328 100000.0000   2000.0000     63.7813
   559.2500   2000.0000     10.6764 100000.0000   2000.0000     62.0877
   559.5000   2000.0000     10.9305 100000.0000   2000.0000     59.7315
   559.7500   2000.0000     11.1892 100000.0000   2000.0000     58.5452
   560.0000   2000.0000     11.4460 100000.0000   2000.0000     57.2761
   560.2500   2000.0000     11.6953 100000.0000   2000.0000     56.3236
   560.5000   2000.0000     11.9332 100000.0000   2000.0000     53.8007
   560.7500   2000.0000     12.1565 100000.0000   2000.0000     51.1940
   561.0000   2000.0000     12.3610 100000.0000   2000.0000     46.4645
   561.2500   2000.0000     12.5367 100000.0000   2000.0000     43.3482
   561.5000   2000.0000     12.6669 100000.0000   2000.0000     39.4923
   561.7500   2000.0000     12.7315 100000.0000   2000.0000     37.6289
   562.0000   2000.0000     12.7115 100000.0000   2000.0000     35.8098
   562.2500   2000.0000     12.5991 100000.0000   2000.0000     35.1029
   562.5000   2000.0000     12.4041 100000.0000   2000.0000     34.5240
   562.7500   2000.0000     12.1570 100000.0000   2000.0000     34.3350
   563.0000   2000.0000     11.9020 100000.0000   2000.0000     34.2571
   563.2500   2000.0000     11.6874 100000.0000   2000.0000     34.3699
   563.5000   2000.0000     11.5544 100000.0000   2000.0000     34.8331
   563.7500   2000.0000     11.5290 100000.0000   2000.0000     35.2426
   564.0000   2000.0000     11.6154 100000.0000   2000.0000     35.6159
   564.2500   2000.0000     11.7903 100000.0000   2000.0000     35.4965
   564.5000   2000.0000     11.9981 100000.0000   2000.0000     34.7202
   564.7500   2000.0000     12.1537 100000.0000   2000.0000     33.9516
   565.0000   2000.0000     12.1592 100000.0000   2000.0000     32.7983
   565.2500   2000.0000     11.9405 100000.0000   2000.0000     32.2589
   565.5000   2000.0000     11.4851 100000.0000   2000.0000     32.0720
   565.7500   2000.0000     10.8496 100000.0000   2000.0000     32.3868
   566.0000   2000.0000     10.1270 100000.0000   2000.0000     33.4614
   566.2500   2000.0000      9.4028 100000.0000   2000.0000     34.7274
   566.5000   2000.0000      8.7291 100000.0000   2000.0000     38.2899
   566.7500   2000.0000      8.1223 100000.0000   2000.0000     42.5203
   567.0000   2000.0000      7.5749 100000.0000   2000.0000     52.8283
   567.2500   2000.0000      7.0722 100000.0000   2000.0000     62.5041
   567.5000   2000.0000      6.6064 100000.0000   2000.0000     79.8162
   567.7500   2000.0000      6.1834 100000.0000   2000.0000     91.4950
   568.0000   2000.0000      5.8230 100000.0000   2000.0000    106.0434
   568.2500   2000.0000      5.5530 100000.0000   2000.0000    112.6507
   568.5000   2000.0000      5.4046 100000.0000   2000.0000    117.8352
   568.7500   2000.0000      5.4122 100000.0000   2000.0000    118.7367
   569.0000   2000.0000      5.6198 100000.0000   2000.0000    117.4648
   569.2500   2000.0000      6.0950 100000.0000   2000.0000    115.6462
   569.5000   2000.0000      6.9546    828.0640   2000.0000    113.2327
   569.7500   2000.0000      8.4168     42.5397   2000.0000    112.8852
   570.0000   2000.0000     10.9223     25.4420   2000.0000    115.0574
   570.2500   2000.0000     15.4592     20.4241   2000.0000    117.9281
   570.5000   2000.0000     24.6368     18.7356   2000.0000    122.9725
   570.7500   2000.0000     47.5546     18.6008   2000.0000    126.2321
   571.0000   2000.0000    143.3878     19.4383   2000.0000    130.8529
   571.2500   2000.0000 100000.0000     20.9742   2000.0000    133.8590
   571.5000   2000.0000 100000.0000     22.9755   2000.0000    137.7297
   571.7500   2000.0000 100000.0000     25.1196   2000.0000    139.1618
   572.0000   2000.0000   1123.1082     26.9493   2000.0000    138.7535
   572.2500   2000.0000    135.2311     27.9715   2000.0000    137.0529
   572.5000   2000.0000     67.0671     27.8881   2000.0000    133.8697
   572.7500   2000.0000     44.5706     26.7731   2000.0000    132.1835
   573.0000   2000.0000     34.2099     24.9987   2000.0000    130.8635
   573.2500   2000.0000     28.6838     23.0042   2000.0000    130.5702
   573.5000   2000.0000     25.5200     21.1157   2000.0000    130.2498
   573.7500   2000.0000     23.6557     19.5056   2000.0000    129.7476
   574.0000   2000.0000     22.5543     18.2345   2000.0000    128.3161
   574.2500   2000.0000     21.9171     17.2999   2000.0000    126.9738
   574.5000   2000.0000     21.5637     16.6724   2000.0000    124.6651
   574.7500   2000.0000     21.3824     16.3199   2000.0000    123.0885
   575.0000   2000.0000     21.3073     16.2126   2000.0000    120.7417
   575.2500   2000.0000     21.3046     16.3254   2000.0000    119.0510
   575.5000   2000.0000     21.3620     16.6364   2000.0000    115.9350
   575.7500   2000.0000     21.4784     17.1254   2000.0000    113.4193
   576.0000   2000.0000     21.6567     17.7703   2000.0000    109.5617
   576.2500   2000.0000     21.8988     18.5433   2000.0000    107.4257
   576.5000   2000.0000     22.2023     19.4081   2000.0000    105.1197
   576.7500   2000.0000     22.5535     20.3168   2000.0000    103.8058
