~Version Information
VERS.                      2.0: CWLS Log ASCII Standard - VERSION 2.0
WRAP.                       NO: One line per depth step
~Well Information Block
STRT.FT               780.0000: 
STOP.FT              3152.2000: 
STEP.FT                 0.1000: 
NULL.                -999.2500: 
COMP.          Pioneer Natural Resources: COMPANY
WELL.            Paradise 13-8: WELL
FLD.           Purgatoire River: FIELD
LOC.           1896' FSL & 1120' FWL: LOCATION
PROV.                 Colorado: PROVINCE
CNTY.               Las Animas: COUNTRY
SRVC.                Patterson: SERVICE COMPANY
DATE.          Sat Jan 22 20:51:32 2005: LOG DATE
UWI.           05 071 07946 00: UNIQUE WELL ID
~Curve Information Block
DEPT.FT            0 000 00 00: Depth
DCAL.in                       : CDL Caliper
RHOB.g/cc                     : CDL Bulk Density
RHOC.g/cc                     : CDL Density Correction
DPOR.pu                       : CDL Density Porosity
NPOR.pu                       : Neutron Porosity
GR.GAPI                       : Gamma Ray
~Parameter Information Block
~A  Depth       DCAL        RHOB        RHOC        DPOR        NPOR         GR     
# ...
  2805.6000      7.9607      2.6232      0.1083      1.6218     20.0232     96.9753
  2805.7000      7.9607      2.6321      0.1206      1.0870     20.4189     99.3783
  2805.8000      7.9603      2.6313      0.0591      1.1340     19.9838     98.1332
  2805.9000      7.9603      2.6199      0.0772      1.8226     18.5483     94.0972
  2806.0000      7.9608      2.6035      0.0526      2.8188     16.7983     91.2639
  2806.1000      7.9608      2.5912      0.0375      3.5617     15.8431     92.0334
  2806.2000      7.9608      2.5870      0.0534      3.8162     16.2581     93.2788
  2806.3000      7.9612      2.5850      0.0544      3.9377     17.2594     89.3334
  2806.4000      7.9612      2.5845      0.0335      3.9672     17.6482     79.5835
  2806.5000      7.9593      2.5939      0.0527      3.3975     17.5140     70.8003
  2806.6000      7.9593      2.6106      0.0758      2.3855     17.5726     70.1223
  2806.7000      7.9593      2.6163      0.0743      2.0394     17.9281     76.4554
  2806.8000      7.9560      2.5996      0.0613      3.0566     18.2449     82.5168
  2806.9000      7.9560      2.5736      0.0413      4.6281     18.1407     82.9489
  2807.0000      7.9574      2.5588      0.0313      5.5293     17.9381     78.5726
  2807.1000      7.9574      2.5503      0.0713      6.0438     17.9619     73.1775
  2807.2000      7.9574      2.5397      0.0148      6.6842     17.7226     70.2944
  2807.3000      7.9660      2.5403      0.0391      6.6459     17.3317     68.3063
  2807.4000      7.9660      2.5550      0.0547      5.7567     17.6364     67.5612
  2807.5000      7.9712      2.5659      0.0344      5.0968     18.6171     73.4122
  2807.6000      7.9712      2.5660      0.0767      5.0935     19.4485     83.3638
  2807.7000      7.9712      2.5655      0.0444      5.1201     19.9376     89.0522
  2807.8000      7.9665      2.5744      0.0817      4.5795     20.4532     90.8755
  2807.9000      7.9665      2.5873      0.0871      3.7990     21.1370     94.6728
  2808.0000      7.9619      2.5906      0.1029      3.6015     21.5834     99.9837
  2808.1000      7.9619      2.5866      0.0405      3.8396     21.2141    100.4669
  2808.2000      7.9619      2.5890      0.0914      3.6998     20.0833     92.8253
  2808.3000      7.9629      2.5923      0.0878      3.4963     18.9825     83.0729
  2808.4000      7.9629      2.5874      0.0832      3.7927     18.5970     76.7277
  2808.5000      7.9650      2.5773      0.0845      4.4055     18.6145     75.6789
  2808.6000      7.9650      2.5697      0.0477      4.8668     18.2623     79.9938
  2808.7000      7.9650      2.5740      0.0577      4.6039     17.4708     82.9045
  2808.8000      7.9639      2.5917      0.0803      3.5304     16.7184     79.7846
  2808.9000      7.9639      2.6122      0.1023      2.2933     16.0824     76.7621
  2809.0000      7.9616      2.6219      0.1254      1.7038     15.5221     78.7879
  2809.1000      7.9616      2.6195      0.0481      1.8457     15.2291     82.0992
  2809.2000      7.9616      2.6167      0.0836      2.0188     14.9751     80.8386
  2809.3000      7.9589      2.6222      0.0496      1.6861     14.6221     75.0925
  2809.4000      7.9589      2.6364      0.1066      0.8226     14.3118     70.3210
  2809.5000      7.9593      2.6548      0.1047     -0.2927     13.9822     68.3582
  2809.6000      7.9593      2.6714      0.1164     -1.2941     13.4808     66.6486
  2809.7000      7.9593      2.6770      0.1088     -1.6358     12.5133     61.6799
  2809.8000      7.9716      2.6709      0.0952     -1.2685     11.3079     52.6612
  2809.9000      7.9716      2.6673      0.0826     -1.0494     10.5227     44.7798
  2810.0000      7.9937      2.6765      0.0623     -1.6088     10.2238     40.8976
  2810.1000      7.9937      2.6846      0.1093     -2.0972     10.1701     39.3371
  2810.2000      7.9937      2.6717      0.0612     -1.3179     10.4003     40.4490
  2810.3000      8.0088      2.6504      0.0220     -0.0238     10.9642     44.9380
  2810.4000      8.0088      2.6465      0.0622      0.2130     11.6015     50.2915
  2810.5000      8.0180      2.6654      0.0203     -0.9330     12.3496     52.6882
  2810.6000      8.0180      2.6975      0.0376     -2.8774     13.6215     50.8991
  2810.7000      8.0180      2.7245      0.0987     -4.5123     15.5247     46.9575
  2810.8000      8.0349      2.7284      0.0862     -4.7504     17.3878     45.5002
  2810.9000      8.0349      2.7170      0.0522     -4.0610     18.4054     49.2036
  2811.0000      8.0632      2.7170      0.0261     -4.0612     18.6689     55.1772
  2811.1000      8.0632      2.7261      0.0982     -4.6136     19.1304     59.6001
  2811.2000      8.0632      2.7093      0.0929     -3.5921     20.4959     62.0802
  2811.3000      8.0877      2.6608     -0.0171     -0.6541     22.2592     64.6944
  2811.4000      8.0877      2.6136     -0.0459      2.2067     23.4705     68.8630
  2811.5000      8.0982      2.5767      0.0083      4.4409     24.0440     72.4850
  2811.6000      8.0982      2.5266     -0.0020      7.4770     24.4489     74.7716
  2811.7000      8.0982      2.4483     -0.0215     12.2255     25.0779     78.5823
  2811.8000      8.0984      2.3448     -0.0392     18.4941     25.8258     84.1604
  2811.9000      8.0984      2.2264     -0.0635     25.6758     26.9020     89.7662
  2812.0000      8.0973      2.0978     -0.0938     33.4671     28.8321     91.1355
  2812.1000      8.0973      1.9611     -0.0976     41.7493     31.1346     86.6380
  2812.2000      8.0973      1.8315     -0.1380     49.6066     32.6716     80.6572
  2812.3000      8.1023      1.7327     -0.1526     55.5934     33.3628     74.7643
  2812.4000      8.1023      1.6630     -0.0959     59.8194     34.0719     70.3165
  2812.5000      8.1107      1.5890     -0.0778     64.3034     34.9673     68.4248
  2812.6000      8.1107      1.4965     -0.1380     69.9063     35.4284     65.9413
  2812.7000      8.1107      1.4126     -0.0881     74.9936     35.2944     59.9367
  2812.8000      8.1135      1.3630     -0.0027     78.0029     34.8520     52.9760
  2812.9000      8.1135      1.3424      0.0597     79.2512     34.3933     48.1411
  2813.0000      8.1110      1.3311      0.0531     79.9318     34.3127     44.5828
  2813.1000      8.1110      1.3204      0.0503     80.5820     34.5242     42.7783
  2813.2000      8.1110      1.3111      0.0345     81.1484     34.6152     44.0504
  2813.3000      8.1097      1.3012      0.0565     81.7434     34.8362     47.2149
  2813.4000      8.1097      1.2876      0.0386     82.5718     35.3909     49.4656
  2813.5000      8.1168      1.2754      0.0401     83.3099     35.6397     48.8942
  2813.6000      8.1168      1.2743      0.0331     83.3779     34.8068     48.8600
  2813.7000      8.1168      1.2917      0.0414     82.3197     33.2392     51.0341
  2813.8000      8.1279      1.3418      0.0417     79.2872     31.9489     52.0132
  2813.9000      8.1279      1.4399      0.0846     73.3399     30.9229     49.1671
  2814.0000      8.1173      1.5788      0.1562     64.9200     30.0603     45.5305
  2814.1000      8.1173      1.7320      0.2333     55.6356     29.6831     45.6265
  2814.2000      8.1173      1.8850      0.2714     46.3652     29.6897     49.0482
  2814.3000      8.0562      2.0435      0.3286     36.7560     29.6126     54.4573
  2814.4000      8.0562      2.2117      0.3700     26.5614     28.7641     62.1631
  2814.5000      7.9768      2.3766      0.4055     16.5713     27.2408     71.5342
  2814.6000      7.9768      2.5120      0.3969      8.3635     25.9270     82.0323
  2814.7000      7.9768      2.5959      0.3549      3.2801     25.1493     94.9562
  2814.8000      7.9369      2.6247      0.2783      1.5348     24.7125    108.2684
  2814.9000      7.9369      2.6134      0.1603      2.2189     24.4107    113.2862
  2815.0000      7.9312      2.5866      0.0844      3.8422     24.1287    108.5763
  2815.1000      7.9312      2.5607      0.0760      5.4104     24.1375    107.3655
