~Version Information
VERS.                      2.0: CWLS Log ASCII Standard - VERSION 2.0
WRAP.                       NO: One line per depth step
~Well Information Block
STRT.FT                -3.5000: 
STOP.FT              1841.0000: 
STEP.FT                 0.2500: 
NULL.                -999.2500: 
COMP.          Pioneer Natural Resources: COMPANY
WELL.          Corkscrew 33-12 Tr: WELL
FLD.           Purgatorie River: FIELD
LOC.           1870' FSL  & 1706' FEL--------: LOCATION
PROV.                       CO: PROVINCE
CNTY.               Las Animas: COUNTRY
SRVC.          Patterson Wireline: SERVICE COMPANY
DATE.          Mon Apr 04 10:07:45 2005: LOG DATE
UWI.           05 071 08295 00: UNIQUE WELL ID
~Curve Information Block
DEPT.FT            0 000 00 00: Depth
CCL.                          : Casing Collar Locator
TT3.usec                      : CBL 3' Travel Time
AMP3.mV                       : CBL 3' Amplitude
GR.GAPI                       : Gamma Ray
~Parameter Information Block
~A  Depth       CCL         TT3         AMP3         GR     
# ...
   834.0000      0.0000    833.8193      7.3709    109.3238
   834.2500      0.0000    836.6727      7.3603    109.8305
   834.5000      0.0000    842.1218      7.3330    114.0444
   834.7500      0.0000    848.4749      7.3010    122.6245
   835.0000      0.0000    854.3011      7.2596    134.3106
   835.2500      0.0000    858.8418      7.1940    146.1737
   835.5000      0.0000    861.5176      7.1084    154.8580
   835.7500      0.0000    861.6994      7.0241    158.1284
   836.0000      0.0000    858.6375      6.9541    156.1053
   836.2500      0.0000    851.5240      6.9044    151.2641
   836.5000      0.0000    840.1382      6.8860    146.8844
   836.7500      0.0000    825.8413      6.9037    145.1166
   837.0000      0.0000    811.7518      6.9515    146.1264
   837.2500      0.0000    801.4164      7.0262    148.7632
   837.5000      0.0000    796.6048      7.1247    151.7947
   837.7500      0.0000    796.0981      7.2301    154.3412
   838.0000      0.0000    796.8699      7.3210    155.4077
   838.2500      0.0000    796.6445      7.3814    153.8865
   838.5000      0.0000    795.1833      7.3944    149.6175
   838.7500      0.0000    793.3177      7.3471    144.2962
   839.0000      0.0000    791.5348      7.2461    140.7607
   839.2500      0.0000    789.8877      7.1089    140.9225
   839.5000      0.0000    788.6359      6.9542    144.2654
   839.7500      0.0000    788.0671      6.8169    148.3533
   840.0000      0.0000    787.4815      6.7408    150.7918
   840.2500      0.0000    785.0226      6.7332    150.7677
   840.5000      0.0000    779.5059      6.7573    148.9859
   840.7500      0.0000    772.8436      6.7763    146.5937
   841.0000      0.0000    769.7170      6.7768    144.4469
   841.2500      0.0000    773.4719      6.7613    143.1831
   841.5000      0.0000    782.4370      6.7541    143.2243
   841.7500      0.0000    791.2678      6.7923    144.2968
   842.0000      0.0000    795.5656      6.8779    145.3703
   842.2500      0.0000    794.6426      6.9697    145.3777
   842.5000      0.0000    790.7399      7.0479    143.7604
   842.7500      0.0000    786.6413      7.1519    140.3687
   843.0000      0.0000    783.5603      7.3236    135.2657
   843.2500      0.0000    780.3703      7.5425    128.8680
   843.5000      0.0000    775.0173      7.7427    122.2775
   843.7500      0.0000    767.3518      7.8652    117.2227
   844.0000      0.0000    760.2834      7.8778    115.1792
   844.2500      0.0000    757.5135      7.7794    116.3025
   844.5000      0.0000    760.2322      7.6099    119.4908
   844.7500      0.0000    766.5947      7.4224    123.5178
   845.0000      0.0000    774.1785      7.2309    127.5651
   845.2500      0.0000    781.9110      7.0220    130.5410
   845.5000      0.0000    789.4736      6.8227    130.5805
   845.7500      0.0000    796.3709      6.7026    125.9458
   846.0000      0.0000    802.5045      6.6967    116.6215
   846.2500      0.0000    808.3948      6.7712    104.9205
   846.5000      0.0000    813.8430      6.8815     94.3670
   846.7500      0.0000    817.4543      7.0164     87.8232
   847.0000      0.0000    818.1370      7.1698     86.4544
   847.2500      0.0000    816.1526      7.3206     89.9785
   847.5000      0.0000    812.2374      7.4727     97.1775
   847.7500      0.0000    806.4714      7.6685    105.7630
   848.0000      0.0000    798.5819      7.9195    112.5469
   848.2500      0.0000    789.2103      8.1599    115.1762
   848.5000      0.0000    780.2101      8.3120    114.0308
   848.7500      0.0000    773.0521      8.3732    111.6653
   849.0000      0.0000    767.2321      8.3922    110.0401
   849.2500      0.0000    761.0730      8.3759    108.7714
   849.5000      0.0000    754.0122      8.2644    106.1988
   849.7500      0.0000    747.3950      8.0007    101.5674
   850.0000      0.0000    743.5398      7.6003     95.8706
   850.2500      0.0000    744.6224      7.1506     91.1207
   850.5000      0.0000    751.2209      6.7630     89.3909
   850.7500      0.0000    760.7013      6.5253     92.2069
   851.0000      2.0000    768.3500      6.4566     99.9074
   851.2500      2.0000    771.1808      6.4823    110.9988
   851.5000      0.0000    769.7288      6.5037    122.4382
   851.7500      0.0000    766.2686      6.5162    131.3089
   852.0000      0.0000    762.7468      6.6058    136.7897
   852.2500      0.0000    759.5384      6.7904    140.5190
   852.5000      0.0000    754.0875      6.9402    144.8077
   852.7500      0.0000    742.1550      6.9320    150.3923
   853.0000      0.0000    722.9949      6.8261    155.7775
   853.2500      0.0000    702.3873      6.7993    158.4829
   853.5000      0.0000    688.6315      6.9266    156.7244
   853.7500      0.0000    686.0122      7.1000    150.3432
   854.0000      0.0000    692.8030      7.1611    140.8198
   854.2500      0.0000    704.0242      7.0767    130.6817
   854.5000      0.0000    714.6830      6.9696    122.6985
   854.7500      0.0000    721.7319      6.9760    118.9827
   855.0000      0.0000    725.5187      7.0886    120.0381
   855.2500      0.0000    729.6067      7.1737    124.3901
   855.5000      0.0000    737.9136      7.1466    129.3735
   855.7500      0.0000    751.5049      7.0800    132.4263
   856.0000      0.0000    768.0052      7.1038    131.9811
   856.2500      0.0000    783.4902      7.2392    127.9139
   856.5000      0.0000    794.7871      7.3921    121.5854
   856.7500      0.0000    800.7731      7.4876    115.0952
   857.0000      0.0000    802.3909      7.5362    109.9877
   857.2500      0.0000    801.8611      7.5593    106.5690
   857.5000      0.0000    801.4969      7.5313    104.4378
   857.7500      0.0000    802.4984      7.4356    103.3928
   858.0000      0.0000    804.4177      7.3264    103.5616
   858.2500      0.0000    805.6572      7.2784    104.8980
   858.5000      0.0000    804.2475      7.2890    107.0574
   858.7500      0.0000    798.3900      7.2745    109.7671
   859.0000      0.0000    787.6382      7.1755    112.9260
   859.2500      0.0000    774.8536      7.0371    116.2149
   859.5000      0.0000    766.3171      6.9576    118.9097
   859.7500      0.0000    767.6880      6.9668    120.3718
   860.0000      0.0000    778.8509      6.9906    120.5907
   860.2500      0.0000    793.6214      6.9549    119.9824
   860.5000      0.0000    804.9943      6.8943    118.8691
   860.7500      0.0000    810.2712      6.9170    117.6130
   861.0000      0.0000    811.5856      7.0668    116.9980
   861.2500      0.0000    812.9079      7.2535    117.7637
   861.5000      0.0000    816.9722      7.3351    119.6605
   861.7500      0.0000    823.9091      7.2585    121.5269
   862.0000      0.0000    831.4945      7.1104    122.4362
   862.2500      0.0000    836.5444      7.0299    122.3506
   862.5000      0.0000    836.7815      7.0693    121.8073
   862.7500      0.0000    832.1340      7.1471    121.5159
   863.0000      0.0000    824.6580      7.1441    122.0260
   863.2500      0.0000    817.1523      7.0365    123.0753
   863.5000      0.0000    811.5615      6.9238    123.3921
   863.7500      0.0000    808.4000      6.9303    121.8049
   864.0000      0.0000    807.3651      7.0817    118.5712
   864.2500      0.0000    808.2319      7.2734    115.2927
   864.5000      0.0000    811.1776      7.3604    113.6314
   864.7500      0.0000    816.2976      7.2881    114.2549
   865.0000      0.0000    822.7342      7.1414    116.5204
   865.2500      0.0000    828.4408      7.0630    118.8099
   865.5000      0.0000    831.3557      7.1147    119.6011
   865.7500      0.0000    831.0955      7.2204    118.7467
   866.0000      0.0000    829.3124      7.2478    117.5342
   866.2500      0.0000    828.3232      7.1455    117.1654
   866.5000      0.0000    829.3758      6.9982    117.2395
   866.7500      0.0000    831.8136      6.9465    115.8610
   867.0000      0.0000    833.5464      7.0435    111.1648
   867.2500      0.0000    832.6451      7.1893    102.8504
