~Version Information
VERS.                      2.0: CWLS Log ASCII Standard - VERSION 2.0
WRAP.                       NO: One line per depth step
~Well Information Block
STRT.FT               550.0000: 
STOP.FT              2359.0000: 
STEP.FT                 0.1000: 
NULL.                -999.2500: 
COMP.          Pioneer Natural Resources: COMPANY
WELL.              Whinny 42-2: WELL
FLD.           Purgatoire River: FIELD
LOC.           1836' FNL & 466' FEL: LOCATION
PROV.                 Colorado: PROVINCE
CNTY.               Las Animas: COUNTRY
SRVC.                Patterson: SERVICE COMPANY
DATE.          Mon Aug 22 07:28:42 2005: LOG DATE
UWI.           05 071 08406 00: UNIQUE WELL ID
~Curve Information Block
DEPT.FT            0 000 00 00: Depth
DCAL.in                       : CDL Caliper
RHOB.g/cc                     : CDL Bulk Density
RHOC.g/cc                     : CDL Density Correction
DPOR.pu                       : CDL Density Porosity
GR.GAPI                       : Gamma Ray
NPOR.pu                       : Neutron Porosity
~Parameter Information Block
~A  Depth       DCAL        RHOB        RHOC        DPOR         GR         NPOR    
# ...
  1385.2000      8.0628      1.3398     -0.0759     79.4069     59.4538     29.5973
  1385.3000      8.1424      1.3578      0.0774     78.3150     61.1220     30.1454
  1385.4000      8.1424      1.3685      0.0721     77.6686     60.4010     30.8197
  1385.5000      8.4828      1.3598      0.0783     78.1962     53.7664     31.6919
  1385.6000      8.4828      1.3425      0.0780     79.2398     48.7200     33.0411
  1385.7000      8.4828      1.3308      0.0574     79.9535     48.8081     34.3643
  1385.8000      8.6598      1.3360      0.0822     79.6378     49.5484     34.5093
  1385.9000      8.6598      1.3696      0.0548     77.5974     50.7099     33.8049
  1386.0000      8.6566      1.4437      0.0761     73.1082     57.0044     33.2960
  1386.1000      8.6566      1.5587      0.0915     66.1394     67.7632     33.2309
  1386.2000      8.6566      1.7031      0.1578     57.3849     76.2206     33.4318
  1386.3000      8.6876      1.8627      0.2225     47.7124     79.3939     33.6342
  1386.4000      8.6876      2.0208      0.2724     38.1334     81.0323     33.5802
  1386.5000      9.1375      2.1613      0.2861     29.6171     84.6608     33.1117
  1386.6000      9.1375      2.2788      0.2765     22.4941     90.3939     32.1943
  1386.7000      9.1375      2.3796      0.2763     16.3893     99.0250     31.1137
  1386.8000      9.4254      2.4659      0.2261     11.1590    109.6261     30.2049
  1386.9000      9.4254      2.5244      0.2190      7.6093    118.5881     29.2444
  1387.0000      9.2594      2.5486      0.0857      6.1482    122.0790     27.7404
  1387.1000      9.2594      2.5510      0.1008      6.0010    116.9789     26.3346
  1387.2000      9.2594      2.5371      0.0955      6.8454    108.7708     26.0098
  1387.3000      8.3501      2.5142      0.0568      8.2316    108.1507     26.1687
  1387.4000      8.3501      2.5080     -0.0149      8.6059    117.6598     25.5269
  1387.5000      8.0648      2.5352      0.0295      6.9576    130.0124     23.9755
  1387.6000      8.0648      2.5806      0.0750      4.2038    135.6065     22.4754
  1387.7000      8.0648      2.6124      0.1183      2.2774    131.0594     21.7394
  1387.8000      8.0116      2.6122      0.0919      2.2911    124.7852     21.7395
  1387.9000      8.0116      2.5902      0.0417      3.6268    123.4491     21.9906
  1388.0000      7.9884      2.5753      0.0229      4.5247    121.4514     22.0488
  1388.1000      7.9884      2.5820      0.0451      4.1192    118.9424     22.0287
  1388.2000      7.9884      2.5899      0.0861      3.6454    126.3084     22.3482
  1388.3000      7.9653      2.5843      0.0443      3.9847    139.8556     22.7442
  1388.4000      7.9653      2.5817      0.0261      4.1368    147.6129     22.6962
  1388.5000      7.9660      2.5810      0.0723      4.1848    148.0571     22.3034
  1388.6000      7.9660      2.5569      0.0520      5.6403    143.4096     21.8118
  1388.7000      7.9660      2.5131      0.0227      8.2973    134.8785     21.1730
  1388.8000      7.9779      2.4796     -0.0087     10.3260    126.4187     20.3740
  1388.9000      7.9779      2.4722     -0.0082     10.7770    124.2732     19.8090
  1389.0000      7.9740      2.4830      0.0007     10.1185    129.8721     19.8640
  1389.1000      7.9740      2.4970      0.0254      9.2733    135.3538     20.3902
  1389.2000      7.9740      2.5050      0.0082      8.7906    134.1851     20.8194
  1389.3000      7.9838      2.5040      0.0469      8.8487    128.0201     21.0132
  1389.4000      7.9838      2.4944      0.0088      9.4284    122.9544     20.9193
  1389.5000      7.9627      2.4865      0.0273      9.9077    123.9355     20.4330
  1389.6000      7.9627      2.4917     -0.0156      9.5957    127.9925     20.0846
  1389.7000      7.9627      2.5119     -0.0032      8.3699    131.7601     20.4596
  1389.8000      7.9697      2.5407      0.0374      6.6235    136.5741     21.3041
  1389.9000      7.9697      2.5607      0.1026      5.4092    141.5637     22.1138
  1390.0000      7.9702      2.5590      0.0548      5.5128    141.6000     22.5644
  1390.1000      7.9702      2.5488      0.0522      6.1331    135.0312     22.6001
  1390.2000      7.9702      2.5514      0.0414      5.9756    126.4946     22.1732
  1390.3000      7.9677      2.5729      0.0564      4.6714    120.1723     21.3003
  1390.4000      7.9677      2.5965      0.0856      3.2420    116.5848     20.3369
  1390.5000      7.9674      2.5958      0.0945      3.2842    115.7943     19.6583
  1390.6000      7.9674      2.5720      0.0174      4.7282    118.5493     19.7485
  1390.7000      7.9674      2.5487      0.0382      6.1398    121.3787     20.4230
  1390.8000      7.9495      2.5359      0.0373      6.9168    118.4829     20.7095
  1390.9000      7.9495      2.5342      0.0577      7.0202    112.1369     20.5078
  1391.0000      7.9602      2.5460      0.0526      6.3038    108.7462     20.5715
  1391.1000      7.9602      2.5614      0.0933      5.3667    107.4592     20.8648
  1391.2000      7.9602      2.5670      0.0247      5.0302    106.4517     20.8772
  1391.3000      7.9537      2.5642      0.0707      5.2010    107.4874     20.7050
  1391.4000      7.9537      2.5554      0.0238      5.7357    111.8869     20.6894
  1391.5000      7.9308      2.5414      0.0506      6.5835    117.9460     21.0454
  1391.6000      7.9308      2.5324      0.0289      7.1245    122.5871     21.4169
  1391.7000      7.9308      2.5404      0.0316      6.6444    125.2355     21.2075
  1391.8000      7.9646      2.5561      0.0765      5.6916    124.0483     20.3558
  1391.9000      7.9646      2.5619      0.0426      5.3373    116.8380     19.3819
  1392.0000      7.9804      2.5610      0.0335      5.3959    107.4243     19.2772
  1392.1000      7.9804      2.5646      0.0415      5.1766    103.4828     20.3993
  1392.2000      7.9804      2.5625      0.0825      5.3003    105.9881     21.7703
  1392.3000      7.9879      2.5438      0.0149      6.4342    108.5515     22.2552
  1392.4000      7.9879      2.5239      0.0121      7.6450    107.8987     21.7823
  1392.5000      7.9970      2.5111      0.0214      8.4175    105.0485     21.0301
  1392.6000      7.9970      2.4973      0.0401      9.2573     99.3120     20.6403
  1392.7000      7.9970      2.4874      0.0170      9.8575     90.1240     20.6788
  1392.8000      7.9633      2.4904      0.0419      9.6757     82.9054     20.4971
  1392.9000      7.9633      2.5016      0.0402      8.9958     83.0408     19.8646
  1393.0000      7.9701      2.5154      0.0278      8.1548     87.8710     19.5212
  1393.1000      7.9701      2.5256      0.0177      7.5368     92.4156     19.5206
  1393.2000      7.9701      2.5274     -0.0180      7.4276     95.1678     19.4026
  1393.3000      7.9781      2.5270      0.0202      7.4549     94.8768     19.5141
  1393.4000      7.9781      2.5282      0.0401      7.3816     90.8660     19.8891
  1393.5000      7.9701      2.5241      0.0762      7.6306     86.3306     19.8586
  1393.6000      7.9701      2.5175      0.0103      8.0313     87.2264     19.4081
  1393.7000      7.9701      2.5283      0.0093      7.3748     93.6208     19.3591
  1393.8000      7.9777      2.5549      0.0823      5.7637    100.7697     20.0906
  1393.9000      7.9777      2.5744      0.0381      4.5805    106.9013     20.8346
  1394.0000      7.9513      2.5792      0.0689      4.2903    112.6663     21.2447
  1394.1000      7.9513      2.5807      0.0832      4.2028    118.7239     21.5347
  1394.2000      7.9513      2.5965      0.0980      3.2433    123.4134     21.4312
  1394.3000      7.9359      2.6236      0.1566      1.6021    124.2705     21.3529
  1394.4000      7.9359      2.6415      0.1182      0.5122    121.3681     21.9056
  1394.5000      7.9230      2.6451      0.1074      0.2941    118.6826     22.6627
  1394.6000      7.9230      2.6396      0.1004      0.6329    123.4832     23.2796
  1394.7000      7.9230      2.6232      0.0874      1.6214    131.9576     23.1864
