~Version Information
VERS.                      2.0: CWLS Log ASCII Standard - VERSION 2.0
WRAP.                       NO: One line per depth step
~Well Information Block
STRT.FT               260.0000: 
STOP.FT              2272.0000: 
STEP.FT                 0.2500: 
NULL.                -999.2500: 
COMP.          Pioneer Natural Resources: COMPANY
WELL.            Moo Moo 31-36: WELL
FLD.           Purgatoire River: FIELD
LOC.           612' FNL & 2326' FEL: LOCATION
PROV.                 Colorado: PROVINCE
CNTY.               Las Animas: COUNTRY
SRVC.                Patterson: SERVICE COMPANY
DATE.          Fri Jun 17 07:45:39 2005: LOG DATE
UWI.           05 071 08395 00: UNIQUE WELL ID
~Curve Information Block
DEPT.FT            0 000 00 00: Depth
DIR.Ohm-m                     : IEL Induction Resistivity
SN.Ohm-m                      : IEL Short Normal
SP.mV                         : IEL Spontaneous Potential
GR.GAPI                       : Gamma Ray
~Parameter Information Block
~A  Depth       DIR          SN          SP          GR     
# ...
   796.0000     26.5167   2000.0000   2000.0000    119.5428
   796.2500     27.1114   2000.0000   2000.0000    119.2925
   796.5000     27.7765   2000.0000   2000.0000    119.1561
   796.7500     28.4884   2000.0000   2000.0000    119.2813
   797.0000     29.2095   2000.0000   2000.0000    119.5041
   797.2500     29.9001   2000.0000   2000.0000    119.3960
   797.5000     30.5316   2000.0000   2000.0000    118.3395
   797.7500     31.0983   2000.0000   2000.0000    116.8270
   798.0000     31.6275   2000.0000   2000.0000    113.4369
   798.2500     32.1887   2000.0000   2000.0000    110.7812
   798.5000     32.8920   2000.0000   2000.0000    106.8422
   798.7500     33.8614   2000.0000   2000.0000    104.3923
   799.0000     35.1880   2000.0000   2000.0000    100.9323
   799.2500     36.8770   2000.0000   2000.0000     98.7033
   799.5000     38.8155   2000.0000   2000.0000     95.2290
   799.7500     40.7869   2000.0000   2000.0000     92.5114
   800.0000     42.5476   2000.0000   2000.0000     87.2341
   800.2500     43.9350   2000.0000   2000.0000     82.8049
   800.5000     44.9258   2000.0000   2000.0000     75.2249
   800.7500     45.6189   2000.0000   2000.0000     70.0289
   801.0000     46.1913   2000.0000   2000.0000     62.9037
   801.2500     46.8538   2000.0000   2000.0000     59.0790
   801.5000     47.7700   2000.0000   2000.0000     55.4083
   801.7500     48.9219   2000.0000   2000.0000     54.5154
   802.0000     50.0059   2000.0000   2000.0000     55.3377
   802.2500     50.4942   2000.0000   2000.0000     57.0754
   802.5000     49.9192   2000.0000   2000.0000     61.0110
   802.7500     48.1681   2000.0000   2000.0000     64.2465
   803.0000     45.4953   2000.0000   2000.0000     69.6795
   803.2500     42.3034   2000.0000   2000.0000     73.7128
   803.5000     38.9584   2000.0000   2000.0000     80.7440
   803.7500     35.7367   2000.0000   2000.0000     86.2317
   804.0000     32.8224   2000.0000   2000.0000     95.3684
   804.2500     30.3045   2000.0000   2000.0000    101.5709
   804.5000     28.1839   2000.0000   2000.0000    110.1276
   804.7500     26.4016   2000.0000   2000.0000    115.0865
   805.0000     24.8775   2000.0000   2000.0000    121.6687
   805.2500     23.5423   2000.0000   2000.0000    125.8703
   805.5000     22.3550   2000.0000   2000.0000    132.4455
   805.7500     21.2997   2000.0000   2000.0000    137.1109
   806.0000     20.3726   2000.0000   2000.0000    144.3906
   806.2500     19.5662   2000.0000   2000.0000    149.2270
   806.5000     18.8618   2000.0000   2000.0000    155.5950
   806.7500     18.2322   2000.0000   2000.0000    158.3123
   807.0000     17.6537   2000.0000   2000.0000    158.3774
   807.2500     17.1189   2000.0000   2000.0000    155.3560
   807.5000     16.6423   2000.0000   2000.0000    147.3054
   807.7500     16.2515   2000.0000   2000.0000    141.1071
   808.0000     15.9720   2000.0000   2000.0000    133.7203
   808.2500     15.8130   2000.0000   2000.0000    131.4457
   808.5000     15.7668   2000.0000   2000.0000    132.3162
   808.7500     15.8190   2000.0000   2000.0000    134.8081
   809.0000     15.9614   2000.0000   2000.0000    139.3799
   809.2500     16.1968   2000.0000   2000.0000    142.2515
   809.5000     16.5311   2000.0000   2000.0000    145.7275
   809.7500     16.9618   2000.0000   2000.0000    147.1758
   810.0000     17.4702   2000.0000   2000.0000    147.4070
   810.2500     18.0223   2000.0000   2000.0000    146.0214
   810.5000     18.5751   2000.0000   2000.0000    141.3484
   810.7500     19.0841   2000.0000   2000.0000    136.2220
   811.0000     19.5092   2000.0000   2000.0000    125.1204
   811.2500     19.8195   2000.0000   2000.0000    115.7773
   811.5000     20.0020   2000.0000   2000.0000    100.7018
   811.7500     20.0701   2000.0000   2000.0000     91.2776
   812.0000     20.0637   2000.0000   2000.0000     79.7878
   812.2500     20.0330   2000.0000   2000.0000     74.5639
   812.5000     20.0100   2000.0000   2000.0000     71.5305
   812.7500     19.9889   2000.0000   2000.0000     73.3120
   813.0000     19.9307   2000.0000   2000.0000     81.7798
   813.2500     19.7893   2000.0000   2000.0000     90.5109
   813.5000     19.5414   2000.0000   2000.0000    105.8123
   813.7500     19.1962   2000.0000   2000.0000    115.8674
   814.0000     18.7853   2000.0000   2000.0000    128.4377
   814.2500     18.3462   2000.0000   2000.0000    134.4214
   814.5000     17.9121   2000.0000   2000.0000    139.7741
   814.7500     17.5110   2000.0000   2000.0000    141.3752
   815.0000     17.1687   2000.0000   2000.0000    141.7688
   815.2500     16.9131   2000.0000   2000.0000    141.1487
   815.5000     16.7740   2000.0000   2000.0000    139.3825
   815.7500     16.7803   2000.0000   2000.0000    137.7496
   816.0000     16.9524   2000.0000   2000.0000    134.5579
   816.2500     17.2950   2000.0000   2000.0000    131.8747
   816.5000     17.7933   2000.0000   2000.0000    127.1758
   816.7500     18.4198   2000.0000   2000.0000    124.0034
   817.0000     19.1519   2000.0000   2000.0000    120.3113
   817.2500     19.9925   2000.0000   2000.0000    119.0680
   817.5000     20.9742   2000.0000   2000.0000    118.9261
   817.7500     22.1399   2000.0000   2000.0000    119.3437
   818.0000     23.5126   2000.0000   2000.0000    119.2637
   818.2500     25.0701   2000.0000   2000.0000    118.1300
   818.5000     26.7374   2000.0000   2000.0000    114.9987
   818.7500     28.3977   2000.0000   2000.0000    112.7902
   819.0000     29.9184   2000.0000   2000.0000    110.6918
   819.2500     31.1792   2000.0000   2000.0000    110.2066
   819.5000     32.0900   2000.0000   2000.0000    110.0586
   819.7500     32.6020   2000.0000   2000.0000    109.8694
   820.0000     32.7196   2000.0000   2000.0000    108.8399
   820.2500     32.5043   2000.0000   2000.0000    107.3761
   820.5000     32.0411   2000.0000   2000.0000    104.2412
   820.7500     31.3859   2000.0000   2000.0000    102.2925
   821.0000     30.5383   2000.0000   2000.0000    101.2984
   821.2500     29.4706   2000.0000   2000.0000    102.6630
   821.5000     28.1892   2000.0000   2000.0000    108.4037
   821.7500     26.7695   2000.0000   2000.0000    114.6618
   822.0000     25.3319   2000.0000   2000.0000    126.4152
   822.2500     23.9849   2000.0000   2000.0000    134.3814
   822.5000     22.7857   2000.0000   2000.0000    144.1182
   822.7500     21.7415   2000.0000   2000.0000    148.5580
   823.0000     20.8356   2000.0000   2000.0000    152.9013
   823.2500     20.0494   2000.0000   2000.0000    155.2160
   823.5000     19.3671   2000.0000   2000.0000    158.7988
   823.7500     18.7706   2000.0000   2000.0000    160.9020
   824.0000     18.2385   2000.0000   2000.0000    162.2072
   824.2500     17.7521   2000.0000   2000.0000    161.5779
   824.5000     17.3012   2000.0000   2000.0000    159.5696
   824.7500     16.8839   2000.0000   2000.0000    158.4398
   825.0000     16.5028   2000.0000   2000.0000    157.3680
   825.2500     16.1649   2000.0000   2000.0000    156.4138
   825.5000     15.8842   2000.0000   2000.0000    153.2664
   825.7500     15.6832   2000.0000   2000.0000    149.8352
   826.0000     15.5880   2000.0000   2000.0000    143.8638
   826.2500     15.6156   2000.0000   2000.0000    140.5072
   826.5000     15.7630   2000.0000   2000.0000    137.8736
   826.7500     16.0041   2000.0000   2000.0000    137.6874
   827.0000     16.3006   2000.0000   2000.0000    138.3285
   827.2500     16.6208   2000.0000   2000.0000    138.3494
   827.5000     16.9517   2000.0000   2000.0000    136.8968
   827.7500     17.2936   2000.0000   2000.0000    135.1450
   828.0000     17.6416   2000.0000   2000.0000    132.1873
   828.2500     17.9734   2000.0000   2000.0000    130.1603
   828.5000     18.2536   2000.0000   2000.0000    126.5163
   828.7500     18.4529   2000.0000   2000.0000    123.4380
   829.0000     18.5650   2000.0000   2000.0000    118.4700
   829.2500     18.6071   2000.0000   2000.0000    115.7658
