~Version Information
 VERS.                                  2.0 : CWLS LAS VERSION
 WRAP.                                   NO : WRAPING MODE
 SWARE .                 MController 2.5.0J : SOFTWARE VERSION
~Well Information
 WELL.                          Silva 6-22V : WELL
 COMP.                       Petrogulf Corp : COMPANY
 FLD.                      Purgatoire River : FIELD
 LOC.                 SE/NW Sec 6 T33S R67W : LOCATION
 DATE.                            11/7-9/04 : DATE(S) LOGGED
 SRVC.       Blanco Geological Services LLC : SERVICE COMPANY
 STAT.                                   CO : STATE
 CNTY.                           Las Animas : COUNTY
 CTRY.                                  USA : COUNTRY
 API.                       05-071-08143-00 : API NUMBER
 STRT.FT                              35.00 : START DEPTH
 STOP.FT                            2732.00 : STOP DEPTH
 STEP.FT                               1.00 : DEPTH INCREMENT
 NULL.                                -9999 : NULL VALUE
~Curve information
 DEPTH.FT                                   :
 ROP.MIN/FT                                 :
 GAS.UNITS                                  :
~ASCII Log data
# ...
       435.0         0.23         11.1 
       436.0         0.22         11.5 
       437.0         0.23         11.2 
       438.0         0.23         10.8 
       439.0         0.20          9.7 
       440.0         0.23          9.7 
       441.0         0.13         10.0 
       442.0         0.20         10.9 
       443.0         0.27         11.3 
       444.0         0.23         11.9 
       445.0         0.25         11.7 
       446.0         0.20         11.3 
       447.0         0.23         11.5 
       448.0         0.20         11.0 
       449.0         0.27         11.2 
       450.0         0.23         11.2 
       451.0         0.23         11.0 
       452.0         0.27         11.1 
       453.0         0.27         11.2 
       454.0         0.30         11.0 
       455.0         0.20         11.2 
       456.0         0.27         11.2 
       457.0         0.20         11.2 
       458.0         0.20         11.4 
       459.0         0.22         11.8 
       460.0         0.23         10.4 
       461.0         0.20         11.1 
       462.0         0.23         11.7 
       463.0         0.17         11.7 
       464.0         0.23         11.8 
       465.0         0.23         11.4 
       466.0         0.23         10.8 
       467.0         0.23         10.5 
       468.0         0.23         10.6 
       469.0         0.23         11.6 
       470.0         0.17         11.6 
       471.0         0.23         11.7 
       472.0         0.23         11.6 
       473.0         0.23         11.5 
       474.0         0.23         11.4 
       475.0         0.23         11.2 
       476.0         0.27         10.8 
       477.0         0.27         11.5 
       478.0         0.30         11.2 
       479.0         0.23         11.4 
       480.0         0.20         10.9 
       481.0         0.28         11.6 
       482.0         0.27         11.6 
       483.0         0.30         11.6 
       484.0         0.23         11.4 
       485.0         0.23         11.2 
       486.0         0.20         11.0 
       487.0         0.20         11.6 
       488.0         0.23         11.6 
       489.0         0.17         11.6 
       490.0         0.23         11.6 
       491.0         0.17         11.3 
       492.0         0.20         11.1 
       493.0         0.20         11.1 
       494.0         0.20         10.9 
       495.0         0.23         11.5 
       496.0         0.25         11.4 
       497.0         0.23         11.4 
       498.0         0.23         11.6 
       499.0         0.20         11.5 
       500.0         0.13         11.9 
       501.0         0.27         11.6 
       502.0         0.23         10.7 
       503.0         0.27         10.8 
       504.0         0.23         10.9 
       505.0         0.28         11.5 
       506.0         0.23         11.8 
       507.0         0.23         11.1 
       508.0         0.23         11.2 
       509.0         0.23         11.2 
       510.0         0.23         11.4 
       511.0         0.20         11.7 
       512.0         0.23         11.8 
       513.0         0.23         11.4 
       514.0         0.27         11.3 
       515.0         0.23         11.8 
       516.0         0.23         11.6 
       517.0         0.23         11.3 
       518.0         0.23         11.7 
       519.0         0.25         11.3 
       520.0         0.20         11.7 
       521.0         0.23         11.6 
       522.0         0.23         11.6 
       523.0         0.23         12.1 
       524.0         0.23         11.6 
       525.0         0.23         10.9 
       526.0         0.33         10.4 
       527.0         0.23         10.5 
       528.0         0.30         11.0 
       529.0         0.23         11.3 
       530.0         0.23         11.9 
       531.0         0.10         11.9 
       532.0         0.27         12.4 
       533.0         0.23         11.6 
       534.0         0.23         11.4 
       535.0         0.23         10.9 
       536.0         0.23         11.0 
       537.0         0.23         11.2 
       538.0         0.23         11.3 
       539.0         0.23         11.0 
       540.0         0.30         11.3 
       541.0         0.35         11.5 
       542.0         0.33         11.8 
       543.0         0.30         11.4 
       544.0         0.30         11.4 
       545.0         0.27         11.2 
       546.0         0.30         11.6 
       547.0         0.30         11.4 
       548.0         0.33         11.3 
       549.0         0.23         10.9 
       550.0         0.23         11.9 
       551.0         0.28         11.1 
       552.0         0.23         11.4 
       553.0         0.23         11.0 
       554.0         0.27         11.5 
       555.0         0.23         12.0 
       556.0         0.30         12.0 
       557.0         0.30         12.0 
       558.0         0.30         11.3 
       559.0         0.27         11.3 
       560.0         0.33         11.8 
       561.0         0.30         11.3 
       562.0         0.30         11.3 
       563.0         0.27         11.9 
       564.0         0.27         12.0 
       565.0         0.27         11.6 
       566.0         0.27         11.4 
       567.0         0.27         11.2 
       568.0         0.23         16.2 
       569.0         0.20         13.5 
       570.0         0.25         13.5 
       571.0         0.23         13.1 
       572.0         0.23         13.3 
       573.0         0.20         13.1 
       574.0         0.23         13.3 
       575.0         0.23         13.2 
       576.0         0.30         12.9 
       577.0         0.27         12.2 
       578.0         0.17         12.7 
       579.0         0.23         14.0 
       580.0         0.13         13.7 
       581.0         0.10         13.3 
       582.0         0.10         13.3 
       583.0         0.13         13.2 
       584.0         0.12         13.2 
       585.0         0.27         13.0 
       586.0         0.23         12.9 
       587.0         0.20         12.8 
       588.0         0.20         13.4 
       589.0         0.17         14.1 
       590.0         0.17         12.9 
       591.0         0.20         13.4 
       592.0         0.17         13.6 
       593.0         0.13         13.2 
       594.0         0.20         13.6 
       595.0         0.13         13.5 
       596.0         0.27         13.1 
       597.0         0.20         13.1 
       598.0         0.17         13.5 
       599.0         0.17         13.7 
       600.0         0.20         13.2 
       601.0         0.20         12.5 
       602.0         0.20         13.1 
       603.0         0.17         13.1 
       604.0         0.17         14.2 
       605.0         0.17         14.0 
       606.0         0.20         13.6 
       607.0         0.17         12.8 
       608.0         0.17         12.9 
       609.0         0.20         12.2 
       610.0         0.20         11.7 
       611.0         0.17         12.4 
       612.0         0.22         12.4 
       613.0         0.23         13.6 
       614.0         0.23         12.8 
       615.0         0.20         12.4 
       616.0         0.20         13.1 
       617.0         0.20         13.2 
       618.0         0.20         13.2 
       619.0         0.20         12.7 
       620.0         0.17         12.6 
       621.0         0.20         13.3 
       622.0         0.20         12.9 
       623.0         0.23         13.1 
       624.0         0.13         13.9 
       625.0         0.27         14.0 
       626.0         0.07         13.8 
       627.0         0.27         13.1 
       628.0         0.23         12.9 
       629.0         0.20         13.0 
       630.0         0.17         13.0 
       631.0         0.20         13.3 
       632.0         0.20         13.4 
       633.0         0.20         13.7 
       634.0         0.33         13.2 
