~Version Information
VERS.                      2.0: CWLS Log ASCII Standard - VERSION 2.0
WRAP.                       NO: One line per depth step
~Well Information Block
STRT.FT                -8.7500: 
STOP.FT              1126.7500: 
STEP.FT                 0.2500: 
NULL.                -999.2500: 
COMP.          Evergreen Operating Corp.: COMPANY
WELL.             Bernice 21-3: WELL
FLD.           Purgatorie River: FIELD
LOC.           201' FNL & 2575' FWL--: LOCATION
PROV.                       CO: PROVINCE
CNTY.               Las Animas: COUNTRY
SRVC.          Patterson Wireline: SERVICE COMPANY
DATE.          Mon Feb 02 12:04:59 2004: LOG DATE
UWI.              05 071 07912: UNIQUE WELL ID
~Curve Information Block
DEPT.FT            0 000 00 00: Depth
CCL.                          : Casing Collar Locator
TT3.usec                      : CBL 3' Travel Time
AMP3.mV                       : CBL 3' Amplitude
GR.GAPI                       : Gamma Ray
~Parameter Information Block
~A  Depth       CCL         TT3         AMP3         GR     
# ...
   594.2500      0.0000    765.9091      7.6359    133.9164
   594.5000      0.0000    755.0653      7.5282    131.4161
   594.7500      0.0000    745.0477      7.3801    126.8784
   595.0000      0.0000    737.3005      7.1753    121.8087
   595.2500      0.0000    733.2087      6.8988    117.2953
   595.5000      0.0000    733.1685      6.5566    113.9240
   595.7500      0.0000    736.2792      6.1899    111.8366
   596.0000      0.0000    740.8236      5.8655    110.7178
   596.2500      0.0000    745.9308      5.6467    110.0405
   596.5000      0.0000    753.3021      5.5656    109.7107
   596.7500      0.0000    765.9989      5.6134    110.2120
   597.0000      0.0000    784.2764      5.7519    111.7080
   597.2500      0.0000    803.5862      5.9319    113.4003
   597.5000      0.0000    817.9339      6.1042    114.4301
   597.7500      0.0000    824.6958      6.2311    115.2187
   598.0000     -4.0000    825.5226      6.2980    117.2864
   598.2500     -4.0000    823.5923      6.3070    121.4759
   598.5000      0.0000    821.0203      6.2762    126.6738
   598.7500      0.0000    818.2050      6.2569    130.5957
   599.0000      0.0000    814.3294      6.3101    131.7200
   599.2500      0.0000    808.1180      6.4298    130.3481
   599.5000      0.0000    798.7311      6.5254    128.0841
   599.7500      0.0000    786.8920      6.5302    126.4944
   600.0000      0.0000    775.1526      6.4937    125.9829
   600.2500      0.0000    766.2655      6.5170    125.6627
   600.5000      0.0000    761.2446      6.6303    124.3726
   600.7500      0.0000    759.4672      6.7772    121.9791
   601.0000      0.0000    759.9750      6.8856    119.5258
   601.2500      0.0000    762.0613      6.9208    118.0334
   601.5000      0.0000    765.4788      6.8900    117.5399
   601.7500      0.0000    770.7242      6.8290    117.6597
   602.0000      0.0000    778.4644      6.7849    118.5789
   602.2500      0.0000    788.2844      6.7845    120.6883
   602.5000      0.0000    798.1721      6.8137    123.4266
   602.7500      0.0000    805.2564      6.8298    125.5071
   603.0000      0.0000    806.9857      6.8031    126.4876
   603.2500      0.0000    802.0193      6.7439    127.2464
   603.5000      0.0000    790.9707      6.6916    128.4519
   603.7500      0.0000    776.8500      6.6783    129.0458
   604.0000      0.0000    764.0289      6.6991    126.7008
   604.2500      0.0000    755.5714      6.7169    119.7696
   604.5000      0.0000    751.4381      6.7024    108.8876
   604.7500      0.0000    749.8448      6.6689     97.1334
   605.0000      0.0000    749.9915      6.6627     88.6768
   605.2500      0.0000    752.5925      6.7133     86.5395
   605.5000      0.0000    758.1873      6.8004     90.8733
   605.7500      0.0000    766.2286      6.8753     99.1716
   606.0000      0.0000    775.8563      6.9067    108.0141
   606.2500      0.0000    786.4032      6.9018    114.4538
   606.5000      0.0000    796.8513      6.8920    116.2060
   606.7500      0.0000    805.6722      6.9047    111.8218
   607.0000      0.0000    811.7100      6.9435    101.6494
   607.2500      0.0000    814.9262      6.9876     88.3330
   607.5000      0.0000    816.1634      7.0061     75.5734
   607.7500      0.0000    816.4303      6.9761     66.0415
   608.0000      0.0000    816.4360      6.8988     60.2595
   608.2500      0.0000    816.4942      6.8084     57.0168
   608.5000      0.0000    816.6259      6.7553     54.5513
   608.7500      0.0000    816.7205      6.7609     51.5901
   609.0000      0.0000    816.6820      6.7905     47.8993
   609.2500      0.0000    816.5026      6.7845     44.3243
   609.5000      0.0000    816.2483      6.7196     42.3422
   609.7500      0.0000    815.9979      6.6293     43.2317
   610.0000      0.0000    815.8062      6.5676     47.3162
   610.2500      0.0000    815.7032      6.5682     53.9520
   610.5000      0.0000    815.6936      6.6329     62.1993
   610.7500      0.0000    815.7562      6.7362     71.1235
   611.0000      0.0000    815.8627      6.8294     79.4579
   611.2500      0.0000    815.9947      6.8617     85.8857
   611.5000      0.0000    816.1306      6.8148     90.2237
   611.7500      0.0000    816.2338      6.7155     93.6710
   612.0000      0.0000    816.2736      6.6139     97.2767
   612.2500      0.0000    816.2507      6.5490    100.6762
   612.5000      0.0000    816.1837      6.5286    102.8239
   612.7500      0.0000    816.0667      6.5351    103.4963
   613.0000      0.0000    815.8546      6.5498    103.6613
   613.2500      0.0000    815.5046      6.5678    104.6876
   613.5000      0.0000    815.0320      6.5871    107.4548
   613.7500      0.0000    814.5189      6.5910    111.9802
   614.0000      0.0000    814.0580      6.5537    117.5438
   614.2500      0.0000    813.6991      6.4703    122.9450
   614.5000      0.0000    813.4545      6.3727    126.6633
   614.7500      0.0000    813.3372      6.3063    127.3785
   615.0000      0.0000    813.3714      6.2860    124.9770
   615.2500      0.0000    813.5678      6.2862    120.8970
   615.5000      0.0000    813.9000      6.2778    117.0517
   615.7500      0.0000    814.3000      6.2604    114.5278
   616.0000      0.0000    814.6757      6.2515    113.4064
   616.2500      0.0000    814.9482      6.2582    113.4889
   616.5000      0.0000    815.0998      6.2715    114.8776
   616.7500      0.0000    815.1830      6.2744    117.7754
   617.0000      0.0000    815.2769      6.2476    121.6632
   617.2500      0.0000    815.4244      6.1817    124.9393
   617.5000      0.0000    815.6080      6.0986    125.8808
   617.7500      0.0000    815.7778      6.0446    124.1736
   618.0000      0.0000    815.8969      6.0433    121.3354
   618.2500      0.0000    815.9598      6.0644    119.5530
   618.5000      0.0000    815.9819      6.0582    120.0709
   618.7500      0.0000    815.9786      6.0108    122.5088
   619.0000      0.0000    815.9590      5.9494    125.5006
   619.2500      0.0000    815.9323      5.9010    127.9376
   619.5000      0.0000    815.9066      5.8663    129.7372
   619.7500      0.0000    815.8739      5.8276    131.7033
   620.0000      0.0000    815.7939      5.7724    134.7672
   620.2500      0.0000    815.6064      5.7129    139.0137
   620.5000      0.0000    815.1789      5.6793    142.9667
   620.7500      0.0000    814.0585      5.6877    144.2054
   621.0000      0.0000    811.1098      5.7079    141.3647
   621.2500      0.0000    804.6583      5.6768    135.2642
   621.5000      0.0000    793.9939      5.5595    127.6365
   621.7500      0.0000    781.6230      5.3912    119.4631
   622.0000      0.0000    773.2891      5.2388    111.1378
   622.2500      0.0000    773.9359      5.1286    103.4788
   622.5000      0.0000    783.2245      5.0419     97.7521
   622.7500      0.0000    796.0574      4.9735     94.9379
   623.0000      0.0000    807.3707      4.9548     95.3753
   623.2500      0.0000    815.3533      5.0127     98.8827
   623.5000      0.0000    820.6281      5.1326    104.7345
   623.7500     -4.0000    824.2593      5.2702    111.4034
   624.0000      0.0000    826.9971      5.3933    116.8572
   624.2500      0.0000    829.0562      5.5063    119.7930
   624.5000      0.0000    829.7766      5.6223    120.6264
   624.7500      0.0000    828.1834      5.7170    120.8502
   625.0000      0.0000    824.3207      5.7445    121.3689
   625.2500      0.0000    819.5117      5.7208    121.7663
   625.5000      0.0000    815.0648      5.7439    121.1303
   625.7500      0.0000    811.2504      5.8907    119.2416
   626.0000      0.0000    807.8201      6.1283    116.9527
   626.2500      0.0000    805.1098      6.3613    115.6314
   626.5000      0.0000    804.0906      6.5267    116.3597
   626.7500      0.0000    805.2449      6.6200    119.5173
   627.0000      0.0000    807.8016      6.6613    124.5908
   627.2500      0.0000    810.3677      6.6676    129.9582
   627.5000      0.0000    812.0618      6.6510    133.2255
