~Version Information
VERS.                      2.0: CWLS Log ASCII Standard - VERSION 2.0
WRAP.                       NO: One line per depth step
~Well Information Block
STRT.FT               419.7500: 
STOP.FT              1170.0000: 
STEP.FT                 0.2500: 
NULL.                -999.2500: 
COMP.          Evergreen Operating Corporation: COMPANY
WELL.             Bernice 21-3: WELL
FLD.           Purgatoire River: FIELD
LOC.           201' FNL & 2575' FWL: LOCATION
PROV.                 Colorado: PROVINCE
CNTY.               Las Animas: COUNTRY
SRVC.                Patterson: SERVICE COMPANY
DATE.          Mon Jan 26 13:04:04 2004: LOG DATE
UWI.           05 071 07912   : UNIQUE WELL ID
~Curve Information Block
DEPT.FT            0 000 00 00: Depth
SN.Ohm-m                      : IEL Short Normal
SP.mV                         : IEL Spontaneous Potential
DIR.Ohm-m                     : IEL Induction Resistivity
GR.GAPI                       : Gamma Ray
~Parameter Information Block
~A  Depth        SN          SP         DIR          GR     
# ...
   721.2500     51.0538   -444.3897     31.9026     69.9022
   721.5000     48.6895   -443.4713     30.7264     71.1288
   721.7500     45.9155   -442.5394     30.1264     73.8448
   722.0000     42.2952   -441.6463     29.9629     82.5620
   722.2500     38.3484   -440.7866     30.0101     91.6730
   722.5000     35.2163   -439.9324     29.9998    108.0867
   722.7500     33.5417   -439.0891     29.7106    118.7014
   723.0000     33.1921   -438.3058     29.0853    131.1577
   723.2500     33.7442   -437.6412     28.2838    136.4071
   723.5000     34.9549   -437.1313     27.5947    139.5087
   723.7500     36.9382   -436.7866     27.2846    138.3899
   724.0000     40.2315   -436.6007     27.4880    131.9327
   724.2500     45.6178   -436.5546     28.1749    124.7405
   724.5000     53.0830   -436.6277     29.1739    111.0747
   724.7500     60.6437   -436.8303     30.2460    101.3281
   725.0000     65.6342   -437.2226     31.1753     88.1799
   725.2500     67.2700   -437.8712     31.7960     81.7777
   725.5000     66.1608   -438.7743     31.9436     77.8371
   725.7500     62.5219   -439.8398     31.4523     79.8270
   726.0000     56.5075   -440.9412     30.2757     89.8065
   726.2500     48.9443   -441.9808     28.5906    100.1728
   726.5000     41.1955   -442.9036     26.7111    118.4281
   726.7500     34.7680   -443.6739     24.9071    130.6037
   727.0000     30.5202   -444.2555     23.3034    146.5059
   727.2500     28.1656   -444.6212     21.9008    154.6964
   727.5000     26.8694   -444.7833     20.6402    162.8010
   727.7500     25.9595   -444.8158     19.4602    165.6417
   728.0000     25.0248   -444.8396     18.3274    167.2972
   728.2500     23.7638   -444.9689     17.2393    167.5400
   728.5000     22.0108   -445.2590     16.2097    167.7255
   728.7500     19.9045   -445.6890     15.2539    168.0252
   729.0000     17.8467   -446.1703     14.3815    168.6468
   729.2500     16.2616   -446.5689     13.5982    168.8414
   729.5000     15.3568   -446.7529     12.9097    168.1745
   729.7500     14.9777   -446.6583     12.3236    167.0405
   730.0000     14.8209   -446.3188     11.8474    165.2707
   730.2500     14.7261   -445.8303     11.4863    165.1123
   730.5000     14.6410   -445.2910     11.2394    167.7647
   730.7500     14.5521   -444.7692     11.0962    171.1050
   731.0000     14.4681   -444.2982     11.0336    175.8778
   731.2500     14.3685   -443.8688     11.0163    177.3143
   731.5000     14.2364   -443.4228     11.0043    176.1761
   731.7500     14.0890   -442.8845     10.9687    174.1243
   732.0000     13.9653   -442.2217     10.9064    171.2134
   732.2500     13.9018   -441.4684     10.8396    170.1287
   732.5000     13.8737   -440.6894     10.7996    169.9096
   732.7500     13.8345   -439.9478     10.8075    170.2383
   733.0000     13.8035   -439.3077     10.8670    170.2304
   733.2500     13.8541   -438.8321     10.9709    169.5743
   733.5000     14.0471   -438.5531     11.1105    168.6758
   733.7500     14.3511   -438.4480     11.2807    169.2071
   734.0000     14.6289   -438.4547     11.4779    172.3809
   734.2500     14.7540   -438.5107     11.6961    175.3799
   734.5000     14.7183   -438.5834     11.9253    179.0785
   734.7500     14.5988   -438.6804     12.1564    180.0487
   735.0000     14.4648   -438.8343     12.3855    179.1325
   735.2500     14.3862   -439.0616     12.6147    177.7154
   735.5000     14.4825   -439.3152     12.8477    175.6234
   735.7500     14.8310   -439.4812     13.0869    174.0922
   736.0000     15.3399   -439.4450     13.3325    170.3030
   736.2500     15.7612   -439.1767     13.5846    166.4399
   736.5000     15.9279   -438.7448     13.8425    159.4513
   736.7500     15.9726   -438.2410     14.1057    154.7935
   737.0000     16.1454   -437.7072     14.3771    148.8537
   737.2500     16.5256   -437.1414     14.6686    145.9941
   737.5000     17.0245   -436.5523     15.0033    143.8317
   737.7500     17.5722   -435.9932     15.4097    143.8225
   738.0000     18.1818   -435.5453     15.9107    145.0623
   738.2500     18.8352   -435.2589     16.5115    145.7817
   738.5000     19.4389   -435.0968     17.1927    145.4677
   738.7500     19.9460   -434.9461     17.9139    144.2957
   739.0000     20.4008   -434.6948     18.6292    141.7152
   739.2500     20.8537   -434.2968     19.3113    139.6262
   739.5000     21.3305   -433.7810     19.9682    135.6899
   739.7500     21.7862   -433.2341     20.6372    132.4389
   740.0000     22.1111   -432.7775     21.3542    127.3350
   740.2500     22.3683   -432.5340     22.1267    124.6979
   740.5000     22.8196   -432.5884     22.9304    123.3160
   740.7500     23.5697   -432.9514     23.7301    124.1406
   741.0000     24.5130   -433.5391     24.4979    126.3657
   741.2500     25.6609   -434.1819     25.2100    127.1998
   741.5000     27.1863   -434.6625     25.8338    126.2797
   741.7500     29.0835   -434.7688     26.3217    124.5437
   742.0000     30.9854   -434.3332     26.6226    121.9550
   742.2500     32.6702   -433.2133     26.6918    121.0569
   742.5000     34.5297   -431.2678     26.4973    120.7416
   742.7500     36.9794   -428.5181     26.0309    120.2343
   743.0000     39.5661   -425.4561     25.3213    117.4527
   743.2500     41.0668   -423.0143     24.4354    114.1463
   743.5000     40.4886   -421.9565     23.4620    108.0365
   743.7500     37.8721   -422.2873     22.4958    103.9371
   744.0000     34.3158   -423.3523     21.6233     98.9643
   744.2500     30.9577   -424.4258     20.9002     97.4232
   744.5000     27.9590   -425.1332     20.3287     99.7494
   744.7500     25.0554   -425.4709     19.8553    104.8389
   745.0000     22.4461   -425.6263     19.4025    116.0173
   745.2500     20.4785   -425.7990     18.9132    123.8034
   745.5000     19.0810   -426.0770     18.3746    132.9410
   745.7500     17.9958   -426.3942     17.8102    136.3967
   746.0000     17.1870   -426.5859     17.2595    136.9861
   746.2500     16.7467   -426.5144     16.7641    134.3981
   746.5000     16.7620   -426.1723     16.3599    127.4919
   746.7500     17.3052   -425.6840     16.0683    122.3336
   747.0000     18.2564   -425.2187     15.8913    115.8461
   747.2500     19.2575   -424.8951     15.8196    112.8527
   747.5000     19.9620   -424.7328     15.8515    110.5246
   747.7500     20.1891   -424.6476     16.0044    110.4199
   748.0000     19.9713   -424.4763     16.3061    111.9887
   748.2500     19.6811   -424.0520     16.7687    113.5842
   748.5000     19.8194   -423.3169     17.3675    116.0417
   748.7500     20.4847   -422.3692     18.0422    117.8052
   749.0000     21.3485   -421.3813     18.7169    120.9093
   749.2500     22.0748   -420.4714     19.3210    122.8278
   749.5000     22.4539   -419.6598     19.7996    123.9205
   749.7500     22.3670   -418.9180     20.1223    122.9966
   750.0000     21.9690   -418.2323     20.3012    119.9742
   750.2500     21.7024   -417.6267     20.4015    117.8669
   750.5000     21.8611   -417.1380     20.5172    115.7247
   750.7500     22.3585   -416.7720     20.7233    114.8556
   751.0000     23.0047   -416.4869     21.0434    113.2450
   751.2500     23.6860   -416.2264     21.4612    111.6276
   751.5000     24.2931   -415.9645     21.9598    109.6481
   751.7500     24.7454   -415.7114     22.5489    109.9033
   752.0000     25.0500   -415.4790     23.2506    113.1595
   752.2500     25.2870   -415.2504     24.0540    115.9503
   752.5000     25.5986   -414.9869     24.8799    118.0249
   752.7500     26.1522   -414.6668     25.5944    117.2846
   753.0000     26.8998   -414.3249     26.0805    114.0939
   753.2500     27.5288   -414.0450     26.3152    111.5154
   753.5000     28.1370   -413.8961     26.3724    107.2621
   753.7500     29.3182   -413.8780     26.3444    103.6196
   754.0000     30.9649   -413.9367     26.2647     95.9331
   754.2500     32.3085   -414.0133     26.1121     89.2761
   754.5000     33.4423   -414.0585     25.8751     78.5600
