~Version Information
VERS.                      2.0: CWLS Log ASCII Standard - VERSION 2.0
WRAP.                       NO: One line per depth step
~Well Information Block
STRT.FT                -3.5000: 
STOP.FT              1745.0000: 
STEP.FT                 0.2500: 
NULL.                -999.2500: 
COMP.          Pioneer Natural Resources: COMPANY
WELL.           Labrador 34-30: WELL
FLD.           Purgatorie River: FIELD
LOC.           926' FSL & 2080' FEL--: LOCATION
PROV.                       CO: PROVINCE
CNTY.               Las Animas: COUNTRY
SRVC.                         : SERVICE COMPANY
DATE.          Fri Dec 10 09:58:23 2004: LOG DATE
UWI.                071-08202 : UNIQUE WELL ID
~Curve Information Block
DEPT.FT            0 000 00 00: Depth
GR.GAPI                       : Gamma Ray
CCL.                          : Casing Collar Locator
TT3.usec                      : CBL 3' Travel Time
AMP3.mV                       : CBL 3' Amplitude
~Parameter Information Block
~A  Depth        GR         CCL         TT3         AMP3    
# ...
  1370.0000     85.7248      0.0000    749.6652     14.1262
  1370.2500     75.2850      0.0000    749.9169     14.1380
  1370.5000     67.9521      0.0000    750.2039     14.1621
  1370.7500     64.2155      0.0000    750.4688     14.1814
  1371.0000     62.9464      0.0000    750.6900     14.1643
  1371.2500     62.2655      0.0000    750.8749     14.0737
  1371.5000     60.9670      0.0000    751.0447     13.8936
  1371.7500     59.2878      0.0000    751.2217     13.6477
  1372.0000     58.4252      0.0000    751.4169     13.3932
  1372.2500     59.2611      0.0000    751.6243     13.1939
  1372.5000     61.4287      0.0000    751.8338     13.0914
  1372.7500     63.6786      0.0000    752.0427     13.0873
  1373.0000     65.0543      0.0000    752.2502     13.1496
  1373.2500     65.3789      0.0000    752.4534     13.2404
  1373.5000     64.6505      0.0000    752.6548     13.3408
  1373.7500     62.6221      0.0000    752.8669     13.4528
  1374.0000     59.3387      0.0000    753.1024     13.5873
  1374.2500     55.6722      0.0000    753.3553     13.7509
  1374.5000     52.8769      0.0000    753.5863     13.9356
  1374.7500     51.7823      0.0000    753.6658     14.1174
  1375.0000     52.6558      0.0000    753.2134     14.2698
  1375.2500     55.4937      0.0000    751.3204     14.3840
  1375.5000     59.8975      0.0000    746.4603     14.4774
  1375.7500     64.6711      0.0000    737.1655     14.5783
  1376.0000     68.0994      0.0000    723.4564     14.7016
  1376.2500     68.9784      0.0000    707.6873     14.8367
  1376.5000     67.1938      0.0000    693.3009     14.9585
  1376.7500     63.3757      0.0000    682.2605     15.0424
  1377.0000     58.5487      0.0000    673.6462     15.0642
  1377.2500     54.0884      0.0000    664.8314     14.9864
  1377.5000     51.1672      0.0000    654.2818     14.7555
  1377.7500     49.8979      0.0000    642.8716     14.3335
  1378.0000     49.4203      0.0000    631.3463     13.7476
  1378.2500     48.9384      0.0000    617.1916     13.1054
  1378.5000     48.3202      0.0000    597.9488     12.5244
  1378.7500     47.6499      0.0000    579.1329     12.0198
  1379.0000     46.6577      0.0000    574.2581     11.4917
  1379.2500     45.0044      0.0000    592.8820     10.8779
  1379.5000     43.1773      0.0000    630.2253     10.3009
  1379.7500     42.8345      0.0000    670.9362      9.9777
  1380.0000     45.9870      0.0000    701.4117      9.9815
  1380.2500     53.6762      0.0000    716.6544     10.1714
  1380.5000     65.2529     -2.0000    717.8550     10.3587
  1380.7500     78.6378     -2.0000    708.1579     10.4863
  1381.0000     91.1964      0.0000    691.1881     10.6623
  1381.2500    100.7969      0.0000    670.5986     11.0649
  1381.5000    106.6229      0.0000    650.2303     11.7868
  1381.7500    109.3256      0.0000    636.0484     12.7086
  1382.0000    110.3798      0.0000    635.8644     13.5442
  1382.2500    111.0668      0.0000    653.0380     14.0742
  1382.5000    111.7909      0.0000    681.3745     14.3220
  1382.7500    112.1620      0.0000    709.6332     14.4522
  1383.0000    111.7000      0.0000    730.3156     14.5511
  1383.2500    110.4630      0.0000    742.5123     14.5740
  1383.5000    109.0072      0.0000    748.7086     14.4629
  1383.7500    107.8990      0.0000    751.5158     14.2336
  1384.0000    107.6059      0.0000    752.6670     13.9496
  1384.2500    108.7513      0.0000    753.1149     13.6646
  1384.5000    111.7955      0.0000    753.2101     13.4016
  1384.7500    116.0214      0.0000    752.6896     13.1680
  1385.0000    119.2046      0.0000    750.1436     12.9729
  1385.2500    118.9872      0.0000    742.2139     12.8293
  1385.5000    115.0817      0.0000    723.8746     12.7453
  1385.7500    110.0292      0.0000    692.1049     12.7211
  1386.0000    106.9695      0.0000    652.0315     12.7620
  1386.2500    106.2720      0.0000    618.2806     12.8858
  1386.5000    105.1882      0.0000    605.6318     13.1077
  1386.7500    101.4072      0.0000    616.2712     13.4134
  1387.0000     96.0910      0.0000    638.1969     13.7566
  1387.2500     92.5771      0.0000    656.4677     14.0836
  1387.5000     92.5766      0.0000    663.8630     14.3592
  1387.7500     94.4292      0.0000    660.8791     14.5746
  1388.0000     95.0346      0.0000    649.0405     14.7376
  1388.2500     92.9360      0.0000    627.3290     14.8522
  1388.5000     89.2200      0.0000    595.1171     14.9026
  1388.7500     85.7776      0.0000    555.8931     14.8636
  1389.0000     83.4253      0.0000    515.7871     14.7315
  1389.2500     81.8969      0.0000    479.3060     14.5414
  1389.5000     80.9259      0.0000    448.7322     14.3495
  1389.7500     80.6363      0.0000    426.7775     14.2035
  1390.0000     80.9900      0.0000    416.4602     14.1265
  1390.2500     81.3485      0.0000    417.9195     14.1162
  1390.5000     80.8733      0.0000    428.1689     14.1513
  1390.7500     79.4384      0.0000    445.5866     14.2003
  1391.0000     77.8111      0.0000    473.3187     14.2320
  1391.2500     76.5728      0.0000    516.2515     14.2224
  1391.5000     75.1877      0.0000    573.7213     14.1556
  1391.7500     72.5646      0.0000    635.8260     14.0237
  1392.0000     68.3429      0.0000    688.3583     13.8285
  1392.2500     63.3682      0.0000    721.5790     13.5822
  1392.5000     59.1557      0.0000    733.8262     13.3067
  1392.7500     57.0990      0.0000    728.3999     13.0366
  1393.0000     57.8571      0.0000    709.6938     12.8267
  1393.2500     61.1100      0.0000    682.1356     12.7445
  1393.5000     65.8845      0.0000    649.8564     12.8351
  1393.7500     71.2347      0.0000    615.4478     13.0844
  1394.0000     76.6647      0.0000    580.0250     13.4220
  1394.2500     81.9672      0.0000    546.0878     13.7636
  1394.5000     86.6591      0.0000    520.3064     14.0498
  1394.7500     89.6743      0.0000    511.9293     14.2523
  1395.0000     90.0093      0.0000    526.5826     14.3589
  1395.2500     87.9959      0.0000    560.0703     14.3660
  1395.5000     85.5830      0.0000    597.7687     14.2905
  1395.7500     84.7866      0.0000    621.8942     14.1821
  1396.0000     86.0133      0.0000    623.0623     14.1097
  1396.2500     88.2873      0.0000    607.7209     14.1183
  1396.5000     90.7964      0.0000    593.8511     14.1971
  1396.7500     93.5730      0.0000    596.2599     14.2941
  1397.0000     96.5988      0.0000    614.4562     14.3637
  1397.2500     98.6424      0.0000    635.3199     14.3998
  1397.5000     97.4604      0.0000    645.8133     14.4301
  1397.7500     91.5849      0.0000    640.2704     14.4853
  1398.0000     81.9619      0.0000    617.5973     14.5729
  1398.2500     71.5601      0.0000    577.6172     14.6725
  1398.5000     63.2883      0.0000    523.5898     14.7432
  1398.7500     58.4468      0.0000    466.0191     14.7336
  1399.0000     56.9030      0.0000    420.0383     14.5968
  1399.2500     57.9051      0.0000    397.1277     14.3045
  1399.5000     60.3661      0.0000    398.9418     13.8447
  1399.7500     63.0787      0.0000    418.3105     13.2161
  1400.0000     65.2964      0.0000    446.4768     12.4484
  1400.2500     66.9183      0.0000    480.6828     11.6162
  1400.5000     67.9104      0.0000    523.9364     10.7955
  1400.7500     67.8863      0.0000    576.3793     10.0160
  1401.0000     66.4859      0.0000    629.3717      9.3092
  1401.2500     63.9279      0.0000    670.5516      8.7812
  1401.5000     60.9579      0.0000    693.5742      8.5532
  1401.7500     58.3287      0.0000    701.5392      8.6160
  1402.0000     56.4957      0.0000    701.9992      8.8017
  1402.2500     55.7084     -2.0000    699.7659      8.9136
  1402.5000     55.8988     -2.0000    693.9077      8.8634
  1402.7500     56.2930      0.0000    680.2771      8.7198
  1403.0000     55.7623      0.0000    656.7461      8.6800
  1403.2500     54.0792      0.0000    627.5097      8.9404
