~Version Information
VERS.                      2.0: CWLS Log ASCII Standard - VERSION 2.0
WRAP.                       NO: One line per depth step
~Well Information Block
STRT.FT                 0.0000: 
STOP.FT              2384.7500: 
STEP.FT                 0.2500: 
NULL.                -999.2500: 
COMP.          Petrogulf Corporation: COMPANY
WELL.           McDaniel 9-34V: WELL
FLD.           Purgatorie River: FIELD
LOC.           620' FSL & 1800' FEL: LOCATION
STAT.                 Colorado: State
CNTY.               Las Animas: COUNTY
CTRY. USA : Country
SECT. 9 : Section
TOWN. 33S : Township
RANG. 67W : Range
SRVC.                Patterson: SERVICE COMPANY
DATE.          Thu Nov 10 12:28:18 2005: LOG DATE
API. 05-071-08333                         : UNIQUE WELL ID
~Curve Information Block
DEPT.FT            0 000 00 00: Depth
AMP3.mV                       : CBL 3' Amplitude
CCL.                          : Casing Collar Locator
GR.GAPI                       : Gamma Ray
TT3.usec                      : CBL 3' Travel Time
~Parameter Information Block
~A  Depth       AMP3        CCL          GR         TT3     
# ...
  1876.0000      1.6145      0.0000     92.0802    616.0834
  1876.2500      1.4548      0.0000     91.9090    623.0357
  1876.5000      1.2982      0.0000     93.5787    628.0746
  1876.7500      1.2043      0.0000     96.6460    630.2103
  1877.0000      1.1870      0.0000     99.4213    630.7312
  1877.2500      1.1984      0.0000    100.2251    631.0067
  1877.5000      1.1849      0.0000     98.4468    631.8331
  1877.7500      1.1462      0.0000     94.7823    634.4537
  1878.0000      1.1202      0.0000     90.8219    641.2617
  1878.2500      1.1277      0.0000     88.2392    653.5938
  1878.5000      1.1662      0.0000     87.8086    667.3095
  1878.7500      1.2409      0.0000     88.9732    673.7198
  1879.0000      1.3450      0.0000     90.5771    668.0389
  1879.2500      1.4347      0.0000     91.9414    654.8131
  1879.5000      1.4739      0.0000     93.0086    642.7755
  1879.7500      1.4807      0.0000     93.8131    636.2827
  1880.0000      1.5017      0.0000     94.2876    634.1614
  1880.2500      1.5421      0.0000     94.4792    633.9514
  1880.5000      1.5443      0.0000     94.6511    633.9855
  1880.7500      1.4651      0.0000     94.9946    632.6295
  1881.0000      1.3449      0.0000     95.1141    627.5733
  1881.2500      1.2470      0.0000     94.1105    617.4929
  1881.5000      1.1754      0.0000     91.7455    604.9305
  1881.7500      1.1157      0.0000     89.4541    594.9122
  1882.0000      1.0902      0.0000     89.5420    589.8468
  1882.2500      1.1153      0.0000     93.0042    588.4097
  1882.5000      1.1754      0.0000     98.2534    588.7499
  1882.7500      1.2532      0.0000    102.2034    590.7941
  1883.0000      1.3380      0.0000    102.7053    596.2419
  1883.2500      1.4153      0.0000    100.0158    606.2618
  1883.5000      1.4743      0.0000     96.1737    618.4501
  1883.7500      1.5231      0.0000     93.2254    628.1898
  1884.0000      1.5780      0.0000     91.9217    633.5925
  1884.2500      1.6300      0.0000     91.7526    636.1597
  1884.5000      1.6439      0.0000     91.9885    637.3044
  1884.7500      1.5989      0.0000     92.5013    637.1623
  1885.0000      1.5059      0.0000     93.5934    635.9281
  1885.2500      1.3834      0.0000     95.5349    633.9435
  1885.5000      1.2528      0.0000     98.5931    630.5301
  1885.7500      1.1430      0.0000    103.0303    624.6564
  1886.0000      1.0655      0.0000    108.5464    617.3728
  1886.2500      1.0188      0.0000    113.9958    611.9944
  1886.5000      1.0186      0.0000    118.0727    610.9692
  1886.7500      1.0598      0.0000    120.1411    613.8896
  1887.0000      1.0804      0.0000    120.3708    619.5347
  1887.2500      1.0394      0.0000    119.5931    626.8463
  1887.5000      0.9883      0.0000    119.1701    632.7479
  1887.7500      0.9978      0.0000    120.2178    633.7956
  1888.0000      1.0652      0.0000    122.2670    630.7606
  1888.2500      1.1384      0.0000    123.1272    628.6937
  1888.5000      1.1838      0.0000    120.9157    630.7682
  1888.7500      1.2020      0.0000    116.2620    633.7182
  1889.0000      1.1957      0.0000    112.0623    631.8083
  1889.2500      1.1468      0.0000    111.0743    623.1928
  1889.5000      1.0563      0.0000    113.9223    612.1712
  1889.7500      0.9788      0.0000    119.0640    606.1378
  1890.0000      0.9703      0.0000    124.0365    608.7196
  1890.2500      1.0140      0.0000    126.7133    616.6968
  1890.5000      1.0467      0.0000    126.0779    624.5798
  1890.7500      1.0474      0.0000    122.5052    629.4990
  1891.0000      1.0448      0.0000    117.4741    631.3684
  1891.2500      1.0587      0.0000    112.7090    631.7244
  1891.5000      1.0667      0.0000    109.2637    631.1264
  1891.7500      1.0391      0.0000    107.2653    627.7055
  1892.0000      1.0004      0.0000    106.4041    621.2899
  1892.2500      1.0017      0.0000    106.4336    615.1622
  1892.5000      1.0375      0.0000    107.0644    611.5576
  1892.7500      1.0523      0.0000    107.6384    609.6733
  1893.0000      1.0257      0.0000    107.4345    608.2656
  1893.2500      1.0033      0.0000    106.5135    607.1736
  1893.5000      1.0251      0.0000    105.8916    606.5633
  1893.7500      1.0778      0.0000    106.4663    606.3458
  1894.0000      1.1381      0.0000    107.8147    606.3823
  1894.2500      1.1981      0.0000    108.3445    606.6017
  1894.5000      1.2299      0.0000    106.7003    606.9213
  1894.7500      1.1965      0.0000    102.9393    607.2780
  1895.0000      1.1215      0.0000     98.3199    607.7163
  1895.2500      1.0886      0.0000     94.2389    608.3940
  1895.5000      1.1463      0.0000     91.6549    609.4229
  1895.7500      1.2544      0.0000     91.0350    610.6642
  1896.0000      1.3650      0.0000     92.1142    612.2300
  1896.2500      1.5199      0.0000     93.7735    615.6721
  1896.5000      1.7679      0.0000     94.7170    622.6859
  1896.7500      2.0111      0.0000     94.3571    631.6142
  1897.0000      2.1142      0.0000     92.9675    639.1853
  1897.2500      2.1160      0.0000     91.3143    644.2637
  1897.5000      2.1346      0.0000     90.4062    645.3423
  1897.7500      2.1778      2.0000     91.2004    640.9628
  1898.0000      2.1858     -2.0000     93.9705    636.4406
  1898.2500      2.1449      0.0000     97.8805    640.8176
  1898.5000      2.0941      0.0000    101.4228    653.9415
  1898.7500      2.0865      0.0000    103.4454    666.6147
  1899.0000      2.1540      0.0000    103.9107    675.5435
  1899.2500      2.2463      0.0000    103.9623    688.4261
  1899.5000      2.2555      0.0000    105.3152    708.9944
  1899.7500      2.1883      0.0000    109.0901    726.4658
  1900.0000      2.1801      0.0000    114.7714    727.9305
  1900.2500      2.2732      0.0000    120.2411    710.8177
  1900.5000      2.4072      0.0000    122.9882    681.9517
  1900.7500      2.5865      0.0000    121.6130    652.9142
  1901.0000      2.8433      0.0000    116.8096    631.2602
  1901.2500      3.1359      0.0000    111.2830    615.1179
  1901.5000      3.4098      0.0000    108.3446    600.4847
  1901.7500      3.6742      0.0000    109.8514    587.8409
  1902.0000      3.9616      0.0000    115.0494    577.6383
  1902.2500      4.2732      0.0000    121.2657    566.7377
  1902.5000      4.5785      0.0000    125.6476    553.4779
  1902.7500      4.8372      0.0000    126.3308    541.6141
  1903.0000      5.0265      0.0000    122.7835    535.9017
  1903.2500      5.1565      0.0000    116.1261    535.7878
  1903.5000      5.2603      0.0000    109.0058    537.2798
  1903.7500      5.3573      0.0000    104.0838    538.0562
  1904.0000      5.4323      0.0000    102.2580    537.7038
  1904.2500      5.4571      0.0000    102.6042    535.5924
  1904.5000      5.4127      0.0000    103.8432    530.0323
  1904.7500      5.3062      0.0000    105.4909    520.1213
  1905.0000      5.1873      0.0000    107.8060    508.9978
  1905.2500      5.1104      0.0000    111.0786    502.9832
  1905.5000      5.0807      0.0000    115.0139    505.5755
  1905.7500      5.0759      0.0000    118.6343    513.5864
  1906.0000      5.1000      0.0000    120.7910    520.3688
  1906.2500      5.1756      0.0000    120.9018    521.9911
  1906.5000      5.3025      0.0000    119.3930    520.0176
  1906.7500      5.4510      0.0000    117.6213    519.7823
  1907.0000      5.5737      0.0000    117.1861    525.3216
  1907.2500      5.6262      0.0000    118.8462    536.3790
  1907.5000      5.5967      0.0000    121.9311    550.8046
  1907.7500      5.5023      0.0000    124.8416    565.7107
  1908.0000      5.3628      0.0000    126.1066    577.6907
  1908.2500      5.2042      0.0000    125.1978    585.8772
  1908.5000      5.0665      0.0000    122.8597    591.6600
  1908.7500      4.9820      0.0000    120.6763    594.8065
  1909.0000      4.9610      0.0000    119.9336    594.6583
  1909.2500      4.9959      0.0000    120.8177    594.2783
