~Version Information
VERS.                      2.0: CWLS Log ASCII Standard - VERSION 2.0
WRAP.                       NO: One line per depth step
~Well Information Block
STRT.FT                -7.0000: 
STOP.FT              1329.7500: 
STEP.FT                 0.2500: 
NULL.                -999.2500: 
COMP.          Pioneer Natural Resources: COMPANY
WELL.             Raptor 44-26: WELL
FLD.           Purgatorie River: FIELD
LOC.           180' FSL & 812' FEL--: LOCATION
PROV.                       CO: PROVINCE
CNTY.               Las Animas: COUNTRY
SRVC.          Patterson Wireline: SERVICE COMPANY
DATE.          Wed Mar 30 12:38:23 2005: LOG DATE
UWI.           05 071 08187 00: UNIQUE WELL ID
~Curve Information Block
DEPT.FT            0 000 00 00: Depth
CCL.                          : Casing Collar Locator
TT3.usec                      : CBL 3' Travel Time
AMP3.mV                       : CBL 3' Amplitude
GR.GAPI                       : Gamma Ray
~Parameter Information Block
MINATTN.db/ft           0.8000: Minimum Attenuation
~A  Depth       CCL         TT3         AMP3         GR     
# ...
   596.0000      0.0000    830.4846      7.4528    168.7260
   596.2500      0.0000    830.1436      7.4223    174.4341
   596.5000      0.0000    828.8518      7.3445    176.5898
   596.7500      0.0000    826.3395      7.1959    176.2364
   597.0000      0.0000    822.6396      6.9748    175.4476
   597.2500      0.0000    818.0383      6.7321    175.1230
   597.5000      0.0000    813.1653      6.5604    174.4429
   597.7500      0.0000    809.4182      6.5131    172.1425
   598.0000      0.0000    808.5447      6.5404    167.5699
   598.2500      0.0000    810.6027      6.5441    160.9094
   598.5000      0.0000    812.6858      6.4862    153.4407
   598.7500      0.0000    811.1659      6.4063    147.3181
   599.0000      0.0000    805.6157      6.3505    144.0825
   599.2500      0.0000    799.6402      6.3265    143.3771
   599.5000     -2.0000    797.3390      6.3247    143.3884
   599.7500      0.0000    799.5764      6.3591    142.2137
   600.0000      0.0000    804.2135      6.4745    138.9647
   600.2500      0.0000    808.7802      6.7046    134.4476
   600.5000      0.0000    811.6246      7.0125    131.0139
   600.7500      0.0000    811.6652      7.2925    131.0327
   601.0000      0.0000    808.9377      7.4554    135.1329
   601.2500      0.0000    805.2184      7.5012    141.9127
   601.5000      0.0000    802.9872      7.4920    149.0562
   601.7500      0.0000    803.6983      7.4830    154.5684
   602.0000      0.0000    807.1984      7.5000    157.3316
   602.2500      0.0000    812.4103      7.5534    157.1703
   602.5000      0.0000    818.2141      7.6461    154.8109
   602.7500      0.0000    823.7480      7.7692    151.5961
   603.0000      0.0000    828.3086      7.9042    148.7571
   603.2500      0.0000    831.3857      8.0322    146.8083
   603.5000      0.0000    832.8408      8.1412    145.7318
   603.7500      0.0000    832.8162      8.2247    145.3380
   604.0000      0.0000    831.5118      8.2746    144.9562
   604.2500      0.0000    829.2885      8.2792    143.0528
   604.5000      0.0000    826.9181      8.2321    137.8559
   604.7500      0.0000    825.1945      8.1390    128.7223
   605.0000      0.0000    823.7702      8.0152    116.9565
   605.2500      0.0000    820.6106      7.8763    105.1430
   605.5000      0.0000    813.4015      7.7336     95.3529
   605.7500      0.0000    802.1041      7.5970     87.8469
   606.0000      0.0000    789.9162      7.4766     81.7355
   606.2500      0.0000    780.9873      7.3801     76.9111
   606.5000      0.0000    776.9749      7.3068     74.9311
   606.7500      0.0000    776.2528      7.2477     77.8247
   607.0000      0.0000    776.2414      7.1905     86.2186
   607.2500      0.0000    775.5457      7.1256     98.5729
   607.5000      0.0000    774.2068      7.0508    111.8828
   607.7500      0.0000    773.4250      6.9709    123.1528
   608.0000      0.0000    774.8802      6.8947    130.9859
   608.2500      0.0000    778.6454      6.8302    136.2265
   608.5000      0.0000    781.7722      6.7828    140.6891
   608.7500      0.0000    780.5095      6.7559    144.8811
   609.0000      0.0000    774.1670      6.7550    147.2473
   609.2500      0.0000    765.7912      6.7891    145.8790
   609.5000      0.0000    759.1038      6.8637    140.6340
   609.7500      0.0000    755.7990      6.9718    133.4044
   610.0000      0.0000    755.7151      7.0930    126.6882
   610.2500      0.0000    758.3752      7.2061    122.1013
   610.5000      0.0000    763.6005      7.3047    119.9767
   610.7500      0.0000    770.8795      7.4027    120.0058
   611.0000      0.0000    778.8109      7.5229    121.9143
   611.2500      0.0000    785.6142      7.6792    125.3509
   611.5000      0.0000    790.2311      7.8699    129.4685
   611.7500      0.0000    792.7853      8.0844    133.1629
   612.0000      0.0000    794.0515      8.3118    135.8547
   612.2500      0.0000    794.7405      8.5433    137.8283
   612.5000      0.0000    795.2979      8.7743    139.7439
   612.7500      0.0000    796.1266      9.0029    141.9126
   613.0000      0.0000    797.7019      9.2189    144.1540
   613.2500      0.0000    800.2841      9.3925    146.3390
   613.5000      0.0000    803.5649      9.4834    148.9017
   613.7500      0.0000    806.8900      9.4699    152.5173
   614.0000      0.0000    809.9421      9.3713    157.0434
   614.2500      0.0000    812.8652      9.2453    160.8293
   614.5000      0.0000    815.6334      9.1564    161.4743
   614.7500      0.0000    817.7397      9.1387    157.6508
   615.0000      0.0000    818.5771      9.1798    150.3318
   615.2500      0.0000    817.7912      9.2427    142.4980
   615.5000      0.0000    815.5617      9.2958    137.8627
   615.7500      0.0000    812.9868      9.3232    139.2503
   616.0000      0.0000    811.6119      9.3142    147.0040
   616.2500      0.0000    811.8453      9.2564    158.4607
   616.5000      0.0000    812.2003      9.1398    169.4045
   616.7500      0.0000    810.8533      8.9675    176.5780
   617.0000      0.0000    807.8773      8.7662    179.2487
   617.2500      0.0000    805.4016      8.5829    178.8915
   617.5000      0.0000    805.4587      8.4583    177.7144
   617.7500      0.0000    807.8679      8.4000    177.2126
   618.0000      0.0000    810.2593      8.3818    177.5418
   618.2500      0.0000    810.1649      8.3670    177.9615
   618.5000      0.0000    807.1191      8.3321    177.8902
   618.7500      0.0000    802.7476      8.2745    177.3349
   619.0000      0.0000    799.0782      8.2079    176.1397
   619.2500      0.0000    797.0979      8.1471    173.3226
   619.5000      0.0000    796.7498      8.0944    167.9199
   619.7500      0.0000    797.7867      8.0438    160.6694
   620.0000      0.0000    800.3831      7.9959    154.2206
   620.2500      0.0000    804.9705      7.9630    150.9843
   620.5000      0.0000    811.4827      7.9554    150.9236
   620.7500      0.0000    818.8193      7.9662    152.0967
   621.0000      0.0000    825.2893      7.9730    153.1349
   621.2500      0.0000    829.7044      7.9536    154.2762
   621.5000      0.0000    831.9861      7.9013    156.0290
   621.7500      0.0000    832.8346      7.8268    157.9281
   622.0000      0.0000    833.0431      7.7443    159.1521
   622.2500      0.0000    833.0955      7.6568    159.7627
   622.5000      0.0000    833.1412      7.5581    160.7089
   622.7500      0.0000    833.1523      7.4476    162.8045
   623.0000      0.0000    833.0851      7.3414    166.0467
   623.2500      0.0000    832.9481      7.2647    169.4578
   623.5000      0.0000    832.7741      7.2366    170.8131
   623.7500      0.0000    832.5738      7.2591    166.9881
   624.0000      0.0000    832.3229      7.3200    155.9533
   624.2500      0.0000    831.9256      7.4027    138.9184
   624.5000      0.0000    831.1215      7.4941    120.0426
   624.7500      0.0000    829.3749      7.5850    103.9305
   625.0000      0.0000    826.0449      7.6656     93.4719
   625.2500      0.0000    821.1116      7.7242     89.3813
   625.5000      0.0000    815.9230      7.7520     90.7163
   625.7500      0.0000    812.5947      7.7518     95.4669
   626.0000      0.0000    812.0227      7.7463    101.1544
   626.2500      0.0000    812.9772      7.7711    105.6593
   626.5000      0.0000    813.8674      7.8475    107.9432
   626.7500      0.0000    814.8373      7.9567    108.0139
   627.0000      0.0000    817.2411      8.0537    106.2248
   627.2500      0.0000    821.4708      8.1116    102.8121
   627.5000      0.0000    826.2570      8.1447     98.0688
   627.7500      0.0000    830.0357      8.1848     92.6923
   628.0000      0.0000    832.2897      8.2500     87.6807
   628.2500      0.0000    833.5597      8.3437     83.8069
   628.5000      0.0000    834.8682      8.4641     81.2341
   628.7500      0.0000    837.3518      8.5946     79.6289
   629.0000      0.0000    841.8661      8.6904     78.6434
   629.2500      0.0000    848.2029      8.6994     78.3694
