~Version Information
VERS.                      2.0: CWLS Log ASCII Standard - VERSION 2.0
WRAP.                       NO: One line per depth step
~Well Information Block
STRT.FT                -3.7500: 
STOP.FT               930.7500: 
STEP.FT                 0.2500: 
NULL.                -999.2500: 
COMP.          Pioneer Natural Resources: COMPANY
WELL.                Pug 33-19: WELL
FLD.           Purgatorie River: FIELD
LOC.           1381' FSL & 2140' FEL--: LOCATION
PROV.                       CO: PROVINCE
CNTY.               Las Animas: COUNTRY
SRVC.                         : SERVICE COMPANY
DATE.          Mon Dec 20 15:44:45 2004: LOG DATE
UWI.                          : UNIQUE WELL ID
~Curve Information Block
DEPT.FT            0 000 00 00: Depth
GR.GAPI                       : Gamma Ray
CCL.                          : Casing Collar Locator
TT3.usec                      : CBL 3' Travel Time
AMP3.mV                       : CBL 3' Amplitude
~Parameter Information Block
~A  Depth        GR         CCL         TT3         AMP3    
# ...
   733.2500     82.9025      0.0000    747.1475      9.1985
   733.5000     80.7885      0.0000    745.9498      9.1938
   733.7500     80.6855      0.0000    744.7983      9.1934
   734.0000     83.0657      0.0000    743.1277      9.1826
   734.2500     87.3013      0.0000    740.6593      9.1502
   734.5000     91.7604      0.0000    737.6334      9.0987
   734.7500     94.6604      0.0000    734.5069      9.0408
   735.0000     95.1706      0.0000    731.3441      8.9886
   735.2500     94.1423      0.0000    727.9591      8.9487
   735.5000     93.6610      0.0000    724.6169      8.9232
   735.7500     95.3143      0.0000    722.1175      8.9081
   736.0000     98.6464      0.0000    721.2652      8.8943
   736.2500    101.6393      0.0000    722.5422      8.8752
   736.5000    102.8161      0.0000    725.9083      8.8518
   736.7500    102.4005      0.0000    730.2958      8.8275
   737.0000    101.1914      0.0000    733.4762      8.8025
   737.2500     98.9785      0.0000    732.9856      8.7776
   737.5000     94.7752      0.0000    727.0083      8.7592
   737.7500     88.3847      0.0000    713.3315      8.7514
   738.0000     81.0562      0.0000    687.5362      8.7502
   738.2500     74.4648      0.0000    644.9101      8.7485
   738.5000     69.5698      0.0000    587.4946      8.7487
   738.7500     66.7257      0.0000    529.7937      8.7678
   739.0000     66.2682      0.0000    494.5655      8.8288
   739.2500     68.2180      0.0000    499.1492      8.9394
   739.5000     71.4593      0.0000    542.9671      9.0799
   739.7500     73.8324      0.0000    606.7073      9.2145
   740.0000     73.4615      0.0000    664.6636      9.3176
   740.2500     70.1228      0.0000    700.9119      9.3886
   740.5000     65.3735      0.0000    716.4010      9.4421
   740.7500     61.3872      0.0000    722.4357      9.4912
   741.0000     59.6058      0.0000    728.5239      9.5422
   741.2500     60.2795      0.0000    735.9703      9.5964
   741.5000     62.8220      0.0000    740.8618      9.6503
   741.7500     66.2226      0.0000    740.6698      9.6971
   742.0000     69.4044      0.0000    737.4761      9.7319
   742.2500     71.7540      0.0000    735.9177      9.7489
   742.5000     73.4028      0.0000    738.7867      9.7344
   742.7500     74.8250      0.0000    744.9175      9.6717
   743.0000     76.3018      0.0000    751.0649      9.5561
   743.2500     77.7119      0.0000    754.9047      9.3994
   743.5000     78.4376      0.0000    755.9010      9.2220
   743.7500     77.5520      0.0000    754.3354      9.0436
   744.0000     74.6258      0.0000    750.7432      8.8775
   744.2500     70.4515      0.0000    746.3535      8.7275
   744.5000     66.7039      0.0000    743.2422      8.5879
   744.7500     64.8420      0.0000    743.1543      8.4529
   745.0000     65.3173      0.0000    746.0252      8.3248
   745.2500     67.6313      0.0000    750.0284      8.2142
   745.5000     71.0882      0.0000    753.1135      8.1337
   745.7500     75.5486      0.0000    754.1117      8.0949
   746.0000     81.2185      0.0000    752.5360      8.1038
   746.2500     87.4325      0.0000    748.1572      8.1517
   746.5000     92.0468      0.0000    741.3318      8.2158
   746.7500     92.7106      0.0000    733.4886      8.2706
   747.0000     88.8705      0.0000    726.7430      8.2994
   747.2500     82.3477      0.0000    722.8941      8.2974
   747.5000     76.0736      0.0000    722.8472      8.2722
   747.7500     72.1989      0.0000    726.6271      8.2419
   748.0000     70.9183      0.0000    733.3619      8.2278
   748.2500     70.7707      0.0000    741.2480      8.2428
   748.5000     70.1065      0.0000    748.1077      8.2857
   748.7500     68.4202      0.0000    752.1096      8.3480
   749.0000     66.5265      0.0000    751.3962      8.4215
   749.2500     65.6987      0.0000    742.2886      8.5003
   749.5000     66.4372      0.0000    718.2004      8.5783
   749.7500     67.7267      0.0000    672.6231      8.6499
   750.0000     67.6786      0.0000    606.1667      8.7098
   750.2500     65.4151      0.0000    530.8004      8.7522
   750.5000     62.2396      0.0000    464.2303      8.7734
   750.7500     60.4325      0.0000    418.3812      8.7760
   751.0000     60.9296      0.0000    393.6698      8.7689
   751.2500     62.6603      0.0000    383.1124      8.7646
   751.5000     64.0249      0.0000    379.3666      8.7759
   751.7500     64.4558      0.0000    378.0876      8.8123
   752.0000     64.6328      0.0000    377.5522      8.8756
   752.2500     65.7308      0.0000    377.3204      8.9567
   752.5000     68.4475      0.0000    377.6234      9.0366
   752.7500     72.2635      0.0000    379.6465      9.0949
   753.0000     75.4654      0.0000    386.4092      9.1211
   753.2500     76.2421      0.0000    402.7744      9.1177
   753.5000     74.1092      0.0000    432.6190      9.0934
   753.7500     70.3609      0.0000    473.1901      9.0532
   754.0000     67.0910      0.0000    512.0501      8.9944
   754.2500     65.6629      0.0000    533.3556      8.9122
   754.5000     65.9909      0.0000    531.7281      8.8108
   754.7500     67.2186      0.0000    520.7056      8.7087
   755.0000     68.9391      0.0000    524.1563      8.6304
   755.2500     71.6323      0.0000    556.1075      8.5917
   755.5000     75.9492      0.0000    608.8090      8.5918
   755.7500     81.7447      0.0000    660.6946      8.6177
   756.0000     88.0047      0.0000    693.3918      8.6499
   756.2500     93.7529      0.0000    699.9294      8.6652
   756.5000     98.7220      0.0000    682.6312      8.6326
   756.7500    102.9109      0.0000    651.0881      8.5117
   757.0000    105.8811      0.0000    621.9281      8.2609
   757.2500    106.9858      0.0000    612.7252      7.8566
   757.5000    106.1229      0.0000    631.6078      7.3141
   757.7500    103.8579      0.0000    673.8943      6.6930
   758.0000    100.9243      0.0000    728.6168      6.0856
   758.2500     97.8676      0.0000    785.4544      5.6007
   758.5000     95.0157      0.0000    836.1763      5.3417
   758.7500     92.5178      0.0000    874.2979      5.3570
   759.0000     90.4858      0.0000    896.3834      5.5925
   759.2500     89.2559      0.0000    903.1073      5.9151
   759.5000     89.3422      2.0000    898.3835      6.1938
   759.7500     91.0531      0.0000    887.4354      6.3528
   760.0000     94.4170      0.0000    874.1768      6.3764
   760.2500     99.5095      0.0000    858.8631      6.3026
   760.5000    106.2096      0.0000    839.2515      6.2116
   760.7500    113.3594      0.0000    815.0208      6.1895
   761.0000    118.9158      0.0000    789.6891      6.2895
   761.2500    121.3833      0.0000    767.5021      6.5152
   761.5000    120.5400      0.0000    750.2217      6.8323
   761.7500    116.7876      0.0000    737.5472      7.1943
   762.0000    110.8640      0.0000    728.9502      7.5574
   762.2500    104.2436      0.0000    724.1689      7.8783
   762.5000     98.5339      0.0000    722.7365      8.1172
   762.7500     94.0399      0.0000    723.7144      8.2580
   763.0000     89.8444      0.0000    725.5482      8.3212
   763.2500     85.5946      0.0000    726.0374      8.3491
   763.5000     82.3193      0.0000    722.3950      8.3809
   763.7500     81.1194      0.0000    711.6596      8.4380
   764.0000     81.7799      0.0000    692.6730      8.5217
   764.2500     83.0715      0.0000    668.7435      8.6161
   764.5000     83.8385      0.0000    646.5788      8.7018
   764.7500     83.5711      0.0000    630.7233      8.7750
   765.0000     82.3885      0.0000    620.1660      8.8471
   765.2500     80.5529      0.0000    610.4188      8.9230
   765.5000     77.9502      0.0000    597.2560      8.9888
   765.7500     74.5075      0.0000    580.6571      9.0262
   766.0000     71.0878      0.0000    566.5619      9.0355
   766.2500     69.1424      0.0000    559.7191      9.0455
   766.5000     69.2226      0.0000    553.5523      9.1065
