~Version Information
VERS.                      2.0: CWLS Log ASCII Standard - VERSION 2.0
WRAP.                       NO: One line per depth step
~Well Information Block
STRT.FT               548.0000: 
STOP.FT              1916.0000: 
STEP.FT                 0.2500: 
NULL.                -999.2500: 
COMP.          Pioneer Natural Resources: COMPANY
WELL.          Blackjack 32-11 Tr: WELL
FLD.           Purgatorie River: FIELD
LOC.           2066' FNL & 1453' FEL: LOCATION
PROV.                 Colorado: PROVINCE
CNTY.               Las Animas: COUNTRY
SRVC.                Patterson: SERVICE COMPANY
DATE.          Tue Aug 16 12:08:23 2005: LOG DATE
UWI.                          : UNIQUE WELL ID
~Curve Information Block
DEPT.FT            0 000 00 00: Depth
SN.Ohm-m                      : IEL Short Normal
SP.mV                         : IEL Spontaneous Potential
DIR.Ohm-m                     : IEL Induction Resistivity
GR.GAPI                       : Gamma Ray
~Parameter Information Block
~A  Depth        SN          SP         DIR          GR     
# ...
   648.5000   2000.0000   2000.0000     17.8480    164.6363
   648.7500   2000.0000   2000.0000     17.6903    152.6224
   649.0000   2000.0000   2000.0000     16.7042    154.1177
   649.2500   2000.0000   2000.0000     17.6135    167.0112
   649.5000   2000.0000   2000.0000     17.0208    160.7270
   649.7500   2000.0000   2000.0000     18.1265    153.3765
   650.0000   2000.0000   2000.0000     17.6543    157.3497
   650.2500   2000.0000   2000.0000     18.1068    162.7035
   650.5000   2000.0000   2000.0000     18.4617    157.3821
   650.7500   2000.0000   2000.0000     17.8906    156.5908
   651.0000   2000.0000   2000.0000     18.0991    155.7151
   651.2500   2000.0000   2000.0000     17.3065    153.7427
   651.5000   2000.0000   2000.0000     17.2348    153.6216
   651.7500   2000.0000   2000.0000     17.3444    148.8028
   652.0000   2000.0000   2000.0000     17.0548    150.4986
   652.2500   2000.0000   2000.0000     17.2299    138.4312
   652.5000   2000.0000   2000.0000     16.4151    136.9725
   652.7500   2000.0000   2000.0000     16.5485    138.6194
   653.0000   2000.0000   2000.0000     14.6491    133.3950
   653.2500   2000.0000   2000.0000     16.8577    123.8361
   653.5000   2000.0000   2000.0000     16.1068    118.9631
   653.7500   2000.0000   2000.0000     15.2638    117.1439
   654.0000   2000.0000   2000.0000     16.4151    126.6228
   654.2500   2000.0000   2000.0000     16.3559    126.6960
   654.5000   2000.0000   2000.0000     15.9532    131.7776
   654.7500   2000.0000   2000.0000     16.1301    128.9590
   655.0000   2000.0000   2000.0000     16.9730    138.6346
   655.2500   2000.0000   2000.0000     17.1652    128.9043
   655.5000   2000.0000   2000.0000     17.5487    128.0328
   655.7500   2000.0000   2000.0000     17.3703    125.5121
   656.0000   2000.0000   2000.0000     17.9665    129.0080
   656.2500   2000.0000   2000.0000     18.7186    123.6267
   656.5000   2000.0000   2000.0000     19.1042    127.6918
   656.7500   2000.0000   2000.0000     18.0494    127.7780
   657.0000   2000.0000   2000.0000     17.5367    135.1264
   657.2500   2000.0000   2000.0000     19.4528    125.2481
   657.5000   2000.0000   2000.0000     19.2523    123.7388
   657.7500   2000.0000   2000.0000     19.9100    119.6658
   658.0000   2000.0000   2000.0000     22.1936    116.4998
   658.2500   2000.0000   2000.0000     23.1757    121.9257
   658.5000   2000.0000   2000.0000     22.0447    119.2052
   658.7500   2000.0000   2000.0000     23.6739    117.4049
   659.0000   2000.0000   2000.0000     21.6635    116.0627
   659.2500   2000.0000   2000.0000     25.4648    113.9390
   659.5000   2000.0000   2000.0000     24.2817    118.7212
   659.7500   2000.0000   2000.0000     21.1417    115.9209
   660.0000   2000.0000   2000.0000     19.8027    119.3890
   660.2500   2000.0000   2000.0000     21.9260    120.3973
   660.5000   2000.0000   2000.0000     25.8139    115.4764
   660.7500   2000.0000   2000.0000     25.4446    120.0704
   661.0000   2000.0000   2000.0000     25.4577    107.5226
   661.2500   2000.0000   2000.0000     26.4573    105.9382
   661.5000   2000.0000   2000.0000     25.6990    112.7617
   661.7500   2000.0000   2000.0000     26.5031    111.1929
   662.0000   2000.0000   2000.0000     25.7376    106.6126
   662.2500   2000.0000   2000.0000     26.1389    102.1440
   662.5000   2000.0000   2000.0000     24.2397    112.8574
   662.7500   2000.0000   2000.0000     24.4238    115.5118
   663.0000   2000.0000   2000.0000     22.6716    128.0601
   663.2500   2000.0000   2000.0000     20.1193    128.6596
   663.5000   2000.0000   2000.0000     23.6436    144.4632
   663.7500   2000.0000   2000.0000     23.1268    141.3626
   664.0000   2000.0000   2000.0000     23.4027    140.2097
   664.2500   2000.0000   2000.0000     23.1123    132.8685
   664.5000   2000.0000   2000.0000     23.4117    117.5061
   664.7500   2000.0000   2000.0000     22.5430    115.0952
   665.0000   2000.0000   2000.0000     23.1678    113.5764
   665.2500   2000.0000   2000.0000     21.3609    119.8416
   665.5000   2000.0000   2000.0000     21.1545    128.6551
   665.7500   2000.0000   2000.0000     21.5812    137.3968
   666.0000   2000.0000   2000.0000     18.1533    125.8431
   666.2500   2000.0000   2000.0000     21.3410    128.7434
   666.5000   2000.0000   2000.0000     22.4288    126.3795
   666.7500   2000.0000   2000.0000     21.8740    126.3172
   667.0000   2000.0000   2000.0000     20.3279    131.7980
   667.2500   2000.0000   2000.0000     21.0974    128.2997
   667.5000   2000.0000   2000.0000     20.7014    123.9248
   667.7500   2000.0000   2000.0000     21.7604    124.8577
   668.0000   2000.0000   2000.0000     21.9123    118.8230
   668.2500   2000.0000   2000.0000     20.6294    121.0242
   668.5000   2000.0000   2000.0000     19.7340    115.0078
   668.7500   2000.0000   2000.0000     21.1437    116.2079
   669.0000   2000.0000   2000.0000     21.6783    127.1811
   669.2500   2000.0000   2000.0000     24.0711    137.8616
   669.5000   2000.0000   2000.0000     23.5445    138.1978
   669.7500   2000.0000   2000.0000     24.3447    140.3306
   670.0000   2000.0000   2000.0000     24.6170    128.7927
   670.2500   2000.0000   2000.0000     25.9253    118.5067
   670.5000   2000.0000   2000.0000     24.5157    116.1115
   670.7500   2000.0000   2000.0000     25.1083    108.0499
   671.0000   2000.0000   2000.0000     22.3941    107.2740
   671.2500   2000.0000   2000.0000     29.5890    103.4710
   671.5000   2000.0000   2000.0000     29.5501    115.3251
   671.7500   2000.0000   2000.0000     27.4692    117.6665
   672.0000   2000.0000   2000.0000     30.4432    108.8288
   672.2500   2000.0000   2000.0000     28.5331    115.4858
   672.5000   2000.0000   2000.0000     32.4697    111.7618
   672.7500   2000.0000   2000.0000     33.1624     97.9900
   673.0000   2000.0000   2000.0000     35.9777    102.9109
   673.2500   2000.0000   2000.0000     31.7520    100.1377
   673.5000   2000.0000   2000.0000     30.2497    100.0651
   673.7500   2000.0000   2000.0000     33.3659     93.1909
   674.0000   2000.0000   2000.0000     23.5836     86.8886
   674.2500   2000.0000   2000.0000     33.2066     88.1099
   674.5000   2000.0000   2000.0000     30.8635     91.9284
   674.7500   2000.0000   2000.0000     32.6046     85.1151
   675.0000   2000.0000   2000.0000     35.4244     81.9215
   675.2500   2000.0000   2000.0000     33.5917     85.0611
   675.5000   2000.0000   2000.0000     32.4245     81.7940
   675.7500   2000.0000   2000.0000     30.7522     93.2325
   676.0000   2000.0000   2000.0000     29.4977    103.3667
   676.2500   2000.0000   2000.0000     29.9507    108.9592
   676.5000   2000.0000   2000.0000     30.4483    111.1443
   676.7500   2000.0000   2000.0000     29.4281    118.6710
   677.0000   2000.0000   2000.0000     24.4945    119.2858
   677.2500   2000.0000   2000.0000     21.7136    118.9446
   677.5000   2000.0000   2000.0000     27.8454    127.2631
   677.7500   2000.0000   2000.0000     26.4382    125.9410
   678.0000   2000.0000   2000.0000     25.4885    120.3530
   678.2500   2000.0000   2000.0000     26.0304    118.7819
   678.5000   2000.0000   2000.0000     25.0884    116.5557
   678.7500   2000.0000   2000.0000     22.8620    110.2596
   679.0000   2000.0000   2000.0000     20.0591    110.9682
   679.2500   2000.0000   2000.0000     24.2190    121.2361
   679.5000   2000.0000   2000.0000     24.2513    141.9260
   679.7500   2000.0000   2000.0000     24.0120    134.9015
   680.0000   2000.0000   2000.0000     21.5900    131.3589
   680.2500   2000.0000   2000.0000     22.1688    145.3888
   680.5000   2000.0000   2000.0000     24.3454    142.1545
   680.7500   2000.0000   2000.0000     20.1518    133.6915
   681.0000   2000.0000   2000.0000     18.6952    139.9039
   681.2500   2000.0000   2000.0000     19.4364    139.9749
   681.5000   2000.0000   2000.0000     19.1623    145.2665
   681.7500   2000.0000   2000.0000     22.0788    142.2377
