~Version Information
 VERS.                                  2.0 : CWLS LAS VERSION
 WRAP.                                   NO : WRAPING MODE
 SWARE .                 MController 2.5.0J : SOFTWARE VERSION
~Well Information
 WELL.                          DYLAN 42-25 : WELL
 COMP.    PIONEER NATURAL RESOURCES USA INC : COMPANY
 FLD.                      PURGATOIRE RIVER : FIELD
 LOC.                SE/NE Sec 25 T34S R65W : LOCATION
 DATE.                              4/23/05 : DATE(S) LOGGED
 SRVC.       BLANCO GEOLOGICAL SERVICES LLC : SERVICE COMPANY
 STAT.                                   CO : STATE
 CNTY.                           LAS ANIMAS : COUNTY
 CTRY.                                  USA : COUNTRY
 API.                       05 071 08229 00 : API NUMBER
 STRT.FT                             474.00 : START DEPTH
 STOP.FT                            1000.00 : STOP DEPTH
 STEP.FT                               1.00 : DEPTH INCREMENT
 NULL.                                -9999 : NULL VALUE
~Curve information
 DEPTH.FT                                   :
 ROP.MIN/FT                                 :
 GAS.UNITS                                  :
~ASCII Log data
# ...
       874.0         0.33         25.1 
       875.0         0.37         23.7 
       876.0         0.47         23.1 
       877.0         0.37         20.7 
       878.0         0.30         20.5 
       879.0         0.30         20.9 
       880.0         0.30         20.3 
       881.0         0.30         20.6 
       882.0         0.32         20.0 
       883.0         0.53         19.2 
       884.0         0.33         25.8 
       885.0         0.33         27.1 
       886.0         0.30         26.1 
       887.0         0.30         24.4 
       888.0         0.27         23.3 
       889.0         0.27         22.9 
       890.0         0.30         22.7 
       891.0         0.27         23.1 
       892.0         0.28         24.3 
       893.0         0.23         24.6 
       894.0         0.27         26.5 
       895.0         0.30         26.6 
       896.0         2.95        102.7 
       897.0         0.40        102.2 
       898.0         0.37         85.1 
       899.0         0.43         65.7 
       900.0         0.40         44.4 
       901.0         0.37         35.0 
       902.0         0.40         31.5 
       903.0         0.40         28.2 
       904.0         0.42         26.4 
       905.0         0.37         24.0 
       906.0         0.37         24.6 
       907.0         0.37         26.4 
       908.0         0.33         25.6 
       909.0         0.33         22.6 
       910.0         0.37         21.9 
       911.0         0.40         22.5 
       912.0         0.27         22.2 
       913.0         0.28         21.5 
       914.0         0.47         22.8 
       915.0         0.33         21.7 
       916.0         0.33         23.0 
       917.0         0.27         23.9 
       918.0         0.27         23.4 
       919.0         0.27         22.2 
       920.0         0.33         22.8 
       921.0         0.37         22.7 
       922.0         0.27         22.2 
       923.0         0.27         22.5 
       924.0         0.32         23.3 
       925.0         0.23         23.2 
       926.0         5.08        173.2 
       927.0         0.47         40.4 
       928.0         0.42         28.7 
       929.0         0.30         26.0 
       930.0         0.33         27.4 
       931.0         0.30         26.3 
       932.0         0.57         25.3 
       933.0         0.30         24.6 
       934.0         0.33         23.4 
       935.0         0.27         22.4 
       936.0         0.27         21.5 
       937.0         0.43         21.2 
       938.0         0.35         21.2 
       939.0         0.33         21.1 
       940.0         0.37         20.9 
       941.0         0.40         21.8 
       942.0         0.27         21.3 
       943.0         0.30         20.8 
       944.0         0.30         21.3 
       945.0         0.37         22.5 
       946.0         0.30         24.5 
       947.0         0.30         25.5 
       948.0         0.28         24.7 
       949.0         0.30         24.7 
       950.0         0.30         23.2 
       951.0         0.33         21.5 
       952.0         0.27         23.0 
       953.0         0.27         23.3 
       954.0         0.30         20.8 
       955.0         0.43         16.8 
       956.0         3.28        199.0 
       957.0         0.47        107.2 
       958.0         0.40         52.6 
       959.0         0.38         36.6 
       960.0         0.30         28.0 
       961.0         0.60         27.1 
       962.0         0.43         26.4 
       963.0         0.37         25.1 
       964.0         0.30         23.5 
       965.0         0.33         22.3 
       966.0         0.33         21.7 
       967.0         0.37         21.3 
       968.0         0.28         21.1 
       969.0         0.30         21.1 
       970.0         0.23         20.9 
       971.0         0.30         21.5 
       972.0         0.33         21.5 
       973.0         0.30         20.6 
       974.0         0.27         20.9 
       975.0         0.30         20.6 
       976.0         0.30         19.7 
       977.0         0.27         19.3 
       978.0         0.30         20.4 
       979.0         0.27         20.4 
       980.0         0.32         20.1 
       981.0         0.30         19.6 
       982.0         0.30         21.4 
       983.0         0.33         21.4 
       984.0         0.30         20.8 
       985.0         0.33         19.6 
       986.0         2.92        156.4 
       987.0         0.57        163.1 
       988.0         0.40         88.4 
       989.0         0.37         51.4 
       990.0         0.33         35.5 
       991.0         0.35         28.3 
       992.0         0.30         23.4 
       993.0         0.27         23.8 
       994.0         0.30         25.1 
       995.0         0.37         25.5 
       996.0         0.30         23.8 
       997.0         0.33         22.4 
       998.0         0.33         22.5 
       999.0         0.27         22.2 
      1000.0         0.37         22.3 
