~Version Information
 VERS.                                  2.0 : CWLS LAS VERSION
 WRAP.                                   NO : WRAPING MODE
 SWARE .                 MController 2.5.0J : SOFTWARE VERSION
~Well Information
 WELL.                      Robinson 15-12V : WELL
 COMP.                Petrogulf Corporation : COMPANY
 FLD.                      Purgatoire River : FIELD
 LOC.                SW/NW Sec 15 T33S R67W : LOCATION
 DATE.                             09/10/05 : DATE(S) LOGGED
 SRVC.       BLANCO Geological Services LLC : SERVICE COMPANY
 STAT.                                   CO : STATE
 CNTY.                           Las Animas : COUNTY
 CTRY.                                  USA : COUNTRY
 API.                       05-071-08308-00 : API NUMBER
 STRT.FT                              52.00 : START DEPTH
 STOP.FT                            2041.00 : STOP DEPTH
 STEP.FT                               1.00 : DEPTH INCREMENT
 NULL.                                -9999 : NULL VALUE
~Curve information
 DEPTH.FT                                   :
 ROP.MIN/FT                                 :
 GAS.UNITS                                  :
~ASCII Log data
# ...
      1052.0         0.27       1095.1 
      1053.0         0.30       1073.9 
      1054.0         0.30       1055.5 
      1055.0         0.25       1015.8 
      1056.0         0.13        988.5 
      1057.0         0.20        976.7 
      1058.0         0.30        959.3 
      1059.0         0.20        937.1 
      1060.0         0.23        928.5 
      1061.0         0.27        916.4 
      1062.0         0.30        904.4 
      1063.0         0.33        891.4 
      1064.0         0.30        881.8 
      1065.0         0.27        872.3 
      1066.0         0.20        864.4 
      1067.0         0.17        857.4 
      1068.0         0.17        854.5 
      1069.0         0.18        852.0 
      1070.0         0.17        851.4 
      1071.0         0.27        846.6 
      1072.0         0.30        844.1 
      1073.0         0.37        845.7 
      1074.0         0.23        850.4 
      1075.0         0.17        854.2 
      1076.0         0.13        854.2 
      1077.0         0.17        857.1 
      1078.0         0.30        856.8 
      1079.0         0.30        857.1 
      1080.0         2.25       1319.2 
      1081.0         0.37       1302.7 
      1082.0         0.43       1163.4 
      1083.0         0.40       1099.2 
      1084.0         0.33       1026.3 
      1085.0         0.13        979.3 
      1086.0         0.18        966.3 
      1087.0         0.23        953.6 
      1088.0         0.23        932.0 
      1089.0         0.20        918.7 
      1090.0         0.13        910.1 
      1091.0         0.20        906.6 
      1092.0         0.23        902.2 
      1093.0         0.27        900.2 
      1094.0         0.27        900.2 
      1095.0         0.23        899.3 
      1096.0         0.20        894.2 
      1097.0         0.17        891.7 
      1098.0         0.17        886.3 
      1099.0         0.13        881.5 
      1100.0         0.17        874.5 
      1101.0         0.20        865.7 
      1102.0         0.28        855.8 
      1103.0         0.13        851.7 
      1104.0         0.17        851.4 
      1105.0         0.37        852.6 
      1106.0         0.23        859.6 
      1107.0         0.30        883.1 
      1108.0         0.17        892.3 
      1109.0         0.30        894.2 
      1110.0         2.22       1316.7 
      1111.0         0.27       1223.7 
      1112.0         0.27       1127.5 
      1113.0         0.30       1097.0 
      1114.0         0.33       1068.5 
      1115.0         0.27       1022.1 
      1116.0         0.33        988.2 
      1117.0         0.33        958.3 
      1118.0         0.32        946.6 
      1119.0         0.17        934.8 
      1120.0         0.17        926.0 
      1121.0         0.20        914.8 
      1122.0         0.23        901.8 
      1123.0         0.30        889.5 
      1124.0         0.27        890.1 
      1125.0         0.30        883.7 
      1126.0         0.30        874.9 
      1127.0         0.30        872.3 
      1128.0         0.30        867.6 
      1129.0         0.23        868.5 
      1130.0         0.20        865.0 
      1131.0         0.22        866.0 
      1132.0         0.27        863.8 
      1133.0         0.30        864.1 
      1134.0         0.23        866.9 
      1135.0         0.17        865.0 
      1136.0         0.17        861.2 
      1137.0         0.20        860.6 
      1138.0         0.27        862.5 
      1139.0         0.30        872.0 
      1140.0         2.55       1434.1 
      1141.0         0.47       1302.1 
      1142.0         0.37       1131.3 
      1143.0         0.38       1086.2 
      1144.0         0.33       1027.5 
      1145.0         0.33        990.4 
      1146.0         0.33        975.2 
      1147.0         0.27        960.9 
      1148.0         0.23        946.0 
      1149.0         0.27        934.5 
      1150.0         0.27        923.4 
      1151.0         0.27        913.6 
      1152.0         0.23        902.8 
      1153.0         0.27        894.5 
      1154.0         0.27        884.7 
      1155.0         0.28        884.4 
      1156.0         0.23        881.5 
      1157.0         0.20        879.6 
      1158.0         0.23        880.3 
      1159.0         0.23        878.4 
      1160.0         0.27        880.3 
      1161.0         0.23        880.3 
      1162.0         0.23        879.9 
      1163.0         0.20        878.7 
      1164.0         0.20        877.1 
      1165.0         0.20        874.9 
      1166.0         0.13        874.5 
      1167.0         0.13        875.5 
      1168.0         0.17        876.8 
      1169.0         0.27        877.7 
      1170.0         3.83       1507.7 
      1171.0         0.23       1038.6 
      1172.0         0.17       1022.8 
      1173.0         0.23       1010.1 
      1174.0         0.23       1001.2 
      1175.0         0.20        991.0 
      1176.0         0.13        978.3 
      1177.0         0.10        966.9 
      1178.0         0.23        956.1 
      1179.0         0.30        928.2 
      1180.0         0.23        910.4 
      1181.0         0.20        905.3 
      1182.0         0.23        895.5 
      1183.0         0.20        888.2 
      1184.0         0.28        888.8 
      1185.0         0.30        890.7 
      1186.0         0.27        887.6 
      1187.0         0.23        879.9 
      1188.0         0.20        875.2 
      1189.0         0.20        872.0 
      1190.0         0.20        869.8 
      1191.0         0.23        866.9 
      1192.0         0.20        862.8 
      1193.0         0.23        860.3 
      1194.0         0.23        859.9 
      1195.0         0.20        860.6 
      1196.0         0.23        862.8 
      1197.0         0.23        864.1 
      1198.0         0.25        866.9 
      1199.0         0.27        868.5 
      1200.0         3.35       1548.0 
      1201.0         0.33       1101.2 
      1202.0         0.27       1061.5 
      1203.0         0.30       1025.0 
      1204.0         0.23        993.9 
      1205.0         0.23        986.3 
      1206.0         0.17        978.6 
      1207.0         0.37        971.0 
      1208.0         0.27        928.8 
      1209.0         0.23        915.2 
      1210.0         0.23        921.5 
      1211.0         0.25        923.7 
      1212.0         0.23        922.8 
      1213.0         0.20        921.8 
      1214.0         0.23        919.0 
      1215.0         0.23        912.6 
      1216.0         0.23        908.2 
      1217.0         0.23        903.4 
      1218.0         0.23        900.2 
      1219.0         0.23        899.3 
      1220.0         0.20        896.8 
      1221.0         0.17        893.3 
      1222.0         0.17        891.4 
      1223.0         0.27        887.6 
      1224.0         0.17        888.8 
      1225.0         0.17        889.5 
      1226.0         0.13        889.1 
      1227.0         0.15        887.2 
      1228.0         0.20        885.3 
      1229.0         0.17        886.3 
      1230.0         2.77       1379.5 
      1231.0         0.32       1236.7 
      1232.0         0.27       1123.7 
      1233.0         0.23       1095.8 
      1234.0         0.23       1058.6 
      1235.0         0.23       1034.5 
      1236.0         0.23       1020.5 
      1237.0         0.23       1015.1 
      1238.0         0.27       1002.1 
      1239.0         0.20        991.0 
      1240.0         0.20        984.7 
      1241.0         0.37        974.5 
      1242.0         0.23        953.3 
      1243.0         0.17        939.9 
      1244.0         0.25        933.6 
      1245.0         0.23        926.6 
      1246.0         0.17        919.3 
      1247.0         0.20        914.5 
      1248.0         0.27        908.5 
      1249.0         0.20        907.2 
      1250.0         0.23        909.8 
      1251.0         0.20        910.7 
