~Version Information
VERS.                      2.0: CWLS Log ASCII Standard - VERSION 2.0
WRAP.                       NO: One line per depth step
~Well Information Block
STRT.FT               240.0000: 
STOP.FT              1452.5000: 
STEP.FT                 0.1000: 
NULL.                -999.2500: 
COMP.          Petrogulf Corporation: COMPANY
WELL.          Robinson 15-12R: WELL
FLD.           Purgatorie River: FIELD
LOC.           1752' FNL & 561' FWL: LOCATION
PROV.                 Colorado: PROVINCE
CNTY.               Las Animas: COUNTRY
SRVC.                Patterson: SERVICE COMPANY
DATE.          Tue Sep 13 15:07:52 2005: LOG DATE
UWI.                          : UNIQUE WELL ID
~Curve Information Block
DEPT.FT            0 000 00 00: Depth
DCAL.in                       : CDL Caliper
RHOB.g/cc                     : CDL Bulk Density
RHOC.g/cc                     : CDL Density Correction
DPOR.pu                       : CDL Density Porosity
GR.GAPI                       : Gamma Ray
NPOR.pu                       : Neutron Porosity
~Parameter Information Block
~A  Depth       DCAL        RHOB        RHOC        DPOR         GR         NPOR    
# ...
  1363.2000      7.8250      2.6084      0.0168      2.5188     93.0460     21.6192
  1363.3000      7.8274      2.5548      0.0558      5.7687    100.3597     22.8664
  1363.4000      7.8274      2.4976      0.0137      9.2347    110.1649     24.5168
  1363.5000      7.8644      2.4530     -0.0117     11.9401    120.9719     25.8145
  1363.6000      7.8644      2.4250      0.0187     13.6358    132.2393     26.2718
  1363.7000      7.8644      2.4082      0.0158     14.6518    139.7607     26.3668
  1363.8000      7.8984      2.3984      0.0641     15.2457    141.5694     26.8589
  1363.9000      7.8984      2.3785      0.0968     16.4542    143.3459     27.7563
  1364.0000      7.9301      2.3411      0.0490     18.7231    147.9396     28.4780
  1364.1000      7.9301      2.3144      0.0637     20.3401    152.0759     28.7891
  1364.2000      7.9301      2.3202      0.0717     19.9855    153.7830     28.9109
  1364.3000      7.9533      2.3453      0.1257     18.4641    151.5697     29.1610
  1364.4000      7.9533      2.3718      0.1511     16.8614    148.9780     29.7488
  1364.5000      7.9691      2.3961      0.1417     15.3858    151.2917     30.4848
  1364.6000      7.9691      2.4158      0.1405     14.1921    155.3618     30.9264
  1364.7000      7.9691      2.4319      0.1228     13.2174    156.3745     30.8674
  1364.8000      7.9550      2.4576      0.1049     11.6586    153.8132     30.4736
  1364.9000      7.9550      2.4954      0.1417      9.3669    149.4272     30.0550
  1365.0000      7.9472      2.5267      0.1494      7.4698    144.3419     29.7874
  1365.1000      7.9472      2.5416      0.1089      6.5691    139.8530     29.6608
  1365.2000      7.9472      2.5482      0.1095      6.1726    140.1272     29.3941
  1365.3000      7.9414      2.5540      0.1211      5.8154    145.6158     28.7704
  1365.4000      7.9414      2.5583      0.1662      5.5597    148.9316     28.0823
  1365.5000      7.9338      2.5513      0.1163      5.9840    146.6472     27.8627
  1365.6000      7.9338      2.5330      0.0972      7.0909    143.9487     28.2927
  1365.7000      7.9338      2.5161      0.0648      8.1150    143.4024     28.9345
  1365.8000      7.9342      2.5026      0.0991      8.9345    143.3210     29.1947
  1365.9000      7.9342      2.4843      0.0647     10.0425    143.6502     29.1724
  1366.0000      7.9325      2.4655      0.0263     11.1838    144.7201     29.2352
  1366.1000      7.9325      2.4596      0.0320     11.5384    146.1701     29.1352
  1366.2000      7.9325      2.4699      0.0308     10.9146    146.7531     28.7757
  1366.3000      7.9533      2.4835      0.0816     10.0914    146.8066     28.6865
  1366.4000      7.9533      2.4829      0.1153     10.1285    149.1891     29.1583
  1366.5000      7.9379      2.4661      0.0632     11.1475    154.6250     29.8700
  1366.6000      7.9379      2.4478      0.0399     12.2557    161.2576     30.3186
  1366.7000      7.9379      2.4401      0.0600     12.7218    166.3575     30.3767
  1366.8000      7.9272      2.4480      0.0176     12.2410    167.6012     30.0677
  1366.9000      7.9272      2.4710      0.0716     10.8473    165.7900     29.4333
  1367.0000      7.9168      2.4940      0.0924      9.4540    162.2851     28.8174
  1367.1000      7.9168      2.5030      0.0965      8.9101    158.8359     28.5907
  1367.2000      7.9168      2.5024      0.0648      8.9448    158.1646     28.6224
  1367.3000      7.9106      2.5008      0.0882      9.0405    160.6189     28.8002
  1367.4000      7.9106      2.4983      0.0558      9.1928    162.6407     29.2599
  1367.5000      7.9339      2.4931      0.0720      9.5115    162.4823     29.7352
  1367.6000      7.9339      2.4777      0.0998     10.4412    162.0399     29.9270
  1367.7000      7.9339      2.4516      0.0325     12.0268    161.4475     29.8998
  1367.8000      7.9425      2.4295      0.0410     13.3625    159.2359     29.7748
  1367.9000      7.9425      2.4195     -0.0015     13.9697    157.0897     29.6801
  1368.0000      7.9536      2.4198      0.0012     13.9523    158.1282     29.8208
  1368.1000      7.9536      2.4233      0.0180     13.7378    162.5324     30.2003
  1368.2000      7.9536      2.4161      0.0555     14.1739    167.2605     30.3446
  1368.3000      7.9636      2.3954      0.0253     15.4328    169.9684     29.9903
  1368.4000      7.9636      2.3808     -0.0132     16.3174    168.7248     29.5190
  1368.5000      7.9630      2.3854      0.0142     16.0360    164.5536     29.2577
  1368.6000      7.9630      2.3963      0.0379     15.3747    161.2672     29.2467
  1368.7000      7.9630      2.3996      0.0091     15.1756    158.0040     29.4550
  1368.8000      7.9780      2.3967      0.0501     15.3525    154.9949     29.8800
  1368.9000      7.9780      2.3957      0.0278     15.4122    156.0834     30.3853
  1369.0000      7.9799      2.4035      0.0139     14.9364    159.4689     30.7372
  1369.1000      7.9799      2.4195      0.0567     13.9719    159.6512     30.9434
  1369.2000      7.9799      2.4380      0.0493     12.8508    156.4902     31.1057
  1369.3000      8.0258      2.4535      0.0992     11.9109    153.7802     31.1629
  1369.4000      8.0258      2.4580      0.1104     11.6354    154.9348     30.9396
  1369.5000      8.0019      2.4542      0.0644     11.8656    160.9852     30.5544
  1369.6000      8.0019      2.4600      0.0521     11.5129    168.7224     30.4785
  1369.7000      8.0019      2.4840      0.1239     10.0635    173.5662     30.7415
  1369.8000      7.9754      2.5101      0.1396      8.4817    174.4252     30.8493
  1369.9000      7.9754      2.5233      0.1288      7.6779    171.9591     30.7645
  1370.0000      7.9562      2.5284      0.1168      7.3685    167.5083     30.7972
  1370.1000      7.9562      2.5331      0.1343      7.0876    163.6544     30.7935
  1370.2000      7.9562      2.5379      0.1151      6.7909    160.5573     30.6305
  1370.3000      7.9486      2.5420      0.1396      6.5435    158.2629     30.5164
  1370.4000      7.9486      2.5430      0.1235      6.4867    157.9063     30.4951
  1370.5000      7.9524      2.5424      0.1238      6.5195    157.1131     30.6470
  1370.6000      7.9524      2.5435      0.1537      6.4567    154.7052     31.0130
  1370.7000      7.9524      2.5451      0.1042      6.3585    153.5937     31.2273
  1370.8000      7.9486      2.5486      0.1211      6.1475    153.1034     31.0070
  1370.9000      7.9486      2.5535      0.1136      5.8497    150.3641     30.5529
  1371.0000      7.9456      2.5587      0.0886      5.5327    146.8256     30.2260
  1371.1000      7.9456      2.5575      0.1286      5.6073    144.8496     30.0866
  1371.2000      7.9456      2.5386      0.1180      6.7514    144.3999     29.9015
  1371.3000      7.9421      2.5127      0.0472      8.3200    144.9468     29.6777
  1371.4000      7.9421      2.4996      0.0717      9.1179    145.5057     29.6153
  1371.5000      7.9405      2.4945      0.0905      9.4259    144.7456     29.5809
  1371.6000      7.9405      2.4881      0.0673      9.8143    143.4219     29.3587
  1371.7000      7.9405      2.4882      0.0588      9.8053    143.3118     29.0668
  1371.8000      7.9401      2.5034      0.0750      8.8869    144.5329     28.8271
  1371.9000      7.9401      2.5280      0.0845      7.3917    147.7500     28.5902
  1372.0000      7.9463      2.5468      0.1318      6.2559    152.9924     28.5385
  1372.1000      7.9463      2.5498      0.1217      6.0751    156.3668     28.9348
  1372.2000      7.9463      2.5391      0.1534      6.7229    155.6279     29.5310
  1372.3000      7.9479      2.5201      0.1068      7.8704    155.6363     29.9335
  1372.4000      7.9479      2.5031      0.0923      8.9022    161.6819     30.1286
  1372.5000      7.9474      2.4940      0.0976      9.4517    168.2336     30.2187
  1372.6000      7.9474      2.4901      0.0965      9.6921    167.3824     30.3109
  1372.7000      7.9474      2.4925      0.0840      9.5438    161.1255     30.3988
