~Version Information
VERS.                      2.0: CWLS Log ASCII Standard - VERSION 2.0
WRAP.                       NO: One line per depth step
~Well Information Block
STRT.FT               350.0000: 
STOP.FT              2264.0000: 
STEP.FT                 0.1000: 
NULL.                -999.2500: 
COMP.          Pioneer Natural Resources: COMPANY
WELL.             Warrior 32-1: WELL
FLD.           Purgatoire River: FIELD
LOC.           2624' FNL & 2392' FEL: LOCATION
PROV.                 Colorado: PROVINCE
CNTY.               Las Animas: COUNTRY
SRVC.                Patterson: SERVICE COMPANY
DATE.          Tue Oct 05 06:54:20 2004: LOG DATE
UWI.           05 071 08176 00: UNIQUE WELL ID
~Curve Information Block
DEPT.FT            0 000 00 00: Depth
DCAL.in                       : CDL Caliper
RHOB.g/cc                     : CDL Bulk Density
RHOC.g/cc                     : CDL Density Correction
DPOR.pu                       : CDL Density Porosity
NPOR.pu                       : Neutron Porosity
GR.GAPI                       : Gamma Ray
~Parameter Information Block
~A  Depth       DCAL        RHOB        RHOC        DPOR        NPOR         GR     
# ...
  1233.2000      8.1677      2.5328      0.0568      7.1044     18.5688     92.4063
  1233.3000      8.1704      2.5357      0.0479      6.9296     18.6204     87.8349
  1233.4000      8.1704      2.5439      0.0732      6.4279     18.5765     92.4503
  1233.5000      8.1714      2.5486      0.0582      6.1432     18.6319    103.6568
  1233.6000      8.1714      2.5492      0.0488      6.1115     18.8511    109.2315
  1233.7000      8.1714      2.5529      0.0442      5.8849     19.2360    105.9632
  1233.8000      8.1702      2.5596      0.0366      5.4783     20.1569    102.8680
  1233.9000      8.1702      2.5628      0.0821      5.2854     21.5135    105.1230
  1234.0000      8.1738      2.5667      0.0480      5.0461     22.4769    112.2288
  1234.1000      8.1738      2.5798      0.0874      4.2553     22.6207    120.7665
  1234.2000      8.1738      2.5905      0.0953      3.6041     22.3762    126.9002
  1234.3000      8.1839      2.5898      0.0417      3.6496     22.1472    131.3776
  1234.4000      8.1839      2.5903      0.0301      3.6152     21.7321    134.9062
  1234.5000      8.1937      2.5984      0.0515      3.1271     21.1230    132.6399
  1234.6000      8.1937      2.6019      0.0595      2.9144     20.5707    124.9588
  1234.7000      8.1937      2.6026      0.0469      2.8704     20.0788    115.7842
  1234.8000      8.1982      2.6202      0.0350      1.8036     19.9280    107.0137
  1234.9000      8.1982      2.6483      0.0771      0.1011     20.1421    100.2893
  1235.0000      8.2068      2.6616      0.0296     -0.7056     20.1565     96.1324
  1235.1000      8.2068      2.6611      0.0159     -0.6705     19.9016     96.5213
  1235.2000      8.2068      2.6603      0.0243     -0.6248     19.7120    100.1795
  1235.3000      8.2197      2.6631      0.0413     -0.7959     19.3183    102.2786
  1235.4000      8.2197      2.6718     -0.0230     -1.3194     18.5460    102.0310
  1235.5000      8.2236      2.6825      0.0369     -1.9727     18.1253    100.3071
  1235.6000      8.2236      2.6792      0.0411     -1.7701     18.4248     95.2861
  1235.7000      8.2236      2.6561     -0.0022     -0.3717     18.9870     91.3553
  1235.8000      8.2229      2.6283     -0.0243      1.3132     19.6211     94.8403
  1235.9000      8.2229      2.6091     -0.0297      2.4792     20.3849    102.9815
  1236.0000      8.2276      2.5974      0.0072      3.1855     21.0199    109.6962
  1236.1000      8.2276      2.5952     -0.0686      3.3203     21.1818    114.9083
  1236.2000      8.2276      2.6088     -0.0006      2.4961     21.0039    118.8891
  1236.3000      8.2365      2.6247      0.0216      1.5318     20.8479    117.4165
  1236.4000      8.2365      2.6279      0.0320      1.3418     20.8011    112.5428
  1236.5000      8.2436      2.6221      0.0661      1.6899     20.7683    110.2723
  1236.6000      8.2436      2.6095      0.0640      2.4516     20.9417    113.6644
  1236.7000      8.2436      2.5924      0.0152      3.4890     21.4955    120.0307
  1236.8000      8.2489      2.5808      0.0211      4.1933     21.8901    120.5180
  1236.9000      8.2489      2.5757      0.0207      4.5059     21.7174    114.9294
  1237.0000      8.2517      2.5765      0.0128      4.4576     21.4148    112.0394
  1237.1000      8.2517      2.5850     -0.0035      3.9365     21.0528    112.6894
  1237.2000      8.2517      2.5910      0.0656      3.5750     20.2714    112.8061
  1237.3000      8.2543      2.5833      0.0478      4.0440     19.4969    112.3866
  1237.4000      8.2543      2.5730     -0.0052      4.6686     19.4481    112.8185
  1237.5000      8.2611      2.5730     -0.0122      4.6683     20.1795    114.8458
  1237.6000      8.2611      2.5763      0.0222      4.4642     21.1866    121.3959
  1237.7000      8.2611      2.5762      0.0015      4.4722     21.9629    127.7381
  1237.8000      8.2696      2.5803      0.0077      4.2212     22.3631    123.6953
  1237.9000      8.2696      2.5945      0.0529      3.3629     22.4319    113.4658
  1238.0000      8.2747      2.6088      0.0681      2.4972     22.1805    109.3942
  1238.1000      8.2747      2.6120      0.0602      2.3026     21.9460    111.9601
  1238.2000      8.2747      2.6097      0.0474      2.4420     22.1386    113.7264
  1238.3000      8.2776      2.6122      0.0554      2.2898     22.7629    114.5815
  1238.4000      8.2776      2.6160      0.0697      2.0581     23.4557    114.8762
  1238.5000      8.2814      2.6164      0.0227      2.0358     23.8059    110.6928
  1238.6000      8.2814      2.6141      0.0904      2.1738     23.8772    106.1026
  1238.7000      8.2814      2.6091      0.0419      2.4803     24.0862    107.1649
  1238.8000      8.2878      2.6079      0.0106      2.5529     24.4263    112.8677
  1238.9000      8.2878      2.6104      0.0555      2.3990     24.4105    117.5839
  1239.0000      8.2955      2.6090      0.0226      2.4850     23.9846    118.1982
  1239.1000      8.2955      2.6081      0.0434      2.5368     23.8390    121.9935
  1239.2000      8.2955      2.6135      0.0257      2.2143     24.3085    132.0195
  1239.3000      8.3013      2.6198      0.0213      1.8301     25.0316    141.6134
  1239.4000      8.3013      2.6142      0.0711      2.1702     25.5368    145.0082
  1239.5000      8.3082      2.5914      0.0124      3.5514     25.5546    141.2085
  1239.6000      8.3082      2.5662     -0.0144      5.0766     25.2254    136.6883
  1239.7000      8.3082      2.5554      0.0178      5.7347     24.7732    137.1932
  1239.8000      8.3177      2.5576      0.0147      5.6028     24.6238    140.1965
  1239.9000      8.3177      2.5654     -0.0306      5.1277     25.0000    141.3095
  1240.0000      8.3258      2.5755      0.0214      4.5163     25.4049    139.5021
  1240.1000      8.3258      2.5777      0.0163      4.3835     25.6498    137.2996
  1240.2000      8.3258      2.5637      0.0027      5.2287     25.9185    137.0899
  1240.3000      8.3292      2.5454      0.0289      6.3374     26.0855    139.6721
  1240.4000      8.3292      2.5463     -0.0099      6.2839     26.1536    144.7813
  1240.5000      8.3316      2.5639      0.0583      5.2211     26.1059    151.7775
  1240.6000      8.3316      2.5706      0.0294      4.8138     25.8818    161.9399
  1240.7000      8.3316      2.5642      0.0012      5.2029     25.8959    170.7875
  1240.8000      8.3382      2.5575      0.0231      5.6082     26.1309    169.2775
  1240.9000      8.3382      2.5522     -0.0306      5.9290     26.0273    160.7024
  1241.0000      8.3497      2.5453      0.0614      6.3447     25.4718    151.0543
  1241.1000      8.3497      2.5302      0.0174      7.2581     25.0537    140.8807
  1241.2000      8.3497      2.5123     -0.0136      8.3465     25.1827    133.5205
  1241.3000      8.3562      2.5016      0.0181      8.9936     25.4506    132.4519
  1241.4000      8.3562      2.4967      0.0009      9.2939     25.6091    137.4505
  1241.5000      8.3562      2.4964     -0.0193      9.3105     25.8375    144.4555
  1241.6000      8.3562      2.5014     -0.0107      9.0082     25.7573    151.4606
  1241.7000      8.3562      2.5069      0.0099      8.6697     24.9168    159.3085
  1241.8000      8.3557      2.5145      0.0125      8.2144     24.0838    162.8346
  1241.9000      8.3557      2.5345      0.0105      6.9997     24.1701    155.3091
  1242.0000      8.3579      2.5657      0.0382      5.1112     24.7424    143.1064
  1242.1000      8.3579      2.5898      0.0717      3.6513     25.1091    138.8484
  1242.2000      8.3579      2.5985      0.0569      3.1222     25.4227    142.2650
  1242.3000      8.3605      2.6032      0.0098      2.8375     25.9479    147.1685
  1242.4000      8.3605      2.6086      0.0641      2.5065     26.4872    148.9801
  1242.5000      8.3589      2.6028      0.0390      2.8595     26.7508    146.3722
  1242.6000      8.3589      2.5852     -0.0156      3.9248     26.8031    144.9937
  1242.7000      8.3589      2.5589      0.0391      5.5187     27.0446    150.9973
