~Version Information
VERS.                      2.0: CWLS Log ASCII Standard - VERSION 2.0
WRAP.                       NO: One line per depth step
~Well Information Block
STRT.FT               275.0000: 
STOP.FT              1682.2000: 
STEP.FT                 0.1000: 
NULL.                -999.2500: 
COMP.          Pioneer Natural Resources: COMPANY
WELL.               Elmo 14-21: WELL
FLD.           Purgatoire River: FIELD
LOC.           623' FSL & 450' FWL----: LOCATION
PROV.                 Colorado: PROVINCE
CNTY.               Las Animas: COUNTRY
SRVC.                Patterson: SERVICE COMPANY
DATE.          Wed May 18 08:17:30 2005: LOG DATE
UWI.           05 071 08360 00: UNIQUE WELL ID
~Curve Information Block
DEPT.FT            0 000 00 00: Depth
DCAL.in                       : CDL Caliper
RHOB.g/cc                     : CDL Bulk Density
RHOC.g/cc                     : CDL Density Correction
DPOR.pu                       : CDL Density Porosity
NPOR.pu                       : Neutron Porosity
GR.GAPI                       : Gamma Ray
~Parameter Information Block
~A  Depth       DCAL        RHOB        RHOC        DPOR        NPOR         GR     
# ...
  1369.4000      8.0560      2.5855      0.0387      3.9096     16.7688     64.6676
  1369.5000      8.0558      2.6120      0.0840      2.3035     16.8419     69.8727
  1369.6000      8.0558      2.6136      0.0822      2.2054     16.6959     68.4951
  1369.7000      8.0558      2.5877      0.0273      3.7786     16.4717     62.1064
  1369.8000      8.0554      2.5564      0.0141      5.6750     15.9966     55.1608
  1369.9000      8.0554      2.5464     -0.0007      6.2779     15.6587     50.9750
  1370.0000      8.0561      2.5579      0.0641      5.5834     16.0718     51.3844
  1370.1000      8.0561      2.5654      0.0378      5.1297     17.3035     57.8857
  1370.2000      8.0561      2.5624      0.0020      5.3092     18.8796     65.6227
  1370.3000      8.0592      2.5623      0.0493      5.3159     19.6858     68.2875
  1370.4000      8.0592      2.5648      0.0402      5.1652     19.4610     68.2770
  1370.5000      8.0626      2.5665      0.0073      5.0625     19.1928     68.7144
  1370.6000      8.0626      2.5744      0.0321      4.5825     19.1153     68.8015
  1370.7000      8.0626      2.5880      0.0602      3.7551     18.7841     71.7845
  1370.8000      8.0636      2.5982      0.0677      3.1370     18.1692     78.8117
  1370.9000      8.0636      2.5990      0.0689      3.0910     17.3503     83.3024
  1371.0000      8.0621      2.5911      0.0618      3.5667     16.7059     80.9340
  1371.1000      8.0621      2.5836      0.0459      4.0263     16.7156     72.5720
  1371.2000      8.0621      2.5830      0.0660      4.0605     17.3713     64.5648
  1371.3000      8.0601      2.5864      0.0725      3.8575     18.3485     63.7602
  1371.4000      8.0601      2.5841      0.0903      3.9928     19.4948     66.2718
  1371.5000      8.0583      2.5745      0.0421      4.5748     20.8795     65.5237
  1371.6000      8.0583      2.5773      0.0448      4.4088     22.1244     63.7691
  1371.7000      8.0583      2.5995      0.1236      3.0616     22.6158     64.8209
  1371.8000      8.0580      2.6165      0.1068      2.0279     22.1158     67.6628
  1371.9000      8.0580      2.6124      0.0902      2.2759     20.8519     71.9949
  1372.0000      8.0579      2.5979      0.0515      3.1577     19.4986     77.3168
  1372.1000      8.0579      2.5891      0.0646      3.6932     18.6007     80.9995
  1372.2000      8.0579      2.5832      0.0881      4.0490     18.2015     82.1450
  1372.3000      8.0586      2.5755      0.0468      4.5137     18.4597     80.3732
  1372.4000      8.0586      2.5772      0.0457      4.4139     19.3389     76.2305
  1372.5000      8.0596      2.5869      0.1127      3.8271     20.0942     72.1476
  1372.6000      8.0596      2.5895      0.0631      3.6673     20.3989     69.3712
  1372.7000      8.0596      2.5806      0.0684      4.2036     20.5261     67.6938
  1372.8000      8.0597      2.5638      0.0420      5.2229     20.3824     68.3218
  1372.9000      8.0597      2.5520      0.0242      5.9424     20.0108     69.5505
  1373.0000      8.0595      2.5620      0.0359      5.3313     19.7776     69.2477
  1373.1000      8.0595      2.5886      0.1008      3.7239     19.7470     69.6536
  1373.2000      8.0595      2.6042      0.0790      2.7752     19.8022     71.9999
  1373.3000      8.0580      2.5921      0.0796      3.5119     19.9884     73.7812
  1373.4000      8.0580      2.5552      0.0557      5.7479     20.1865     73.2698
  1373.5000      8.0566      2.5142      0.0104      8.2328     20.0619     70.2034
  1373.6000      8.0566      2.4949     -0.0178      9.3971     19.9819     63.5012
  1373.7000      8.0566      2.4975      0.0210      9.2419     20.1555     57.2618
  1373.8000      8.0567      2.5006      0.0451      9.0568     19.9728     56.6090
  1373.9000      8.0567      2.5011      0.0267      9.0244     19.3853     60.1526
  1374.0000      8.0583      2.5103      0.0429      8.4697     19.1193     64.7263
  1374.1000      8.0583      2.5284      0.0258      7.3717     19.2339     67.3950
  1374.2000      8.0583      2.5449      0.0926      6.3679     19.0250     64.8214
  1374.3000      8.0615      2.5478      0.0859      6.1936     18.5848     61.3858
  1374.4000      8.0615      2.5360      0.0729      6.9068     18.3567     63.7987
  1374.5000      8.0614      2.5199      0.0502      7.8853     18.3362     69.1823
  1374.6000      8.0614      2.5126      0.0253      8.3264     18.6756     69.7702
  1374.7000      8.0614      2.5178      0.0262      8.0144     19.4480     63.7070
  1374.8000      8.0588      2.5264      0.0343      7.4880     20.0889     56.5697
  1374.9000      8.0588      2.5350      0.0252      6.9710     20.0405     54.2786
  1375.0000      8.0586      2.5514      0.0447      5.9785     19.7837     58.1126
  1375.1000      8.0586      2.5776      0.0439      4.3858     20.0451     64.3408
  1375.2000      8.0586      2.5985      0.0996      3.1217     20.8388     67.9678
  1375.3000      8.0612      2.5948      0.0799      3.3447     21.6695     69.1905
  1375.4000      8.0612      2.5700      0.0721      4.8462     21.8547     70.6982
  1375.5000      8.0630      2.5494      0.0280      6.0982     21.2101     71.8989
  1375.6000      8.0630      2.5498      0.0471      6.0754     20.5473     71.3522
  1375.7000      8.0630      2.5541      0.0888      5.8141     20.6418     69.3976
  1375.8000      8.0599      2.5380      0.0792      6.7888     21.2346     65.7905
  1375.9000      8.0599      2.5106      0.0224      8.4480     21.4612     62.5456
  1376.0000      8.0549      2.5008      0.0434      9.0406     21.0716     63.5585
  1376.1000      8.0549      2.5215      0.0536      7.7861     20.6535     68.1013
  1376.2000      8.0549      2.5604      0.0652      5.4329     20.8434     72.3689
  1376.3000      8.0537      2.5919      0.0874      3.5210     21.5840     73.3691
  1376.4000      8.0537      2.5994      0.0837      3.0646     22.3073     72.6819
  1376.5000      8.0561      2.5863      0.0800      3.8627     22.6193     75.0143
  1376.6000      8.0561      2.5683      0.0784      4.9544     22.9568     80.0855
  1376.7000      8.0561      2.5603      0.0475      5.4340     23.5671     82.4806
  1376.8000      8.0584      2.5669      0.0377      5.0342     24.0523     82.0349
  1376.9000      8.0584      2.5737      0.0981      4.6225     24.0804     81.9949
  1377.0000      8.0586      2.5625      0.0604      5.3027     23.3973     80.7299
  1377.1000      8.0586      2.5418     -0.0018      6.5596     22.0792     76.1941
  1377.2000      8.0586      2.5294      0.0511      7.3102     20.8021     71.3126
  1377.3000      8.0586      2.5266      0.0388      7.4780     20.2134     70.7923
  1377.4000      8.0586      2.5311      0.0541      7.2052     20.0216     73.2342
  1377.5000      8.0634      2.5390      0.0695      6.7274     19.8528     72.5782
  1377.6000      8.0634      2.5436      0.0730      6.4495     19.8901     68.0608
  1377.7000      8.0634      2.5450      0.0487      6.3648     20.2381     63.1560
  1377.8000      8.0727      2.5432      0.0848      6.4733     20.7525     62.4331
  1377.9000      8.0727      2.5271      0.0560      7.4498     21.4559     67.5511
  1378.0000      8.0792      2.4959      0.0044      9.3412     22.5921     74.0594
  1378.1000      8.0792      2.4683      0.0016     11.0147     23.9880     76.9891
  1378.2000      8.0792      2.4548     -0.0069     11.8295     24.9345     74.4819
  1378.3000      8.0811      2.4491      0.0297     12.1781     25.2068     68.4196
  1378.4000      8.0811      2.4443      0.0189     12.4678     25.5372     67.7352
  1378.5000      8.0816      2.4424      0.0479     12.5813     26.3584     78.7525
  1378.6000      8.0816      2.4508      0.0441     12.0735     26.8606     93.7124
  1378.7000      8.0816      2.4716      0.0546     10.8119     26.5759     99.2985
  1378.8000      8.0835      2.4922      0.0907      9.5644     26.0603     95.7590
  1378.9000      8.0835      2.5020      0.0706      8.9706     25.5750     95.1567
