~Version Information
VERS.                      2.0: CWLS Log ASCII Standard - VERSION 2.0
WRAP.                       NO: One line per depth step
~Well Information Block
STRT.FT               350.0000: 
STOP.FT              1390.0000: 
STEP.FT                 0.1000: 
NULL.                -999.2500: 
COMP.          Petrogulf Corporation: COMPANY
WELL.             Leier 17-42R: WELL
FLD.           Purgatorie River: FIELD
LOC.           2398' FNL & 1109' FEL: LOCATION
PROV.                 Colorado: PROVINCE
CNTY.               Las Animas: COUNTRY
SRVC.                Patterson: SERVICE COMPANY
DATE.          Tue Oct 18 07:06:44 2005: LOG DATE
UWI.                          : UNIQUE WELL ID
~Curve Information Block
DEPT.FT            0 000 00 00: Depth
DCAL.in                       : CDL Caliper
RHOB.g/cc                     : CDL Bulk Density
RHOC.g/cc                     : CDL Density Correction
DPOR.pu                       : CDL Density Porosity
GR.GAPI                       : Gamma Ray
NPOR.pu                       : Neutron Porosity
~Parameter Information Block
~A  Depth       DCAL        RHOB        RHOC        DPOR         GR         NPOR    
# ...
  1310.0000      7.8127      2.5874      0.0592      3.7932    140.3448     18.9121
  1310.1000      7.8127      2.5680      0.0261      4.9702    139.0802     19.3853
  1310.2000      7.8127      2.5586      0.0108      5.5408    138.0749     19.8920
  1310.3000      7.8378      2.5613      0.0226      5.3752    139.3849     20.2070
  1310.4000      7.8378      2.5650      0.0696      5.1537    142.7971     20.3942
  1310.5000      7.8747      2.5617      0.0222      5.3535    146.3171     20.8099
  1310.6000      7.8747      2.5583      0.0487      5.5588    145.9508     21.5530
  1310.7000      7.8747      2.5553      0.0502      5.7396    142.4967     22.0351
  1310.8000      7.9099      2.5519      0.0133      5.9465    140.4559     21.9064
  1310.9000      7.9099      2.5553      0.0618      5.7382    140.8685     21.7860
  1311.0000      7.9214      2.5675      0.0145      4.9984    140.5525     22.1187
  1311.1000      7.9214      2.5809      0.0443      4.1861    136.5914     22.6701
  1311.2000      7.9214      2.5822      0.0514      4.1110    130.8652     23.1512
  1311.3000      7.9165      2.5730      0.0140      4.6648    125.4100     23.3740
  1311.4000      7.9165      2.5748     -0.0322      4.5595    118.0400     23.2694
  1311.5000      7.9165      2.5953      0.0521      3.3150    110.7090     22.9251
  1311.6000      7.9165      2.6220      0.0377      1.6977    108.5414     22.6520
  1311.7000      7.9165      2.6471      0.0493      0.1761    108.7143     22.7057
  1311.8000      7.9068      2.6648      0.0640     -0.8940    107.0550     22.9015
  1311.9000      7.9068      2.6661      0.0765     -0.9727    106.6815     22.9740
  1312.0000      7.8378      2.6560      0.0633     -0.3629    108.0198     22.8678
  1312.1000      7.8378      2.6521      0.0270     -0.1247    106.3130     22.5479
  1312.2000      7.8378      2.6529      0.0963     -0.1779    102.0982     22.0849
  1312.3000      7.8038      2.6441      0.0239      0.3596     97.6730     21.5311
  1312.4000      7.8038      2.6302      0.0454      1.2006     93.8762     20.8144
  1312.5000      7.8137      2.6218      0.0438      1.7117     93.9312     20.1018
  1312.6000      7.8137      2.6226      0.0550      1.6578     98.4256     19.5943
  1312.7000      7.8137      2.6244      0.1260      1.5507    103.5726     19.1790
  1312.8000      7.8243      2.6171      0.0640      1.9929    107.6083     18.7761
  1312.9000      7.8243      2.6093      0.0411      2.4655    111.4162     18.4517
  1313.0000      7.8394      2.6070      0.0500      2.6047    114.7353     18.1787
  1313.1000      7.8394      2.6032      0.0529      2.8367    116.7464     18.0683
  1313.2000      7.8394      2.5893      0.0667      3.6778    116.0337     18.2987
  1313.3000      7.9000      2.5646      0.0180      5.1741    113.9619     18.5844
  1313.4000      7.9000      2.5390      0.0185      6.7260    113.6572     18.5887
  1313.5000      7.8618      2.5263      0.0010      7.4953    113.4302     18.4210
  1313.6000      7.8618      2.5403      0.0195      6.6486    112.1512     18.3917
  1313.7000      7.8618      2.5797      0.1068      4.2615    113.9952     18.8167
  1313.8000      7.7997      2.6281      0.0509      1.3271    120.2814     19.6366
  1313.9000      7.7997      2.6714      0.1239     -1.2945    125.0858     20.3108
  1314.0000      7.7943      2.6951      0.1125     -2.7355    123.4197     20.6029
  1314.1000      7.7943      2.6910      0.1112     -2.4828    118.0113     20.8976
  1314.2000      7.7943      2.6632      0.0655     -0.8024    113.7421     21.4102
  1314.3000      7.8029      2.6277      0.0351      1.3500    110.6068     22.0443
  1314.4000      7.8029      2.5990      0.0709      3.0892    107.1462     22.6913
  1314.5000      7.8023      2.5784      0.0214      4.3409    103.5634     23.1343
  1314.6000      7.8023      2.5633     -0.0041      5.2542    101.4014     23.1189
  1314.7000      7.8023      2.5551      0.0198      5.7513    102.3430     22.6444
  1314.8000      7.8419      2.5594      0.0087      5.4883    103.4209     22.2003
  1314.9000      7.8419      2.5806      0.0375      4.2090    101.6512     21.9539
  1315.0000      7.8954      2.6143      0.0483      2.1661    101.7951     21.4967
  1315.1000      7.8954      2.6522      0.1204     -0.1359    108.4600     20.9139
  1315.2000      7.8954      2.6805      0.1902     -1.8463    118.4323     20.6393
  1315.3000      7.8043      2.6873      0.1755     -2.2579    125.1761     20.6693
  1315.4000      7.8043      2.6820      0.1457     -1.9423    125.9683     21.0218
  1315.5000      7.7555      2.6855      0.1559     -2.1521    124.3509     21.8539
  1315.6000      7.7555      2.6954      0.1802     -2.7524    127.9861     22.8478
  1315.7000      7.7555      2.6892      0.1592     -2.3739    138.4369     23.5518
  1315.8000      7.7338      2.6622      0.1069     -0.7380    149.0898     23.8929
  1315.9000      7.7338      2.6298      0.1398      1.2251    155.6465     24.0397
  1316.0000      7.8219      2.6049      0.0796      2.7315    159.4813     24.1976
  1316.1000      7.8219      2.5939      0.0306      3.3978    161.9397     24.3938
  1316.2000      7.8219      2.5961      0.0657      3.2663    162.7701     24.5403
  1316.3000      7.8845      2.6082      0.0192      2.5362    162.1842     24.7307
  1316.4000      7.8845      2.6223      0.1244      1.6786    161.9497     25.1505
  1316.5000      7.9320      2.6255      0.0420      1.4850    164.4446     25.9506
  1316.6000      7.9320      2.6174      0.1055      1.9787    168.3578     26.9742
  1316.7000      7.9320      2.6061      0.0664      2.6604    168.4168     27.7390
  1316.8000      7.9437      2.5965      0.0487      3.2445    164.5141     28.1478
  1316.9000      7.9437      2.5837      0.0902      4.0166    162.4112     28.4270
  1317.0000      7.9376      2.5624      0.0513      5.3092    164.4010     28.6655
  1317.1000      7.9376      2.5369      0.0683      6.8534    166.1556     28.7931
  1317.2000      7.9376      2.5122      0.0696      8.3528    162.9207     28.7965
  1317.3000      7.9383      2.4970      0.0248      9.2702    157.5328     28.7930
  1317.4000      7.9383      2.5041      0.0408      8.8410    155.6269     28.6197
  1317.5000      7.9411      2.5291      0.0542      7.3247    156.5057     28.2659
  1317.6000      7.9411      2.5561      0.0609      5.6937    156.6851     28.0814
  1317.7000      7.9411      2.5713      0.0926      4.7714    157.3245     28.1238
  1317.8000      7.9322      2.5689      0.0781      4.9153    160.8471     28.1230
  1317.9000      7.9322      2.5536      0.0637      5.8416    165.6235     27.9484
  1318.0000      7.9378      2.5290      0.0482      7.3350    169.0360     27.7479
  1318.1000      7.9378      2.4947      0.0204      9.4142    170.5330     27.6983
  1318.2000      7.9378      2.4655     -0.0308     11.1846    170.7470     27.7969
  1318.3000      7.9426      2.4645     -0.0284     11.2402    171.2099     27.8695
  1318.4000      7.9426      2.4913      0.0099      9.6161    172.5508     27.9488
  1318.5000      7.9230      2.5215      0.0457      7.7860    173.5296     28.2262
  1318.6000      7.9230      2.5409      0.0524      6.6138    173.0931     28.4592
  1318.7000      7.9230      2.5550      0.0779      5.7587    169.5663     28.1171
  1318.8000      7.8894      2.5673      0.1029      5.0145    162.5402     27.3991
  1318.9000      7.8894      2.5722      0.0820      4.7165    157.5639     26.9320
  1319.0000      7.8734      2.5694      0.0404      4.8878    158.1718     26.5994
  1319.1000      7.8734      2.5646      0.0334      5.1744    161.0174     26.2954
  1319.2000      7.8734      2.5579      0.0327      5.5818    162.4028     26.4106
  1319.3000      7.9108      2.5468      0.0113      6.2557    164.2099     26.7196
  1319.4000      7.9108      2.5357      0.0604      6.9271    170.7681     26.6744
  1319.5000      7.9133      2.5316      0.0218      7.1751    180.1347     26.5154
