~Version Information
VERS.                      2.0: CWLS Log ASCII Standard - VERSION 2.0
WRAP.                       NO: One line per depth step
~Well Information Block
STRT.FT               483.0000: 
STOP.FT              1701.5000: 
STEP.FT                 0.1000: 
NULL.                -999.2500: 
COMP.          Pioneer Natural Resources: COMPANY
WELL.            Mad Dog 42-31: WELL
FLD.           Purgatorie River: FIELD
LOC.           2064' FNL & 479' FEL: LOCATION
PROV.                 Colorado: PROVINCE
CNTY.               Las Animas: COUNTRY
SRVC.                         : SERVICE COMPANY
DATE.          Sun Oct 10 04:38:02 2004: LOG DATE
UWI.           05 071 08195 00: UNIQUE WELL ID
~Curve Information Block
DEPT.FT            0 000 00 00: Depth
LTEN.lb                       : Surface Line Tension
DCAL.in                       : CDL Caliper
RHOB.g/cc                     : CDL Bulk Density
RHOC.g/cc                     : CDL Density Correction
DPOR.pu                       : CDL Density Porosity
GR.GAPI                       : Gamma Ray
NPOR.pu                       : Neutron Porosity
~Parameter Information Block
~A  Depth       LTEN        DCAL        RHOB        RHOC        DPOR         GR         NPOR    
# ...
   642.6000    909.6982      7.8817      2.5866      0.0559      3.8421     89.2074     19.8818
   642.7000    909.6982      7.8817      2.5885      0.0349      3.7273     80.9173     20.1586
   642.8000    888.7543      7.8796      2.5950      0.0905      3.3330     74.1036     19.9755
   642.9000    888.7543      7.8796      2.6076      0.0777      2.5684     70.1386     19.6900
   643.0000    846.1443      7.8819      2.6179      0.1658      1.9434     68.4828     19.4434
   643.1000    846.1443      7.8819      2.6165      0.0990      2.0316     70.8634     19.5025
   643.2000    846.1443      7.8819      2.6129      0.0437      2.2492     75.6563     19.9695
   643.3000    843.4639      7.8810      2.6134      0.0952      2.2203     78.6116     20.3452
   643.4000    843.4639      7.8810      2.6038      0.0769      2.8010     79.7387     20.3670
   643.5000    826.4857      7.8794      2.5875      0.0132      3.7892     80.1519     20.1913
   643.6000    826.4857      7.8794      2.5892     -0.0280      3.6862     79.8650     19.9508
   643.7000    826.4857      7.8794      2.6067      0.0557      2.6217     79.7089     19.6712
   643.8000    826.7501      7.8791      2.6164      0.0337      2.0374     81.6383     19.3699
   643.9000    826.7501      7.8791      2.6135      0.0601      2.2113     86.9015     19.1286
   644.0000    842.3517      7.8819      2.6101      0.0598      2.4194     93.7260     19.1551
   644.1000    842.3517      7.8819      2.6095      0.0967      2.4542     96.8676     19.5315
   644.2000    842.3517      7.8819      2.6038      0.0375      2.7976     96.0665     19.7024
   644.3000    844.0148      7.8814      2.5989      0.0512      3.0985     97.1961     19.4933
   644.4000    844.0148      7.8814      2.6111      0.0236      2.3579    100.0726     19.4629
   644.5000    839.0582      7.8796      2.6355      0.0630      0.8761    100.3041     19.6285
   644.6000    839.0582      7.8796      2.6512      0.0743     -0.0746     98.8773     19.5726
   644.7000    839.0582      7.8796      2.6600      0.0499     -0.6047    100.5567     19.4254
   644.8000    856.0236      7.8848      2.6731      0.0925     -1.3999    105.7370     19.5490
   644.9000    856.0236      7.8848      2.6756      0.1003     -1.5534    106.7658     19.8572
   645.0000    858.1983      7.8913      2.6489      0.1037      0.0681     99.5447     20.2893
   645.1000    858.1983      7.8913      2.6033      0.0334      2.8325     92.4691     20.6414
   645.2000    858.1983      7.8913      2.5752      0.0023      4.5337     92.0490     20.5227
   645.3000    842.1963      7.8931      2.5854      0.0394      3.9127     93.5471     19.9373
   645.4000    842.1963      7.8931      2.6135      0.0930      2.2091     90.4152     19.1624
   645.5000    828.5900      7.8700      2.6336      0.0801      0.9957     83.9435     18.7203
   645.6000    828.5900      7.8700      2.6456      0.1068      0.2641     80.4494     18.8574
   645.7000    828.5900      7.8700      2.6549      0.1202     -0.2957     80.0490     18.9750
   645.8000    848.5957      7.8689      2.6591      0.0904     -0.5528     79.5380     18.9439
   645.9000    848.5957      7.8689      2.6568      0.1212     -0.4101     82.2996     19.2761
   646.0000    872.0829      7.8719      2.6484      0.0397      0.0976     90.5088     20.1179
   646.1000    872.0829      7.8719      2.6479      0.0146      0.1253     97.2080     20.6952
   646.2000    872.0829      7.8719      2.6622      0.0453     -0.7375     94.3085     20.4264
   646.3000    887.2627      7.8809      2.6715      0.0834     -1.3051     84.2637     19.9199
   646.4000    887.2627      7.8809      2.6587      0.0578     -0.5300     77.2141     19.7281
   646.5000    844.8831      7.9049      2.6266      0.0654      1.4184     76.8018     19.8389
   646.6000    844.8831      7.9049      2.5901      0.0005      3.6302     78.9214     19.8703
   646.7000    844.8831      7.9049      2.5661      0.0061      5.0847     83.5121     19.5407
   646.8000    844.3642      7.9128      2.5592     -0.0147      5.5005     90.3625     19.1222
   646.9000    844.3642      7.9128      2.5586      0.0243      5.5375     93.9526     18.8109
   647.0000    838.7761      7.9139      2.5558     -0.0228      5.7080     91.4497     18.6255
   647.1000    838.7761      7.9139      2.5560     -0.0075      5.6992     85.2196     18.7895
   647.2000    838.7761      7.9139      2.5602      0.0229      5.4431     81.5433     19.3566
   647.3000    829.9152      7.8855      2.5662      0.0116      5.0789     84.1985     19.8642
   647.4000    829.9152      7.8855      2.5806     -0.0039      4.2045     89.7864     19.7577
   647.5000    866.4475      7.8738      2.6009      0.0487      2.9728     93.1180     19.2906
   647.6000    866.4475      7.8738      2.6061      0.0601      2.6592     93.1622     19.1772
   647.7000    866.4475      7.8738      2.5860      0.0942      3.8782     93.4629     19.5064
   647.8000    854.7258      7.8797      2.5629     -0.0043      5.2815     96.3296     19.9493
   647.9000    854.7258      7.8797      2.5647     -0.0125      5.1705     98.0198     20.2899
   648.0000    848.8361      7.8924      2.5823      0.0988      4.1028     95.8283     20.2386
   648.1000    848.8361      7.8924      2.5928      0.0398      3.4672     94.8816     19.6676
   648.2000    848.8361      7.8924      2.6006      0.0407      2.9935     97.8085     19.1130
   648.3000    852.2203      7.8862      2.6114      0.0612      2.3388     98.9508     19.5779
   648.4000    852.2203      7.8862      2.6148      0.0423      2.1306     97.4431     21.0248
   648.5000    834.7586      7.8797      2.6074      0.0463      2.5845    101.0519     22.0302
   648.6000    834.7586      7.8797      2.5996      0.0665      3.0556    110.2794     21.9667
   648.7000    834.7586      7.8797      2.6030      0.0711      2.8493    115.0247     21.4653
   648.8000    852.7290      7.8781      2.6154      0.0625      2.0972    111.3957     20.9707
   648.9000    852.7290      7.8781      2.6233      0.0973      1.6162    107.9813     20.4992
   649.0000    855.2901      7.8885      2.6141      0.1072      2.1731    108.1957     20.4388
   649.1000    855.2901      7.8885      2.5943      0.0221      3.3769    109.3682     21.1499
   649.2000    855.2901      7.8885      2.5890      0.0609      3.6959    112.3241     22.0701
   649.3000    840.7494      7.8859      2.6031      0.0976      2.8431    114.4031     22.3642
   649.4000    840.7494      7.8859      2.6173      0.1034      1.9847    111.7340     22.0562
   649.5000    833.3790      7.9006      2.6217      0.0620      1.7173    107.6087     21.9198
   649.6000    833.3790      7.9006      2.6142      0.0985      2.1686    107.2726     22.1915
   649.7000    833.3790      7.9006      2.5915      0.0714      3.5450    109.1245     22.2096
   649.8000    823.8317      7.9028      2.5669      0.0269      5.0356    107.5538     21.6842
   649.9000    823.8317      7.9028      2.5589      0.0395      5.5202    101.4913     21.0733
   650.0000    862.6501      7.8869      2.5732      0.0189      4.6536     93.8397     20.8898
   650.1000    862.6501      7.8869      2.6156      0.0396      2.0850     86.0213     20.9381
   650.2000    862.6501      7.8869      2.6806      0.1316     -1.8545     78.5499     20.7338
   650.3000    850.8333      7.8643      2.7377      0.1736     -5.3128     74.6276     20.4411
   650.4000    850.8333      7.8643      2.7644      0.1628     -6.9345     75.9462     20.2203
   650.5000    833.6538      7.8568      2.7656      0.1318     -7.0034     77.9160     19.9378
   650.6000    833.6538      7.8568      2.7494      0.1529     -6.0240     74.8598     19.7783
   650.7000    833.6538      7.8568      2.7188      0.0533     -4.1704     68.6468     19.8840
   650.8000    836.5638      7.8530      2.6893      0.0247     -2.3802     64.7051     19.8105
   650.9000    836.5638      7.8530      2.6797      0.0070     -1.7992     63.5336     19.3798
