~Version Information
VERS.                      2.0: CWLS Log ASCII Standard - VERSION 2.0
WRAP.                       NO: One line per depth step
~Well Information Block
STRT.FT               720.0000: 
STOP.FT              2730.2000: 
STEP.FT                 0.1000: 
NULL.                -999.2500: 
COMP.          Evergreen Operating Corporation: COMPANY
WELL.            Rangely 22-28: WELL
FLD.           Purgatoire River: FIELD
LOC.           1741' FNL & 2335' FWL: LOCATION
PROV.                 Colorado: PROVINCE
CNTY.               Las Animas: COUNTRY
SRVC.                Patterson: SERVICE COMPANY
DATE.          Thu Sep 16 15:10:36 2004: LOG DATE
UWI.           05 071 08044 00: UNIQUE WELL ID
~Curve Information Block
DEPT.FT            0 000 00 00: Depth
DCAL.in                       : CDL Caliper
DPOR.pu                       : CDL Density Porosity
NPOR.pu                       : Neutron Porosity
RHOB.g/cc                     : CDL Bulk Density
RHOC.g/cc                     : CDL Density Correction
GR.GAPI                       : Gamma Ray
~Parameter Information Block
~A  Depth       DCAL        DPOR        NPOR        RHOB        RHOC         GR     
# ...
   835.2000      8.3389     28.2250     22.2649      2.1843      0.0145    147.7716
   835.3000      8.3402     28.3084     21.3690      2.1829      0.0242    149.2231
   835.4000      8.3402     29.0306     20.5097      2.1710      0.0621    152.1210
   835.5000      8.3413     31.1623     19.5000      2.1358      0.0680    147.8695
   835.6000      8.3413     34.4618     18.3655      2.0814      0.0278    141.5925
   835.7000      8.3413     38.5489     17.5462      2.0139      0.0410    137.8542
   835.8000      8.3418     43.3683     17.0503      1.9344     -0.0051    135.7228
   835.9000      8.3418     48.3997     16.4473      1.8514     -0.0281    135.5819
   836.0000      8.3426     53.1279     15.6331      1.7734     -0.0377    134.1918
   836.1000      8.3426     57.7584     14.6267      1.6970     -0.0342    129.0106
   836.2000      8.3426     62.4685     13.5117      1.6193     -0.0617    122.5072
   836.3000      8.3572     66.0148     12.5994      1.5608     -0.1318    117.6566
   836.4000      8.3572     66.0178     12.0037      1.5607     -0.1083    115.4098
   836.5000      8.4345     61.1693     11.5951      1.6407     -0.0106    112.7826
   836.6000      8.4345     52.7172     11.4454      1.7802      0.1744    108.8188
   836.7000      8.4345     43.4970     11.6508      1.9323      0.3116    108.2246
   836.8000      8.5840     35.2799     12.1138      2.0679      0.3136    114.2415
   836.9000      8.5840     28.1054     12.9248      2.1863      0.3459    123.7052
   837.0000      8.6390     21.8342     14.2677      2.2897      0.3321    132.3513
   837.1000      8.6390     16.4087     15.9516      2.3793      0.2863    140.7624
   837.2000      8.6390     12.2601     17.4834      2.4477      0.3061    150.1180
   837.3000      8.5108     10.2682     18.7984      2.4806      0.2013    157.1446
   837.4000      8.5108     10.1694     20.1424      2.4822      0.1332    160.4259
   837.5000      8.3901     10.8802     21.3953      2.4705      0.0591    160.2487
   837.6000      8.3901     11.4012     22.2029      2.4619      0.0412    156.8372
   837.7000      8.3901     11.1981     22.2137      2.4652      0.0603    154.4742
   837.8000      8.3504     10.7204     21.5486      2.4731      0.0515    155.6259
   837.9000      8.3504     10.6964     21.1311      2.4735      0.0519    158.4825
   838.0000      8.3418     10.8826     21.5601      2.4704      0.0008    161.0867
   838.1000      8.3418     10.3388     22.2452      2.4794      0.0154    160.5911
   838.2000      8.3418      8.8406     22.4893      2.5041      0.0313    152.9796
   838.3000      8.3411      7.1145     22.5517      2.5326      0.0595    139.9961
   838.4000      8.3411      6.0322     22.8557      2.5505      0.0660    127.6678
   838.5000      8.3406      5.6541     23.1382      2.5567      0.0480    120.3995
   838.6000      8.3406      5.3567     23.1123      2.5616      0.0302    118.9248
   838.7000      8.3406      4.6790     23.1564      2.5728      0.0037    119.1587
   838.8000      8.3394      3.6408     23.5428      2.5899      0.0604    119.3766
   838.9000      8.3394      2.7818     24.1416      2.6041      0.0588    122.4894
   839.0000      8.3403      2.2883     24.8694      2.6122      0.0558    127.6786
   839.1000      8.3403      2.1423     25.6444      2.6147      0.0538    128.0101
   839.2000      8.3403      2.6667     26.2821      2.6060      0.0294    120.1222
   839.3000      8.3409      3.7453     26.5772      2.5882      0.0084    111.1419
   839.4000      8.3409      4.6558     26.5423      2.5732      0.0003    106.8931
   839.5000      8.3418      5.1039     26.4240      2.5658      0.0166    104.3341
   839.6000      8.3418      5.3951     26.3263      2.5610      0.0245    102.3762
   839.7000      8.3418      5.4702     26.2095      2.5597     -0.0048    104.5062
   839.8000      8.3487      4.8962     26.2223      2.5692      0.0430    110.7539
   839.9000      8.3487      3.6639     26.6008      2.5895      0.0325    118.5652
   840.0000      8.3574      2.5914     27.2529      2.6072      0.0613    126.1212
   840.1000      8.3574      2.4222     27.7050      2.6100      0.0375    129.6437
   840.2000      8.3574      2.5709     27.8049      2.6076      0.0223    129.0242
   840.3000      8.3597      2.2040     27.7358      2.6136      0.0426    129.9977
   840.4000      8.3597      1.5723     27.5289      2.6241      0.0520    132.3149
   840.5000      8.3526      1.2540     27.1965      2.6293      0.0420    132.9575
   840.6000      8.3526      1.1157     26.7594      2.6316      0.0232    134.2247
   840.7000      8.3526      1.0216     26.5222      2.6331      0.0279    137.9027
   840.8000      8.3318      1.6125     26.8011      2.6234      0.0534    139.6461
   840.9000      8.3318      3.2580     27.1647      2.5962      0.0014    136.8178
   841.0000      8.3100      5.1790     27.1982      2.5645     -0.0627    133.3183
   841.1000      8.3100      6.4069     27.2762      2.5443     -0.0211    129.2286
   841.2000      8.3100      6.6004     27.8092      2.5411     -0.0700    125.5236
   841.3000      8.2986      5.6645     28.2958      2.5565     -0.0502    127.8772
   841.4000      8.2986      4.5927     28.1806      2.5742      0.0548    134.5430
   841.5000      8.3022      5.0662     27.9498      2.5664      0.0605    139.1894
   841.6000      8.3022      6.5682     28.2859      2.5416      0.0210    142.1356
   841.7000      8.3022      6.5664     29.0298      2.5417     -0.0052    146.9221
   841.8000      8.3095      4.4442     29.6788      2.5767      0.0708    151.1113
   841.9000      8.3095      2.3994     30.0972      2.6104      0.0957    147.6158
   842.0000      8.3125      2.0501     30.5013      2.6162      0.0711    138.6945
   842.1000      8.3125      2.9292     31.0948      2.6017      0.0296    136.1249
   842.2000      8.3125      3.8204     31.6880      2.5870      0.0428    143.4155
   842.3000      8.3137      4.0558     31.9734      2.5831      0.0197    152.0373
   842.4000      8.3137      4.6210     31.8316      2.5738      0.0346    151.9368
   842.5000      8.3184      7.5779     31.1990      2.5250      0.0312    143.8693
   842.6000      8.3184     13.6119     30.2692      2.4254     -0.0381    137.4881
   842.7000      8.3184     21.8361     29.2013      2.2897     -0.0683    141.1302
   842.8000      8.3353     31.1809     27.7049      2.1355     -0.1532    155.2243
   842.9000      8.3353     41.0212     25.7373      1.9732     -0.2147    170.5189
   843.0000      8.3639     50.5291     23.6327      1.8163     -0.2589    176.6330
   843.1000      8.3639     58.2995     21.7898      1.6881     -0.2585    174.7350
   843.2000      8.3639     64.1217     20.5949      1.5920     -0.2187    175.0369
   843.3000      8.3989     68.2069     20.1419      1.5246     -0.2521    180.4246
   843.4000      8.3989     68.6658     20.4505      1.5170     -0.2010    183.6541
   843.5000      8.4704     63.1245     21.5059      1.6084     -0.0562    179.3518
   843.6000      8.4704     52.0615     22.8831      1.7910      0.2881    172.9994
   843.7000      8.4704     39.2138     24.1150      2.0030      0.4914    174.6613
   843.8000      8.5905     28.5696     24.9999      2.1786      0.5426    183.4839
   843.9000      8.5905     22.1017     25.4888      2.2853      0.5129    190.0597
   844.0000      8.6458     19.9329     25.5689      2.3211      0.4074    190.8128
   844.1000      8.6458     21.0778     25.1164      2.3022      0.2796    192.0961
   844.2000      8.6458     23.3776     24.1903      2.2643      0.1358    192.6598
   844.3000      8.5644     23.8442     23.1703      2.2566      0.0965    185.7226
   844.4000      8.5644     21.2342     22.6444      2.2996      0.1367    177.2825
   844.5000      8.4636     17.0812     22.9061      2.3682      0.1709    175.3431
   844.6000      8.4636     13.5002     23.6896      2.4272      0.1616    178.8373
   844.7000      8.4636     11.8374     24.6375      2.4547      0.1641    185.4352
