~Version Information
VERS.                      2.0: CWLS Log ASCII Standard - VERSION 2.0
WRAP.                       NO: One line per depth step
~Well Information Block
STRT.FT                17.7500: 
STOP.FT              1139.0000: 
STEP.FT                 0.2500: 
NULL.                -999.2500: 
COMP.          El Paso E&P Company L.P.: COMPANY
WELL.              VPR "ST" 38: WELL
FLD.           Purgatorie River: FIELD
LOC.           687' FNL & 2121' FEL: LOCATION
CNTY.               Las Animas: COUNTY
SRVC.          Superior Well Services: SERVICE COMPANY
DATE.          Sat Oct 13 22-40-21 2007: LOG DATE
UWI.           05-071-08357-00: UNIQUE WELL ID
STAT.                       CO: STATE
~Curve Information Block
DEPT.FT            0 000 00 00: Depth
CCL.                          : Casing Collar Locator
TT3.usec                      : CBL 3' Travel Time
AMP3.mV                       : CBL 3' Amplitude
GR.GAPI                       : Gamma Ray
~Parameter Information Block
~A  Depth       CCL         TT3         AMP3         GR     
# ...
   788.2500      0.0000    402.9095      3.5987     64.1195
   788.5000      0.0000    404.8887      3.6087     67.9433
   788.7500      0.0000    407.5304      3.6130     73.7583
   789.0000      0.0000    409.5588      3.6046     76.9241
   789.2500      0.0000    411.2989      3.5850     80.9202
   789.5000      0.0000    416.0023      3.5645     83.7945
   789.7500      0.0000    428.9084      3.5544     89.2133
   790.0000      0.0000    453.0454      3.5712     93.2837
   790.2500      0.0000    483.6407      3.6428     98.0988
   790.5000      0.0000    507.2578      3.7894     98.9668
   790.7500      0.0000    510.4026      3.9927     95.8185
   791.0000      0.0000    491.2038      4.2009     91.9035
   791.2500     -2.0000    461.3598      4.3730     86.6831
   791.5000      0.0000    436.6686      4.5057     84.7502
   791.7500     -2.0000    427.8394      4.6147     83.6414
   792.0000     -2.0000    439.0854      4.7012     83.4836
   792.2500      2.0000    469.9125      4.7388     84.4138
   792.5000      0.0000    514.8881      4.6964     86.2778
   792.7500      0.0000    564.0439      4.5756     90.0979
   793.0000      0.0000    607.2238      4.4190     91.6794
   793.2500      0.0000    638.4141      4.2743     89.8741
   793.5000      0.0000    655.6484      4.1582     85.7055
   793.7500      0.0000    659.4879      4.0657     77.6323
   794.0000      0.0000    653.4944      3.9949     73.2362
   794.2500      0.0000    643.1326      3.9473     70.5550
   794.5000      0.0000    630.9384      3.9160     71.5610
   794.7500      0.0000    614.9704      3.8897     76.3353
   795.0000      0.0000    595.3850      3.8619     80.7868
   795.2500      0.0000    580.3582      3.8308     86.9484
   795.5000      0.0000    580.6666      3.7946     89.1180
   795.7500      0.0000    598.3901      3.7539     88.5753
   796.0000      0.0000    624.5913      3.7172     86.9719
   796.2500      0.0000    648.4084      3.7010     86.5484
   796.5000      0.0000    665.7471      3.7194     89.2534
   796.7500      0.0000    679.3478      3.7729     98.1988
   797.0000      0.0000    693.1987      3.8465    106.2992
   797.2500      0.0000    708.0236      3.9203    118.2821
   797.5000      0.0000    721.3193      3.9811    124.1992
   797.7500      0.0000    730.4908      4.0244    128.5439
   798.0000      0.0000    735.0917      4.0495    129.0684
   798.2500      0.0000    736.1432      4.0565    128.4291
   798.5000      0.0000    734.2430      4.0489    127.6450
   798.7500      0.0000    728.9102      4.0390    124.9523
   799.0000      0.0000    719.7972      4.0486    121.0228
   799.2500      0.0000    708.8779      4.0983    110.7985
   799.5000      0.0000    701.0453      4.1905    101.3297
   799.7500      0.0000    700.6397      4.3027     85.0575
   800.0000      0.0000    706.4388      4.4001     74.6355
   800.2500      0.0000    711.3163      4.4556     62.8144
   800.5000      0.0000    707.2963      4.4638     58.5477
   800.7500      0.0000    690.4205      4.4421     57.5685
   801.0000      0.0000    662.5314      4.4177     59.8155
   801.2500      0.0000    631.5224      4.4045     65.7055
   801.5000      0.0000    609.2760      4.3907     70.1572
   801.7500      0.0000    605.3453      4.3502     76.5301
   802.0000      0.0000    620.8054      4.2685     80.8767
   802.2500      0.0000    648.5754      4.1581     88.9687
   802.5000      0.0000    678.6097      4.0504     95.9359
   802.7500      0.0000    701.9879      3.9755    108.3846
   803.0000      0.0000    712.1495      3.9458    117.1727
   803.2500      0.0000    705.8291      3.9568    128.6256
   803.5000      0.0000    685.7745      3.9965    133.2762
   803.7500      0.0000    662.7893      4.0527    133.8394
   804.0000      0.0000    651.5416      4.1144    130.7564
   804.2500      0.0000    660.2637      4.1684    125.3406
   804.5000      0.0000    684.0711      4.1964    123.6140
   804.7500      0.0000    709.5918      4.1821    124.3570
   805.0000      0.0000    725.5992      4.1255    125.3547
   805.2500      0.0000    729.1281      4.0464    124.6738
   805.5000      0.0000    724.3591      3.9705    122.7460
   805.7500      0.0000    718.3152      3.9130    120.0503
   806.0000      0.0000    716.9069      3.8759    119.6167
   806.2500      0.0000    722.4186      3.8561    120.8897
   806.5000      0.0000    732.6403      3.8515    121.8668
   806.7500      0.0000    742.1429      3.8605    121.3295
   807.0000      0.0000    745.6685      3.8785    119.0734
   807.2500      0.0000    741.2259      3.8955    113.6523
   807.5000      0.0000    729.9669      3.8980    109.6302
   807.7500      0.0000    713.7297      3.8763    103.9086
   808.0000      0.0000    693.6982      3.8311    100.2533
   808.2500      0.0000    671.1095      3.7732     94.9361
   808.5000      0.0000    648.4191      3.7182     91.9318
   808.7500      0.0000    629.9282      3.6790     89.2386
   809.0000      0.0000    621.2211      3.6590     88.6304
   809.2500      0.0000    626.3420      3.6469     88.0306
   809.5000      0.0000    644.6121      3.6202     86.9055
   809.7500      0.0000    670.9149      3.5594     83.9393
   810.0000      0.0000    698.8688      3.4613     81.8179
   810.2500      0.0000    722.4893      3.3413     79.8233
   810.5000      0.0000    735.3843      3.2231     79.4914
   810.7500      0.0000    731.1015      3.1232     79.1023
   811.0000      0.0000    706.7745      3.0456     77.4313
   811.2500      0.0000    667.5620      2.9858     71.0177
   811.5000      0.0000    626.6353      2.9382     64.4742
   811.7500      0.0000    598.7750      2.8972     53.8804
   812.0000      0.0000    592.7715      2.8591     47.8236
   812.2500      0.0000    608.6810      2.8290     41.2096
   812.5000      0.0000    639.0952      2.8230     38.3623
   812.7500      0.0000    671.3203      2.8585     36.6053
   813.0000      0.0000    692.0862      2.9388     37.4524
   813.2500      0.0000    695.1774      3.0495     41.6545
   813.5000      0.0000    685.4175      3.1654     45.5838
   813.7500      0.0000    673.5831      3.2619     51.0296
   814.0000      0.0000    667.0159      3.3261     53.3610
   814.2500      0.0000    665.4618      3.3607     54.2033
   814.5000      0.0000    664.1921      3.3795     52.9714
   814.7500      0.0000    657.9169      3.3954     48.7207
   815.0000      0.0000    641.7587      3.4100     44.7612
   815.2500      0.0000    612.9594      3.4170     38.4788
   815.5000      0.0000    575.4763      3.4151     34.8350
   815.7500      0.0000    542.1511      3.4170     31.0706
   816.0000      0.0000    528.3233      3.4404     30.0003
   816.2500      0.0000    540.3748      3.4919     30.7270
   816.5000      0.0000    570.7197      3.5617     32.5795
   816.7500      0.0000    605.0286      3.6343     36.5931
   817.0000      0.0000    633.6270      3.7006     39.4589
   817.2500      0.0000    655.3750      3.7607     43.3180
   817.5000      0.0000    673.3628      3.8168     45.8713
   817.7500      0.0000    690.2404      3.8656     51.3703
   818.0000      0.0000    707.1411      3.9003     57.0827
   818.2500      0.0000    723.9710      3.9168     68.8460
   818.5000      0.0000    739.2168      3.9202     78.0480
   818.7500      0.0000    750.2481      3.9223     91.8380
   819.0000      0.0000    755.0018      3.9333     99.5826
   819.2500      0.0000    753.6139      3.9524    106.5343
   819.5000      0.0000    748.4139      3.9655    107.1118
   819.7500      0.0000    742.7246      3.9514    102.0727
   820.0000      0.0000    739.9603      3.8935     95.9257
   820.2500      0.0000    743.2498      3.7908     85.4133
   820.5000      0.0000    754.3464      3.6642     79.1898
   820.7500      0.0000    772.0804      3.5525     72.8391
   821.0000      0.0000    792.5416      3.4947     70.6120
   821.2500      0.0000    811.4744      3.5054     68.7465
   821.5000      0.0000    825.8073      3.5661     67.5722
