~Version Information
VERS.                      2.0: CWLS Log ASCII Standard - VERSION 2.0
WRAP.                       NO: One line per depth step
~Well Information Block
STRT.FT               700.0000: 
STOP.FT              1869.5000: 
STEP.FT                 0.1000: 
NULL.                -999.2500: 
COMP.          Petrogulf Corporation: COMPANY
WELL.             State 16-24R: WELL
FLD.           Purgatorie River: FIELD
LOC.           541' FSL & 2371' FWL: LOCATION
PROV.                 Colorado: PROVINCE
CNTY.               Las Animas: COUNTRY
SRVC.                Patterson: SERVICE COMPANY
DATE.          Fri Aug 12 09:07:22 2005: LOG DATE
UWI.                071-08312 : UNIQUE WELL ID
~Curve Information Block
DEPT.FT            0 000 00 00: Depth
DCAL.in                       : CDL Caliper
RHOB.g/cc                     : CDL Bulk Density
RHOC.g/cc                     : CDL Density Correction
DPOR.pu                       : CDL Density Porosity
GR.GAPI                       : Gamma Ray
NPOR.pu                       : Neutron Porosity
~Parameter Information Block
~A  Depth       DCAL        RHOB        RHOC        DPOR         GR         NPOR    
# ...
   776.8000     11.5949      2.5822      0.0669      4.1112     55.3083     22.1214
   776.9000     11.5949      2.5751      0.0599      4.5388     51.8964     21.5788
   777.0000     11.6478      2.5611      0.1379      5.3887     49.1262     22.0062
   777.1000     11.6478      2.5270      0.0844      7.4544     49.6431     21.9963
   777.2000     11.6478      2.4876      0.0485      9.8442     50.9861     21.1011
   777.3000     11.4922      2.4757      0.0509     10.5637     51.6383     20.7447
   777.4000     11.4922      2.5051      0.0817      8.7794     52.7574     21.7453
   777.5000     11.4147      2.5583      0.1416      5.5604     54.5026     23.2442
   777.6000     11.4147      2.6071      0.1804      2.5978     55.7005     23.8161
   777.7000     11.4147      2.6386      0.2230      0.6919     55.7938     23.0032
   777.8000     11.4637      2.6546      0.1949     -0.2761     55.4468     21.8998
   777.9000     11.4637      2.6572      0.2286     -0.4344     55.9618     21.5552
   778.0000     11.4591      2.6467      0.1633      0.1993     57.3017     21.6883
   778.1000     11.4591      2.6307      0.1598      1.1680     57.5211     21.2525
   778.2000     11.4591      2.6167      0.1354      2.0166     56.6657     20.1192
   778.3000     11.4356      2.6058      0.1031      2.6808     55.6802     19.2950
   778.4000     11.4356      2.5939      0.1310      3.4013     53.2627     19.5306
   778.5000     11.4535      2.5765      0.1044      4.4553     49.9731     20.6685
   778.6000     11.4535      2.5564      0.1199      5.6743     48.1753     21.9476
   778.7000     11.4535      2.5368      0.1303      6.8611     47.9388     22.9426
   778.8000     11.4635      2.5198      0.1013      7.8920     47.0905     23.8044
   778.9000     11.4635      2.5078      0.1330      8.6202     44.9073     24.7915
   779.0000     11.4352      2.4988      0.1340      9.1607     42.9763     25.9474
   779.1000     11.4352      2.5028      0.1096      8.9235     42.4119     26.7268
   779.2000     11.4352      2.5315      0.1527      7.1824     43.0942     26.0991
   779.3000     11.4544      2.5690      0.1818      4.9062     44.0775     23.9569
   779.4000     11.4544      2.5912      0.1798      3.5612     43.5413     22.2480
   779.5000     11.4860      2.5992      0.1748      3.0798     41.1264     21.9975
   779.6000     11.4860      2.6078      0.1461      2.5603     38.4107     21.7730
   779.7000     11.4860      2.6119      0.1737      2.3085     35.9996     21.0014
   779.8000     11.5582      2.5943      0.1379      3.3760     33.7809     20.4703
   779.9000     11.5582      2.5591      0.0949      5.5102     33.1798     20.1990
   780.0000     11.5960      2.5264      0.0625      7.4931     34.3318     19.9027
   780.1000     11.5960      2.5115      0.0406      8.3939     35.5834     19.7568
   780.2000     11.5960      2.5207      0.0319      7.8335     36.6312     19.4715
   780.3000     11.6629      2.5470      0.0684      6.2437     37.2859     18.9900
   780.4000     11.6629      2.5732      0.0645      4.6565     37.4348     19.0232
   780.5000     11.6521      2.5873      0.0843      3.8025     36.7663     20.0164
   780.6000     11.6521      2.5929      0.0367      3.4580     34.9191     21.5721
   780.7000     11.6521      2.6027      0.0783      2.8677     33.0293     22.0492
   780.8000     11.6465      2.6154      0.0773      2.0999     32.2980     21.0310
   780.9000     11.6465      2.6176      0.1105      1.9639     33.3726     20.2699
   781.0000     11.6344      2.5983      0.0849      3.1332     35.9113     20.5030
   781.1000     11.6344      2.5655      0.0345      5.1225     38.6507     20.8480
   781.2000     11.6344      2.5467     -0.0026      6.2577     40.9750     20.4980
   781.3000     11.6322      2.5537      0.0421      5.8370     42.5610     19.5819
   781.4000     11.6322      2.5664      0.0273      5.0687     43.3405     18.7910
   781.5000     11.6344      2.5682      0.0059      4.9599     43.3820     18.8645
   781.6000     11.6344      2.5638     -0.0125      5.2213     41.9150     19.7028
   781.7000     11.6344      2.5594      0.0488      5.4923     38.9438     20.4330
   781.8000     11.6178      2.5555      0.0079      5.7270     35.7920     20.8579
   781.9000     11.6178      2.5578      0.0342      5.5870     34.2622     21.3793
   782.0000     11.6372      2.5676      0.0446      4.9926     35.1979     21.6830
   782.1000     11.6372      2.5780      0.0516      4.3616     36.7539     20.8911
   782.2000     11.6372      2.5843      0.0495      3.9788     37.1689     19.5738
   782.3000     11.5973      2.5909      0.0492      3.5843     36.5693     19.2942
   782.4000     11.5973      2.6043      0.0456      2.7714     36.3252     20.2151
   782.5000     11.5635      2.6160      0.1415      2.0583     38.6782     21.2471
   782.6000     11.5635      2.6097      0.0712      2.4436     44.1091     21.7300
   782.7000     11.5635      2.5799      0.0798      4.2502     49.7388     22.0973
   782.8000     11.5734      2.5213      0.0773      7.7999     53.4803     22.9808
   782.9000     11.5734      2.4312      0.0193     13.2591     57.1767     24.0058
   783.0000     11.5257      2.3305     -0.0513     19.3653     61.6956     24.7517
   783.1000     11.5257      2.2517     -0.0474     24.1399     65.1648     25.5015
   783.2000     11.5257      2.2113     -0.0499     26.5888     67.0265     25.8033
   783.3000     11.6027      2.2083     -0.0096     26.7693     68.8499     24.7764
   783.4000     11.6027      2.2362      0.0064     25.0791     70.5023     23.1130
   783.5000     11.7048      2.2831      0.1023     22.2347     71.4279     22.6673
   783.6000     11.7048      2.3332      0.1675     19.1993     72.8940     23.5261
   783.7000     11.7048      2.3786      0.2008     16.4480     74.9490     24.1202
   783.8000     11.5988      2.4225      0.1256     13.7874     76.2592     24.4168
   783.9000     11.5988      2.4661      0.1369     11.1454     76.1697     25.1157
   784.0000     11.4261      2.4961      0.1685      9.3260     74.4045     25.4482
   784.1000     11.4261      2.4996      0.1552      9.1173     72.0720     24.9135
   784.2000     11.4261      2.4851      0.1397      9.9949     70.3659     24.3617
   784.3000     11.2901      2.4785      0.1059     10.3925     70.1872     24.2716
   784.4000     11.2901      2.4994      0.1240      9.1273     70.7228     24.2865
   784.5000     11.3028      2.5459      0.1317      6.3117     68.5331     24.3395
   784.6000     11.3028      2.6010      0.1801      2.9689     62.7429     25.0150
   784.7000     11.3028      2.6435      0.2677      0.3922     56.8301     25.7932
   784.8000     11.3818      2.6614      0.2411     -0.6889     53.5697     25.3189
   784.9000     11.3818      2.6509      0.2571     -0.0555     52.1032     24.3164
   785.0000     11.4558      2.6130      0.2128      2.2408     50.3581     23.9047
   785.1000     11.4558      2.5703      0.1001      4.8316     47.6006     23.5266
   785.2000     11.4558      2.5491      0.1123      6.1182     44.0223     22.8972
   785.3000     11.5035      2.5476      0.0869      6.2046     40.5108     22.3865
   785.4000     11.5035      2.5521      0.1159      5.9345     38.2267     22.1643
   785.5000     11.5573      2.5582      0.0911      5.5666     37.0643     22.0325
   785.6000     11.5573      2.5679      0.0881      4.9786     35.8895     22.0477
   785.7000     11.5573      2.5736      0.1172      4.6315     33.8662     22.3435
   785.8000     11.5500      2.5688      0.1066      4.9230     31.0521     22.3215
   785.9000     11.5500      2.5642      0.0843      5.2020     28.4279     21.7174
   786.0000     11.4653      2.5635      0.1318      5.2394     27.0663     21.0628
   786.1000     11.4653      2.5571      0.0822      5.6325     27.3056     20.8803
   786.2000     11.4653      2.5438      0.1100      6.4363     28.7144     20.9434
   786.3000     11.3935      2.5348      0.0505      6.9829     29.9538     20.7179
