~Version Information
VERS.                      2.0: CWLS Log ASCII Standard - VERSION 2.0
WRAP.                       NO: One line per depth step
~Well Information Block
STRT.FT                -7.0000: 
STOP.FT               867.2500: 
STEP.FT                 0.2500: 
NULL.                -999.2500: 
COMP.          Pioneer Natural Resources: COMPANY
WELL.          Claim Jumper 41-22: WELL
FLD.           Purgatorie River: FIELD
LOC.           1120' FNL & 977' FEL--: LOCATION
PROV.                       CO: PROVINCE
CNTY.               Las Animas: COUNTRY
SRVC.          Patterson Wireline: SERVICE COMPANY
DATE.          Mon Jun 27 12:47:30 2005: LOG DATE
UWI.           05 071 08405 00: UNIQUE WELL ID
~Curve Information Block
DEPT.FT            0 000 00 00: Depth
CCL.                          : Casing Collar Locator
TT3.usec                      : CBL 3' Travel Time
AMP3.mV                       : CBL 3' Amplitude
GR.GAPI                       : Gamma Ray
~Parameter Information Block
~A  Depth       CCL         TT3         AMP3         GR     
# ...
    93.5000      0.0000    781.3698      7.3161     83.6397
    93.7500      0.0000    762.5341      7.3232     78.6881
    94.0000      0.0000    756.6666      7.3151     73.1168
    94.2500      0.0000    758.8342      7.2932     68.7904
    94.5000      0.0000    763.6400      7.2657     67.1095
    94.7500      0.0000    767.9351      7.2376     68.5140
    95.0000      0.0000    771.0566      7.2056     72.5247
    95.2500      0.0000    773.6575      7.1639     77.8114
    95.5000      0.0000    776.2871      7.1111     82.5340
    95.7500      0.0000    778.5416      7.0522     85.2540
    96.0000      0.0000    779.3595      6.9992     85.8878
    96.2500      0.0000    778.1924      6.9686     85.6175
    96.5000      0.0000    775.7202      6.9725     85.6537
    96.7500      0.0000    773.2350      7.0076     86.2530
    97.0000      0.0000    771.5554      7.0548     87.0317
    97.2500      0.0000    770.7151      7.0938     87.7464
    97.5000      0.0000    770.3914      7.1176     88.4514
    97.7500      0.0000    770.3140      7.1350     89.1378
    98.0000      0.0000    770.3410      7.1624     89.4232
    98.2500      0.0000    770.3920      7.2166     88.6996
    98.5000      0.0000    770.4232      7.3086     86.6985
    98.7500      0.0000    770.4299      7.4348     83.7757
    99.0000      0.0000    770.4324      7.5738     80.5062
    99.2500      0.0000    770.4439      7.6977     77.2802
    99.5000      0.0000    770.4533      7.7860     74.3978
    99.7500      0.0000    770.4337      7.8298     72.1757
   100.0000      0.0000    770.3622      7.8297     70.7645
   100.2500      0.0000    770.2363      7.7961     70.0246
   100.5000      0.0000    770.0783      7.7478     69.5200
   100.7500      0.0000    769.9312      7.7036     68.5195
   101.0000      0.0000    769.8456      7.6749     66.4018
   101.2500      0.0000    769.8555      7.6639     63.3320
   101.5000      0.0000    769.9563      7.6631     60.2988
   101.7500      0.0000    770.0999      7.6609     58.3751
   102.0000      0.0000    770.2023      7.6501     58.1348
   102.2500      0.0000    770.1074      7.6309     59.6347
   102.5000      0.0000    769.4494      7.6036     62.5217
   102.7500      0.0000    767.4706      7.5688     66.0164
   103.0000      0.0000    763.0775      7.5338     69.0872
   103.2500      0.0000    755.5677      7.5121     71.0124
   103.5000      0.0000    745.7709      7.5117     71.8057
   103.7500      0.0000    736.2226      7.5281     71.9055
   104.0000      0.0000    729.6585      7.5468     71.5087
   104.2500      0.0000    727.5071      7.5501     70.3774
   104.5000      0.0000    730.0382      7.5235     68.2662
   104.7500      0.0000    736.8356      7.4649     65.5712
   105.0000      0.0000    746.1457      7.3880     63.7264
   105.2500      0.0000    754.6981      7.3121     64.6050
   105.5000      0.0000    759.5062      7.2508     68.9003
   105.7500      0.0000    760.0642      7.2121     75.0748
   106.0000      0.0000    758.5590      7.2050     80.3200
   106.2500      0.0000    757.6310      7.2371     82.7206
   106.5000      0.0000    757.5756      7.3079     82.5118
   106.7500      0.0000    755.9624      7.4076     81.4650
   107.0000      0.0000    750.3135      7.5221     81.2554
   107.2500      0.0000    740.7200      7.6361     82.3876
   107.5000      0.0000    729.7795      7.7346     84.4829
   107.7500      0.0000    720.8072      7.8053     87.0925
   108.0000      0.0000    716.0205      7.8442     89.8862
   108.2500      0.0000    715.2900      7.8615     92.4172
   108.5000      0.0000    716.3441      7.8800     94.2774
   108.7500      0.0000    717.0298      7.9225     95.4384
   109.0000      0.0000    717.6759      7.9964     96.1838
   109.2500      0.0000    720.4911      8.0911     96.7837
   109.5000      0.0000    726.2025      8.1892     97.3226
   109.7500      0.0000    731.9308      8.2772     97.6717
   110.0000      0.0000    733.2122      8.3458     97.5534
   110.2500      0.0000    728.1003      8.3823     96.8182
   110.5000      0.0000    718.7998      8.3721     95.7851
   110.7500      0.0000    709.4097      8.3123     95.1451
   111.0000      0.0000    702.7064      8.2226     95.3173
   111.2500      0.0000    699.0324      8.1365     95.9834
   111.5000      0.0000    697.3350      8.0775     96.4065
   111.7500      0.0000    696.5444      8.0419     96.1501
   112.0000      0.0000    696.1714      8.0035     95.6128
   112.2500      0.0000    696.2474      7.9377     95.9205
   112.5000      0.0000    697.0846      7.8427     97.8157
   112.7500      0.0000    698.9890      7.7435    100.4203
   113.0000      0.0000    701.8080      7.6760    101.5894
   113.2500      0.0000    704.6199      7.6688     99.7109
   113.5000      0.0000    706.2438      7.7342     94.9364
   113.7500      0.0000    706.5431      7.8647     88.8532
   114.0000      0.0000    707.1269      8.0322     83.3693
   114.2500      0.0000    710.3277      8.1944     79.7245
   114.5000      0.0000    717.2184      8.3123     78.1039
   114.7500      0.0000    726.4708      8.3662     78.1071
   115.0000      0.0000    735.0208      8.3559     79.5226
   115.2500      0.0000    739.9282      8.2917     82.3060
   115.5000      0.0000    739.9723      8.1900     85.7889
   115.7500      0.0000    735.9126      8.0741     88.4776
   116.0000      0.0000    729.5414      7.9754     89.1368
   116.2500      0.0000    722.5157      7.9225     87.9540
   116.5000      0.0000    715.8990      7.9279     86.3565
   116.7500      0.0000    710.5836      7.9844     85.7571
   117.0000      0.0000    707.7681      8.0733     86.6155
   117.2500      0.0000    708.4551      8.1685     88.6285
   117.5000      0.0000    712.1729      8.2376     91.6328
   117.7500      0.0000    716.4554      8.2510     95.9823
   118.0000      0.0000    718.1588      8.2007    101.7006
   118.2500      0.0000    715.7358      8.1103    107.3517
   118.5000      0.0000    710.3018      8.0251    110.3238
   118.7500      0.0000    704.4655      7.9883    108.7451
   119.0000      0.0000    700.2596      8.0197    103.2199
   119.2500      0.0000    698.1483      8.1088     96.5124
   119.5000      0.0000    697.5262      8.2279     91.4132
   119.7500      0.0000    697.6642      8.3531     88.9903
   120.0000      0.0000    698.2468      8.4749     88.7259
   120.2500      0.0000    699.4593      8.5918     89.6801
   120.5000      0.0000    701.7979      8.7006     91.0727
   120.7500      0.0000    705.5226      8.7934     92.1419
   121.0000      0.0000    709.9058      8.8619     92.1008
   121.2500      0.0000    713.1813      8.9017     90.3761
   121.5000      0.0000    713.8694      8.9168     86.7689
   121.7500      0.0000    712.2916      8.9225     81.5495
   122.0000      0.0000    710.2392      8.9391     75.6233
   122.2500      0.0000    708.8975      8.9763     70.4268
   122.5000      0.0000    707.2958      9.0276     67.2618
   122.7500      0.0000    702.4241      9.0818     66.6032
   123.0000      0.0000    690.4946      9.1413     68.0751
   123.2500      0.0000    669.7838      9.2208     70.8674
   123.5000      0.0000    644.8309      9.3288     73.9503
   123.7500      0.0000    626.9413      9.4552     76.1242
   124.0000      0.0000    626.4440      9.5767     76.3356
   124.2500      0.0000    642.8632      9.6683     74.1671
   124.5000      0.0000    664.7275      9.7084     69.9341
   124.7500      0.0000    679.4831      9.6771     64.3903
   125.0000      0.0000    682.4619      9.5547     58.5428
   125.2500      0.0000    678.5475      9.3246     53.6023
   125.5000      0.0000    678.8552      8.9855     50.6676
   125.7500      0.0000    694.3505      8.5727     50.3170
   126.0000      0.0000    727.4675      8.1697     52.4632
   126.2500      0.0000    768.8570      7.8747     56.3206
   126.5000      0.0000    805.3721      7.7316     60.5545
   126.7500      0.0000    832.5240      7.6986     64.1198
