~Version Information
VERS.                      2.0: CWLS Log ASCII Standard - VERSION 2.0
WRAP.                       NO: One line per depth step
~Well Information Block
STRT.FT               583.0000: 
STOP.FT              1701.5000: 
STEP.FT                 0.2500: 
NULL.                -999.2500: 
COMP.          Pioneer Natural Resources: COMPANY
WELL.          Scott Canyon 11-18 Tr: WELL
FLD.           Purgatoire River: FIELD
LOC.           411' FNL & 580' FWL: LOCATION
PROV.                 Colorado: PROVINCE
CNTY.               Las Animas: COUNTRY
SRVC.                Patterson: SERVICE COMPANY
DATE.          Thu Feb 17 02:07:21 2005: LOG DATE
UWI.           05 071 08286 00: UNIQUE WELL ID
~Curve Information Block
DEPT.FT            0 000 00 00: Depth
SN.Ohm-m                      : IEL Short Normal
SP.mV                         : IEL Spontaneous Potential
DIR.Ohm-m                     : IEL Induction Resistivity
GR.GAPI                       : Gamma Ray
~Parameter Information Block
~A  Depth        SN          SP         DIR          GR     
# ...
  1655.0000     27.5346     47.5316     23.3777     69.5240
  1655.2500     26.8876     47.1554     23.1877     63.3877
  1655.5000     26.2161     46.7987     22.9385     54.6491
  1655.7500     25.5795     46.4872     22.6583     50.4680
  1656.0000     24.9938     46.2472     22.3678     47.7668
  1656.2500     24.4325     46.0896     22.0858     48.1282
  1656.5000     23.8681     46.0021     21.8249     50.4513
  1656.7500     23.3267     45.9500     21.5832     52.0992
  1657.0000     22.8816     45.8836     21.3484     53.2039
  1657.2500     22.6029     45.7509     21.1147     52.5865
  1657.5000     22.5242     45.5133     20.8966     49.5795
  1657.7500     22.6241     45.1603     20.7258     46.4447
  1658.0000     22.8153     44.7158     20.6317     40.9321
  1658.2500     22.9860     44.2303     20.6260     37.4277
  1658.5000     23.0818     43.7638     20.6963     33.4362
  1658.7500     23.1375     43.3651     20.8095     31.7725
  1659.0000     23.2162     43.0594     20.9209     30.3038
  1659.2500     23.3317     42.8455     20.9904     29.6009
  1659.5000     23.4320     42.7037     21.0004     28.5781
  1659.7500     23.4447     42.6100     20.9627     27.9627
  1660.0000     23.3218     42.5534     20.8995     27.4865
  1660.2500     23.0485     42.5497     20.8069     27.7382
  1660.5000     22.6507     42.6380     20.6361     29.6167
  1660.7500     22.1993     42.8565     20.3185     32.3427
  1661.0000     21.7490     43.2091     19.8273     39.2384
  1661.2500     21.2759     43.6473     19.2177     45.6549
  1661.5000     20.7271     44.0792     18.5972     56.9209
  1661.7500     20.1009     44.4025     18.0591     64.2802
  1662.0000     19.4412     44.5423     17.6418     72.3630
  1662.2500     18.7976     44.4759     17.3350     74.4410
  1662.5000     18.2266     44.2310     17.1099     71.8967
  1662.7500     17.7965     43.8626     16.9431     67.1017
  1663.0000     17.5584     43.4265     16.8233     57.5255
  1663.2500     17.5122     42.9620     16.7489     50.9610
  1663.5000     17.6003     42.4872     16.7217     42.7061
  1663.7500     17.7232     42.0025     16.7420     38.8354
  1664.0000     17.7669     41.4965     16.8049     35.4198
  1664.2500     17.6676     40.9516     16.8991     34.2055
  1664.5000     17.4842     40.3548     17.0100     32.8809
  1664.7500     17.3481     39.7119     17.1278     31.9575
  1665.0000     17.3456     39.0540     17.2519     30.4707
  1665.2500     17.5013     38.4290     17.3909     29.5209
  1665.5000     17.7902     37.8844     17.5541     28.1785
  1665.7500     18.1341     37.4522     17.7434     27.2500
  1666.0000     18.4827     37.1378     17.9510     25.7339
  1666.2500     18.8617     36.9213     18.1682     24.7364
  1666.5000     19.3024     36.7720     18.3983     23.5507
  1666.7500     19.7756     36.6662     18.6625     23.0937
  1667.0000     20.2106     36.5926     18.9892     22.9940
  1667.2500     20.5370     36.5465     19.3923     23.3639
  1667.5000     20.6990     36.5313     19.8546     24.8039
  1667.7500     20.6876     36.5678     20.3275     26.5861
  1668.0000     20.5677     36.6983     20.7493     30.8299
  1668.2500     20.4268     36.9734     21.0720     34.6889
  1668.5000     20.3215     37.4278     21.2746     41.4348
  1668.7500     20.2812     38.0585     21.3491     45.9551
  1669.0000     20.3151     38.8097     21.2754     51.5672
  1669.2500     20.3993     39.5752     21.0140     53.9884
  1669.5000     20.4848     40.2262     20.5343     55.4606
  1669.7500     20.5294     40.6631     19.8547     55.4147
  1670.0000     20.5175     40.8638     19.0516     55.0081
  1670.2500     20.4415     40.8977     18.2235     55.2139
  1670.5000     20.2531     40.8977     17.4476     57.3299
  1670.7500     19.8453     41.0088     16.7630     60.5926
  1671.0000     19.1295     41.3379     16.1798     69.0911
  1671.2500     18.1382     41.9169     15.6967     77.0580
  1671.5000     17.0263     42.6913     15.3107     90.9155
  1671.7500     15.9723     43.5390     15.0145     99.9907
  1672.0000     15.0869     44.3206     14.7884    110.9488
  1672.2500     14.4052     44.9358     14.5951    115.5105
  1672.5000     13.9325     45.3568     14.3888    117.5855
  1672.7500     13.6645     45.6169     14.1345    115.9655
  1673.0000     13.5695     45.7739     13.8273    110.1681
  1673.2500     13.5818     45.8761     13.4927    105.1229
  1673.5000     13.6211     45.9507     13.1715     97.9524
  1673.7500     13.6251     46.0087     12.9011     94.5888
  1674.0000     13.5961     46.0543     12.7062     92.8690
  1674.2500     13.6136     46.0897     12.5983     93.9788
  1674.5000     13.7679     46.1176     12.5778     97.9229
  1674.7500     14.0688     46.1398     12.6355    101.0378
  1675.0000     14.4217     46.1558     12.7515    105.0293
  1675.2500     14.6789     46.1607     12.8952    107.0433
  1675.5000     14.7269     46.1473     13.0285    109.5999
  1675.7500     14.5534     46.1105     13.1120    111.3113
  1676.0000     14.2329     46.0507     13.1140    113.8679
  1676.2500     13.8596     45.9742     13.0197    115.2640
  1676.5000     13.5196     45.8893     12.8365    116.4036
  1676.7500     13.3017     45.8003     12.5917    116.5397
  1677.0000     13.2560     45.7034     12.3219    116.3597
  1677.2500     13.3238     45.5886     12.0605    116.3745
  1677.5000     13.3810     45.4465     11.8325    116.9794
  1677.7500     13.3564     45.2747     11.6548    117.7233
  1678.0000     13.2438     45.0797     11.5398    118.8088
  1678.2500     13.0530     44.8752     11.4971    119.1353
  1678.5000     12.8192     44.6773     11.5328    118.8641
  1678.7500     12.6086     44.4990     11.6469    118.4174
  1679.0000     12.4806     44.3452     11.8325    117.8045
  1679.2500     12.4734     44.2070     12.0777    117.4811
  1679.5000     12.6181     44.0605     12.3712    116.9070
  1679.7500     12.9391     43.8698     12.7094    116.2242
  1680.0000     13.4573     43.5955     13.0967    113.8909
  1680.2500     14.2019     43.2034     13.5410    110.6131
  1680.5000     15.2080     42.6723     14.0469    101.6682
  1680.7500     16.4997     41.9995     14.6155     92.8014
  1681.0000     18.0737     41.2086     15.2499     76.4213
  1681.2500     19.9008     40.3566     15.9613     64.7910
  1681.5000     21.9328     39.5276     16.7700     48.2154
  1681.7500     24.0872     38.8055     17.7009     38.2131
  1682.0000     26.2349     38.2403     18.7761     24.8733
  1682.2500     28.2310     37.8336     20.0030     17.2535
  1682.5000     29.9524     37.5479     21.3558      8.4372
  1682.7500     31.3278     37.3229     22.7613      4.5768
  1683.0000     32.3550     37.0851     24.1033      1.4491
  1683.2500     33.0560     36.7669     25.2562      0.5693
  1683.5000     33.4557     36.3444     26.1280      0.1069
  1683.7500     33.6499     35.8664     26.6747      0.0290
  1684.0000     33.8046     35.4390     26.8808      0.0026
  1684.2500     34.0151     35.1651     26.7366      0.0000
  1684.5000     34.2007     35.0895     26.2485   -999.2500
  1684.7500     34.1688     35.1905     25.4680   -999.2500
  1685.0000     33.7590     35.4167     24.4963   -999.2500
  1685.2500     32.9498     35.7254     23.4485   -999.2500
  1685.5000     31.8501     36.0862     22.4084   -999.2500
  1685.7500     30.5563     36.4650     21.4144   -999.2500
  1686.0000     29.0352     36.8286     20.4761   -999.2500
  1686.2500     27.1962     37.1777     19.5964   -999.2500
  1686.5000     25.0704     37.5697     18.7845   -999.2500
  1686.7500     22.8811     38.0845     18.0545   -999.2500
  1687.0000     20.9210     38.7522     17.4176   -999.2500
  1687.2500     19.3649     39.5074     16.8724   -999.2500
  1687.5000     18.2053     40.2154     16.4027   -999.2500
  1687.7500     17.3486     40.7513     15.9860   -999.2500
  1688.0000     16.7370     41.0689     15.6077   -999.2500
  1688.2500     16.3709     41.2123     15.2713   -999.2500
