~Version Information
VERS.                      2.0: CWLS Log ASCII Standard - VERSION 2.0
WRAP.                       NO: One line per depth step
~Well Information Block
STRT.FT                -9.2500: 
STOP.FT              2353.7500: 
STEP.FT                 0.2500: 
NULL.                -999.2500: 
COMP.          Petrogulf Corporation: COMPANY
WELL.             Kraft 17-23V: WELL
FLD.           Purgatorie River: FIELD
LOC.           1500' FSL & 1773' FWL--: LOCATION
PROV.                       CO: PROVINCE
CNTY.               Las Animas: COUNTRY
SRVC.          Patterson Wireline: SERVICE COMPANY
DATE.          Wed Dec 10 19:09:59 2003: LOG DATE
UWI.                          : UNIQUE WELL ID
~Curve Information Block
DEPT.FT            0 000 00 00: Depth
CCL.                          : Casing Collar Locator
TT3.usec                      : CBL 3' Travel Time
AMP3.mV                       : CBL 3' Amplitude
GR.GAPI                       : Gamma Ray
~Parameter Information Block
~A  Depth       CCL         TT3         AMP3         GR     
# ...
   627.2500      0.0000    748.6456      2.7506     86.8729
   627.5000      0.0000    762.4385      2.4677     88.0978
   627.7500      0.0000    771.0399      2.2467     88.3035
   628.0000      0.0000    771.4449      2.1070     87.4414
   628.2500      0.0000    764.3292      2.0339     85.9677
   628.5000      0.0000    753.0461      1.9994     84.8698
   628.7500      0.0000    741.3933      1.9805     85.1190
   629.0000      0.0000    732.0363      1.9661     86.7446
   629.2500      0.0000    725.9681      1.9545     88.6784
   629.5000      0.0000    722.7538      1.9480     89.8591
   629.7500      0.0000    721.3423      1.9543     90.2821
   630.0000      0.0000    720.9441      1.9857     90.7549
   630.2500      0.0000    721.5909      2.0478     91.8959
   630.5000      0.0000    724.4824      2.1317     93.5660
   630.7500      0.0000    732.0925      2.2224     95.0208
   631.0000      0.0000    747.1633      2.3131     95.5289
   631.2500      0.0000    769.8254      2.4101     95.1106
   631.5000      0.0000    794.7177      2.5236     94.7808
   631.7500      0.0000    812.5102      2.6536     95.6715
   632.0000      0.0000    817.1813      2.7892     97.6123
   632.2500      0.0000    812.5950      2.9135     98.9386
   632.5000      0.0000    810.0148      2.9944     98.1084
   632.7500      0.0000    817.8473      2.9901     95.1595
   633.0000      0.0000    834.6886      2.8922     91.2750
   633.2500      0.0000    852.7631      2.7519     87.5450
   633.5000      0.0000    866.0138      2.6366     84.6677
   633.7500      0.0000    873.1170      2.5700     83.2375
   634.0000     -2.0000    874.6223      2.5325     83.5384
   634.2500      0.0000    870.4172      2.5062     85.0936
   634.5000      0.0000    860.3220      2.4993     86.7850
   634.7500      0.0000    845.4785      2.5329     87.4722
   635.0000      0.0000    828.8761      2.6189     86.5410
   635.2500      0.0000    814.8062      2.7480     84.2897
   635.5000      0.0000    806.5208      2.8948     82.1629
   635.7500      0.0000    803.1729      3.0391     82.1541
   636.0000      0.0000    800.0183      3.1725     85.1221
   636.2500      0.0000    792.9388      3.2905     89.5328
   636.5000      0.0000    782.3424      3.3917     92.5094
   636.7500      0.0000    772.1256      3.4803     92.5397
   637.0000      0.0000    765.6749      3.5566     90.7633
   637.2500      0.0000    763.3531      3.6073     89.4059
   637.5000      0.0000    763.0581      3.6160     89.5696
   637.7500      0.0000    762.5781      3.5822     90.8537
   638.0000      0.0000    761.4989      3.5273     92.3455
   638.2500      0.0000    761.1667      3.4765     93.0797
   638.5000      0.0000    763.2459      3.4391     91.8941
   638.7500      0.0000    768.4116      3.4055     88.0467
   639.0000      0.0000    775.8357      3.3617     82.4314
   639.2500      0.0000    783.0970      3.3088     77.4608
   639.5000      0.0000    786.8769      3.2673     75.3196
   639.7500      0.0000    784.7437      3.2565     76.6270
   640.0000      0.0000    776.9874      3.2754     80.6236
   640.2500      0.0000    766.8480      3.3110     85.8038
   640.5000      0.0000    758.8625      3.3588     90.1819
   640.7500      0.0000    756.5804      3.4346     91.7909
   641.0000      0.0000    760.8642      3.5649     89.7531
   641.2500      0.0000    768.7142      3.7574     84.9965
   641.5000      0.0000    773.2100      3.9825     79.6773
   641.7500      0.0000    765.5011      4.1904     75.6920
   642.0000      0.0000    738.2100      4.3421     73.5509
   642.2500      0.0000    689.5555      4.4198     72.5274
   642.5000      0.0000    627.4000      4.4190     71.7599
   642.7500      0.0000    569.2447      4.3440     70.9927
   643.0000      0.0000    534.1967      4.2051     70.3591
   643.2500      0.0000    531.1579      4.0036     69.9647
   643.5000      0.0000    553.2561      3.7267     69.9507
   643.7500      0.0000    582.9106      3.3811     70.5260
   644.0000      0.0000    602.2142      3.0186     71.5798
   644.2500      0.0000    600.2444      2.7010     72.5015
   644.5000      0.0000    574.5302      2.4513     72.7163
   644.7500      0.0000    530.1627      2.2572     72.3192
   645.0000      0.0000    478.5154      2.1021     72.0653
   645.2500      0.0000    432.8850      1.9792     72.7866
   645.5000      0.0000    401.9634      1.8958     74.7420
   645.7500      0.0000    387.2920      1.8716     77.3179
   646.0000      0.0000    387.1472      1.9111     79.3243
   646.2500      0.0000    401.5255      1.9784     79.8319
   646.5000      0.0000    432.1395      2.0240     78.8677
   646.7500      0.0000    477.6211      2.0331     77.1986
   647.0000      0.0000    530.1861      2.0289     75.4444
   647.2500      0.0000    578.9955      2.0361     73.6924
   647.5000      0.0000    616.8138      2.0612     71.9884
   647.7500      0.0000    641.7466      2.1028     70.7287
   648.0000      0.0000    653.1252      2.1625     70.2442
   648.2500      0.0000    649.4398      2.2367     70.2190
   648.5000      0.0000    632.8396      2.3037     69.9226
   648.7500      0.0000    613.7833      2.3285     69.0960
   649.0000      0.0000    606.9698      2.2880     68.4329
   649.2500      0.0000    620.3792      2.1862     69.1348
   649.5000      0.0000    649.0471      2.0481     72.0529
   649.7500      0.0000    680.2875      1.9179     77.0077
   650.0000      0.0000    704.1792      1.8655     82.5695
   650.2500      0.0000    719.0724      1.9638     86.6602
   650.5000      0.0000    729.9105      2.2368     87.8385
   650.7500      0.0000    743.9951      2.6335     86.1127
   651.0000      0.0000    767.0168      3.0598     82.4144
   651.2500      0.0000    799.1455      3.4324     77.5900
   651.5000      0.0000    832.9279      3.7069     72.1352
   651.7500      0.0000    856.6285      3.8748     66.5432
   652.0000      0.0000    861.9777      3.9419     61.3554
   652.2500      0.0000    849.4079      3.9059     56.9168
   652.5000      0.0000    826.2549      3.7615     53.5056
   652.7500      0.0000    801.3171      3.5342     51.5444
   653.0000      0.0000    781.8754      3.2935     51.1133
   653.2500      0.0000    773.5554      3.1166     51.5337
   653.5000      0.0000    779.1460      3.0438     52.2095
   653.7500      0.0000    796.0909      3.0741     53.5268
   654.0000      0.0000    817.0616      3.1846     56.0381
   654.2500      0.0000    835.3279      3.3337     59.1033
   654.5000      0.0000    849.7386      3.4579     61.3084
   654.7500      0.0000    863.0241      3.4947     62.2067
   655.0000      0.0000    874.9524      3.4243     62.8873
   655.2500      0.0000    879.1374      3.2912     64.7199
   655.5000      0.0000    867.8985      3.1776     67.9888
   655.7500      0.0000    839.6896      3.1332     71.8821
   656.0000      0.0000    800.9000      3.1252     75.3529
   656.2500      0.0000    760.3310      3.0679     77.7520
   656.5000      0.0000    721.6666      2.9008     79.0025
   656.7500      0.0000    680.9204      2.6369     79.5966
   657.0000      0.0000    631.1282      2.3483     80.3413
   657.2500      0.0000    570.2996      2.1191     81.8017
   657.5000      0.0000    505.9639      2.0006     83.8665
   657.7500      0.0000    451.8829      1.9941     85.8287
   658.0000      0.0000    420.0587      2.0552     86.9533
   658.2500      0.0000    415.8503      2.1142     87.2192
   658.5000      0.0000    438.3133      2.1101     87.6219
   658.7500      0.0000    481.1363      2.0321     89.3946
   659.0000      0.0000    532.6557      1.9311     92.5832
   659.2500      0.0000    578.5977      1.8690     95.4836
   659.5000      0.0000    607.1487      1.8551     95.8468
   659.7500      0.0000    611.8364      1.8509     92.9605
   660.0000      0.0000    592.1505      1.8328     88.5231
   660.2500      0.0000    555.7158      1.8180     85.3974
   660.5000      0.0000    519.6902      1.8253     85.5834
