~Version Information
VERS.                      2.0: CWLS Log ASCII Standard - VERSION 2.0
WRAP.                       NO: One line per depth step
~Well Information Block
STRT.FT               350.0000: 
STOP.FT              2264.0000: 
STEP.FT                 0.1000: 
NULL.                -999.2500: 
COMP.          Pioneer Natural Resources: COMPANY
WELL.             Warrior 32-1: WELL
FLD.           Purgatoire River: FIELD
LOC.           2624' FNL & 2392' FEL: LOCATION
PROV.                 Colorado: PROVINCE
CNTY.               Las Animas: COUNTRY
SRVC.                Patterson: SERVICE COMPANY
DATE.          Tue Oct 05 06:54:20 2004: LOG DATE
UWI.           05 071 08176 00: UNIQUE WELL ID
~Curve Information Block
DEPT.FT            0 000 00 00: Depth
DCAL.in                       : CDL Caliper
RHOB.g/cc                     : CDL Bulk Density
RHOC.g/cc                     : CDL Density Correction
DPOR.pu                       : CDL Density Porosity
NPOR.pu                       : Neutron Porosity
GR.GAPI                       : Gamma Ray
~Parameter Information Block
~A  Depth       DCAL        RHOB        RHOC        DPOR        NPOR         GR     
# ...
   474.8000      8.4640      2.5352     -0.0193      6.9571     25.6587    106.2082
   474.9000      8.4640      2.5254      0.0081      7.5494     25.4850    104.0735
   475.0000      8.4764      2.5182      0.0032      7.9888     25.2981    106.0200
   475.1000      8.4764      2.5063      0.0130      8.7120     25.6829    111.1907
   475.2000      8.4764      2.4963     -0.0247      9.3165     26.5488    114.1453
   475.3000      8.4831      2.4945      0.0431      9.4219     26.8367    112.2854
   475.4000      8.4831      2.4945     -0.0064      9.4262     26.5435    108.7165
   475.5000      8.4843      2.4837      0.0324     10.0799     26.5405    109.5165
   475.6000      8.4843      2.4405      0.0250     12.6977     26.6912    116.3620
   475.7000      8.4843      2.3617     -0.0747     17.4740     26.5893    124.7257
   475.8000      8.4820      2.2650     -0.0567     23.3339     26.2024    128.4101
   475.9000      8.4820      2.1517     -0.0699     30.2009     25.6055    124.9588
   476.0000      8.4774      2.0165     -0.1270     38.3964     25.1054    118.4056
   476.1000      8.4774      1.8736     -0.1786     47.0569     24.7631    113.9151
   476.2000      8.4774      1.7482     -0.2429     54.6542     24.1602    111.9316
   476.3000      8.4672      1.6523     -0.1761     60.4671     23.1670    109.8259
   476.4000      8.4672      1.5869     -0.1942     64.4308     22.1673    105.4187
   476.5000      8.4527      1.5676     -0.1755     65.6017     21.2366     99.7937
   476.6000      8.4527      1.6169     -0.0760     62.6132     20.0246     93.5781
   476.7000      8.4527      1.7309      0.0865     55.7047     18.6095     88.7612
   476.8000      8.4341      1.8743      0.2065     47.0107     17.5781     89.4936
   476.9000      8.4341      2.0104      0.2946     38.7645     16.9199     94.9022
   477.0000      8.3923      2.1290      0.2713     31.5770     15.9831     96.8618
   477.1000      8.3923      2.2452      0.2763     24.5311     14.7193     91.3778
   477.2000      8.3923      2.3639      0.2959     17.3365     13.8907     87.0495
   477.3000      8.3386      2.4645      0.2762     11.2415     14.1043     89.3431
   477.4000      8.3386      2.5239      0.2203      7.6453     15.2352     94.1268
   477.5000      8.3098      2.5407      0.1238      6.6243     16.6156     99.8280
   477.6000      8.3098      2.5391      0.0492      6.7241     17.9916    107.3787
   477.7000      8.3098      2.5368      0.0611      6.8596     19.4504    112.4787
   477.8000      8.3044      2.5271      0.0397      7.4489     20.8863    112.0215
   477.9000      8.3044      2.5029      0.0389      8.9166     22.4635    110.4245
   478.0000      8.3040      2.4690      0.0155     10.9698     24.1651    113.7521
   478.1000      8.3040      2.4352     -0.0209     13.0194     25.4075    123.2256
   478.2000      8.3040      2.4088     -0.0067     14.6159     26.1376    133.4257
   478.3000      8.3054      2.3949     -0.0387     15.4584     26.8125    136.6176
   478.4000      8.3054      2.4028     -0.0189     14.9847     27.6171    134.6670
   478.5000      8.3084      2.4315      0.0194     13.2437     28.6042    135.7001
   478.6000      8.3084      2.4570      0.0611     11.6998     29.5732    137.5279
   478.7000      8.3084      2.4603      0.0511     11.4981     30.0912    135.9479
   478.8000      8.3118      2.4472      0.0633     12.2914     29.9323    133.7237
   478.9000      8.3118      2.4278      0.0043     13.4678     29.5537    131.8284
   479.0000      8.3145      2.4061      0.0334     14.7832     29.4996    132.2549
   479.1000      8.3145      2.3865      0.0456     15.9686     29.4881    141.4826
   479.2000      8.3145      2.3799      0.0326     16.3727     29.2510    153.8207
   479.3000      8.3142      2.3906      0.0497     15.7206     29.0377    156.9849
   479.4000      8.3142      2.4081      0.0510     14.6630     28.9317    154.9044
   479.5000      8.3098      2.4195      0.0947     13.9701     28.9489    154.1818
   479.6000      8.3098      2.4172      0.0787     14.1068     28.8887    150.5923
   479.7000      8.3098      2.4021      0.0777     15.0257     28.3659    144.2433
   479.8000      8.3060      2.3880      0.0365     15.8765     27.6028    142.8083
   479.9000      8.3060      2.3902      0.0374     15.7430     27.2983    146.4789
   480.0000      8.3057      2.4085      0.0325     14.6360     27.6579    149.8090
   480.1000      8.3057      2.4320      0.0670     13.2125     28.3346    152.1430
   480.2000      8.3057      2.4487      0.0851     12.1995     28.5978    156.2029
   480.3000      8.3065      2.4558      0.0663     11.7705     28.0928    159.6232
   480.4000      8.3065      2.4645      0.0596     11.2406     27.2129    155.4039
   480.5000      8.3090      2.4842      0.0731     10.0479     26.1448    147.6470
   480.6000      8.3090      2.5061      0.1474      8.7233     25.0014    147.9655
   480.7000      8.3090      2.5158      0.0726      8.1321     24.2361    156.3504
   480.8000      8.3142      2.5116      0.0628      8.3905     23.8931    162.3980
   480.9000      8.3142      2.4977      0.0723      9.2290     23.5139    158.2303
   481.0000      8.3127      2.4864      0.0102      9.9122     23.0929    145.3057
   481.1000      8.3127      2.4876      0.0464      9.8453     22.9349    132.6998
   481.2000      8.3127      2.4870      0.0961      9.8805     22.9712    129.8162
   481.3000      8.2952      2.4820     -0.0462     10.1845     23.0063    134.4884
   481.4000      8.2952      2.4914      0.0159      9.6149     23.1685    134.6115
   481.5000      8.2807      2.5063      0.0361      8.7085     23.6018    125.2443
   481.6000      8.2807      2.5116      0.0443      8.3857     24.0484    113.3322
   481.7000      8.2807      2.5194      0.0230      7.9130     24.1570    106.8717
   481.8000      8.2793      2.5420      0.0266      6.5438     24.1349    105.1178
   481.9000      8.2793      2.5646      0.0369      5.1737     24.5539    101.8824
   482.0000      8.2817      2.5577      0.0593      5.5948     25.2721     95.1695
   482.1000      8.2817      2.5190      0.0069      7.9377     25.8603     88.7378
   482.2000      8.2817      2.4824     -0.0213     10.1569     26.3935     87.1941
   482.3000      8.2854      2.4649     -0.0334     11.2177     27.0451     90.0922
   482.4000      8.2854      2.4532      0.0256     11.9278     27.8303     93.8307
   482.5000      8.2950      2.4445     -0.0309     12.4559     28.7234     95.9915
   482.6000      8.2950      2.4562     -0.0343     11.7436     29.6569     94.1218
   482.7000      8.2950      2.4879      0.0365      9.8255     30.4849     88.5441
   482.8000      8.3108      2.5071      0.0685      8.6633     30.7703     84.6148
   482.9000      8.3108      2.4877      0.0531      9.8353     30.7024     86.5554
   483.0000      8.3253      2.4460     -0.0194     12.3658     31.1213     92.9245
   483.1000      8.3253      2.4181     -0.0165     14.0531     32.0055     99.1375
   483.2000      8.3253      2.4135      0.0684     14.3327     32.4700    103.4893
   483.3000      8.3320      2.4252      0.0405     13.6226     32.1433    105.2036
   483.4000      8.3320      2.4557      0.0826     11.7769     31.5100    105.0065
   483.5000      8.3338      2.4971      0.0909      9.2637     30.8936    107.3033
   483.6000      8.3338      2.5246      0.1224      7.6016     30.3044    113.1987
   483.7000      8.3338      2.5256      0.1071      7.5387     30.1441    118.3108
   483.8000      8.3337      2.5177      0.0724      8.0209     30.2824    121.5006
   483.9000      8.3337      2.5186      0.1090      7.9651     29.7986    124.2381
   484.0000      8.3318      2.5236      0.0858      7.6626     28.6951    125.7922
   484.1000      8.3318      2.5261      0.0871      7.5119     27.9258    128.5952
   484.2000      8.3318      2.5292      0.1111      7.3197     27.8337    134.1955
   484.3000      8.3285      2.5347      0.1060      6.9885     28.1565    136.7287
