~Version Information
VERS.                      2.0: CWLS Log ASCII Standard - VERSION 2.0
WRAP.                       NO: One line per depth step
~Well Information Block
STRT.FT               240.0000: 
STOP.FT               966.2000: 
STEP.FT                 0.1000: 
NULL.                -999.2500: 
COMP.          Pioneer Natural Resources: COMPANY
WELL.          New Mexico 21-5: WELL
FLD.           Purgatoire River: FIELD
LOC.           175' FNL & 1700' FWL: LOCATION
PROV.                 Colorado: PROVINCE
CNTY.               Las Animas: COUNTRY
SRVC.                Patterson: SERVICE COMPANY
DATE.          Mon Dec 13 06:55:26 2004: LOG DATE
UWI.           05 071 08234 00: UNIQUE WELL ID
~Curve Information Block
DEPT.FT            0 000 00 00: Depth
DCAL.in                       : CDL Caliper
RHOB.g/cc                     : CDL Bulk Density
RHOC.g/cc                     : CDL Density Correction
DPOR.pu                       : CDL Density Porosity
NPOR.pu                       : Neutron Porosity
GR.GAPI                       : Gamma Ray
~Parameter Information Block
~A  Depth       DCAL        RHOB        RHOC        DPOR        NPOR         GR     
# ...
   940.8000      7.8610      2.5258      0.0327      7.5285   -999.2500   -999.2500
   940.9000      7.8610      2.5202      0.0528      7.8646   -999.2500   -999.2500
   941.0000      7.8632      2.5264      0.0356      7.4879   -999.2500   -999.2500
   941.1000      7.8632      2.5312      0.0715      7.1975   -999.2500   -999.2500
   941.2000      7.8632      2.5226      0.0284      7.7208   -999.2500   -999.2500
   941.3000      7.8667      2.5089      0.0337      8.5545   -999.2500   -999.2500
   941.4000      7.8667      2.5014      0.0499      9.0033   -999.2500   -999.2500
   941.5000      7.8700      2.5053      0.0335      8.7700   -999.2500   -999.2500
   941.6000      7.8700      2.5271      0.0394      7.4503   -999.2500   -999.2500
   941.7000      7.8700      2.5514      0.0753      5.9784   -999.2500   -999.2500
   941.8000      7.8764      2.5497      0.0608      6.0763   -999.2500   -999.2500
   941.9000      7.8764      2.5248      0.0300      7.5861   -999.2500   -999.2500
   942.0000      7.8832      2.5024      0.0384      8.9449   -999.2500   -999.2500
   942.1000      7.8832      2.5004      0.0179      9.0648   -999.2500   -999.2500
   942.2000      7.8832      2.5142      0.0720      8.2284   -999.2500   -999.2500
   942.3000      7.8726      2.5191      0.1140      7.9358   -999.2500   -999.2500
   942.4000      7.8726      2.5092      0.0191      8.5310   -999.2500   -999.2500
   942.5000      7.8571      2.5043      0.0603      8.8276   -999.2500   -999.2500
   942.6000      7.8571      2.5066      0.0410      8.6879   -999.2500   -999.2500
   942.7000      7.8571      2.5087      0.0329      8.5655   -999.2500   -999.2500
   942.8000      7.8558      2.5153      0.0393      8.1650   -999.2500   -999.2500
   942.9000      7.8558      2.5322      0.0190      7.1405   -999.2500   -999.2500
   943.0000      7.8590      2.5564      0.0701      5.6730   -999.2500   -999.2500
   943.1000      7.8590      2.5767      0.0737      4.4434   -999.2500   -999.2500
   943.2000      7.8590      2.5809      0.0821      4.1857   -999.2500   -999.2500
   943.3000      7.8558      2.5720      0.0699      4.7246   -999.2500   -999.2500
   943.4000      7.8558      2.5635      0.0618      5.2437   -999.2500   -999.2500
   943.5000      7.8452      2.5571      0.0513      5.6306   -999.2500   -999.2500
   943.6000      7.8452      2.5421      0.0692      6.5380   -999.2500   -999.2500
   943.7000      7.8452      2.5143      0.0216      8.2227   -999.2500   -999.2500
   943.8000      7.8366      2.4852      0.0254      9.9856   -999.2500   -999.2500
   943.9000      7.8366      2.4697      0.0073     10.9286   -999.2500   -999.2500
   944.0000      7.8319      2.4756      0.0382     10.5679   -999.2500   -999.2500
   944.1000      7.8319      2.4976      0.0625      9.2351   -999.2500   -999.2500
   944.2000      7.8319      2.5192      0.0764      7.9271   -999.2500   -999.2500
   944.3000      7.8256      2.5330      0.0533      7.0921   -999.2500   -999.2500
   944.4000      7.8256      2.5440      0.0866      6.4243   -999.2500   -999.2500
   944.5000      7.8162      2.5445      0.1030      6.3923   -999.2500   -999.2500
   944.6000      7.8162      2.5234      0.0743      7.6725   -999.2500   -999.2500
   944.7000      7.8162      2.4948      0.0575      9.4043   -999.2500   -999.2500
   944.8000      7.8078      2.4842      0.0318     10.0505   -999.2500   -999.2500
   944.9000      7.8078      2.4973      0.0442      9.2553   -999.2500   -999.2500
   945.0000      7.8041      2.5157      0.0815      8.1381   -999.2500   -999.2500
   945.1000      7.8041      2.5204      0.0725      7.8540   -999.2500   -999.2500
   945.2000      7.8041      2.5127      0.0364      8.3229   -999.2500   -999.2500
   945.3000      7.8088      2.5011      0.0634      9.0238   -999.2500   -999.2500
   945.4000      7.8088      2.4872      0.0405      9.8644   -999.2500   -999.2500
   945.5000      7.8146      2.4768      0.0390     10.4980   -999.2500   -999.2500
   945.6000      7.8146      2.4760      0.0519     10.5450   -999.2500   -999.2500
   945.7000      7.8146      2.4787      0.0405     10.3790   -999.2500   -999.2500
   945.8000      7.8106      2.4726      0.0834     10.7518   -999.2500   -999.2500
   945.9000      7.8106      2.4561      0.0517     11.7529   -999.2500   -999.2500
   946.0000      7.8007      2.4497      0.0170     12.1364   -999.2500   -999.2500
   946.1000      7.8007      2.4668      0.0612     11.1052   -999.2500   -999.2500
   946.2000      7.8007      2.4909      0.0672      9.6454   -999.2500   -999.2500
   946.3000      7.7886      2.5054      0.0934      8.7622   -999.2500   -999.2500
   946.4000      7.7886      2.5108      0.0753      8.4376   -999.2500   -999.2500
   946.5000      7.7796      2.5110      0.0705      8.4229   -999.2500   -999.2500
   946.6000      7.7796      2.5083      0.0307      8.5861   -999.2500   -999.2500
   946.7000      7.7796      2.5070      0.0514      8.6663   -999.2500   -999.2500
   946.8000      7.7755      2.5084      0.1086      8.5792   -999.2500   -999.2500
   946.9000      7.7755      2.5278      0.0620      7.4058   -999.2500   -999.2500
   947.0000      7.7439      2.6008      0.0828      2.9806   -999.2500   -999.2500
   947.1000      7.7439      2.6156      0.0695      2.0867   -999.2500   -999.2500
   947.2000      7.7439      2.1769      0.5902     28.6739   -999.2500   -999.2500
   947.3000      7.3383      1.2322      0.0400     85.9245   -999.2500   -999.2500
   947.4000      7.3383      0.4172      0.0400    135.3217   -999.2500   -999.2500
   947.5000      5.4907      0.0792   -999.2500    155.8084   -999.2500   -999.2500
   947.6000      5.4907      0.0082   -999.2500    160.1117   -999.2500   -999.2500
   947.7000      5.4907      0.0004   -999.2500    160.5792   -999.2500   -999.2500
   947.8000      2.4303      0.0000   -999.2500    160.6061   -999.2500   -999.2500
   947.9000      2.4303      0.0000   -999.2500    160.6061   -999.2500   -999.2500
   948.0000      0.5712   -999.2500   -999.2500   -999.2500   -999.2500   -999.2500
   948.1000      0.5712   -999.2500   -999.2500   -999.2500   -999.2500   -999.2500
   948.2000      0.5712   -999.2500   -999.2500   -999.2500   -999.2500   -999.2500
   948.3000      0.1561   -999.2500   -999.2500   -999.2500   -999.2500   -999.2500
   948.4000      0.1561   -999.2500   -999.2500   -999.2500   -999.2500   -999.2500
   948.5000      0.1220   -999.2500   -999.2500   -999.2500   -999.2500   -999.2500
   948.6000      0.1220   -999.2500   -999.2500   -999.2500   -999.2500   -999.2500
   948.7000      0.1220   -999.2500   -999.2500   -999.2500   -999.2500   -999.2500
   948.8000   -999.2500   -999.2500   -999.2500   -999.2500   -999.2500   -999.2500
   948.9000   -999.2500   -999.2500   -999.2500   -999.2500   -999.2500   -999.2500
   949.0000   -999.2500   -999.2500   -999.2500   -999.2500   -999.2500   -999.2500
   949.1000   -999.2500   -999.2500   -999.2500   -999.2500   -999.2500   -999.2500
   949.2000   -999.2500   -999.2500   -999.2500   -999.2500   -999.2500   -999.2500
   949.3000   -999.2500   -999.2500   -999.2500   -999.2500   -999.2500   -999.2500
   949.4000   -999.2500   -999.2500   -999.2500   -999.2500   -999.2500   -999.2500
   949.5000   -999.2500   -999.2500   -999.2500   -999.2500   -999.2500   -999.2500
   949.6000   -999.2500   -999.2500   -999.2500   -999.2500   -999.2500   -999.2500
   949.7000   -999.2500   -999.2500   -999.2500   -999.2500   -999.2500   -999.2500
   949.8000   -999.2500   -999.2500   -999.2500   -999.2500   -999.2500   -999.2500
   949.9000   -999.2500   -999.2500   -999.2500   -999.2500   -999.2500   -999.2500
   950.0000   -999.2500   -999.2500   -999.2500   -999.2500   -999.2500   -999.2500
   950.1000   -999.2500   -999.2500   -999.2500   -999.2500   -999.2500   -999.2500
   950.2000   -999.2500   -999.2500   -999.2500   -999.2500   -999.2500   -999.2500
   950.3000   -999.2500   -999.2500   -999.2500   -999.2500   -999.2500   -999.2500
