~Version Information
 VERS.                                  2.0 : CWLS LAS VERSION
 WRAP.                                   NO : WRAPING MODE
 SWARE .                 MController 2.5.0J : SOFTWARE VERSION
~Well Information
 WELL.                         Norton 9-14V : WELL
 COMP.                       Petrogulf Corp : COMPANY
 FLD.                      Purgatoire River : FIELD
 LOC.                 SW/SW Sec 9 T33S R67W : LOCATION
 DATE.                             10/27/04 : DATE(S) LOGGED
 SRVC.      Blanco Geological Servivces LLC : SERVICE COMPANY
 STAT.                                   CO : STATE
 CNTY.                           Las Animas : COUNTY
 CTRY.                                  USA : COUNTRY
 API.                       05-071-07891-00 : API NUMBER
 STRT.FT                             752.00 : START DEPTH
 STOP.FT                            2427.00 : STOP DEPTH
 STEP.FT                               1.00 : DEPTH INCREMENT
 NULL.                                -9999 : NULL VALUE
~Curve information
 DEPTH.FT                                   :
 ROP.MIN/FT                                 :
 GAS.UNITS                                  :
~ASCII Log data
# ...
      1952.0         0.20         29.5 
      1953.0         0.23         30.1 
      1954.0         0.23         28.7 
      1955.0         0.17         28.5 
      1956.0         0.23         26.5 
      1957.0         0.27         24.7 
      1958.0         0.13         25.8 
      1959.0         0.17         25.7 
      1960.0         0.23         26.2 
      1961.0         0.23         29.0 
      1962.0         0.23         22.4 
      1963.0         0.23         26.5 
      1964.0         0.27         30.2 
      1965.0         0.23         33.3 
      1966.0         0.13         35.7 
      1967.0         0.18         36.8 
      1968.0         0.20         35.5 
      1969.0         0.23         36.1 
      1970.0         0.13         37.4 
      1971.0         0.17         39.0 
      1972.0         0.20         40.5 
      1973.0         0.23         39.9 
      1974.0         0.20         37.7 
      1975.0         0.20         35.8 
      1976.0         0.27         33.0 
      1977.0         0.27         29.0 
      1978.0         0.30         29.0 
      1979.0         0.20         27.6 
      1980.0         0.20         27.8 
      1981.0         0.30         27.8 
      1982.0         0.30         28.5 
      1983.0         0.17         28.0 
      1984.0         0.22         27.5 
      1985.0         0.20         27.6 
      1986.0         0.23         26.8 
      1987.0         0.37         36.7 
      1988.0         0.30         36.7 
      1989.0         0.27         34.2 
      1990.0         0.17         34.0 
      1991.0         0.17         46.8 
      1992.0         0.20         35.3 
      1993.0         0.20         34.7 
      1994.0         0.13         34.1 
      1995.0         0.13         34.1 
      1996.0         0.13         36.7 
      1997.0         0.17         36.7 
      1998.0         0.23         39.3 
      1999.0         0.23         40.4 
      2000.0         0.22         40.0 
      2001.0         0.23         37.4 
      2002.0         0.27         36.3 
      2003.0         0.27         32.6 
      2004.0         0.23         29.7 
      2005.0         0.23         28.3 
      2006.0         0.23         28.2 
      2007.0         0.40         31.6 
      2008.0         0.37         42.9 
      2009.0         0.28         42.5 
      2010.0         0.27         43.1 
      2011.0         0.27         42.0 
      2012.0         0.20         41.4 
      2013.0         0.17         38.4 
      2014.0         0.13         38.4 
      2015.0         0.20         36.0 
      2016.0         0.23         35.8 
      2017.0         0.23         33.9 
      2018.0         0.20         32.2 
      2019.0         0.20         31.5 
      2020.0         0.17         30.6 
      2021.0         0.17         29.5 
      2022.0         0.13         28.2 
      2023.0         0.23         28.2 
      2024.0         0.27         28.2 
      2025.0         0.32         27.9 
      2026.0         0.33         28.0 
      2027.0         0.43         47.4 
      2028.0         0.33         47.4 
      2029.0         0.40         52.5 
      2030.0         0.33         51.2 
      2031.0         0.33         48.5 
      2032.0         0.33         48.1 
      2033.0         0.33         40.0 
      2034.0         0.35         35.7 
      2035.0         0.27         31.9 
      2036.0         0.13         30.3 
      2037.0         0.27         30.8 
      2038.0         0.10         30.8 
      2039.0         0.33         32.0 
      2040.0         0.30         30.8 
      2041.0         0.27         29.0 
      2042.0         0.27         29.7 
      2043.0         0.30         27.7 
      2044.0         0.30         27.6 
      2045.0         0.33         27.7 
      2046.0         0.32         25.8 
      2047.0         0.30         25.9 
      2048.0         0.27         25.7 
      2049.0         0.27         25.2 
      2050.0         0.27         25.2 
      2051.0         0.23         24.5 
      2052.0         0.27         25.0 
      2053.0         0.20         25.0 
      2054.0         0.20         23.1 
      2055.0         0.23         46.2 
      2056.0         0.23         46.2 
      2057.0         0.27         52.2 
      2058.0         0.27         55.2 
      2059.0         0.32         52.4 
      2060.0         0.27         51.1 
      2061.0         0.27         46.4 
      2062.0         0.30         45.5 
      2063.0         0.27         42.7 
      2064.0         0.23         40.7 
      2065.0         0.27         37.1 
      2066.0         0.23         36.5 
      2067.0         0.27         31.0 
      2068.0         0.33         30.7 
      2069.0         0.27         29.8 
      2070.0         0.23         31.4 
      2071.0         0.32         36.1 
      2072.0         0.27         38.9 
      2073.0         0.30         38.3 
      2074.0         0.33         35.6 
      2075.0         0.27         33.6 
      2076.0         0.23         32.7 
      2077.0         0.10         33.8 
      2078.0         0.13         33.8 
      2079.0         0.30         33.8 
      2080.0         0.27         32.2 
      2081.0         0.30         32.7 
      2082.0         0.27         29.1 
      2083.0         0.17         28.7 
      2084.0         0.13         58.5 
      2085.0         0.13         27.1 
      2086.0         0.22         29.4 
      2087.0         0.27         34.3 
      2088.0         0.27         37.9 
      2089.0         0.33         38.8 
      2090.0         0.30         39.9 
      2091.0         0.33         38.4 
      2092.0         0.23         35.8 
      2093.0         0.27         36.3 
      2094.0         0.17         35.3 
      2095.0         0.30         34.5 
      2096.0         0.27         32.9 
      2097.0         0.50         32.5 
      2098.0         0.43         31.3 
      2099.0         0.47         28.6 
      2100.0         0.52         27.4 
      2101.0         0.37         25.1 
      2102.0         0.33         25.5 
      2103.0         0.33         27.0 
      2104.0         0.33         26.9 
      2105.0         0.37         27.7 
      2106.0         0.33         26.6 
      2107.0         0.37         25.6 
      2108.0         0.37         24.5 
      2109.0         0.33         24.6 
      2110.0         0.38         25.8 
      2111.0         0.33         24.9 
      2112.0         0.33         24.9 
      2113.0         0.30         24.4 
      2114.0         0.30         22.3 
      2115.0         0.30         42.4 
      2116.0         0.30         42.1 
      2117.0         0.33         37.7 
      2118.0         0.30         32.8 
      2119.0         0.27         28.6 
      2120.0         0.28         29.9 
      2121.0         0.27         31.4 
      2122.0         0.27         35.2 
      2123.0         0.27         36.8 
      2124.0         0.27         36.1 
      2125.0         0.33         35.1 
      2126.0         0.10         33.6 
      2127.0         0.30         32.8 
      2128.0         0.17         31.5 
      2129.0         0.30         31.1 
      2130.0         0.27         32.8 
      2131.0         0.27         33.7 
      2132.0         0.20         33.1 
      2133.0         0.20         31.8 
      2134.0         0.22         30.6 
      2135.0         0.27         30.1 
      2136.0         0.27         28.3 
      2137.0         0.33         28.4 
      2138.0         0.33         28.2 
      2139.0         0.33         27.2 
      2140.0         0.27         27.4 
      2141.0         0.30         25.7 
      2142.0         0.30         25.1 
      2143.0         0.30         23.5 
      2144.0         0.33         24.0 
      2145.0         0.42         31.5 
      2146.0         0.40         35.1 
      2147.0         0.30         34.4 
      2148.0         0.23         33.3 
      2149.0         0.27         31.4 
      2150.0         0.23         33.5 
      2151.0         0.27         35.7 
