~Version Information
VERS.                      2.0: CWLS Log ASCII Standard - VERSION 2.0
WRAP.                       NO: One line per depth step
~Well Information Block
STRT.FT               948.2500: 
STOP.FT              2134.5000: 
STEP.FT                 0.2500: 
NULL.                -999.2500: 
COMP.          Petrogulf Corporation: COMPANY
WELL.             Valejo 8-12R: WELL
FLD.           Purgatorie River: FIELD
LOC.           1351'' FNL & 1562' FWL: LOCATION
CNTY.               Las Animas: COUNTY
SRVC.                         : SERVICE COMPANY
DATE.          Wed Apr 28 02:30:32 2004: LOG DATE
UWI.           05 071 08038 00: UNIQUE WELL ID
STAT.                 Colorado: STATE
~Curve Information Block
DEPT.FT            0 000 00 00: Depth
SP.mV                         : DIL Spontaneous Potential
RILD.Ohm-m                    : DIL Deep Resistivity
RILM.Ohm-m                    : DIL Medium Resistivity
RLL3.Ohm-m                    : DIL Shallow Resistivity
GR.GAPI                       : Gamma Ray
~Parameter Information Block
~A  Depth        SP         RILD        RILM        RLL3         GR     
# ...
  1116.2500     63.3304     15.7879     18.7568     25.7382    128.5593
  1116.5000     63.5632     15.7063     18.8964     27.3148    124.9515
  1116.7500     63.8229     15.5709     18.9113     28.2001    122.7547
  1117.0000     64.0548     15.4053     18.7734     28.0701    119.9192
  1117.2500     64.2287     15.2423     18.5114     27.1485    118.5347
  1117.5000     64.3398     15.1120     18.1976     25.7796    118.0379
  1117.7500     64.3935     15.0299     17.9134     24.1807    119.0972
  1118.0000     64.3890     14.9892     17.7150     22.5148    122.1567
  1118.2500     64.3173     14.9625     17.6169     21.0679    124.0991
  1118.5000     64.1810     14.9109     17.5965     20.2788    125.0096
  1118.7500     64.0181     14.7998     17.6104     20.5710    124.0103
  1119.0000     63.8991     14.6120     17.6085     22.1195    121.2639
  1119.2500     63.8886     14.3511     17.5372     24.7026    119.5894
  1119.5000     64.0067     14.0364     17.3409     27.6753    118.4233
  1119.7500     64.2217     13.6926     16.9764     30.0597    118.8201
  1120.0000     64.4711     13.3432     16.4380     30.8349    121.2715
  1120.2500     64.6934     13.0090     15.7688     29.4428    123.8541
  1120.5000     64.8560     12.7089     15.0462     26.1902    127.8325
  1120.7500     64.9718     12.4581     14.3508     22.1230    129.6602
  1121.0000     65.0899     12.2632     13.7412     18.4122    130.5604
  1121.2500     65.2609     12.1176     13.2458     15.7755    130.3377
  1121.5000     65.5004     12.0027     12.8665     14.3248    130.1212
  1121.7500     65.7794     11.8944     12.5881     13.7607    130.7569
  1122.0000     66.0457     11.7735     12.3889     13.6629    133.5256
  1122.2500     66.2555     11.6315     12.2476     13.7285    136.5257
  1122.5000     66.3892     11.4719     12.1480     13.8756    141.6538
  1122.7500     66.4533     11.3054     12.0804     14.1686    144.2813
  1123.0000     66.4754     11.1444     12.0398     14.6514    145.0658
  1123.2500     66.4922     10.9997     12.0221     15.2467    143.1939
  1123.5000     66.5305     10.8788     12.0209     15.7893    137.9696
  1123.7500     66.5967     10.7867     12.0261     16.1289    133.8951
  1124.0000     66.6803     10.7257     12.0254     16.1994    128.2669
  1124.2500     66.7635     10.6945     12.0096     16.0230    125.3639
  1124.5000     66.8277     10.6879     11.9764     15.6820    122.6462
  1124.7500     66.8554     10.6966     11.9319     15.2842    121.7554
  1125.0000     66.8374     10.7098     11.8870     14.9242    121.3491
  1125.2500     66.7805     10.7172     11.8510     14.6539    121.6880
  1125.5000     66.7084     10.7114     11.8264     14.4840    123.2479
  1125.7500     66.6503     10.6895     11.8076     14.4150    124.7501
  1126.0000     66.6270     10.6531     11.7856     14.4563    126.9437
  1126.2500     66.6439     10.6078     11.7517     14.6025    128.2621
  1126.5000     66.6964     10.5612     11.7011     14.7938    130.6390
  1126.7500     66.7767     10.5218     11.6334     14.9086    132.7914
  1127.0000     66.8762     10.4962     11.5533     14.8099    136.5001
  1127.2500     66.9813     10.4868     11.4717     14.4270    138.7545
  1127.5000     67.0728     10.4912     11.4046     13.8360    141.2121
  1127.7500     67.1354     10.5027     11.3688     13.2811    142.2299
  1128.0000     67.1689     10.5127     11.3748     13.0843    142.9332
  1128.2500     67.1859     10.5140     11.4219     13.4508    142.7485
  1128.5000     67.1958     10.5052     11.4965     14.2987    141.2061
  1128.7500     67.1971     10.4922     11.5773     15.2791    139.4458
  1129.0000     67.1863     10.4885     11.6433     15.9899    136.7313
  1129.2500     67.1740     10.5095     11.6837     16.2042    135.6871
  1129.5000     67.1887     10.5649     11.7036     15.9566    136.1691
  1129.7500     67.2617     10.6542     11.7218     15.4855    137.9080
  1130.0000     67.4060     10.7676     11.7615     15.0961    142.0272
  1130.2500     67.6017     10.8914     11.8401     15.0026    144.9420
  1130.5000     67.7963     11.0140     11.9629     15.2505    147.3816
  1130.7500     67.9268     11.1282     12.1210     15.7735    146.6412
  1131.0000     67.9521     11.2315     12.2960     16.4769    141.9889
  1131.2500     67.8751     11.3247     12.4652     17.2122    137.7223
  1131.5000     67.7376     11.4089     12.6111     17.7198    132.2773
  1131.7500     67.6005     11.4841     12.7287     17.7339    130.3195
  1132.0000     67.5219     11.5494     12.8277     17.2281    129.9680
  1132.2500     67.5375     11.6033     12.9258     16.5226    130.7743
  1132.5000     67.6483     11.6459     13.0365     16.0937    132.2666
  1132.7500     67.8233     11.6776     13.1575     16.2537    133.0673
  1133.0000     68.0217     11.6995     13.2696     16.9607    133.9615
  1133.2500     68.2177     11.7130     13.3443     17.8545    134.4846
  1133.5000     68.4100     11.7200     13.3612     18.4708    135.2558
  1133.7500     68.6077     11.7230     13.3210     18.5099    135.7761
  1134.0000     68.8126     11.7244     13.2476     17.9867    136.7545
  1134.2500     69.0155     11.7275     13.1737     17.1644    137.6423
  1134.5000     69.2050     11.7361     13.1248     16.3594    139.0835
  1134.7500     69.3725     11.7553     13.1120     15.7805    139.8496
  1135.0000     69.5077     11.7901     13.1369     15.4907    140.5564
  1135.2500     69.5989     11.8455     13.1992     15.4585    140.8012
  1135.5000     69.6428     11.9269     13.3009     15.6102    140.9453
  1135.7500     69.6553     12.0401     13.4453     15.8457    141.0859
  1136.0000     69.6691     12.1899     13.6355     16.0836    142.0326
  1136.2500     69.7165     12.3773     13.8733     16.3615    143.3599
  1136.5000     69.8119     12.5982     14.1577     16.8739    145.6779
  1136.7500     69.9481     12.8451     14.4816     17.8409    146.6412
  1137.0000     70.1095     13.1126     14.8345     19.3079    146.4224
  1137.2500     70.2887     13.4033     15.2137     21.0780    145.3602
  1137.5000     70.4941     13.7315     15.6406     22.8429    143.1128
  1137.7500     70.7419     14.1188     16.1660     24.3974    141.2470
  1138.0000     71.0380     14.5854     16.8568     25.7659    137.3431
  1138.2500     71.3657     15.1378     17.7688     27.1553    133.8553
  1138.5000     71.6922     15.7628     18.9193     28.8005    128.2085
  1138.7500     71.9903     16.4317     20.2742     30.8551    125.0910
  1139.0000     72.2550     17.1148     21.7597     33.4054    122.0835
  1139.2500     72.5020     17.7946     23.2929     36.5262    120.6235
  1139.5000     72.7493     18.4680     24.8079     40.2471    117.7292
  1139.7500     73.0012     19.1341     26.2491     44.4066    115.1848
  1140.0000     73.2510     19.7798     27.5425     48.5526    111.7879
  1140.2500     73.4976     20.3760     28.5951     52.1120    110.4885
  1140.5000     73.7518     20.8902     29.3554     54.8016    109.3580
  1140.7500     74.0262     21.3060     29.8856     56.8698    108.1195
  1141.0000     74.3205     21.6330     30.3447     58.8113    104.6089
  1141.2500     74.6200     21.8997     30.8718     60.7773    101.4606
  1141.5000     74.9045     22.1375     31.4702     62.3138     96.4035
  1141.7500     75.1609     22.3703     31.9938     62.7212     93.0525
  1142.0000     75.3915     22.6135     32.2569     61.6758     88.2316
  1142.2500     75.6149     22.8760     32.1875     59.5405     85.3202
  1142.5000     75.8567     23.1596     31.8836     57.1662     81.6145
  1142.7500     76.1335     23.4575     31.5307     55.4352     79.5127
  1143.0000     76.4398     23.7581     31.2814     54.8992     76.6492
  1143.2500     76.7521     24.0558     31.2045     55.6423     74.9566
  1143.5000     77.0480     24.3571     31.3100     57.3025     73.2394
  1143.7500     77.3206     24.6770     31.6026     59.2119     72.9384
  1144.0000     77.5686     25.0273     32.1185     60.6830     73.5058
