~Version Information
VERS.                      2.0: CWLS Log ASCII Standard - VERSION 2.0
WRAP.                       NO: One line per depth step
~Well Information Block
STRT.FT                -6.0000: 
STOP.FT              2490.5000: 
STEP.FT                 0.2500: 
NULL.                -999.2500: 
COMP.          Pioneer Natural Resources: COMPANY
WELL.          Aztec Federal 41-15: WELL
FLD.           Purgatorie River: FIELD
LOC.           706' FNL & 1253' FEL--: LOCATION
CNTY.               Las Animas: COUNTY
SRVC.          Superior Well Services: SERVICE COMPANY
DATE.          Wed May 28 14-18-16 2008: LOG DATE
UWI.           05 071 08342 00: UNIQUE WELL ID
STAT.                       CO: STATE
~Curve Information Block
DEPT.FT            0 000 00 00: Depth
GR.GAPI                       : Gamma Ray
CCL.                          : Casing Collar Locator
AMP3FT.mV                     : AMP3FT Amplitude
TT3FT.usec                    : 3FT Travel Time
AMP5FT.mV                     : AMP5FT Amplitude
~Parameter Information Block
~A  Depth        GR         CCL        AMP3FT      TT3FT       AMP5FT   
# ...
  1142.0000    120.7228      0.0000     10.5975    610.4970      3.9409
  1142.2500    127.0859      0.0000      8.3727    630.2615      3.3469
  1142.5000    134.5616      0.0000      6.7208    638.4976      2.9111
  1142.7500    140.0212      0.0000      5.5604    641.1708      2.6071
  1143.0000    141.9734      0.0000      4.7618    641.8466      2.4130
  1143.2500    141.4977      0.0000      4.1986    641.9796      2.3010
  1143.5000    140.7919      0.0000      3.7772    642.0000      2.2430
  1143.7500    140.9446      0.0000      3.4435    642.0000      2.2161
  1144.0000    141.2775      0.0000      3.1745    641.9862      2.1998
  1144.2500    140.3202      0.0000      2.9651    641.8966      2.1757
  1144.5000    136.8928      0.0000      2.8158    641.4556      2.1359
  1144.7500    130.6174      0.0000      2.7235    639.7349      2.0882
  1145.0000    122.0984      0.0000      2.6799    634.5876      2.0457
  1145.2500    112.7356      0.0000      2.6740    622.7844      2.0123
  1145.5000    104.1729      0.0000      2.6931    602.2943      1.9838
  1145.7500     97.7964      0.0000      2.7201    575.9910      1.9629
  1146.0000     94.4546      0.0000      2.7320    552.5135      1.9683
  1146.2500     94.2699      0.0000      2.7106    541.3345      2.0221
  1146.5000     96.5878      0.0000      2.6586    546.3213      2.1248
  1146.7500    100.2514      0.0000      2.6011    564.2533      2.2456
  1147.0000    104.0622      0.0000      2.5666    588.0405      2.3398
  1147.2500    107.1930      0.0000      2.5669    610.4489      2.3764
  1147.5000    109.3709      0.0000      2.5929    626.7638      2.3521
  1147.7500    110.5980      0.0000      2.6233    636.0377      2.2833
  1148.0000    110.7667      0.0000      2.6404    640.1366      2.1929
  1148.2500    109.9850      0.0000      2.6427    641.5411      2.1051
  1148.5000    109.1704      0.0000      2.6471    641.9123      2.0410
  1148.7500    109.6547      0.0000      2.6791    641.9866      2.0126
  1149.0000    112.2441      0.0000      2.7594    642.0000      2.0183
  1149.2500    117.0901      0.0000      2.8934    642.0000      2.0449
  1149.5000    124.1501      0.0000      3.0658    642.0000      2.0760
  1149.7500    133.0033      0.0000      3.2463    642.0000      2.0995
  1150.0000    142.1392      0.0000      3.4048    642.0000      2.1127
  1150.2500    149.0393      0.0000      3.5280    642.0000      2.1195
  1150.5000    151.5812      0.0000      3.6229    642.0000      2.1246
  1150.7500    149.6936      0.0000      3.7099    642.0000      2.1309
  1151.0000    145.4368      0.0000      3.8142    642.0000      2.1423
  1151.2500    141.0128      0.0000      3.9526    642.0000      2.1635
  1151.5000    136.7574      0.0000      4.1185    642.0000      2.1939
  1151.7500    131.4009      0.0000      4.2753    642.0000      2.2250
  1152.0000    124.1219      0.0000      4.3783    642.0000      2.2455
  1152.2500    116.0320      0.0000      4.4079    642.0000      2.2505
  1152.5000    109.7192      0.0000      4.3781    642.0000      2.2436
  1152.7500    107.4315      0.0000      4.3100    642.0000      2.2334
  1153.0000    109.5483      0.0000      4.2062    642.0000      2.2292
  1153.2500    114.5588      0.0000      4.0579    642.0000      2.2393
  1153.5000    120.2544      0.0000      3.8741    642.0000      2.2658
  1153.7500    124.8533      0.0000      3.6990    642.0000      2.3010
  1154.0000    127.2909      0.0000      3.5939    642.0000      2.3290
  1154.2500    126.9550      0.0000      3.5931    642.0000      2.3357
  1154.5000    123.6665      0.0000      3.6761    642.0000      2.3191
  1154.7500    118.2340      0.0000      3.7827    642.0000      2.2952
  1155.0000    112.8332      0.0000      3.8609    642.0000      2.2894
  1155.2500    110.3712      0.0000      3.8998    642.0000      2.3121
  1155.5000    113.0644      0.0000      3.9212    642.0000      2.3432
  1155.7500    121.0951      0.0000      3.9501    642.0000      2.3488
  1156.0000    132.2998      0.0000      3.9997    642.0000      2.3179
  1156.2500    143.2537      0.0000      4.0721    642.0000      2.2733
  1156.5000    150.8844      0.0000      4.1603    642.0000      2.2432
  1156.7500    153.4100      0.0000      4.2481    642.0000      2.2345
  1157.0000    150.6533      0.0000      4.3186    642.0000      2.2394
  1157.2500    144.2843      0.0000      4.3600    642.0000      2.2547
  1157.5000    137.4947      0.0000      4.3698    641.9929      2.2825
  1157.7500    133.5014      0.0000      4.3542    641.9534      2.3210
  1158.0000    133.7021      0.0000      4.3272    641.7565      2.3644
  1158.2500    136.9688      0.0000      4.3020    641.0186      2.4112
  1158.5000    140.7093      0.0000      4.2782    638.8847      2.4634
  1158.7500    142.7586      0.0000      4.2360    634.1619      2.5165
  1159.0000    142.2666      0.0000      4.1563    626.2323      2.5580
  1159.2500    139.1910      0.0000      4.0572    616.3615      2.5799
  1159.5000    133.9445      0.0000      3.9972    607.9097      2.5887
  1159.7500    127.9268      0.0000      4.0303    604.5852      2.5974
  1160.0000    123.5391      0.0000      4.1709    607.9659      2.6088
  1160.2500    122.6850      0.0000      4.4059    616.3751      2.6115
  1160.5000    125.1674      2.7759      4.7184    625.8860      2.5923
  1160.7500    128.7456      1.2671      5.0964    632.5138      2.5507
  1161.0000    130.8910      0.0000      5.5352    633.6781      2.4991
  1161.2500    130.9209      0.0000      6.0380    628.4835      2.4530
  1161.5000    130.5933      0.0000      6.5872    618.3260      2.4218
  1161.7500    132.1371      0.0000      7.0988    607.8600      2.4066
  1162.0000    135.6265      0.0000      7.4352    603.3596      2.4021
  1162.2500    138.8351      0.0000      7.4949    607.9061      2.4001
  1162.5000    139.6014      0.0000      7.2884    618.5677      2.3954
  1162.7500    137.6019      0.0000      6.9121    629.4576      2.3900
  1163.0000    133.8781      0.0000      6.4624    636.7715      2.3904
  1163.2500    129.4717      0.0000      5.9872    640.3026      2.4007
  1163.5000    124.5817      0.0000      5.5042    641.5708      2.4165
  1163.7500    118.4292      0.0000      5.0339    641.9155      2.4248
  1164.0000    109.9732      0.0000      4.6045    641.9871      2.4098
  1164.2500     99.3537      0.0000      4.2308    641.9864      2.3631
  1164.5000     88.8440      0.0000      3.9074    641.8978      2.2927
  1164.7500     82.0657      0.0000      3.6289    641.4617      2.2193
  1165.0000     81.7603      0.0000      3.4125    639.7729      2.1660
  1165.2500     87.6937      0.0000      3.2934    634.7525      2.1514
  1165.5000     96.4034      0.0000      3.2995    623.4205      2.1874
  1165.7500    103.3797      0.0000      3.4295    604.4254      2.2729
  1166.0000    106.2499      0.0000      3.6495    581.9794      2.3880
  1166.2500    106.2657      0.0000      3.9024    566.2039      2.5020
  1166.5000    106.7564      0.0000      4.1247    566.2899      2.5890
  1166.7500    110.2422      0.0000      4.2660    582.1813      2.6347
  1167.0000    117.0283      0.0000      4.3050    604.6316      2.6325
  1167.2500    125.8333      0.0000      4.2501    623.5590      2.5809
  1167.5000    134.8252      0.0000      4.1278    634.8194      2.4859
  1167.7500    142.1390      0.0000      3.9708    639.7969      2.3621
  1168.0000    146.4690      0.0000      3.8129    641.4682      2.2311
  1168.2500    147.8439      0.0000      3.6833    641.8992      2.1169
  1168.5000    147.4444      0.0000      3.5937    641.9866      2.0391
  1168.7500    146.2816      0.0000      3.5319    642.0000      2.0024
  1169.0000    144.4228      0.0000      3.4724    642.0000      1.9973
  1169.2500    141.7013      0.0000      3.3981    642.0000      2.0130
  1169.5000    138.6670      0.0000      3.3097    642.0000      2.0451
  1169.7500    136.3636      0.0000      3.2172    642.0000      2.0893
