~Version Information
VERS.                      2.0: CWLS Log ASCII Standard - VERSION 2.0
WRAP.                       NO: One line per depth step
~Well Information Block
STRT.FT               236.5000: 
STOP.FT              2818.2500: 
STEP.FT                 0.2500: 
NULL.                -999.2500: 
COMP.          Pioneer Natural Resources: COMPANY
WELL.            Sebring 42-29: WELL
FLD.           Purgatorie River: FIELD
LOC.           1751' FNL & 584' FEL--: LOCATION
PROV.                       CO: PROVINCE
CNTY.               Las Animas: COUNTRY
SRVC.          Patterson Wireline: SERVICE COMPANY
DATE.          Fri Aug 26 09:14:13 2005: LOG DATE
UWI.           05 071 08293 00: UNIQUE WELL ID
~Curve Information Block
DEPT.FT            0 000 00 00: Depth
CCL.                          : Casing Collar Locator
TT3.usec                      : CBL 3' Travel Time
AMP3.mV                       : CBL 3' Amplitude
GR.GAPI                       : Gamma Ray
~Parameter Information Block
~A  Depth       CCL         TT3         AMP3         GR     
   236.5000   -999.2500   -999.2500   -999.2500     70.1114
   236.7500   -999.2500   -999.2500   -999.2500     74.9634
   237.0000   -999.2500   -999.2500   -999.2500     79.0157
   237.2500   -999.2500   -999.2500   -999.2500     80.7995
   237.5000   -999.2500   -999.2500   -999.2500     79.8969
   237.7500   -999.2500   -999.2500   -999.2500     77.2021
   238.0000   -999.2500   -999.2500   -999.2500     74.3224
   238.2500   -999.2500   -999.2500   -999.2500     72.3291
   238.5000   -999.2500   -999.2500   -999.2500     71.0301
   238.7500   -999.2500   -999.2500   -999.2500     69.7875
   239.0000   -999.2500   -999.2500   -999.2500     68.8497
   239.2500   -999.2500   -999.2500   -999.2500     69.3140
   239.5000   -999.2500   -999.2500   -999.2500     71.7408
   239.7500   -999.2500   -999.2500   -999.2500     75.1255
   240.0000   -999.2500   -999.2500   -999.2500     77.2824
   240.2500   -999.2500   -999.2500   -999.2500     76.3270
   240.5000   -999.2500   -999.2500   -999.2500     72.1973
   240.7500   -999.2500   -999.2500   -999.2500     67.0123
   241.0000   -999.2500   -999.2500   -999.2500     63.6942
   241.2500   -999.2500   -999.2500   -999.2500     63.9983
   241.5000   -999.2500   -999.2500   -999.2500     67.8485
   241.7500   -999.2500   1149.0000      1.7636     74.1609
   242.0000   -999.2500   1149.0000      1.7542     81.7220
   242.2500   -999.2500   1149.0000      1.7442     89.5004
   242.5000   -999.2500   1149.0000      1.7364     96.9056
   242.7500   -999.2500   1149.0000      1.7342    103.8037
   243.0000   -999.2500   1149.0000      1.7399    109.9246
   243.2500   -999.2500   1149.0000      1.7524    114.4596
   243.5000   -999.2500   1149.0000      1.7663    116.4374
   243.7500   -999.2500   1149.0000      1.7753    115.3476
   244.0000   -999.2500   1149.0000      1.7751    111.5686
   244.2500   -999.2500   1149.0000      1.7659    106.5421
   244.5000   -999.2500   1149.0000      1.7531    102.4074
   244.7500   -999.2500   1149.0000      1.7434    101.0156
   245.0000   -999.2500   1149.0000      1.7407    102.8015
   245.2500   -999.2500   1149.0000      1.7439    106.2207
   245.5000   -999.2500   1149.0000      1.7483    108.7077
   245.7500   -999.2500   1149.0000      1.7493    108.8200
   246.0000   -999.2500   1149.0000      1.7449    107.1794
   246.2500   -999.2500   1149.0000      1.7363    105.0718
   246.5000   -999.2500   1149.0000      1.7281    102.9269
   246.7500   -999.2500   1149.0000      1.7247    100.5313
   247.0000   -999.2500   1149.0000      1.7281     97.9948
   247.2500      0.0000   1149.0000      1.7365     95.9731
   247.5000      0.0000   1149.0000      1.7455     95.0414
   247.7500      0.0000   1149.0000      1.7513     94.9159
   248.0000      0.0000   1149.0000      1.7526     94.5378
   248.2500      0.0000   1149.0000      1.7509     93.3415
   248.5000      0.0000   1149.0000      1.7484     92.0797
   248.7500      0.0000   1149.0000      1.7474     91.6413
   249.0000      0.0000   1149.0000      1.7497     91.4498
   249.2500      0.0000   1149.0000      1.7556     90.0876
   249.5000      0.0000   1149.0000      1.7623     87.4120
   249.7500      0.0000   1149.0000      1.7657     84.8580
   250.0000      0.0000   1149.0000      1.7658     83.4891
   250.2500      0.0000   1149.0000      1.7665     82.7541
   250.5000      0.0000   1149.0000      1.7715     81.4857
   250.7500      0.0000   1149.0000      1.7804     79.4066
   251.0000      0.0000   1149.0000      1.7896     77.3875
   251.2500      0.0000   1149.0000      1.7947     76.6122
   251.5000      0.0000   1149.0000      1.7933     77.5803
   251.7500      0.0000   1149.0000      1.7859     79.7522
   252.0000      0.0000   1149.0000      1.7760     82.1989
   252.2500      0.0000   1149.0000      1.7677     84.6258
   252.5000      0.0000   1149.0000      1.7641     87.5787
   252.7500      0.0000   1149.0000      1.7678     91.6362
   253.0000      0.0000   1149.0000      1.7804     96.5173
   253.2500      0.0000   1149.0000      1.8002    100.9431
   253.5000      0.0000   1149.0000      1.8210    103.5058
   253.7500      0.0000   1149.0000      1.8352    103.8784
   254.0000      0.0000   1149.0000      1.8384    102.9791
   254.2500      0.0000   1149.0000      1.8318    101.8564
   254.5000      0.0000   1149.0000      1.8210    100.6991
   254.7500      0.0000   1149.0000      1.8108     99.0241
   255.0000      0.0000   1149.0000      1.8023     96.6022
   255.2500      0.0000   1149.0000      1.7965     93.9840
   255.5000      0.0000   1149.0000      1.7962     92.1279
   255.7500      0.0000   1149.0000      1.8039     91.8027
   256.0000      0.0000   1149.0000      1.8185     93.2232
   256.2500      0.0000   1149.0000      1.8350     95.6163
   256.5000      0.0000   1149.0000      1.8469     97.0296
   256.7500      0.0000   1149.0000      1.8495     95.4140
   257.0000      0.0000   1149.0000      1.8426     90.5412
   257.2500      0.0000   1149.0000      1.8306     84.6240
   257.5000      0.0000   1149.0000      1.8187     80.6797
   257.7500      0.0000   1149.0000      1.8091     80.3126
   258.0000      0.0000   1149.0000      1.8030     82.9719
   258.2500      0.0000   1149.0000      1.8024     86.9025
   258.5000      0.0000   1149.0000      1.8085     90.3985
   258.7500      0.0000   1149.0000      1.8203     92.3774
   259.0000      0.0000   1149.0000      1.8339     92.4670
   259.2500      0.0000   1149.0000      1.8439     90.9342
   259.5000      0.0000   1149.0000      1.8466     88.2855
   259.7500      0.0000   1149.0000      1.8418     84.8023
   260.0000      0.0000   1149.0000      1.8325     80.8052
   260.2500      0.0000   1149.0000      1.8228     77.3683
   260.5000      0.0000   1149.0000      1.8166     75.9258
   260.7500      0.0000   1149.0000      1.8152     76.7168
   261.0000      0.0000   1149.0000      1.8162     78.1378
   261.2500      0.0000   1149.0000      1.8153     78.0867
   261.5000      0.0000   1149.0000      1.8093     75.7613
   261.7500      0.0000   1149.0000      1.7990     71.9899
   262.0000      0.0000   1149.0000      1.7889     68.1846
   262.2500      0.0000   1149.0000      1.7846     65.4003
   262.5000      0.0000   1149.0000      1.7889     64.3615
   262.7500      0.0000   1149.0000      1.7991     65.7558
   263.0000      0.0000   1149.0000      1.8100     69.7621
   263.2500      0.0000   1149.0000      1.8173     75.2057
   263.5000      0.0000   1149.0000      1.8208     79.6338
   263.7500      0.0000   1149.0000      1.8232     80.6862
   264.0000      0.0000   1149.0000      1.8270     77.8067
   264.2500      0.0000   1149.0000      1.8328     72.7925
   264.5000      0.0000   1149.0000      1.8396     68.4558
   264.7500      0.0000   1149.0000      1.8468     66.5222
   265.0000      0.0000   1149.0000      1.8532     66.7718
   265.2500      0.0000   1149.0000      1.8562     67.9567
   265.5000      0.0000   1149.0000      1.8537     69.1450
   265.7500      0.0000   1149.0000      1.8467     70.3046
   266.0000      0.0000   1149.0000      1.8388     72.0044
   266.2500      0.0000   1149.0000      1.8316     74.5740
   266.5000      0.0000   1149.0000      1.8242     77.5034
   266.7500      0.0000   1149.0000      1.8162     79.8408
   267.0000      0.0000   1149.0000      1.8100     81.2063
   267.2500      0.0000   1149.0000      1.8091     82.1802
   267.5000      0.0000   1149.0000      1.8149     83.5856
   267.7500      0.0000   1149.0000      1.8253     85.4791
   268.0000      0.0000   1149.0000      1.8366     87.0041
   268.2500      0.0000   1149.0000      1.8442     87.3760
   268.5000      0.0000   1149.0000      1.8450     87.0374
   268.7500      0.0000   1149.0000      1.8399     87.4749
   269.0000      0.0000   1149.0000      1.8326     89.4733
   269.2500      0.0000   1149.0000      1.8266     91.6717
   269.5000      0.0000   1149.0000      1.8215     91.4241
   269.7500      0.0000   1149.0000      1.8156     87.2211
