~Version Information
VERS.                      2.0: CWLS Log ASCII Standard - VERSION 2.0
WRAP.                       NO: One line per depth step
~Well Information Block
STRT.FT               675.0000: 
STOP.FT              2373.5000: 
STEP.FT                 0.2500: 
NULL.                -999.2500: 
COMP.          Pioneer Natural Resources: COMPANY
WELL.            Harrier 44-33: WELL
FLD.           Purgatoire River: FIELD
LOC.           456' FSL & 930' FEL: LOCATION
PROV.                 Colorado: PROVINCE
CNTY.               Las Animas: COUNTRY
SRVC.                Patterson: SERVICE COMPANY
DATE.          Mon Jun 20 07:40:56 2005: LOG DATE
UWI.           05 071 08398 00: UNIQUE WELL ID
~Curve Information Block
DEPT.FT            0 000 00 00: Depth
SN.Ohm-m                      : IEL Short Normal
SP.mV                         : IEL Spontaneous Potential
DIR.Ohm-m                     : IEL Induction Resistivity
GR.GAPI                       : Gamma Ray
~Parameter Information Block
~A  Depth        SN          SP         DIR          GR     
# ...
   909.5000   2000.0000   2000.0000      8.5260    132.8345
   909.7500   2000.0000   2000.0000      8.5209    130.0853
   910.0000   2000.0000   2000.0000      8.5321    124.3683
   910.2500   2000.0000   2000.0000      8.5693    119.7526
   910.5000   2000.0000   2000.0000      8.6466    113.1259
   910.7500   2000.0000   2000.0000      8.7749    110.0785
   911.0000   2000.0000   2000.0000      8.9549    108.9898
   911.2500   2000.0000   2000.0000      9.1743    110.5772
   911.5000   2000.0000   2000.0000      9.4123    114.8437
   911.7500   2000.0000   2000.0000      9.6454    117.5474
   912.0000   2000.0000   2000.0000      9.8533    119.4336
   912.2500   2000.0000   2000.0000     10.0223    118.8489
   912.5000   2000.0000   2000.0000     10.1467    115.9491
   912.7500   2000.0000   2000.0000     10.2305    113.6611
   913.0000   2000.0000   2000.0000     10.2877    111.5284
   913.2500   2000.0000   2000.0000     10.3385    111.6403
   913.5000   2000.0000   2000.0000     10.4037    113.9803
   913.7500   2000.0000   2000.0000     10.5006    116.2637
   914.0000   2000.0000   2000.0000     10.6419    119.3733
   914.2500   2000.0000   2000.0000     10.8358    120.8238
   914.5000   2000.0000   2000.0000     11.0858    122.0539
   914.7500   2000.0000   2000.0000     11.3908    122.3337
   915.0000   2000.0000   2000.0000     11.7444    122.0798
   915.2500   2000.0000   2000.0000     12.1358    121.5920
   915.5000   2000.0000   2000.0000     12.5498    120.2757
   915.7500   2000.0000   2000.0000     12.9676    118.4226
   916.0000   2000.0000   2000.0000     13.3703    112.7030
   916.2500   2000.0000   2000.0000     13.7453    106.5767
   916.5000   2000.0000   2000.0000     14.0944     95.3311
   916.7500   2000.0000   2000.0000     14.4383     88.3635
   917.0000   2000.0000   2000.0000     14.8116     82.3364
   917.2500   2000.0000   2000.0000     15.2514     82.5947
   917.5000   2000.0000   2000.0000     15.7857     89.2168
   917.7500   2000.0000   2000.0000     16.4296     96.3750
   918.0000   2000.0000   2000.0000     17.1849    107.7372
   918.2500   2000.0000   2000.0000     18.0390    113.8437
   918.5000   2000.0000   2000.0000     18.9565    119.0190
   918.7500   2000.0000   2000.0000     19.8720    119.8904
   919.0000   2000.0000   2000.0000     20.6981    118.8127
   919.2500   2000.0000   2000.0000     21.3575    117.4881
   919.5000   2000.0000   2000.0000     21.8184    115.5908
   919.7500   2000.0000   2000.0000     22.0989    114.6027
   920.0000   2000.0000   2000.0000     22.2343    113.8440
   920.2500   2000.0000   2000.0000     22.2416    114.1002
   920.5000   2000.0000   2000.0000     22.1150    115.9641
   920.7500   2000.0000   2000.0000     21.8523    118.0560
   921.0000   2000.0000   2000.0000     21.4775    121.4999
   921.2500   2000.0000   2000.0000     21.0341    123.1608
   921.5000   2000.0000   2000.0000     20.5560    123.4305
   921.7500   2000.0000   2000.0000     20.0468    121.9211
   922.0000   2000.0000   2000.0000     19.4872    118.1116
   922.2500   2000.0000   2000.0000     18.8625    115.7579
   922.5000   2000.0000   2000.0000     18.1851    114.7417
   922.7500   2000.0000   2000.0000     17.4896    116.4596
   923.0000   2000.0000   2000.0000     16.8120    121.9289
   923.2500   2000.0000   2000.0000     16.1710    126.1262
   923.5000   2000.0000   2000.0000     15.5667    130.9139
   923.7500   2000.0000   2000.0000     14.9901    132.5979
   924.0000   2000.0000   2000.0000     14.4338    133.3124
   924.2500   2000.0000   2000.0000     13.8975    132.9763
   924.5000   2000.0000   2000.0000     13.3870    131.7564
   924.7500   2000.0000   2000.0000     12.9097    130.8998
   925.0000   2000.0000   2000.0000     12.4712    130.5463
   925.2500   2000.0000   2000.0000     12.0747    131.2966
   925.5000   2000.0000   2000.0000     11.7210    133.7121
   925.7500   2000.0000   2000.0000     11.4077    135.7418
   926.0000   2000.0000   2000.0000     11.1273    138.6120
   926.2500   2000.0000   2000.0000     10.8681    139.9846
   926.5000   2000.0000   2000.0000     10.6174    140.5839
   926.7500   2000.0000   2000.0000     10.3688    139.8694
   927.0000   2000.0000   2000.0000     10.1258    137.6406
   927.2500   2000.0000   2000.0000      9.9013    135.9972
   927.5000   2000.0000   2000.0000      9.7110    134.2265
   927.7500   2000.0000   2000.0000      9.5655    133.7427
   928.0000   2000.0000   2000.0000      9.4648    133.9779
   928.2500   2000.0000   2000.0000      9.3977    134.6359
   928.5000   2000.0000   2000.0000      9.3467    136.1884
   928.7500   2000.0000   2000.0000      9.2940    137.4581
   929.0000   2000.0000   2000.0000      9.2272    139.2646
   929.2500   2000.0000   2000.0000      9.1434    140.1082
   929.5000   2000.0000   2000.0000      9.0496    140.6571
   929.7500   2000.0000   2000.0000      8.9602    140.7304
   930.0000   2000.0000   2000.0000      8.8923    140.9224
   930.2500   2000.0000   2000.0000      8.8608    141.1967
   930.5000   2000.0000   2000.0000      8.8741    141.2781
   930.7500   2000.0000   2000.0000      8.9331    140.6214
   931.0000   2000.0000   2000.0000      9.0312    138.3891
   931.2500   2000.0000   2000.0000      9.1565    136.5589
   931.5000   2000.0000   2000.0000      9.2934    134.4248
   931.7500   2000.0000   2000.0000      9.4239    133.5731
   932.0000   2000.0000   2000.0000      9.5292    132.2805
   932.2500   2000.0000   2000.0000      9.5917    130.7611
   932.5000   2000.0000   2000.0000      9.5996    127.3865
   932.7500   2000.0000   2000.0000      9.5504    124.9363
   933.0000   2000.0000   2000.0000      9.4531    121.6783
   933.2500   2000.0000   2000.0000      9.3244    119.6300
   933.5000   2000.0000   2000.0000      9.1841    116.2495
   933.7500   2000.0000   2000.0000      9.0494    114.2149
   934.0000   2000.0000   2000.0000      8.9309    113.7168
   934.2500   2000.0000   2000.0000      8.8320    116.3160
   934.5000   2000.0000   2000.0000      8.7491    124.5405
   934.7500   2000.0000   2000.0000      8.6747    131.4339
   935.0000   2000.0000   2000.0000      8.6024    140.5245
   935.2500   2000.0000   2000.0000      8.5299    144.3754
   935.5000   2000.0000   2000.0000      8.4593    146.4082
   935.7500   2000.0000   2000.0000      8.3930    145.8791
   936.0000   2000.0000   2000.0000      8.3305    143.6037
   936.2500   2000.0000   2000.0000      8.2686    141.6542
   936.5000   2000.0000   2000.0000      8.2051    138.7532
   936.7500   2000.0000   2000.0000      8.1412    137.2489
   937.0000   2000.0000   2000.0000      8.0828    136.3135
   937.2500   2000.0000   2000.0000      8.0372    136.7560
   937.5000   2000.0000   2000.0000      8.0113    138.8349
   937.7500   2000.0000   2000.0000      8.0103    140.8626
   938.0000   2000.0000   2000.0000      8.0366    144.3354
   938.2500   2000.0000   2000.0000      8.0905    146.7227
   938.5000   2000.0000   2000.0000      8.1696    150.0867
   938.7500   2000.0000   2000.0000      8.2694    151.8853
   939.0000   2000.0000   2000.0000      8.3836    153.1745
   939.2500   2000.0000   2000.0000      8.5053    152.7104
   939.5000   2000.0000   2000.0000      8.6279    149.8669
   939.7500   2000.0000   2000.0000      8.7457    146.8089
   940.0000   2000.0000   2000.0000      8.8542    141.3226
   940.2500   2000.0000   2000.0000      8.9523    137.5311
   940.5000   2000.0000   2000.0000      9.0444    132.0839
   940.7500   2000.0000   2000.0000      9.1425    128.7509
   941.0000   2000.0000   2000.0000      9.2611    124.6674
   941.2500   2000.0000   2000.0000      9.4103    122.9846
   941.5000   2000.0000   2000.0000      9.5906    122.4556
   941.7500   2000.0000   2000.0000      9.7934    123.2257
   942.0000   2000.0000   2000.0000     10.0073    124.9904
   942.2500   2000.0000   2000.0000     10.2233    125.7790
   942.5000   2000.0000   2000.0000     10.4369    125.3015
   942.7500   2000.0000   2000.0000     10.6456    123.7523
