~Version Information
VERS.                      2.0: CWLS Log ASCII Standard - VERSION 2.0
WRAP.                       NO: One line per depth step
~Well Information Block
STRT.FT               260.0000: 
STOP.FT              1200.5000: 
STEP.FT                 0.2500: 
NULL.                -999.2500: 
COMP.          Evergreen Operating Corporation: COMPANY
WELL.             Justin 32-10: WELL
FLD.           Purgatorie River: FIELD
LOC.           2994' FNL & 1449' FEL: LOCATION
PROV.                 Colorado: PROVINCE
CNTY.               Las Animas: COUNTRY
SRVC.                         : SERVICE COMPANY
DATE.          Sun Aug 29 20:47:20 2004: LOG DATE
UWI.           05 071 08053 00: UNIQUE WELL ID
~Curve Information Block
DEPT.FT            0 000 00 00: Depth
LTEN.lb                       : Surface Line Tension
SN.Ohm-m                      : IEL Short Normal
SP.mV                         : IEL Spontaneous Potential
DIR.Ohm-m                     : IEL Induction Resistivity
GR.GAPI                       : Gamma Ray
~Parameter Information Block
~A  Depth       LTEN         SN          SP         DIR          GR     
# ...
   680.0000    692.2856   2000.0000   2000.0000     15.7192    128.2173
   680.2500    691.8686   2000.0000   2000.0000     15.4284    125.5240
   680.5000    690.6147   2000.0000   2000.0000     15.1362    120.4063
   680.7500    690.3440   2000.0000   2000.0000     14.8621    117.5794
   681.0000    692.1120   2000.0000   2000.0000     14.6229    116.8125
   681.2500    695.6563   2000.0000   2000.0000     14.4245    119.3423
   681.5000    700.1949   2000.0000   2000.0000     14.2605    126.5742
   681.7500    704.7886   2000.0000   2000.0000     14.1185    131.9430
   682.0000    707.8417   2000.0000   2000.0000     13.9903    137.4771
   682.2500    707.3740   2000.0000   2000.0000     13.8731    138.2556
   682.5000    702.7087   2000.0000   2000.0000     13.7671    135.3260
   682.7500    695.6039   2000.0000   2000.0000     13.6747    132.0019
   683.0000    689.0950   2000.0000   2000.0000     13.6047    127.5756
   683.2500    685.0935   2000.0000   2000.0000     13.5762    125.8284
   683.5000    683.2655     18.5162   2000.0000     13.6168    124.9933
   683.7500    682.1302     18.7796   2000.0000     13.7509    125.0406
   684.0000    680.7465     19.1428   2000.0000     13.9830    124.6232
   684.2500    679.0904     19.6050   2000.0000     14.2882    123.3981
   684.5000    677.3412     20.1453      8.0430     14.6185    119.9827
   684.7500    675.5042     20.7233      8.0785     14.9277    116.8855
   685.0000    673.7517     21.2859      7.9938     15.1964    111.1876
   685.2500    672.4854     21.7789      7.8382     15.4381    106.6965
   685.5000    671.7190     22.1561      7.6446     15.6765     99.5777
   685.7500    670.7952     22.3811      7.4284     15.9108     95.4885
   686.0000    669.0444     22.4256      7.1934     16.0911     91.9417
   686.2500    666.4554     22.2703      6.9354     16.1279     91.5891
   686.5000    663.4921     21.9100      6.6514     15.9418     93.0916
   686.7500    660.5019     21.3574      6.3447     15.5199     94.5323
   687.0000    657.5933     20.6399      6.0313     14.9252     96.5760
   687.2500    654.9518     19.7936      5.7403     14.2482     98.0696
   687.5000    652.8984     18.8632      5.5056     13.5535    101.0779
   687.7500    651.4796     17.9056      5.3594     12.8662    103.5681
   688.0000    650.2558     16.9880      5.3190     12.1916    107.5443
   688.2500    648.8152     16.1728      5.3789     11.5371    110.1775
   688.5000    647.4631     15.4994      5.5106     10.9179    114.0691
   688.7500    647.1208     14.9744      5.6689     10.3488    116.6549
   689.0000    648.3471     14.5753      5.8089      9.8370    120.6679
   689.2500    650.5480     14.2640      5.9016      9.3827    123.4943
   689.5000    652.3063     14.0027      5.9476      8.9848    127.4881
   689.7500    652.4158     13.7641      5.9815      8.6448    129.4079
   690.0000    650.6017     13.5377      6.0605      8.3648    130.7490
   690.2500    647.4823     13.3285      6.2446      8.1429    131.0871
   690.5000    644.0850     13.1507      6.5699      7.9711    132.0662
   690.7500    641.4068     13.0173      7.0305      7.8366    133.4117
   691.0000    640.2113     12.9306      7.5726      7.7272    136.0730
   691.2500    640.8463     12.8777      8.1054      7.6349    137.6765
   691.5000    642.9546     12.8380      8.5283      7.5580    138.8430
   691.7500    645.3417     12.7953      8.7597      7.4987    138.5471
   692.0000    646.3812     12.7490      8.7579      7.4597    136.7368
   692.2500    644.9109     12.7120      8.5313      7.4413    134.9878
   692.5000    641.0699     12.7005      8.1276      7.4402    132.3809
   692.7500    636.4144     12.7217      7.6207      7.4507    131.1729
   693.0000    632.9648     12.7691      7.0858      7.4656    130.5112
   693.2500    631.7974     12.8236      6.5861      7.4785    130.4381
   693.5000    632.4979     12.8576      6.1634      7.4872    129.7176
   693.7500    633.8013     12.8410      5.8382      7.4948    128.5714
   694.0000    634.2676     12.7503      5.6114      7.5074    126.6345
   694.2500    632.6064     12.5793      5.4687      7.5282    125.9529
   694.5000    628.4004     12.3440      5.3847      7.5556    126.5370
   694.7500    622.7164     12.0782      5.3259      7.5873    127.8731
   695.0000    617.4105     11.8223      5.2546      7.6231    130.5972
   695.2500    613.7006     11.6080      5.1335      7.6637    132.4321
   695.5000    611.5875     11.4442      4.9329      7.7032    134.3397
   695.7500    610.3330     11.3128      4.6379      7.7251    134.5122
   696.0000    609.1259     11.1769      4.2540      7.7092    132.6426
   696.2500    607.3782     11.0026      3.8105      7.6448    130.3358
   696.5000    604.8146     10.7812      3.3578      7.5397    127.0290
   696.7500    601.6565     10.5358      2.9622      7.4149    125.9837
   697.0000    598.7707     10.3090      2.6972      7.2919    126.5709
   697.2500    597.2792     10.1413      2.6287      7.1849    127.7248
   697.5000    597.6101     10.0538      2.8049      7.0997    129.0662
   697.7500    598.9530     10.0437      3.2473      7.0371    129.1860
   698.0000    600.0101     10.0870      3.9418      6.9951    128.2020
   698.2500    600.3704     10.1486      4.8392      6.9711    127.1615
   698.5000    600.6658     10.1967      5.8582      6.9618    126.0632
   698.7500    601.0659     10.2158      6.8932      6.9648    126.1890
   699.0000    600.1948     10.2086      7.8279      6.9777    127.9429
   699.2500    596.3327     10.1870      8.5545      6.9965    129.7919
   699.5000    589.5924     10.1598      8.9940      7.0138    132.5094
   699.7500    582.2512     10.1296      9.1134      7.0202    133.8479
   700.0000    576.7460     10.0971      8.9355      7.0090    135.1702
   700.2500    573.6628     10.0666      8.5343      6.9814    135.8754
   700.5000    571.8719     10.0438      8.0204      6.9472    136.9899
   700.7500    570.3116     10.0283      7.5117      6.9192    137.6887
   701.0000    569.2352     10.0068      7.1037      6.9050    138.1285
   701.2500    569.7627      9.9595      6.8513      6.9035    137.6344
   701.5000    572.5991      9.8782      6.7583      6.9084    135.3553
   701.7500    577.1799      9.7817      6.7907      6.9161    132.9420
   702.0000    581.8205      9.7116      6.8950      6.9295    128.7860
   702.2500    584.8010      9.7073      7.0273      6.9554    126.2621
   702.5000    585.5211      9.7800      7.1676      6.9983    123.5026
   702.7500    584.5056      9.9070      7.3247      7.0570    122.2646
   703.0000    582.4584     10.0486      7.5252      7.1266    120.5950
   703.2500    579.8745     10.1730      7.7943      7.2050    119.3222
   703.5000    577.4172     10.2694      8.1342      7.2966    117.4212
   703.7500    575.8892     10.3457      8.5134      7.4107    116.4789
   704.0000    575.7055     10.4155      8.8716      7.5543    115.6426
   704.2500    576.7756     10.4872      9.1324      7.7246    115.1951
   704.5000    578.7986     10.5589      9.2251      7.9090    114.0953
   704.7500    581.2819     10.6223      9.1055      8.0927    112.8515
   705.0000    583.3975     10.6738      8.7619      8.2683    110.0802
   705.2500    584.3076     10.7325      8.2179      8.4400    107.6174
   705.5000    583.7742     10.8544      7.5240      8.6220    103.0323
   705.7500    582.2841     11.1304      6.7467      8.8374     99.5760
   706.0000    580.5291     11.6574      5.9562      9.1190     94.8988
   706.2500    578.8470     12.4900      5.2206      9.5073     93.2001
   706.5000    577.2119     13.6030      4.5943     10.0440     94.4604
   706.7500    575.6266     14.8955      4.1137     10.7588     98.0984
   707.0000    574.3353     16.2388      3.7907     11.6558    106.5812
   707.2500    573.6593     17.5409      3.6128     12.7001    112.8989
   707.5000    573.7310     18.7821      3.5485     13.8143    120.7830
   707.7500    574.4145     20.0065      3.5586     14.8978    123.7588
