~Version Information
VERS.                      2.0: CWLS Log ASCII Standard - VERSION 2.0
WRAP.                       NO: One line per depth step
~Well Information Block
STRT.FT               554.0000: 
STOP.FT              1002.0000: 
STEP.FT                 0.1000: 
NULL.                -999.2500: 
COMP.          Pioneer Natural Resources: COMPANY
WELL.          Rising Star 22-11: WELL
FLD.           Purgatoire River: FIELD
LOC.           2152' FNL & 2105' FWL: LOCATION
PROV.                 Colorado: PROVINCE
CNTY.               Las Animas: COUNTRY
SRVC.                Patterson: SERVICE COMPANY
DATE.          Mon Apr 11 16:46:53 2005: LOG DATE
UWI.           05 071 08354 00: UNIQUE WELL ID
~Curve Information Block
DEPT.FT            0 000 00 00: Depth
DCAL.in                       : CDL Caliper
RHOB.g/cc                     : CDL Bulk Density
RHOC.g/cc                     : CDL Density Correction
DPOR.pu                       : CDL Density Porosity
GR.GAPI                       : Gamma Ray
NPOR.pu                       : Neutron Porosity
~Parameter Information Block
~A  Depth       DCAL        RHOB        RHOC        DPOR         GR         NPOR    
# ...
   986.0000      7.8789      2.5337      0.0483      7.0488   -999.2500     22.7464
   986.1000      7.8789      2.5642      0.1471      5.1981   -999.2500     22.9838
   986.2000      7.8789      2.5651      0.0956      5.1433   -999.2500     23.7317
   986.3000      7.8756      2.5421      0.0254      6.5373   -999.2500     24.5399
   986.4000      7.8756      2.5251      0.0145      7.5720   -999.2500     25.1897
   986.5000      7.8683      2.5260      0.0148      7.5144   -999.2500     25.5119
   986.6000      7.8683      2.5416      0.0257      6.5668   -999.2500     25.2641
   986.7000      7.8683      2.5672      0.0608      5.0201   -999.2500     24.6341
   986.8000      7.8700      2.5911      0.0549      3.5668   -999.2500     24.1109
   986.9000      7.8700      2.5937      0.0867      3.4107   -999.2500     24.1680
   987.0000      7.8847      2.5717      0.0186      4.7439   -999.2500     24.9267
   987.1000      7.8847      2.5505      0.0459      6.0299   -999.2500     26.9827
   987.2000      7.8847      2.5463      0.0621      6.2830   -999.2500     32.6891
   987.3000      7.8813      2.5535      0.0751      5.8491   -999.2500     41.5634
   987.4000      7.8813      2.5576      0.0981      5.6016   -999.2500     48.0920
   987.5000      7.8826      2.5520      0.0646      5.9410   -999.2500     50.4999
   987.6000      7.8826      2.5469      0.0365      6.2459   -999.2500     50.9782
   987.7000      7.8826      2.5413      0.0830      6.5880   -999.2500     51.0292
   987.8000      7.8635      2.5204      0.0782      7.8522   -999.2500     51.0321
   987.9000      7.8635      2.4946      0.0098      9.4201   -999.2500   -999.2500
   988.0000      7.8569      2.4863      0.0265      9.9207   -999.2500   -999.2500
   988.1000      7.8569      2.4901      0.0640      9.6937   -999.2500   -999.2500
   988.2000      7.8569      2.4964      0.0282      9.3085   -999.2500   -999.2500
   988.3000      7.8707      2.5179      0.0312      8.0060   -999.2500   -999.2500
   988.4000      7.8707      2.5526      0.1007      5.9005   -999.2500   -999.2500
   988.5000      7.8208      2.5788      0.1218      4.3169   -999.2500   -999.2500
   988.6000      7.8208      2.5905      0.1116      3.6031   -999.2500   -999.2500
   988.7000      7.8208      2.6012      0.1147      2.9605   -999.2500   -999.2500
   988.8000      7.8253      2.6095      0.1411      2.4535   -999.2500   -999.2500
   988.9000      7.8253      2.6031      0.0756      2.8437   -999.2500   -999.2500
   989.0000      7.8549      2.5885      0.0653      3.7249   -999.2500   -999.2500
   989.1000      7.8549      2.5748      0.0798      4.5574   -999.2500   -999.2500
   989.2000      7.8549      2.5570      0.0134      5.6391   -999.2500   -999.2500
   989.3000      7.8600      2.5415      0.0057      6.5773   -999.2500   -999.2500
   989.4000      7.8600      2.5428      0.0254      6.4951   -999.2500   -999.2500
   989.5000      7.8483      2.5562      0.0583      5.6865   -999.2500   -999.2500
   989.6000      7.8483      2.5591      0.0701      5.5069   -999.2500   -999.2500
   989.7000      7.8483      2.5468      0.0240      6.2565   -999.2500   -999.2500
   989.8000      7.8426      2.5428      0.0250      6.4961   -999.2500   -999.2500
   989.9000      7.8426      2.5630      0.0353      5.2728   -999.2500   -999.2500
   990.0000      7.8583      2.5891      0.0841      3.6897   -999.2500   -999.2500
   990.1000      7.8583      2.5965      0.0767      3.2434   -999.2500   -999.2500
   990.2000      7.8583      2.5863      0.0453      3.8588   -999.2500   -999.2500
   990.3000      7.8554      2.5736      0.0417      4.6281   -999.2500   -999.2500
   990.4000      7.8554      2.5623      0.0489      5.3162   -999.2500   -999.2500
   990.5000      7.8772      2.5526      0.0065      5.9020   -999.2500   -999.2500
   990.6000      7.8772      2.5467      0.0264      6.2603   -999.2500   -999.2500
   990.7000      7.8772      2.5384      0.0184      6.7665   -999.2500   -999.2500
   990.8000      7.8584      2.5292     -0.0267      7.3212   -999.2500   -999.2500
   990.9000      7.8584      2.5323      0.0423      7.1342   -999.2500   -999.2500
   991.0000      7.8685      2.5523      0.0206      5.9238   -999.2500   -999.2500
   991.1000      7.8685      2.5858      0.0403      3.8935   -999.2500   -999.2500
   991.2000      7.8685      2.6172      0.1080      1.9863   -999.2500   -999.2500
   991.3000      7.8525      2.6248      0.0777      1.5258   -999.2500   -999.2500
   991.4000      7.8525      2.6108      0.0597      2.3740   -999.2500   -999.2500
   991.5000      7.8312      2.5981      0.0617      3.1477   -999.2500   -999.2500
   991.6000      7.8312      2.5956      0.0929      3.2945   -999.2500   -999.2500
   991.7000      7.8312      2.5970      0.0788      3.2132   -999.2500   -999.2500
   991.8000      7.8279      2.6080      0.0526      2.5428   -999.2500   -999.2500
   991.9000      7.8279      2.6328      0.1028      1.0451   -999.2500   -999.2500
   992.0000      7.8233      2.6444      0.1295      0.3366   -999.2500   -999.2500
   992.1000      7.8233      2.6235      0.0671      1.6091   -999.2500   -999.2500
   992.2000      7.8233      2.5900      0.0466      3.6346   -999.2500   -999.2500
   992.3000      7.8543      2.5701      0.0319      4.8414   -999.2500   -999.2500
   992.4000      7.8543      2.5703      0.0362      4.8323   -999.2500   -999.2500
   992.5000      7.8655      2.5754      0.0703      4.5217   -999.2500   -999.2500
   992.6000      7.8655      2.5649      0.0048      5.1562   -999.2500   -999.2500
   992.7000      7.8655      2.5451     -0.0133      6.3595   -999.2500   -999.2500
   992.8000      7.8726      2.5351      0.0225      6.9657   -999.2500   -999.2500
   992.9000      7.8726      2.5393      0.0335      6.7072   -999.2500   -999.2500
   993.0000      7.8758      2.5516      0.0823      5.9626   -999.2500   -999.2500
   993.1000      7.8758      2.5608      0.0288      5.4050   -999.2500   -999.2500
   993.2000      7.8758      2.5602      0.0257      5.4423   -999.2500   -999.2500
   993.3000      7.8833      2.5556      0.0215      5.7222   -999.2500   -999.2500
   993.4000      7.8833      2.5552      0.0282      5.7469   -999.2500   -999.2500
   993.5000      7.8862      2.5575      0.0679      5.6032   -999.2500   -999.2500
   993.6000      7.8862      2.5557      0.0385      5.7131   -999.2500   -999.2500
   993.7000      7.8862      2.5482      0.0262      6.1698   -999.2500   -999.2500
   993.8000      7.8871      2.5371      0.0245      6.8445   -999.2500   -999.2500
   993.9000      7.8871      2.5245      0.0214      7.6049   -999.2500   -999.2500
   994.0000      7.8890      2.5155      0.0319      8.1530   -999.2500   -999.2500
   994.1000      7.8890      2.5174      0.0417      8.0381   -999.2500   -999.2500
   994.2000      7.8890      2.5253      0.0449      7.5588   -999.2500   -999.2500
   994.3000      7.8910      2.5270      0.0116      7.4575   -999.2500   -999.2500
   994.4000      7.8910      2.5232      0.0065      7.6861   -999.2500   -999.2500
   994.5000      7.8791      2.5209      0.0319      7.8235   -999.2500   -999.2500
   994.6000      7.8791      2.5235      0.0775      7.6681   -999.2500   -999.2500
   994.7000      7.8791      2.5335      0.0336      7.0589   -999.2500   -999.2500
   994.8000      7.8687      2.5523      0.0811      5.9231   -999.2500   -999.2500
   994.9000      7.8687      2.5719      0.0751      4.7359   -999.2500   -999.2500
   995.0000      7.8604      2.5801      0.1137      4.2382   -999.2500   -999.2500
   995.1000      7.8604      2.5782      0.0503      4.3508   -999.2500   -999.2500
   995.2000      7.8604      2.5802      0.0458      4.2274   -999.2500   -999.2500
   995.3000      7.8544      2.5889      0.0494      3.7024   -999.2500   -999.2500
   995.4000      7.8544      2.5894      0.0942      3.6718   -999.2500   -999.2500
   995.5000      7.8541      2.5742      0.0407      4.5923   -999.2500   -999.2500
