~Version Information
VERS.                      2.0: CWLS Log ASCII Standard - VERSION 2.0
WRAP.                       NO: One line per depth step
~Well Information Block
STRT.FT               577.8000: 
STOP.FT              2445.8000: 
STEP.FT                 0.1000: 
NULL.                -999.2500: 
COMP.          Petrogulf Corporation: COMPANY
WELL.             State 16-32V: WELL
FLD.           Purgatorie River: FIELD
LOC.           1599' FNL & 1783' FEL: LOCATION
CNTY.               Las Animas: COUNTY
SRVC.                         : SERVICE COMPANY
DATE.          Thu Jun 05 16:36:04 2003: LOG DATE
UWI.           05 071 07726 00: UNIQUE WELL ID
STAT.                 Colorado: STATE
~Curve Information Block
DEPT.FT            0 000 00 00: Depth
DCAL.in                       : Caliper from Density Tool
RHOB.g/cc                     : Bulk Density
RHOC.g/cc                     : Density Correction
DPOR.pu                       : Density Porosity
GR.GAPI                       : Gamma Ray
NPOR.pu                       : Neutron Porosity
~Parameter Information Block
~A  Depth       DCAL        RHOB        RHOC        DPOR         GR         NPOR    
# ...
   587.4000   -999.2500   -999.2500   -999.2500   -999.2500     69.6353     50.2173
   587.5000   -999.2500   -999.2500   -999.2500   -999.2500     67.1834     49.7865
   587.6000   -999.2500   -999.2500   -999.2500   -999.2500     64.7076     49.2071
   587.7000   -999.2500   -999.2500   -999.2500   -999.2500     62.2815     48.5036
   587.8000   -999.2500   -999.2500   -999.2500   -999.2500     59.9964     47.7095
   587.9000   -999.2500   -999.2500   -999.2500   -999.2500     57.9539     46.8634
   588.0000   -999.2500   -999.2500   -999.2500   -999.2500     56.2524     46.0056
   588.1000   -999.2500   -999.2500   -999.2500   -999.2500     54.9725     45.1747
   588.2000   -999.2500   -999.2500   -999.2500   -999.2500     54.1665     44.4046
   588.3000   -999.2500   -999.2500   -999.2500   -999.2500     53.8509     43.7222
   588.4000   -999.2500   -999.2500   -999.2500   -999.2500     54.0018     43.1468
   588.5000   -999.2500   -999.2500   -999.2500   -999.2500     54.5619     42.6896
   588.6000   -999.2500   -999.2500   -999.2500   -999.2500     55.4471     42.3544
   588.7000   -999.2500   -999.2500   -999.2500   -999.2500     56.5623     42.1388
   588.8000   -999.2500   -999.2500   -999.2500   -999.2500     57.8108     42.0351
   588.9000   -999.2500   -999.2500   -999.2500   -999.2500     59.1095     42.0319
   589.0000   -999.2500   -999.2500   -999.2500   -999.2500     60.3943     42.1150
   589.1000   -999.2500   -999.2500   -999.2500   -999.2500     61.6255     42.2685
   589.2000   -999.2500   -999.2500   -999.2500   -999.2500     62.7842     42.4756
   589.3000   -999.2500   -999.2500   -999.2500   -999.2500     63.8662     42.7196
   589.4000   -999.2500   -999.2500   -999.2500   -999.2500     64.8753     42.9841
   589.5000   -999.2500   -999.2500   -999.2500   -999.2500     65.8144     43.2535
   589.6000   -999.2500   -999.2500   -999.2500   -999.2500     66.6809     43.5138
   589.7000   -999.2500   -999.2500   -999.2500   -999.2500     67.4646     43.7523
   589.8000   -999.2500   -999.2500   -999.2500   -999.2500     68.1481     43.9583
   589.9000   -999.2500   -999.2500   -999.2500   -999.2500     68.7112     44.1227
   590.0000   -999.2500   -999.2500   -999.2500   -999.2500     69.1360     44.2384
   590.1000   -999.2500   -999.2500   -999.2500   -999.2500     69.4115     44.3004
   590.2000   -999.2500   -999.2500   -999.2500   -999.2500     69.5348     44.3060
   590.3000   -999.2500   -999.2500   -999.2500   -999.2500     69.5121     44.2547
   590.4000   -999.2500   -999.2500   -999.2500   -999.2500     69.3548     44.1486
   590.5000   -999.2500   -999.2500   -999.2500   -999.2500     69.0782     43.9924
   590.6000   -999.2500   -999.2500   -999.2500   -999.2500     68.6964     43.7934
   590.7000   -999.2500   -999.2500   -999.2500   -999.2500     68.2201     43.5609
   590.8000   -999.2500   -999.2500   -999.2500   -999.2500     67.6561     43.3061
   590.9000   -999.2500   -999.2500   -999.2500   -999.2500     67.0099     43.0409
   591.0000   -999.2500   -999.2500   -999.2500   -999.2500     66.2861     42.7773
   591.1000   -999.2500   -999.2500   -999.2500   -999.2500     65.4928     42.5258
   591.2000   -999.2500   -999.2500   -999.2500   -999.2500     64.6453     42.2950
   591.3000   -999.2500   -999.2500   -999.2500   -999.2500     63.7653     42.0910
   591.4000   -999.2500   -999.2500   -999.2500   -999.2500     62.8795     41.9163
   591.5000   -999.2500   -999.2500   -999.2500   -999.2500     62.0155     41.7705
   591.6000   -999.2500   -999.2500   -999.2500   -999.2500     61.1988     41.6503
   591.7000   -999.2500   -999.2500   -999.2500   -999.2500     60.4442     41.5504
   591.8000      8.4767   -999.2500   -999.2500   -999.2500     59.7548     41.4642
   591.9000      8.4767   -999.2500   -999.2500   -999.2500     59.1209     41.3852
   592.0000      8.4767   -999.2500   -999.2500   -999.2500     58.5237     41.3075
   592.1000      8.4767   -999.2500   -999.2500   -999.2500     57.9388     41.2273
   592.2000      8.4767   -999.2500   -999.2500   -999.2500     57.3468     41.1429
   592.3000      8.4031   -999.2500   -999.2500   -999.2500     56.7380     41.0550
   592.4000      8.4031   -999.2500   -999.2500   -999.2500     56.1178     40.9666
   592.5000      8.3674   -999.2500   -999.2500   -999.2500     55.5096     40.8825
   592.6000      8.3674   -999.2500   -999.2500   -999.2500     54.9496     40.8080
   592.7000      8.3674   -999.2500   -999.2500   -999.2500     54.4837     40.7489
   592.8000      8.3834   -999.2500   -999.2500   -999.2500     54.1576     40.7102
   592.9000      8.3834   -999.2500   -999.2500   -999.2500     54.0100     40.6960
   593.0000      8.3793   -999.2500   -999.2500   -999.2500     54.0669     40.7092
   593.1000      8.3793   -999.2500   -999.2500   -999.2500     54.3383     40.7513
   593.2000      8.3793   -999.2500   -999.2500   -999.2500     54.8184     40.8230
   593.3000      8.3810      2.3070     -0.4372     20.7865     55.4888     40.9233
   593.4000      8.3810      2.3070     -0.4372     20.7865     56.3214     41.0503
   593.5000      8.4134      2.2947     -0.4314     21.5325     57.2849     41.2009
   593.6000      8.4134      2.2947     -0.4314     21.5325     58.3483     41.3710
   593.7000      8.4134      2.2947     -0.4314     21.5325     59.4817     41.5553
   593.8000      8.4242      2.2770     -0.4223     22.6090     60.6594     41.7487
   593.9000      8.4242      2.2770     -0.4223     22.6090     61.8577     41.9462
   594.0000      8.4371      2.2664     -0.4172     23.2460     63.0551     42.1437
   594.1000      8.4371      2.2664     -0.4172     23.2460     64.2303     42.3388
   594.2000      8.4371      2.2664     -0.4172     23.2460     65.3649     42.5305
   594.3000      8.4779      2.2534     -0.4132     24.0351     66.4422     42.7197
   594.4000      8.4779      2.2534     -0.4132     24.0351     67.4518     42.9084
   594.5000      8.4898      2.2458     -0.4144     24.4974     68.3906     43.0994
   594.6000      8.4898      2.2458     -0.4144     24.4974     69.2646     43.2951
   594.7000      8.4898      2.2458     -0.4144     24.4974     70.0885     43.4974
   594.8000      8.4316      2.2316     -0.4249     25.3552     70.8851     43.7069
   594.9000      8.4316      2.2316     -0.4249     25.3552     71.6828     43.9226
   595.0000      8.4097      2.2163     -0.4391     26.2860     72.5097     44.1425
   595.1000      8.4097      2.2163     -0.4391     26.2860     73.3911     44.3636
   595.2000      8.4097      2.2163     -0.4391     26.2860     74.3444     44.5825
   595.3000      8.4715      2.1762     -0.4724     28.7144     75.3756     44.7960
   595.4000      8.4715      2.1762     -0.4724     28.7144     76.4767     45.0019
   595.5000      8.4994      2.1345     -0.5019     31.2451     77.6244     45.1989
   595.6000      8.4994      2.1345     -0.5019     31.2451     78.7806     45.3875
   595.7000      8.4994      2.1345     -0.5019     31.2451     79.8934     45.5694
   595.8000      8.4798      2.0488     -0.5522     36.4372     80.9041     45.7473
   595.9000      8.4798      2.0488     -0.5522     36.4372     81.7508     45.9242
   596.0000      8.4977      1.9810     -0.5854     40.5444     82.3781     46.1031
   596.1000      8.4977      1.9810     -0.5854     40.5444     82.7433     46.2862
   596.2000      8.4977      1.9810     -0.5854     40.5444     82.8233     46.4747
   596.3000      8.5019      1.8788     -0.6267     46.7390     82.6165     46.6685
   596.4000      8.5019      1.8788     -0.6267     46.7390     82.1439     46.8666
   596.5000      8.4738      1.8207     -0.6451     50.2613     81.4427     47.0669
   596.6000      8.4738      1.8207     -0.6451     50.2613     80.5616     47.2670
   596.7000      8.4738      1.8207     -0.6451     50.2613     79.5519     47.4645
   596.8000      8.4926      1.7628     -0.6571     53.7682     78.4616     47.6569
   596.9000      8.4926      1.7628     -0.6571     53.7682     77.3326     47.8422
