~Version Information
VERS.                      2.0: CWLS Log ASCII Standard - VERSION 2.0
WRAP.                       NO: One line per depth step
~Well Information Block
STRT.FT               245.0000: 
STOP.FT              1919.7000: 
STEP.FT                 0.1000: 
NULL.                -999.2500: 
COMP.          Pioneer Natural Resources: COMPANY
WELL.          Oink Oink 14-36 Tr: WELL
FLD.           Purgatoire River: FIELD
LOC.           236' FSL & 164' FWL--: LOCATION
PROV.                 Colorado: PROVINCE
CNTY.               Las Animas: COUNTRY
SRVC.                Patterson: SERVICE COMPANY
DATE.          Fri Jun 10 08:23:18 2005: LOG DATE
UWI.           05 071 08393 00: UNIQUE WELL ID
~Curve Information Block
DEPT.FT            0 000 00 00: Depth
DCAL.in                       : CDL Caliper
RHOB.g/cc                     : CDL Bulk Density
RHOC.g/cc                     : CDL Density Correction
DPOR.pu                       : CDL Density Porosity
NPOR.pu                       : Neutron Porosity
GR.GAPI                       : Gamma Ray
~Parameter Information Block
~A  Depth       DCAL        RHOB        RHOC        DPOR        NPOR         GR     
# ...
  1118.6000      7.9576      2.4744     -0.0106     10.6429     21.7708     88.7855
  1118.7000      7.9576      2.4647      0.0088     11.2298     22.5999     93.9374
  1118.8000      7.9556      2.4669     -0.0119     11.0949     23.2421     98.2287
  1118.9000      7.9556      2.4834      0.0294     10.0976     23.3392     95.2857
  1119.0000      7.9559      2.5027      0.0642      8.9279     23.0826     89.8159
  1119.1000      7.9559      2.5162      0.0739      8.1072     22.7398     91.1969
  1119.2000      7.9559      2.5307      0.0842      7.2308     22.3110     98.3517
  1119.3000      7.9572      2.5532      0.1240      5.8661     21.4895    103.0740
  1119.4000      7.9572      2.5705      0.1523      4.8178     20.2624    100.4310
  1119.5000      7.9590      2.5691      0.1290      4.9008     19.0382     93.7310
  1119.6000      7.9590      2.5601      0.0925      5.4474     17.9784     89.6976
  1119.7000      7.9590      2.5669      0.0767      5.0363     17.0648     87.0872
  1119.8000      7.9594      2.6048      0.0846      2.7390     16.6359     80.4565
  1119.9000      7.9594      2.6598      0.1479     -0.5956     16.7018     71.0699
  1120.0000      7.9582      2.6976      0.1492     -2.8846     16.8854     63.9701
  1120.1000      7.9582      2.6984      0.1611     -2.9356     16.9629     61.9065
  1120.2000      7.9582      2.6668      0.1285     -1.0208     16.7584     64.0187
  1120.3000      7.9569      2.6314      0.0474      1.1245     16.2512     66.5415
  1120.4000      7.9569      2.6206      0.0925      1.7828     15.8561     68.5642
  1120.5000      7.9568      2.6341      0.0917      0.9614     15.5826     71.9521
  1120.6000      7.9568      2.6544      0.1498     -0.2641     15.0166     75.0264
  1120.7000      7.9568      2.6621      0.1277     -0.7320     14.7435     75.0464
  1120.8000      7.9577      2.6547      0.0948     -0.2837     15.3227     72.4105
  1120.9000      7.9577      2.6385      0.0936      0.6946     15.9340     68.3698
  1121.0000      7.9590      2.6228      0.0462      1.6494     15.8159     63.0113
  1121.1000      7.9590      2.6228      0.0629      1.6499     15.2605     58.4634
  1121.2000      7.9590      2.6348      0.0805      0.9215     14.9886     58.0694
  1121.3000      7.9599      2.6416      0.0658      0.5083     15.1705     61.0485
  1121.4000      7.9599      2.6382      0.0818      0.7167     15.4396     63.3495
  1121.5000      7.9597      2.6243      0.0755      1.5588     15.3771     63.3028
  1121.6000      7.9597      2.6111      0.0275      2.3582     15.1065     63.6575
  1121.7000      7.9597      2.6152      0.0577      2.1114     14.9801     66.9621
  1121.8000      7.9597      2.6215      0.0981      1.7268     14.9632     72.2107
  1121.9000      7.9597      2.6089      0.0621      2.4896     15.1135     76.8317
  1122.0000      7.9607      2.5929      0.0532      3.4633     15.4024     75.9914
  1122.1000      7.9607      2.6001      0.0446      3.0222     15.5813     71.4684
  1122.2000      7.9607      2.6299      0.0763      1.2157     15.7014     72.1181
  1122.3000      7.9617      2.6590      0.0892     -0.5426     15.8357     77.7192
  1122.4000      7.9617      2.6740      0.0753     -1.4546     15.9502     80.6777
  1122.5000      7.9620      2.6705      0.1004     -1.2401     16.3642     77.2108
  1122.6000      7.9620      2.6466      0.0416      0.2075     17.1812     69.9361
  1122.7000      7.9620      2.6164      0.0484      2.0348     18.0964     65.7735
  1122.8000      7.9607      2.5933      0.0195      3.4372     18.8442     67.5022
  1122.9000      7.9607      2.5773      0.0517      4.4083     19.4761     71.9507
  1123.0000      7.9582      2.5711      0.0241      4.7795     20.1454     76.6274
  1123.1000      7.9582      2.5835      0.0348      4.0315     20.8958     82.4244
  1123.2000      7.9582      2.6006      0.0885      2.9968     21.4479     89.7107
  1123.3000      7.9575      2.5943      0.0731      3.3787     21.6590     96.7270
  1123.4000      7.9575      2.5693      0.0146      4.8899     21.9340    102.6905
  1123.5000      7.9581      2.5593      0.0392      5.4999     22.3226    106.8359
  1123.6000      7.9581      2.5736      0.0738      4.6307     22.5108    109.6327
  1123.7000      7.9581      2.5868      0.0779      3.8322     22.4168    111.5819
  1123.8000      7.9574      2.5807      0.0693      4.1988     22.0035    108.8674
  1123.9000      7.9574      2.5672      0.0547      5.0171     21.7022    100.9311
  1124.0000      7.9550      2.5613      0.0689      5.3770     22.0109     94.0931
  1124.1000      7.9550      2.5649      0.0738      5.1594     22.7493     96.7466
  1124.2000      7.9550      2.5758      0.0825      4.4966     23.4726    108.2530
  1124.3000      7.9525      2.5864      0.0939      3.8560     23.7066    117.4733
  1124.4000      7.9525      2.5864      0.1068      3.8557     23.3079    122.7697
  1124.5000      7.9572      2.5779      0.0888      4.3681     23.0665    129.8881
  1124.6000      7.9572      2.5694      0.1167      4.8868     23.7062    134.4647
  1124.7000      7.9572      2.5600      0.1006      5.4527     24.7087    132.7737
  1124.8000      7.9773      2.5493      0.0970      6.1035     25.3050    129.1012
  1124.9000      7.9773      2.5433      0.0816      6.4693     25.5401    129.3710
  1125.0000      8.0062      2.5468      0.0774      6.2546     25.7335    135.4321
  1125.1000      8.0062      2.5628      0.0975      5.2841     25.9142    144.0979
  1125.2000      8.0062      2.5872      0.1259      3.8051     25.8882    151.3847
  1125.3000      8.0275      2.6006      0.1545      2.9957     25.6531    151.4764
  1125.4000      8.0275      2.5924      0.0714      3.4939     25.4173    144.2449
  1125.5000      8.0364      2.5781      0.0662      4.3581     25.2332    138.4392
  1125.6000      8.0364      2.5674      0.0911      5.0067     25.0220    135.9496
  1125.7000      8.0364      2.5545      0.0933      5.7899     25.1233    134.8334
  1125.8000      8.0366      2.5405      0.0990      6.6383     25.7076    136.7803
  1125.9000      8.0366      2.5342      0.0677      7.0175     26.1082    140.9666
  1126.0000      8.0303      2.5383      0.0669      6.7725     26.0317    145.0643
  1126.1000      8.0303      2.5399      0.0825      6.6736     26.0798    148.3841
  1126.2000      8.0303      2.5300      0.0570      7.2706     26.4815    151.2331
  1126.3000      8.0196      2.5206      0.0448      7.8455     26.9122    151.8472
  1126.4000      8.0196      2.5198      0.0975      7.8925     27.1741    152.4129
  1126.5000      8.0133      2.5254      0.0347      7.5516     27.1730    153.8828
  1126.6000      8.0133      2.5418      0.0806      6.5599     27.0547    147.9776
  1126.7000      8.0133      2.5659      0.1095      5.0990     26.9824    134.7689
  1126.8000      8.0152      2.5857      0.1206      3.8945     26.6173    125.3339
  1126.9000      8.0152      2.5985      0.0953      3.1206     25.9004    124.6407
  1127.0000      8.0195      2.6076      0.0975      2.5693     25.0405    126.7727
  1127.1000      8.0195      2.6099      0.1155      2.4293     24.1398    123.8807
  1127.2000      8.0195      2.6020      0.0890      2.9092     23.2940    120.1653
  1127.3000      8.0197      2.5895      0.0940      3.6679     22.5116    123.1883
  1127.4000      8.0197      2.5855      0.0600      3.9111     22.0872    127.7740
  1127.5000      8.0166      2.5987      0.0840      3.1078     22.0353    128.2358
  1127.6000      8.0166      2.6158      0.1047      2.0712     21.9670    123.7711
  1127.7000      8.0166      2.6246      0.0551      1.5410     21.9704    113.2714
  1127.8000      8.0148      2.6381      0.0746      0.7241     22.3342    101.5886
  1127.9000      8.0148      2.6609      0.1039     -0.6581     22.6807     97.2056
  1128.0000      8.0142      2.6694      0.1652     -1.1749     22.5601     98.8973
  1128.1000      8.0142      2.6519      0.1046     -0.1173     22.1794     99.5779
