~Version Information
VERS.                      2.0: CWLS Log ASCII Standard - VERSION 2.0
WRAP.                       NO: One line per depth step
~Well Information Block
STRT.FT               528.0000: 
STOP.FT              2250.0000: 
STEP.FT                 0.1000: 
NULL.                -999.2500: 
COMP.          Pioneer Natural Resources: COMPANY
WELL.           Parklane 43-34: WELL
FLD.           Purgatorie River: FIELD
LOC.           1704' FSL & 1119' FEL: LOCATION
PROV.                 Colorado: PROVINCE
CNTY.               Las Animas: COUNTRY
SRVC.                         : SERVICE COMPANY
DATE.          Thu Oct 07 08:21:17 2004: LOG DATE
UWI.           05 071 08162 00: UNIQUE WELL ID
~Curve Information Block
DEPT.FT            0 000 00 00: Depth
LTEN.lb                       : Surface Line Tension
DCAL.in                       : CDL Caliper
RHOB.g/cc                     : CDL Bulk Density
RHOC.g/cc                     : CDL Density Correction
DPOR.pu                       : CDL Density Porosity
GR.GAPI                       : Gamma Ray
NPOR.pu                       : Neutron Porosity
~Parameter Information Block
~A  Depth       LTEN        DCAL        RHOB        RHOC        DPOR         GR         NPOR    
# ...
  1443.6000    980.2682      8.0048      2.6218      0.0695      1.7109     90.3854     17.0409
  1443.7000    980.2682      8.0048      2.6190      0.0465      1.8796     86.0580     15.6833
  1443.8000    987.4350      7.9917      2.6141      0.0678      2.1747     84.8221     15.0478
  1443.9000    987.4350      7.9917      2.6051      0.0439      2.7235     83.9603     14.8312
  1444.0000    959.0488      7.9844      2.5943      0.0546      3.3767     80.2113     14.7778
  1444.1000    959.0488      7.9844      2.5827      0.0180      4.0758     75.6793     14.9996
  1444.2000    959.0488      7.9844      2.5724      0.0241      4.7049     75.2731     15.4594
  1444.3000   1022.8104      7.9822      2.5661      0.0027      5.0862     76.8954     15.4213
  1444.4000   1022.8104      7.9822      2.5674      0.0405      5.0045     75.3101     14.7549
  1444.5000    970.5245      7.9848      2.5794      0.0366      4.2815     72.4525     14.4563
  1444.6000    970.5245      7.9848      2.5943      0.0416      3.3727     71.4313     15.0031
  1444.7000    970.5245      7.9848      2.5954      0.0376      3.3064     71.7112     15.8568
  1444.8000   1076.4098      7.9870      2.5762      0.0257      4.4698     74.0870     16.4514
  1444.9000   1076.4098      7.9870      2.5459      0.0108      6.3081     76.5032     16.9034
  1445.0000   1022.1467      7.9846      2.5148     -0.0057      8.1926     74.5205     17.4224
  1445.1000   1022.1467      7.9846      2.4931     -0.0481      9.5072     71.5148     17.7921
  1445.2000   1022.1467      7.9846      2.4944     -0.0375      9.4310     72.1450     17.7346
  1445.3000    995.1522      7.9822      2.5187      0.0182      7.9558     76.3139     17.2854
  1445.4000    995.1522      7.9822      2.5473      0.0288      6.2238     80.8424     16.7936
  1445.5000   1031.9585      7.9819      2.5652      0.0751      5.1423     82.9586     17.0840
  1445.6000   1031.9585      7.9819      2.5707      0.0925      4.8032     82.6106     18.2302
  1445.7000   1031.9585      7.9819      2.5725      0.0707      4.6961     81.7755     19.4656
  1445.8000   1024.9169      7.9817      2.5791      0.0921      4.2996     82.3567     20.2859
  1445.9000   1024.9169      7.9817      2.5859      0.1027      3.8874     84.1814     20.3167
  1446.0000   1031.2980      7.9811      2.5790      0.1475      4.3032     85.2566     19.7713
  1446.1000   1031.2980      7.9811      2.5554      0.1095      5.7337     85.1048     19.2807
  1446.2000   1031.2980      7.9811      2.5274      0.0560      7.4291     82.8386     19.2110
  1446.3000   1062.1934      7.9809      2.5050      0.0457      8.7863     78.1956     19.3927
  1446.4000   1062.1934      7.9809      2.4978      0.0186      9.2219     74.7882     19.3020
  1446.5000   1038.2050      7.9809      2.5191      0.0195      7.9343     76.0779     18.8968
  1446.6000   1038.2050      7.9809      2.5578      0.1273      5.5868     81.1298     18.7107
  1446.7000   1038.2050      7.9809      2.5833      0.1084      4.0418     87.0602     18.9812
  1446.8000   1063.5171      7.9807      2.5900      0.1266      3.6351     92.9339     19.1865
  1446.9000   1063.5171      7.9807      2.5957      0.0841      3.2891     95.2575     19.1907
  1447.0000   1043.7445      7.9809      2.6032      0.1363      2.8339     90.5649     18.9773
  1447.1000   1043.7445      7.9809      2.6015      0.0992      2.9417     83.7807     18.1970
  1447.2000   1043.7445      7.9809      2.5968      0.1013      3.2220     81.4193     17.1804
  1447.3000   1047.9895      7.9815      2.6010      0.1175      2.9702     82.4500     16.8119
  1447.4000   1047.9895      7.9815      2.6125      0.1177      2.2743     81.9681     17.4127
  1447.5000   1054.1792      7.9813      2.6263      0.0777      1.4360     77.6006     18.2538
  1447.6000   1054.1792      7.9813      2.6286      0.1564      1.2999     71.4421     18.3908
  1447.7000   1054.1792      7.9813      2.6090      0.0721      2.4858     68.2129     17.8444
  1447.8000   1055.2319      7.9810      2.5878      0.0622      3.7674     71.0269     17.2775
  1447.9000   1055.2319      7.9810      2.5823      0.0844      4.1033     76.6893     16.8546
  1448.0000   1078.9205      7.9817      2.5837      0.1108      4.0175     80.7580     16.2888
  1448.1000   1078.9205      7.9817      2.5854      0.0821      3.9158     84.5769     15.7428
  1448.2000   1078.9205      7.9817      2.5924      0.0816      3.4893     88.1750     15.8098
  1448.3000   1060.8060      7.9822      2.6010      0.1190      2.9673     88.8705     16.7442
  1448.4000   1060.8060      7.9822      2.5990      0.0906      3.0912     87.1551     18.2843
  1448.5000   1075.2927      7.9822      2.5866      0.0882      3.8417     85.9769     19.6651
  1448.6000   1075.2927      7.9822      2.5767      0.0723      4.4448     84.5518     19.8081
  1448.7000   1075.2927      7.9822      2.5816      0.0735      4.1467     80.6618     18.6185
  1448.8000   1053.6866      7.9848      2.6025      0.0932      2.8786     76.2606     17.3260
  1448.9000   1053.6866      7.9848      2.6257      0.0964      1.4728     74.4417     16.8905
  1449.0000   1029.2806      7.9886      2.6296      0.1504      1.2377     76.2829     17.1593
  1449.1000   1029.2806      7.9886      2.6057      0.1094      2.6871     80.9210     17.6453
  1449.2000   1029.2806      7.9886      2.5713      0.0949      4.7690     82.2938     18.4277
  1449.3000   1070.6602      7.9892      2.5484      0.0725      6.1573     76.6550     19.5436
  1449.4000   1070.6602      7.9892      2.5437      0.0545      6.4427     73.8567     19.8338
  1449.5000   1058.4432      7.9878      2.5503      0.1022      6.0440     79.5422     18.8528
  1449.6000   1058.4432      7.9878      2.5635      0.0631      5.2414     85.4626     17.9624
  1449.7000   1058.4432      7.9878      2.5844      0.0622      3.9783     85.7609     17.8807
  1449.8000   1048.0455      7.9840      2.6015      0.0987      2.9387     82.0735     18.1776
  1449.9000   1048.0455      7.9840      2.6051      0.0594      2.7204     79.6259     18.4809
  1450.0000   1066.0968      7.9817      2.5951      0.1028      3.3246     81.5285     18.8763
  1450.1000   1066.0968      7.9817      2.5693      0.0518      4.8890     86.3695     19.2507
  1450.2000   1066.0968      7.9817      2.5413      0.0467      6.5886     90.0272     19.0958
  1450.3000   1063.5715      7.9825      2.5353     -0.0095      6.9497     87.9298     18.0790
  1450.4000   1063.5715      7.9825      2.5528      0.0255      5.8893     82.7121     17.0789
  1450.5000   1079.2806      7.9836      2.5765      0.0396      4.4524     82.2847     17.1295
  1450.6000   1079.2806      7.9836      2.5971      0.0538      3.2035     85.1655     17.8976
  1450.7000   1079.2806      7.9836      2.6065      0.1028      2.6382     85.5173     17.9989
  1450.8000   1060.3326      7.9842      2.6051      0.0567      2.7208     82.7347     16.8447
  1450.9000   1060.3326      7.9842      2.6122      0.0619      2.2921     78.4711     15.5324
  1451.0000   1068.0256      7.9881      2.6263      0.1182      1.4370     77.1032     14.8440
  1451.1000   1068.0256      7.9881      2.6256      0.0729      1.4783     81.9874     14.6866
  1451.2000   1068.0256      7.9881      2.6097      0.0672      2.4426     87.7483     15.0229
  1451.3000   1025.0000      7.9950      2.5925      0.0636      3.4861     88.7328     15.7893
  1451.4000   1025.0000      7.9950      2.5800      0.0223      4.2448     85.7531     16.6223
  1451.5000   1052.8826      7.9989      2.5678      0.0333      4.9798     84.2361     17.1515
  1451.6000   1052.8826      7.9989      2.5511      0.0559      5.9926     89.6440     17.2627
  1451.7000   1052.8826      7.9989      2.5355      0.0302      6.9369     99.3703     17.1096
  1451.8000   1041.9736      7.9993      2.5273      0.0667      7.4357    104.7236     17.1055
  1451.9000   1041.9736      7.9993      2.5246      0.0157      7.5991    102.0669     17.8185
