~Version Information
VERS.                      2.0: CWLS Log ASCII Standard - VERSION 2.0
WRAP.                       NO: One line per depth step
~Well Information Block
STRT.FT               860.0000: 
STOP.FT              1907.0000: 
STEP.FT                 0.1000: 
NULL.                -999.2500: 
COMP.          Pioneer Natural Resources: COMPANY
WELL.          Victory 12-14 Tr: WELL
FLD.           Purgatoire River: FIELD
LOC.           2522' FNL & 276' FWL: LOCATION
PROV.                 Colorado: PROVINCE
CNTY.               Las Animas: COUNTRY
SRVC.                Patterson: SERVICE COMPANY
DATE.          Mon Jul 18 06:52:40 2005: LOG DATE
UWI.           05 071 08433 00: UNIQUE WELL ID
~Curve Information Block
DEPT.FT            0 000 00 00: Depth
DCAL.in                       : CDL Caliper
RHOB.g/cc                     : CDL Bulk Density
RHOC.g/cc                     : CDL Density Correction
DPOR.pu                       : CDL Density Porosity
GR.GAPI                       : Gamma Ray
NPOR.pu                       : Neutron Porosity
~Parameter Information Block
~A  Depth       DCAL        RHOB        RHOC        DPOR         GR         NPOR    
# ...
  1340.0000      7.9978      2.6619      0.1222     -0.7227    111.6653     23.9493
  1340.1000      7.9978      2.6613      0.1419     -0.6873    113.6352     24.9511
  1340.2000      7.9978      2.6297      0.1160      1.2326    114.2796     26.1458
  1340.3000      8.0070      2.5876      0.0956      3.7818    119.0166     26.9897
  1340.4000      8.0070      2.5623      0.0817      5.3163    128.4727     27.4444
  1340.5000      8.0476      2.5575      0.0555      5.6035    136.0359     27.7983
  1340.6000      8.0476      2.5671      0.0787      5.0259    134.6758     28.0248
  1340.7000      8.0476      2.5861      0.0597      3.8720    129.3784     27.7209
  1340.8000      8.0762      2.6036      0.0933      2.8094    129.1222     27.0946
  1340.9000      8.0762      2.6041      0.1104      2.7831    131.5644     26.8300
  1341.0000      8.0798      2.5835      0.1290      4.0324    132.5368     27.0805
  1341.1000      8.0798      2.5625      0.1111      5.3017    132.2357     27.3617
  1341.2000      8.0798      2.5768      0.0785      4.4377    125.7557     27.3898
  1341.3000      8.0922      2.6426      0.1039      0.4503    112.4544     27.5115
  1341.4000      8.0922      2.7362      0.1667     -5.2215    102.1824     27.7746
  1341.5000      8.0599      2.8202      0.1977    -10.3174     99.6260     27.6537
  1341.6000      8.0599      2.8739      0.2364    -13.5670    100.7029     27.0396
  1341.7000      8.0599      2.8812      0.2643    -14.0123    102.7229     26.2578
  1341.8000      8.0060      2.8298      0.2810    -10.8950    105.0169     25.4054
  1341.9000      8.0060      2.7359      0.1578     -5.2078    104.5574     24.5300
  1342.0000      8.0011      2.6395      0.0171      0.6333    100.8962     23.7357
  1342.1000      8.0011      2.5656     -0.0589      5.1137     96.5399     22.9705
  1342.2000      8.0011      2.5076     -0.0554      8.6322     91.5858     22.2088
  1342.3000      8.0159      2.4644     -0.1268     11.2464     88.7186     21.5879
  1342.4000      8.0159      2.4700     -0.0223     10.9079     91.7271     21.1351
  1342.5000      8.0328      2.5350      0.1367      6.9690     97.9687     20.9684
  1342.6000      8.0328      2.6102      0.3073      2.4125    103.7742     21.3519
  1342.7000      8.0328      2.6392      0.3419      0.6534    110.3520     21.9982
  1342.8000      8.1116      2.6072      0.2985      2.5964    118.8248     22.3032
  1342.9000      8.1116      2.5397      0.2107      6.6836    127.0068     22.2569
  1343.0000      8.1636      2.4807      0.0980     10.2615    131.3344     22.2958
  1343.1000      8.1636      2.4472      0.1368     12.2887    131.9720     22.6170
  1343.2000      8.1636      2.4224      0.0950     13.7951    132.5516     23.0772
  1343.3000      8.1941      2.4047      0.0361     14.8637    134.0410     23.6236
  1343.4000      8.1941      2.4052      0.0977     14.8352    135.1942     24.3315
  1343.5000      8.2496      2.4135      0.1291     14.3333    138.4391     25.3088
  1343.6000      8.2496      2.4197      0.1433     13.9601    144.8389     26.6373
  1343.7000      8.2496      2.4346      0.1012     13.0554    148.6160     27.6433
  1343.8000      8.1728      2.4642      0.1593     11.2624    146.9713     27.5809
  1343.9000      8.1728      2.5034      0.1447      8.8857    142.7625     26.9334
  1344.0000      8.1203      2.5683      0.1301      4.9526    136.5788     26.5668
  1344.1000      8.1203      2.6705      0.1590     -1.2451    127.1379     26.7271
  1344.2000      8.1203      2.7731      0.2839     -7.4605    118.3905     26.9669
  1344.3000      8.0182      2.8299      0.3184    -10.9014    115.5703     26.7261
  1344.4000      8.0182      2.8481      0.2102    -12.0084    115.0341     26.0469
  1344.5000      8.0037      2.8576      0.2482    -12.5816    109.4903     25.0953
  1344.6000      8.0037      2.8490      0.2281    -12.0583     98.6179     23.7542
  1344.7000      8.0037      2.8086      0.1321     -9.6111     84.6124     22.2521
  1344.8000      7.9980      2.7589      0.0665     -6.5995     71.0333     21.0248
  1344.9000      7.9980      2.7286      0.0104     -4.7653     62.0593     20.0568
  1345.0000      7.9497      2.7189      0.0202     -4.1758     58.2244     19.1529
  1345.1000      7.9497      2.7104      0.0478     -3.6628     55.9914     18.2958
  1345.2000      7.9497      2.6945      0.0077     -2.6941     52.0994     17.4428
  1345.3000      7.9713      2.6749      0.0596     -1.5098     48.8804     16.7416
  1345.4000      7.9713      2.6514      0.0884     -0.0855     48.0718     16.5367
  1345.5000      8.0401      2.6312      0.0615      1.1410     47.0890     16.8217
  1345.6000      8.0401      2.6317      0.0948      1.1064     46.3821     17.2292
  1345.7000      8.0401      2.6502      0.1523     -0.0113     48.0537     17.4833
  1345.8000      8.0529      2.6652      0.1402     -0.9219     52.9695     17.4732
  1345.9000      8.0529      2.6678      0.1243     -1.0772     60.3289     17.0925
  1346.0000      8.0330      2.6657      0.0964     -0.9509     64.0847     16.4992
  1346.1000      8.0330      2.6671      0.0727     -1.0345     63.3230     16.2733
  1346.2000      8.0330      2.6682      0.1023     -1.1008     62.9780     16.5318
  1346.3000      8.0246      2.6613      0.0851     -0.6865     62.1459     16.7824
  1346.4000      8.0246      2.6483      0.0532      0.1041     59.1904     16.9461
  1346.5000      8.0641      2.6304      0.0353      1.1895     56.4647     17.2089
  1346.6000      8.0641      2.6046      0.0218      2.7533     54.7300     17.4883
  1346.7000      8.0641      2.5718      0.0385      4.7403     53.6483     17.7131
  1346.8000      8.0797      2.5356      0.0302      6.9363     55.1776     17.6196
  1346.9000      8.0797      2.5035     -0.0044      8.8788     60.4091     17.1794
  1347.0000      8.0946      2.4791     -0.0051     10.3599     66.5036     16.9407
  1347.1000      8.0946      2.4540      0.0039     11.8808     70.5043     16.9405
  1347.2000      8.0946      2.4242     -0.0212     13.6822     72.4332     16.8883
  1347.3000      8.1002      2.3956     -0.0005     15.4204     73.8990     17.0651
  1347.4000      8.1002      2.3670      0.0272     17.1545     74.4500     17.7023
  1347.5000      8.0933      2.3367     -0.0054     18.9892     73.2207     18.4378
  1347.6000      8.0933      2.3237     -0.0406     19.7788     72.7909     19.0882
  1347.7000      8.0933      2.3433      0.0644     18.5884     77.0187     19.8555
  1347.8000      8.0548      2.3789      0.0980     16.4304     83.8321     20.6282
  1347.9000      8.0548      2.4138      0.1485     14.3165     89.0870     21.0929
  1348.0000      8.0198      2.4528      0.1369     11.9515     95.1528     21.2280
  1348.1000      8.0198      2.4976      0.2190      9.2386    103.3572     21.3698
  1348.2000      8.0198      2.5354      0.2523      6.9443    107.1121     21.5763
  1348.3000      8.0034      2.5644      0.1735      5.1878    105.9739     21.8434
  1348.4000      8.0034      2.5884      0.1773      3.7327    108.2029     22.4158
  1348.5000      8.0102      2.5931      0.1795      3.4467    117.4327     23.0258
  1348.6000      8.0102      2.5718      0.1422      4.7416    127.3218     23.3445
  1348.7000      8.0102      2.5452      0.0778      6.3498    130.1223     23.6731
  1348.8000      8.0469      2.5280      0.1282      7.3957    126.8015     24.1801
  1348.9000      8.0469      2.5140      0.0983      8.2445    122.1511     24.4382
  1349.0000      8.0982      2.5011      0.0577      9.0257    119.9185     24.2954
  1349.1000      8.0982      2.4963      0.0353      9.3137    126.7784     24.1557
  1349.2000      8.0982      2.5048      0.0764      8.7992    142.7265     24.2661
  1349.3000      8.0819      2.5247      0.0851      7.5936    155.0833     24.5923
  1349.4000      8.0819      2.5485      0.1493      6.1533    157.4802     24.7813
  1349.5000      8.1020      2.5632      0.1921      5.2591    153.3788     24.6983
