~Version Information
VERS.                      2.0: CWLS Log ASCII Standard - VERSION 2.0
WRAP.                       NO: One line per depth step
~Well Information Block
STRT.FT               698.9000: 
STOP.FT              2460.4000: 
STEP.FT                 0.1000: 
NULL.                -999.2500: 
COMP.          Petrogulf Corporation: COMPANY
WELL.             State 16-23V: WELL
FLD.           Purgatorie River: FIELD
LOC.           2414' FSL & 2215' FWL: LOCATION
PROV.                 Colorado: PROVINCE
CNTY.               Las Animas: COUNTRY
SRVC.                         : SERVICE COMPANY
DATE.          Mon Jun 09 14:24:56 2003: LOG DATE
UWI.           05 071 07865 00: UNIQUE WELL ID
~Curve Information Block
DEPT.FT            0 000 00 00: Depth
DCAL.in                       : CDL Caliper
RHOB.g/cc                     : CDL Bulk Density
RHOC.g/cc                     : CDL Density Correction
DPOR.pu                       : CDL Density Porosity
GR.GAPI                       : Gamma Ray
NPOR.pu                       : Neutron Porosity
~Parameter Information Block
~A  Depth       DCAL        RHOB        RHOC        DPOR         GR         NPOR    
# ...
  1534.1000      8.0482      2.5678      0.0456      4.9819     95.3822     21.4777
  1534.2000      8.0482      2.5663      0.0455      5.0724     98.2228     21.8846
  1534.3000      8.0450      2.5647      0.0453      5.1678    100.8094     22.2221
  1534.4000      8.0450      2.5631      0.0450      5.2685    103.0890     22.4875
  1534.5000      8.0407      2.5613      0.0448      5.3741    105.0159     22.6817
  1534.6000      8.0407      2.5595      0.0446      5.4831    106.5526     22.8088
  1534.7000      8.0407      2.5577      0.0443      5.5936    107.6715     22.8757
  1534.8000      8.0388      2.5559      0.0440      5.7029    108.3592     22.8918
  1534.9000      8.0388      2.5542      0.0436      5.8078    108.6209     22.8685
  1535.0000      8.0407      2.5526      0.0429      5.9050    108.4832     22.8186
  1535.1000      8.0407      2.5512      0.0421      5.9907    107.9949     22.7564
  1535.2000      8.0407      2.5500      0.0410      6.0608    107.2229     22.6952
  1535.3000      8.0529      2.5492      0.0400      6.1114    106.2475     22.6469
  1535.4000      8.0529      2.5487      0.0390      6.1383    105.1573     22.6212
  1535.5000      8.0744      2.5487      0.0384      6.1372    104.0419     22.6235
  1535.6000      8.0744      2.5493      0.0383      6.1043    102.9865     22.6558
  1535.7000      8.0744      2.5504      0.0390      6.0357    102.0653     22.7158
  1535.8000      8.0873      2.5522      0.0406      5.9284    101.3392     22.7976
  1535.9000      8.0873      2.5546      0.0431      5.7801    100.8489     22.8928
  1536.0000      8.0848      2.5578      0.0466      5.5895    100.6106     22.9911
  1536.1000      8.0848      2.5616      0.0508      5.3568    100.6144     23.0811
  1536.2000      8.0848      2.5661      0.0557      5.0836    100.8224     23.1512
  1536.3000      8.0744      2.5712      0.0610      4.7734    101.1718     23.1898
  1536.4000      8.0744      2.5769      0.0664      4.4316    101.5768     23.1865
  1536.5000      8.0545      2.5829      0.0717      4.0653    101.9385     23.1320
  1536.6000      8.0545      2.5892      0.0768      3.6834    102.1530     23.0189
  1536.7000      8.0545      2.5956      0.0815      3.2959    102.1200     22.8423
  1536.8000      8.0274      2.6019      0.0856      2.9139    101.7490     22.6004
  1536.9000      8.0274      2.6079      0.0889      2.5485    100.9716     22.2951
  1537.0000      8.0148      2.6135      0.0913      2.2108     99.7438     21.9323
  1537.1000      8.0148      2.6185      0.0926      1.9107     98.0533     21.5224
  1537.2000      8.0148      2.6227      0.0929      1.6565     95.9198     21.0796
  1537.3000      8.0151      2.6260      0.0919      1.4544     93.3984     20.6211
  1537.4000      8.0151      2.6284      0.0897      1.3084     90.5751     20.1666
  1537.5000      8.0196      2.6299      0.0864      1.2196     87.5627     19.7361
  1537.6000      8.0196      2.6304      0.0823      1.1866     84.4953     19.3489
  1537.7000      8.0196      2.6301      0.0777      1.2058     81.5142     19.0219
  1537.8000      8.0187      2.6290      0.0731      1.2716     78.7579     18.7682
  1537.9000      8.0187      2.6273      0.0688      1.3770     76.3508     18.5972
  1538.0000      8.0212      2.6250      0.0654      1.5143     74.3930     18.5132
  1538.1000      8.0212      2.6223      0.0631      1.6758     72.9530     18.5164
  1538.2000      8.0212      2.6194      0.0622      1.8539     72.0618     18.6029
  1538.3000      8.0315      2.6163      0.0626      2.0421     71.7163     18.7654
  1538.4000      8.0315      2.6131      0.0643      2.2350     71.8859     18.9943
  1538.5000      8.0368      2.6099      0.0670      2.4288     72.5207     19.2782
  1538.6000      8.0368      2.6068      0.0703      2.6208     73.5634     19.6050
  1538.7000      8.0368      2.6036      0.0739      2.8099     74.9603     19.9627
  1538.8000      8.0346      2.6006      0.0776      2.9962     76.6665     20.3403
  1538.9000      8.0346      2.5975      0.0809      3.1804     78.6524     20.7280
  1539.0000      8.0354      2.5945      0.0837      3.3640     80.8977     21.1174
  1539.1000      8.0354      2.5915      0.0858      3.5483     83.3892     21.5012
  1539.2000      8.0354      2.5884      0.0871      3.7346     86.1096     21.8732
  1539.3000      8.0353      2.5853      0.0876      3.9235     89.0330     22.2269
  1539.4000      8.0353      2.5821      0.0874      4.1144     92.1180     22.5551
  1539.5000      8.0285      2.5790      0.0864      4.3055     95.3020     22.8488
  1539.6000      8.0285      2.5759      0.0847      4.4937     98.5014     23.0974
  1539.7000      8.0285      2.5729      0.0824      4.6741    101.6150     23.2883
  1539.8000      8.0263      2.5701      0.0796      4.8403    104.5269     23.4078
  1539.9000      8.0263      2.5678      0.0763      4.9844    107.1104     23.4426
  1540.0000      8.0382      2.5659      0.0727      5.0978    109.2407     23.3814
  1540.1000      8.0382      2.5647      0.0689      5.1712    110.8030     23.2167
  1540.2000      8.0382      2.5643      0.0653      5.1952    111.7050     22.9462
  1540.3000      8.0650      2.5648      0.0620      5.1614    111.8868     22.5737
  1540.4000      8.0650      2.5665      0.0594      5.0632    111.3271     22.1089
  1540.5000      8.0983      2.5692      0.0578      4.8962    110.0464     21.5667
  1540.6000      8.0983      2.5731      0.0575      4.6591    108.1046     20.9650
  1540.7000      8.0983      2.5782      0.0586      4.3543    105.5896     20.3235
  1540.8000      8.1150      2.5842      0.0611      3.9883    102.6090     19.6611
  1540.9000      8.1150      2.5911      0.0651      3.5712     99.2778     18.9952
  1541.0000      8.1019      2.5986      0.0703      3.1173     95.7069     18.3406
  1541.1000      8.1019      2.6064      0.0764      2.6436     91.9974     17.7095
  1541.2000      8.1019      2.6142      0.0829      2.1695     88.2420     17.1120
  1541.3000      8.0681      2.6217      0.0893      1.7155     84.5233     16.5571
  1541.4000      8.0681      2.6285      0.0950      1.3019     80.9209     16.0529
  1541.5000      8.0312      2.6344      0.0996      0.9479     77.5162     15.6078
  1541.6000      8.0312      2.6389      0.1027      0.6699     74.3961     15.2303
  1541.7000      8.0312      2.6421      0.1039      0.4809     71.6524     14.9293
  1541.8000      8.0084      2.6436      0.1031      0.3896     69.3845     14.7137
  1541.9000      8.0084      2.6434      0.1003      0.4002     67.6919     14.5924
  1542.0000      8.0083      2.6415      0.0957      0.5121     66.6643     14.5736
  1542.1000      8.0083      2.6381      0.0896      0.7204     66.3775     14.6646
  1542.2000      8.0083      2.6332      0.0825      1.0161     66.8817     14.8707
  1542.3000      8.0237      2.6271      0.0749      1.3873     68.1997     15.1951
  1542.4000      8.0237      2.6200      0.0672      1.8201     70.3190     15.6380
  1542.5000      8.0429      2.6121      0.0598      2.2988     73.1957     16.1955
  1542.6000      8.0429      2.6037      0.0531      2.8078     76.7559     16.8590
  1542.7000      8.0429      2.5950      0.0474      3.3316     80.9043     17.6148
  1542.8000      8.0523      2.5864      0.0428      3.8557     85.5315     18.4439
  1542.9000      8.0523      2.5779      0.0394      4.3671     90.5198     19.3232
  1543.0000      8.0496      2.5699      0.0371      4.8545     95.7486     20.2264
  1543.1000      8.0496      2.5624      0.0358      5.3084    101.1006     21.1259
  1543.2000      8.0496      2.5556      0.0353      5.7213    106.4631     21.9954
  1543.3000      8.0456      2.5496      0.0355      6.0876    111.7299     22.8116
  1543.4000      8.0456      2.5443      0.0362      6.4037    116.8038     23.5565
  1543.5000      8.0508      2.5400      0.0374      6.6673    121.6011     24.2182
  1543.6000      8.0508      2.5365      0.0389      6.8781    126.0558     24.7914
