~Version Information
VERS.                      2.0: CWLS Log ASCII Standard - VERSION 2.0
WRAP.                       NO: One line per depth step
~Well Information Block
STRT.FT               480.1000: 
STOP.FT              2029.0000: 
STEP.FT                 0.1000: 
NULL.                -999.2500: 
COMP.          Petrogulf Corporation: COMPANY
WELL.            Montoya 7-12R: WELL
FLD.           Purgatorie River: FIELD
LOC.           1769' FNL & 658' FWL: LOCATION
CNTY.               Las Animas: COUNTY
SRVC.                         : SERVICE COMPANY
DATE.          Mon Nov 22 07:21:54 2004: LOG DATE
UWI.           05 071 08240 00: UNIQUE WELL ID
STAT.                 Colorado: STATE
~Curve Information Block
DEPT.FT            0 000 00 00: Depth
DCAL.in                       : CDL Caliper
RHOB.g/cc                     : CDL Bulk Density
RHOC.g/cc                     : CDL Density Correction
DPOR.pu                       : CDL Density Porosity
GR.GAPI                       : Gamma Ray
NPOR.pu                       : Neutron Porosity
~Parameter Information Block
~A  Depth       DCAL        RHOB        RHOC        DPOR         GR         NPOR    
# ...
   604.9000      8.2896      2.5590     -0.0662      5.5141    174.7726     30.0121
   605.0000      8.3003      2.5717     -0.0208      4.7457    169.3394     29.9291
   605.1000      8.3003      2.5974      0.0545      3.1850    161.9032     29.9224
   605.2000      8.3003      2.6071      0.0481      2.5979    156.1648     30.2306
   605.3000      8.3076      2.6037     -0.0001      2.8074    154.9283     30.7288
   605.4000      8.3076      2.6094      0.0511      2.4624    158.2981     31.0616
   605.5000      8.3261      2.6277      0.0413      1.3516    164.9810     30.9071
   605.6000      8.3261      2.6451      0.0425      0.2998    170.9459     30.3642
   605.7000      8.3261      2.6476      0.0349      0.1425    171.0900     29.9117
   605.8000      8.2947      2.6344      0.0360      0.9460    165.4948     29.9101
   605.9000      8.2947      2.6216      0.0281      1.7194    158.8706     30.0819
   606.0000      8.2884      2.6225      0.0520      1.6643    153.9888     29.8779
   606.1000      8.2884      2.6309      0.0419      1.1567    151.1949     29.3710
   606.2000      8.2884      2.6260      0.0796      1.4531    150.5208     28.9419
   606.3000      8.3092      2.6017      0.0240      2.9243    151.5102     28.5890
   606.4000      8.3092      2.5776      0.0415      4.3869    151.6055     28.0223
   606.5000      8.2807      2.5647     -0.0105      5.1689    145.8070     27.2601
   606.6000      8.2807      2.5573     -0.0169      5.6187    135.3391     26.7023
   606.7000      8.2807      2.5517     -0.0062      5.9566    128.3908     26.7175
   606.8000      8.3096      2.5549     -0.0123      5.7627    129.2976     27.2095
   606.9000      8.3096      2.5708      0.0013      4.8004    136.0237     27.3073
   607.0000      8.2840      2.5890      0.0281      3.6983    145.0885     26.6406
   607.1000      8.2840      2.5959      0.0047      3.2769    152.4994     25.8154
   607.2000      8.2840      2.5820      0.0569      4.1239    152.5284     24.9802
   607.3000      8.2863      2.5578     -0.0205      5.5870    145.8662     23.8141
   607.4000      8.2863      2.5459     -0.0013      6.3084    138.1601     22.5513
   607.5000      8.3050      2.5421     -0.0130      6.5399    132.3451     21.7878
   607.6000      8.3050      2.5275     -0.0005      7.4230    127.7754     21.4833
   607.7000      8.3050      2.5094     -0.0409      8.5207    120.0743     20.9004
   607.8000      8.3409      2.5144     -0.0223      8.2195    106.4271     19.8831
   607.9000      8.3409      2.5461      0.0196      6.2976     91.0571     19.1577
   608.0000      8.3028      2.5811      0.0613      4.1758     79.6557     18.9804
   608.1000      8.3028      2.5952      0.1069      3.3214     73.1641     18.6379
   608.2000      8.3028      2.5814      0.0568      4.1588     69.5166     17.6371
   608.3000      8.3226      2.5498      0.0207      6.0745     66.7377     16.6088
   608.4000      8.3226      2.5127      0.0183      8.3213     62.9646     16.0976
   608.5000      8.3138      2.4813     -0.0255     10.2260     57.2783     15.6668
   608.6000      8.3138      2.4705     -0.0704     10.8786     52.9627     15.0437
   608.7000      8.3138      2.4821     -0.0129     10.1740     52.8749     14.7324
   608.8000      8.3182      2.4928      0.0008      9.5264     55.1517     15.0978
   608.9000      8.3182      2.4870      0.0320      9.8777     57.3776     15.7787
   609.0000      8.3157      2.4737     -0.0051     10.6871     58.7944     16.5245
   609.1000      8.3157      2.4607      0.0065     11.4713     60.8568     17.6635
   609.2000      8.3157      2.4468     -0.0039     12.3155     67.0421     18.8807
   609.3000      8.3168      2.4396     -0.0390     12.7534     77.9617     19.5111
   609.4000      8.3168      2.4483      0.0105     12.2269     91.8558     19.9235
   609.5000      8.3082      2.4728      0.0016     10.7386    107.1301     20.6618
   609.6000      8.3082      2.5127     -0.0288      8.3226    121.0870     21.4275
   609.7000      8.3082      2.5500      0.0718      6.0623    133.0062     21.8427
   609.8000      8.3358      2.5532      0.0753      5.8659    142.2466     22.2462
   609.9000      8.3358      2.5199      0.0303      7.8825    147.2060     22.9059
   610.0000      8.3449      2.4777      0.0200     10.4397    149.4411     23.4964
   610.1000      8.3449      2.4505     -0.0148     12.0918    150.4872     23.8956
   610.2000      8.3449      2.4448     -0.0169     12.4341    149.7852     24.3560
   610.3000      8.3587      2.4529      0.0527     11.9482    149.3894     24.9740
   610.4000      8.3587      2.4603      0.0363     11.4970    153.2872     25.4017
   610.5000      8.3669      2.4595      0.0238     11.5478    159.9826     25.1236
   610.6000      8.3669      2.4560      0.0225     11.7602    164.7746     24.0286
   610.7000      8.3669      2.4517      0.0845     12.0175    168.7241     22.5508
   610.8000      8.4281      2.4301      0.1021     13.3253    173.4059     21.2230
   610.9000      8.4281      2.3741      0.0920     16.7216    173.7895     20.2102
   611.0000      8.4296      2.2737      0.0853     22.8057    167.8411     19.1668
   611.1000      8.4296      2.1394     -0.0160     30.9461    159.9525     17.7208
   611.2000      8.4296      2.0012     -0.0191     39.3219    151.6315     16.1162
   611.3000      8.4047      1.8725     -0.0570     47.1204    142.9584     14.8120
   611.4000      8.4047      1.7556     -0.0898     54.2050    134.4167     13.6028
   611.5000      8.4704      1.6528     -0.0551     60.4379    125.5822     12.2350
   611.6000      8.4704      1.5522     -0.0589     66.5309    117.3514     11.1689
   611.7000      8.4704      1.4538     -0.0538     72.4954    112.6869     10.6482
   611.8000      8.5473      1.3838     -0.0143     76.7391    112.3048     10.2953
   611.9000      8.5473      1.3570      0.0135     78.3658    111.5901      9.7744
   612.0000      8.5383      1.3577      0.0844     78.3203    105.2193      9.1778
   612.1000      8.5383      1.3592      0.1365     78.2330     94.7655      8.8091
   612.2000      8.5383      1.3473      0.1458     78.9513     86.6174      8.7606
   612.3000      8.6531      1.3378      0.0444     79.5268     82.3603      8.9631
   612.4000      8.6531      1.3587      0.0995     78.2576     80.8708      9.5062
   612.5000      8.9220      1.4153      0.1192     74.8286     82.7629     10.4802
   612.6000      8.9220      1.4957      0.1592     69.9560     86.9413     11.7548
   612.7000      8.9220      1.5916      0.2390     64.1482     89.5840     13.4642
   612.8000      9.1761      1.7030      0.2747     57.3938     89.2366     15.9141
   612.9000      9.1761      1.8313      0.3288     49.6165     88.0507     18.7737
   613.0000      9.1491      1.9640      0.4052     41.5759     86.7031     21.4507
   613.1000      9.1491      2.0849      0.3888     34.2462     87.0742     23.7589
   613.2000      9.1491      2.1929      0.4203     27.7032     92.8373     25.3689
   613.3000      9.0141      2.2897      0.4221     21.8387    102.5115     25.9661
   613.4000      9.0141      2.3716      0.3697     16.8717    110.8107     26.0975
   613.5000      8.6975      2.4325      0.3570     13.1798    116.9131     26.6561
   613.6000      8.6975      2.4681      0.2512     11.0261    122.9675     27.6485
   613.7000      8.6975      2.4823      0.1674     10.1653    127.1674     28.4317
   613.8000      8.5296      2.4827      0.1406     10.1383    129.4058     28.7374
   613.9000      8.5296      2.4870      0.1282      9.8808    133.5955     28.7817
   614.0000      8.4024      2.5200      0.1527      7.8800    137.0608     28.6760
   614.1000      8.4024      2.5738      0.2535      4.6156    135.2138     28.3066
   614.2000      8.4024      2.6085      0.3016      2.5174    130.4305     27.5902
   614.3000      8.4131      2.6086      0.2091      2.5104    126.4476     26.8453
   614.4000      8.4131      2.6010      0.1970      2.9672    125.0589     26.6664
