~Version Information
VERS.                      2.0: CWLS Log ASCII Standard - VERSION 2.0
WRAP.                       NO: One line per depth step
~Well Information Block
STRT.FT                -9.7500: 
STOP.FT              2374.2500: 
STEP.FT                 0.2500: 
NULL.                -999.2500: 
COMP.          Pioneer Natural Resources: COMPANY
WELL.            Chevron 13-13: WELL
FLD.           Purgatorie River: FIELD
LOC.           1560' FSL & 711' FWL--: LOCATION
CNTY.               Las Animas: COUNTY
SRVC.          Superior Well Services: SERVICE COMPANY
DATE.          Wed Apr 11 08:47:55 2007: LOG DATE
UWI.           05 071 08319 00: UNIQUE WELL ID
STAT.                       CO: STATE
~Curve Information Block
DEPT.FT            0 000 00 00: Depth
CCL.                          : Casing Collar Locator
TT3.usec                      : CBL 3' Travel Time
AMP3.mV                       : CBL 3' Amplitude
GR.GAPI                       : Gamma Ray
~Parameter Information Block
~A  Depth       CCL         TT3         AMP3         GR     
# ...
   760.7500      0.0000    731.1575     15.0979     75.6979
   761.0000      0.0000    737.1567     15.0292     81.8165
   761.2500      0.0000    736.8925     14.9851     85.9711
   761.5000      0.0000    734.9499     14.9574     87.0087
   761.7500      0.0000    733.3987     14.9448     85.2866
   762.0000      0.0000    732.7349     14.9465     82.1362
   762.2500      0.0000    733.1732     14.9611     78.6513
   762.5000      0.0000    735.3277     14.9892     75.1252
   762.7500      0.0000    739.9387     15.0330     71.3962
   763.0000      0.0000    746.9257     15.0899     67.2857
   763.2500      0.0000    754.6589     15.1482     62.6772
   763.5000      0.0000    760.3334     15.1945     57.5662
   763.7500      0.0000    761.2859     15.2235     52.2827
   764.0000      0.0000    756.3005     15.2427     47.5327
   764.2500      0.0000    746.3420     15.2624     44.0552
   764.5000      0.0000    734.4769     15.2796     42.1559
   764.7500      0.0000    725.1426     15.2763     41.4571
   765.0000      0.0000    723.1772     15.2370     41.0365
   765.2500      0.0000    732.6400     15.1671     40.0038
   765.5000      0.0000    754.5613     15.0860     38.2146
   765.7500      0.0000    784.1794     15.0066     36.5215
   766.0000      0.0000    810.9371     14.9289     36.3032
   766.2500      0.0000    823.9487     14.8528     38.6486
   766.5000      0.0000    819.7704     14.7862     43.7344
   766.7500      0.0000    804.5884     14.7345     50.6245
   767.0000      0.0000    788.0507     14.6888     57.5732
   767.2500      0.0000    775.8654     14.6303     62.8585
   767.5000      0.0000    768.4598     14.5468     65.7197
   767.7500      0.0000    764.3328     14.4431     66.5943
   768.0000      0.0000    762.5581     14.3333     66.4525
   768.2500      0.0000    762.5541     14.2235     65.9057
   768.5000      0.0000    763.2668     14.1023     64.8945
   768.7500      0.0000    763.7499     13.9497     63.3232
   769.0000      0.0000    764.3911     13.7554     62.1151
   769.2500      0.0000    766.9688     13.5298     63.1054
   769.5000      0.0000    773.0223     13.2991     67.1419
   769.7500      0.0000    782.1449     13.0887     72.4970
   770.0000      0.0000    791.9226     12.9110     75.9347
   770.2500      0.0000    799.4897     12.7651     75.4144
   770.5000      0.0000    803.2381     12.6444     71.3752
   770.7500      0.0000    803.5391     12.5413     65.6635
   771.0000      0.0000    802.3631     12.4497     59.9748
   771.2500      0.0000    802.0604     12.3699     55.4187
   771.5000      0.0000    803.8865     12.3088     52.8223
   771.7500      0.0000    807.1951     12.2727     52.7449
   772.0000      0.0000    809.7155     12.2621     55.0679
   772.2500      0.0000    807.8165     12.2802     58.8091
   772.5000      0.0000    797.2081     12.3388     62.5997
   772.7500      0.0000    776.5637     12.4475     65.4182
   773.0000      0.0000    752.4926     12.5997     66.8119
   773.2500      0.0000    737.6465     12.7764     66.6501
   773.5000      0.0000    739.5984     12.9652     65.1988
   773.7500      0.0000    752.9693     13.1704     63.3346
   774.0000      0.0000    765.5899     13.4051     61.9807
   774.2500      0.0000    770.5705     13.6762     61.2966
   774.5000      0.0000    770.0185     13.9758     61.0626
   774.7500      0.0000    769.3187     14.2857     61.6795
   775.0000      0.0000    770.8054     14.5869     63.9553
   775.2500      0.0000    772.6263     14.8619     67.9800
   775.5000      0.0000    771.7252     15.0866     72.9554
   775.7500      0.0000    766.8392     15.2288     78.0260
   776.0000      0.0000    759.2221     15.2658     82.7637
   776.2500      0.0000    751.6302     15.2066     87.0429
   776.5000      0.0000    746.9800     15.0911     90.7020
   776.7500      0.0000    747.0131     14.9666     93.2407
   777.0000      0.0000    751.3523     14.8637     94.0535
   777.2500      0.0000    757.6276     14.7846     93.2279
   777.5000      0.0000    762.9114     14.7067     91.7655
   777.7500      0.0000    765.5861     14.6029     90.7486
   778.0000      0.0000    766.2029     14.4677     90.5506
   778.2500      0.0000    766.5931     14.3215     90.9346
   778.5000      0.0000    768.0487     14.1900     91.5150
   778.7500      0.0000    770.3245     14.0892     91.9089
   779.0000      0.0000    772.2639     14.0281     91.6608
   779.2500      0.0000    773.0150     14.0133     90.3012
   779.5000      0.0000    772.4620     14.0397     87.5886
   779.7500      0.0000    770.8975     14.0809     83.6093
   780.0000      0.0000    768.9126     14.0944     78.5942
   780.2500      0.0000    767.7449     14.0439     72.8535
   780.5000      0.0000    769.0942     13.9259     67.1719
   780.7500      0.0000    773.7396     13.7774     62.9221
   781.0000      0.0000    780.1718     13.6514     61.1981
   781.2500      0.0000    785.1547     13.5771     61.9334
   781.5000      0.0000    786.1830     13.5421     64.1514
   781.7500      0.0000    783.4183     13.5085     66.7743
   782.0000      0.0000    779.1437     13.4378     68.9035
   782.2500      0.0000    775.6121     13.3000     69.7346
   782.5000      0.0000    773.6613     13.0802     68.7969
   782.7500      0.0000    772.9648     12.7891     66.3815
   783.0000      0.0000    772.9260     12.4685     63.4840
   783.2500      0.0000    773.2356     12.1739     61.1901
   783.5000      0.0000    773.9822     11.9472     60.0717
   783.7500      0.0000    775.4653     11.7978     59.9785
   784.0000      0.0000    777.7100     11.7054     60.1387
   784.2500      0.0000    779.9927     11.6403     59.4628
   784.5000      0.0000    781.0701     11.5814     57.1645
   784.7500      0.0000    780.2078     11.5181     53.5433
   785.0000      0.0000    777.9285     11.4428     50.1006
   785.2500      0.0000    775.6192     11.3488     48.4687
   785.5000      0.0000    774.5072     11.2373     49.1744
   785.7500      0.0000    774.8685     11.1216     51.6556
   786.0000      0.0000    775.8017     11.0175     55.2349
   786.2500      0.0000    775.8403     10.9291     59.4916
   786.5000      0.0000    774.2701     10.8454     63.6261
   786.7500      0.0000    771.9322     10.7510     66.1317
   787.0000      0.0000    770.6484     10.6464     65.7560
   787.2500      0.0000    772.0496     10.5537     62.6842
   787.5000      0.0000    776.8450     10.4965     58.3933
   787.7500      0.0000    784.4265     10.4724     54.4763
   788.0000      0.0000    792.6478     10.4502     51.8467
   788.2500      0.0000    798.2710     10.3891     50.8436
   788.5000      0.0000    798.2298     10.2545     51.6149
   788.7500      0.0000    791.3546     10.0315     54.0390
   789.0000      0.0000    779.8569      9.7408     57.2582
   789.2500      0.0000    769.0089      9.4308     59.6607
   789.5000      0.0000    763.8880      9.1296     59.7768
   789.7500      0.0000    765.9631      8.8277     57.4550
   790.0000      0.0000    773.6826      8.5333     54.0827
   790.2500      0.0000    786.3127      8.3141     51.3873
   790.5000      0.0000    805.7065      8.2450     49.9532
   790.7500      0.0000    833.6536      8.3369     49.0744
   791.0000      2.0000    868.0227      8.5443     47.9729
   791.2500      0.0000    901.3973      8.8338     46.7867
   791.5000      0.0000    922.6120      9.2463     46.3150
   791.7500      0.0000    920.5378      9.8992     47.2270
   792.0000      0.0000    890.7759     10.8799     49.7633
   792.2500      0.0000    841.7859     12.0751     53.8895
   792.5000      0.0000    791.9945     13.1503     59.3030
   792.7500      0.0000    757.7206     13.7952     65.3522
   793.0000      0.0000    743.7504     13.9796     71.1260
   793.2500      0.0000    744.0436     13.9112     75.5910
   793.5000      0.0000    748.2623     13.7922     77.8870
   793.7500      0.0000    748.3494     13.6799     78.1390
   794.0000      0.0000    742.5858     13.5353     77.9849
