~Version Information
VERS.                      2.0: CWLS Log ASCII Standard - VERSION 2.0
WRAP.                       NO: One line per depth step
~Well Information Block
STRT.FT                 0.0000: 
STOP.FT              1916.0000: 
STEP.FT                 0.1000: 
NULL.                -999.2500: 
COMP.          Pioneer Natural Resources: COMPANY
WELL.          Blackjack 32-11 Tr: WELL
FLD.           Purgatorie River: FIELD
LOC.           2066' FNL & 1453' FEL: LOCATION
PROV.                 Colorado: PROVINCE
CNTY.               Las Animas: COUNTRY
SRVC.                Patterson: SERVICE COMPANY
DATE.          Tue Aug 16 12:08:23 2005: LOG DATE
UWI.                          : UNIQUE WELL ID
~Curve Information Block
DEPT.FT            0 000 00 00: Depth
DCAL.in                       : CDL Caliper
RHOB.g/cc                     : CDL Bulk Density
RHOC.g/cc                     : CDL Density Correction
DPOR.pu                       : CDL Density Porosity
GR.GAPI                       : Gamma Ray
NPOR.pu                       : Neutron Porosity
~Parameter Information Block
~A  Depth       DCAL        RHOB        RHOC        DPOR         GR         NPOR    
# ...
  1008.0000      8.1441      2.1055     -0.0925     32.9997    154.6478     22.5737
  1008.1000      8.1441      1.9987     -0.0779     39.4739    153.5394     21.2004
  1008.2000      8.1441      1.9318     -0.0638     43.5295    150.4881     20.0168
  1008.3000      8.1861      1.8965     -0.0351     45.6670    143.2581     19.1867
  1008.4000      8.1861      1.8941      0.0016     45.8131    135.8545     18.9543
  1008.5000      8.2766      1.9168      0.1018     44.4353    132.3334     19.2877
  1008.6000      8.2766      1.9459      0.1440     42.6724    131.5773     20.0214
  1008.7000      8.2766      1.9813      0.1761     40.5281    132.8154     21.0696
  1008.8000      8.2064      2.0340      0.2659     37.3315    136.5919     22.3141
  1008.9000      8.2064      2.1039      0.2896     33.0976    141.1396     23.5234
  1009.0000      8.2210      2.1852      0.2723     28.1674    143.5071     24.4779
  1009.1000      8.2210      2.2622      0.2055     23.5019    143.9453     25.1381
  1009.2000      8.2210      2.3093      0.1658     20.6506    145.2300     25.6557
  1009.3000      8.1717      2.3178      0.1573     20.1356    149.6637     26.2540
  1009.4000      8.1717      2.3062      0.1040     20.8383    157.2595     26.9251
  1009.5000      8.0455      2.2984      0.1467     21.3118    163.6879     27.3754
  1009.6000      8.0455      2.3073      0.1611     20.7726    165.7176     27.4262
  1009.7000      8.0455      2.3489      0.1990     18.2473    164.8269     27.2188
  1009.8000      8.0502      2.4414      0.2195     12.6412    164.2063     26.9769
  1009.9000      8.0502      2.5693      0.4055      4.8906    165.2546     26.7218
  1010.0000      8.0256      2.6784      0.5071     -1.7207    165.6471     26.4100
  1010.1000      8.0256      2.7264      0.5585     -4.6273    164.0577     26.2581
  1010.2000      8.0256      2.7061      0.5270     -3.3995    162.7359     26.4500
  1010.3000      8.0032      2.6370      0.4208      0.7883    161.8229     26.8242
  1010.4000      8.0032      2.5649      0.2276      5.1568    159.9771     27.2156
  1010.5000      8.0273      2.5366      0.1781      6.8713    159.6361     27.6746
  1010.6000      8.0273      2.5519      0.1806      5.9468    161.6522     28.0896
  1010.7000      8.0273      2.5722      0.1784      4.7142    162.2398     28.2763
  1010.8000      8.0548      2.5762      0.1551      4.4723    159.9999     28.4052
  1010.9000      8.0548      2.5711      0.1463      4.7845    156.5364     28.6514
  1011.0000      8.0503      2.5633      0.1308      5.2558    152.6845     28.7729
  1011.1000      8.0503      2.5516      0.1163      5.9645    150.2803     28.5075
  1011.2000      8.0503      2.5429      0.0803      6.4916    151.6465     28.0037
  1011.3000      8.0895      2.5470      0.0831      6.2417    156.6068     27.7454
  1011.4000      8.0895      2.5581      0.0982      5.5677    161.5591     28.0464
  1011.5000      8.0509      2.5674      0.0754      5.0073    162.9097     28.4587
  1011.6000      8.0509      2.5756      0.1000      4.5112    161.4064     28.3106
  1011.7000      8.0509      2.5826      0.0779      4.0852    158.9625     27.7822
  1011.8000      8.0416      2.5864      0.0995      3.8533    155.0650     27.4944
  1011.9000      8.0416      2.5831      0.1298      4.0536    151.2383     27.4996
  1012.0000      8.0346      2.5724      0.1324      4.7024    150.8197     27.5119
  1012.1000      8.0346      2.5667      0.1060      5.0508    152.4403     27.4696
  1012.2000      8.0346      2.5694      0.1326      4.8851    150.8331     27.4586
  1012.3000      8.0296      2.5618      0.1574      5.3447    145.8802     27.5614
  1012.4000      8.0296      2.5402      0.0868      6.6542    140.9734     27.6579
  1012.5000      8.0700      2.5292      0.0768      7.3232    137.8624     27.5190
  1012.6000      8.0700      2.5377      0.1171      6.8058    137.4504     27.3339
  1012.7000      8.0700      2.5438      0.1181      6.4362    137.7771     27.4503
  1012.8000      8.0465      2.5324      0.1156      7.1261    135.6127     27.7551
  1012.9000      8.0465      2.5201      0.0701      7.8706    131.0877     27.9727
  1013.0000      8.0471      2.5306      0.1141      7.2366    127.6269     28.1625
  1013.1000      8.0471      2.5639      0.1478      5.2161    127.7369     28.4220
  1013.2000      8.0471      2.6113      0.1789      2.3459    128.5569     28.5949
  1013.3000      8.0491      2.6672      0.2083     -1.0449    126.8409     28.5292
  1013.4000      8.0491      2.7166      0.2369     -4.0363    124.1350     28.1557
  1013.5000      8.0175      2.7467      0.2367     -5.8618    122.0167     27.5201
  1013.6000      8.0175      2.7685      0.2067     -7.1832    119.3142     27.0448
  1013.7000      8.0175      2.7957      0.2076     -8.8284    117.2027     27.0601
  1013.8000      7.9819      2.8172      0.2344    -10.1311    117.5352     27.2987
  1013.9000      7.9819      2.8193      0.1811    -10.2587    119.8104     27.3744
  1014.0000      7.9961      2.8092      0.1784     -9.6479    123.2578     27.2522
  1014.1000      7.9961      2.7953      0.1436     -8.8079    124.7526     27.0487
  1014.2000      7.9961      2.7746      0.1303     -7.5492    121.7749     26.8274
  1014.3000      7.9496      2.7403      0.1042     -5.4712    118.0838     26.6339
  1014.4000      7.9496      2.6923      0.1152     -2.5607    118.5449     26.4161
  1014.5000      7.9734      2.6374      0.0431      0.7639    122.9017     26.1023
  1014.6000      7.9734      2.5836      0.0264      4.0232    128.7778     25.7352
  1014.7000      7.9734      2.5409     -0.0152      6.6128    135.4814     25.2540
  1014.8000      8.0066      2.5206      0.0027      7.8423    142.9704     24.6416
  1014.9000      8.0066      2.5171      0.0613      8.0550    148.6567     24.1788
  1015.0000      8.0364      2.5143      0.0199      8.2226    149.8946     24.0885
  1015.1000      8.0364      2.5105      0.0444      8.4563    148.3548     24.3180
  1015.2000      8.0364      2.5082      0.0480      8.5922    146.7631     24.5556
  1015.3000      8.0573      2.5037      0.0855      8.8667    145.5741     24.5515
  1015.4000      8.0573      2.4966      0.0513      9.3000    145.1034     24.5382
  1015.5000      8.0489      2.4894      0.0758      9.7342    147.3761     24.8010
  1015.6000      8.0489      2.4764      0.1456     10.5241    152.6992     25.2396
  1015.7000      8.0489      2.4579      0.0776     11.6403    157.3490     25.5633
  1015.8000      8.0609      2.4551      0.0396     11.8112    158.4068     25.6695
  1015.9000      8.0609      2.4790      0.0703     10.3666    157.3844     25.6163
  1016.0000      7.9876      2.5108      0.1278      8.4336    154.3892     25.4329
  1016.1000      7.9876      2.5298      0.1404      7.2864    148.3488     25.2149
  1016.2000      7.9876      2.5330      0.1424      7.0895    143.9708     25.1008
  1016.3000      8.0124      2.5274      0.1472      7.4296    146.0376     25.0402
  1016.4000      8.0124      2.5197      0.1504      7.8992    149.9999     24.8719
  1016.5000      8.0221      2.5144      0.1623      8.2199    151.4756     24.7229
  1016.6000      8.0221      2.5107      0.1836      8.4440    151.9596     24.8159
  1016.7000      8.0221      2.5002      0.1765      9.0795    150.5043     25.1135
  1016.8000      7.9706      2.4774      0.1501     10.4607    146.6928     25.5595
  1016.9000      7.9706      2.4490      0.1323     12.1788    145.3460     25.9641
  1017.0000      8.0088      2.4263      0.0782     13.5567    148.3517     26.1005
  1017.1000      8.0088      2.4139      0.0805     14.3085    151.7761     26.1421
  1017.2000      8.0088      2.4062      0.0834     14.7729    151.8391     26.1831
  1017.3000      8.0435      2.3989      0.0372     15.2204    151.0538     26.1141
  1017.4000      8.0435      2.3957      0.0420     15.4139    153.7943     26.0191
  1017.5000      8.0269      2.3963      0.0759     15.3735    157.1051     26.0462
