~Version Information
VERS.                      2.0: CWLS Log ASCII Standard - VERSION 2.0
WRAP.                       NO: One line per depth step
~Well Information Block
STRT.FT               563.6000: 
STOP.FT              2133.0000: 
STEP.FT                 0.1000: 
NULL.                -999.2500: 
COMP.          Petrogulf Corporation: COMPANY
WELL.             State 16-43V: WELL
FLD.           Purgatorie River: FIELD
LOC.           2437' FSL & 734' FEL: LOCATION
CNTY.               Las Animas: COUNTY
SRVC.                         : SERVICE COMPANY
DATE.          Mon Dec 06 06:01:26 2004: LOG DATE
UWI.           05 071 08015 00: UNIQUE WELL ID
STAT.                 Colorado: STATE
~Curve Information Block
DEPT.FT            0 000 00 00: Depth
DCAL.in                       : CDL Caliper
RHOB.g/cc                     : CDL Bulk Density
RHOC.g/cc                     : CDL Density Correction
DPOR.pu                       : CDL Density Porosity
GR.GAPI                       : Gamma Ray
NPOR.pu                       : Neutron Porosity
~Parameter Information Block
~A  Depth       DCAL        RHOB        RHOC        DPOR         GR         NPOR    
# ...
  1197.2000      7.9793      2.4121     -0.0159     14.4171     74.8669     19.5452
  1197.3000      7.9959      2.4048      0.0046     14.8577     74.3342     19.5223
  1197.4000      7.9959      2.4267     -0.0199     13.5341     76.0209     19.2975
  1197.5000      8.0207      2.4660      0.0456     11.1528     78.5581     19.1129
  1197.6000      8.0207      2.4964      0.0704      9.3100     78.2363     19.0130
  1197.7000      8.0207      2.5098      0.0915      8.4950     74.5151     18.7401
  1197.8000      7.9856      2.5210      0.0315      7.8189     70.1930     18.0953
  1197.9000      7.9856      2.5314      0.0868      7.1873     65.1050     17.3566
  1198.0000      7.9608      2.5254      0.0687      7.5535     60.1309     17.0102
  1198.1000      7.9608      2.5065      0.0238      8.6985     58.7799     17.1616
  1198.2000      7.9608      2.4951      0.0158      9.3897     60.7052     17.5146
  1198.3000      7.9621      2.4945      0.0562      9.4238     62.6529     17.7816
  1198.4000      7.9621      2.4933     -0.0252      9.4940     62.1037     17.9268
  1198.5000      7.9704      2.4871      0.0164      9.8753     59.7841     17.9860
  1198.6000      7.9704      2.4805     -0.0274     10.2707     59.5990     18.0174
  1198.7000      7.9704      2.4840      0.0145     10.0612     64.0294     18.0263
  1198.8000      7.9658      2.4987      0.0269      9.1671     69.6719     18.0045
  1198.9000      7.9658      2.5129      0.0614      8.3099     72.3785     18.1324
  1199.0000      7.9420      2.5179      0.0065      8.0071     72.2534     18.3889
  1199.1000      7.9420      2.5154      0.0806      8.1583     69.4257     18.5108
  1199.2000      7.9420      2.5139      0.0111      8.2488     63.8618     18.5623
  1199.3000      7.9687      2.5265      0.0488      7.4827     60.0935     18.8268
  1199.4000      7.9687      2.5386      0.0954      6.7527     63.2759     19.1757
  1199.5000      7.9856      2.5283      0.0631      7.3742     72.5682     19.1404
  1199.6000      7.9856      2.5143      0.0801      8.2216     81.0525     18.6286
  1199.7000      7.9856      2.5202      0.0039      7.8652     82.0578     18.1128
  1199.8000      7.9983      2.5337      0.0785      7.0501     75.9305     18.1404
  1199.9000      7.9983      2.5280      0.0630      7.3930     70.1874     18.4432
  1200.0000      7.9510      2.5088      0.0560      8.5602     69.8335     18.3145
  1200.1000      7.9510      2.5009      0.0150      9.0385     73.0999     17.8660
  1200.2000      7.9510      2.5112      0.0356      8.4143     77.2606     17.7381
  1200.3000      7.9381      2.5248      0.1136      7.5881     78.3781     17.9744
  1200.4000      7.9381      2.5236      0.0687      7.6579     73.5321     18.0267
  1200.5000      7.9455      2.5103      0.0543      8.4643     67.3206     17.7613
  1200.6000      7.9455      2.4944      0.0443      9.4287     66.6029     17.5534
  1200.7000      7.9455      2.4798      0.0296     10.3138     70.5895     17.4859
  1200.8000      7.9552      2.4719     -0.0115     10.7943     73.2649     17.4885
  1200.9000      7.9552      2.4665      0.0459     11.1187     71.6983     17.7019
  1201.0000      7.9328      2.4531      0.0491     11.9339     69.7194     17.9673
  1201.1000      7.9328      2.4430     -0.0320     12.5475     70.9380     17.7524
  1201.2000      7.9328      2.4497      0.0172     12.1382     72.1964     17.1356
  1201.3000      7.9593      2.4595      0.0262     11.5445     70.8056     16.7815
  1201.4000      7.9593      2.4683      0.0305     11.0109     68.2687     16.9939
  1201.5000      7.9494      2.4892      0.0342      9.7456     66.1852     17.3762
  1201.6000      7.9494      2.5186      0.0634      7.9637     64.4856     17.4848
  1201.7000      7.9494      2.5388      0.0751      6.7401     62.7329     17.3644
  1201.8000      7.9722      2.5418      0.0888      6.5588     61.1022     17.0939
  1201.9000      7.9722      2.5383      0.0748      6.7690     58.9808     16.7112
  1202.0000      7.9479      2.5381      0.0608      6.7834     56.5973     16.4306
  1202.1000      7.9479      2.5351      0.0895      6.9614     56.9828     16.2115
  1202.2000      7.9479      2.5244      0.0651      7.6098     60.1745     16.0355
  1202.3000      7.9601      2.5124      0.0274      8.3383     63.4411     15.9507
  1202.4000      7.9601      2.5026      0.0343      8.9350     66.2668     15.9794
  1202.5000      7.9665      2.4885      0.0443      9.7904     68.4704     16.2202
  1202.6000      7.9665      2.4697     -0.0011     10.9300     68.3134     16.4276
  1202.7000      7.9665      2.4618      0.0228     11.4048     66.4513     16.4130
  1202.8000      7.9537      2.4777      0.0377     10.4404     65.0880     16.4234
  1202.9000      7.9537      2.5042      0.0854      8.8390     63.6690     16.4816
  1203.0000      7.9522      2.5229      0.0487      7.7002     61.0574     16.4408
  1203.1000      7.9522      2.5397      0.0378      6.6847     57.3625     16.2311
  1203.2000      7.9522      2.5539      0.0572      5.8268     53.8545     15.8072
  1203.3000      7.9409      2.5531      0.0283      5.8753     54.2513     15.4747
  1203.4000      7.9409      2.5443      0.0641      6.4076     59.5161     15.6557
  1203.5000      7.9681      2.5440      0.0301      6.4245     62.6459     16.2790
  1203.6000      7.9681      2.5559      0.0517      5.7037     60.6865     16.6528
  1203.7000      7.9681      2.5674      0.0854      5.0038     59.2926     16.4815
  1203.8000      7.9790      2.5631      0.0646      5.2663     60.4519     16.4128
  1203.9000      7.9790      2.5397      0.0694      6.6826     60.8797     16.7794
  1204.0000      7.9842      2.5080      0.0872      8.6079     60.2098     17.1694
  1204.1000      7.9842      2.4838      0.0136     10.0711     61.1602     17.3544
  1204.2000      7.9842      2.4791      0.0056     10.3590     64.0267     17.3441
  1204.3000      7.9765      2.4878      0.0266      9.8288     65.7997     17.0536
  1204.4000      7.9765      2.4962     -0.0006      9.3222     64.1493     16.7264
  1204.5000      7.9691      2.5006      0.0403      9.0568     61.1870     16.6882
  1204.6000      7.9691      2.5083      0.0296      8.5871     61.0231     17.0507
  1204.7000      7.9691      2.5276      0.0655      7.4158     63.6982     17.6338
  1204.8000      7.9858      2.5547      0.0733      5.7775     65.4184     18.0109
  1204.9000      7.9858      2.5759      0.1086      4.4881     63.7373     18.1615
  1205.0000      8.0206      2.5745      0.0759      4.5768     59.9300     18.2504
  1205.1000      8.0206      2.5486      0.0144      6.1463     56.2271     18.1011
  1205.2000      8.0206      2.5225      0.0341      7.7258     55.1664     17.7165
  1205.3000      8.0082      2.5124      0.0513      8.3399     57.9334     17.5312
  1205.4000      8.0082      2.5154      0.0243      8.1587     60.6272     17.6709
  1205.5000      8.0005      2.5262      0.0327      7.5012     58.6690     17.7742
  1205.6000      8.0005      2.5342      0.0832      7.0210     53.2598     17.6548
  1205.7000      8.0005      2.5289      0.0613      7.3420     49.6894     17.5713
  1205.8000      7.9961      2.5186      0.0193      7.9624     51.3325     17.4687
  1205.9000      7.9961      2.5194     -0.0151      7.9123     56.1739     17.0641
  1206.0000      7.9781      2.5276      0.0304      7.4191     58.9360     16.7290
  1206.1000      7.9781      2.5279      0.0133      7.3991     57.9742     16.9149
  1206.2000      7.9781      2.5227      0.0289      7.7141     56.9083     17.4566
  1206.3000      7.9655      2.5220      0.0388      7.7577     59.8248     18.0234
  1206.4000      7.9655      2.5242      0.0404      7.6243     64.5636     18.1911
  1206.5000      7.9649      2.5267      0.0434      7.4741     65.1573     17.9316
  1206.6000      7.9649      2.5354      0.0352      6.9463     62.1374     17.8608
  1206.7000      7.9649      2.5460      0.0770      6.3053     60.8675     18.0025
