~Version Information
VERS.                      2.0: CWLS Log ASCII Standard - VERSION 2.0
WRAP.                       NO: One line per depth step
~Well Information Block
STRT.FT               750.6000: 
STOP.FT              2495.5000: 
STEP.FT                 0.1000: 
NULL.                -999.2500: 
COMP.                         : COMPANY
WELL.                         : WELL
FLD.                          : FIELD
LOC.                          : LOCATION
CNTY.                         : COUNTY
SRVC.                         : SERVICE COMPANY
DATE.          Sat Feb 28 14:05:57 2004: LOG DATE
UWI.                          : UNIQUE WELL ID
STAT.                         : STATE
~Curve Information Block
DEPT.FT            0 000 00 00: Depth
DCAL.in                       : CDL Caliper
RHOB.g/cc                     : CDL Bulk Density
RHOC.g/cc                     : CDL Density Correction
DPOR.pu                       : CDL Density Porosity
GR.GAPI                       : Gamma Ray
NPOR.pu                       : Neutron Porosity
~Parameter Information Block
~A  Depth       DCAL        RHOB        RHOC        DPOR         GR         NPOR    
# ...
  2257.8000      7.8557      2.0953      0.2594     33.6203     62.5086     31.6225
  2257.9000      7.8557      2.1629      0.2989     29.5238     61.9274     31.0742
  2258.0000      7.8959      2.2463      0.1408     24.4665     58.4084     30.5966
  2258.1000      7.8959      2.3417      0.0994     18.6858     56.8960     29.7865
  2258.2000      7.8959      2.4309      0.1713     13.2777     61.0111     28.9370
  2258.3000      7.9207      2.4911      0.1347      9.6327     69.3997     28.5998
  2258.4000      7.9207      2.5283      0.1558      7.3787     79.2466     28.5925
  2258.5000      7.9341      2.5654      0.1345      5.1281     88.8866     28.3611
  2258.6000      7.9341      2.6036      0.1275      2.8124     95.1947     27.7953
  2258.7000      7.9341      2.6145      0.1741      2.1521     97.4436     27.0984
  2258.8000      7.9420      2.5836      0.1391      4.0241    103.0691     26.3737
  2258.9000      7.9420      2.5410      0.1057      6.6069    115.2170     25.8887
  2259.0000      7.8970      2.5181      0.1003      7.9949    122.8349     25.7929
  2259.1000      7.8970      2.5104      0.0908      8.4609    118.9658     25.6993
  2259.2000      7.8970      2.5056      0.0579      8.7543    111.5798     25.1768
  2259.3000      7.8882      2.5060      0.0902      8.7258    107.9624     24.5316
  2259.4000      7.8882      2.5115      0.0921      8.3942    107.7068     24.2736
  2259.5000      7.9137      2.5152      0.0635      8.1721    110.2415     24.4621
  2259.6000      7.9137      2.5143      0.0090      8.2271    112.5979     24.9971
  2259.7000      7.9137      2.5058      0.0106      8.7407    109.6839     25.3960
  2259.8000      7.9562      2.4868      0.0708      9.8899    102.2843     25.0614
  2259.9000      7.9562      2.4685      0.0338     11.0003     97.0653     24.3116
  2260.0000      7.9742      2.4701      0.0840     10.9033    101.4037     23.5754
  2260.1000      7.9742      2.4882      0.0760      9.8051    114.9273     23.1837
  2260.2000      7.9742      2.4997      0.0719      9.1093    125.0087     23.6170
  2260.3000      7.9606      2.4923      0.0546      9.5586    124.1731     24.4508
  2260.4000      7.9606      2.4768      0.1276     10.4993    116.1836     24.8276
  2260.5000      7.9386      2.4705      0.0985     10.8794    106.9929     24.7527
  2260.6000      7.9386      2.4777      0.1583     10.4414    102.0900     24.6605
  2260.7000      7.9386      2.4855      0.1412      9.9691     99.6614     24.8378
  2260.8000      7.9374      2.4914      0.0850      9.6130     97.0537     25.4032
  2260.9000      7.9374      2.5025      0.1420      8.9381     96.2154     25.8526
  2261.0000      7.9576      2.5134      0.1039      8.2761     94.1967     25.3481
  2261.1000      7.9576      2.5159      0.1187      8.1281     87.4193     24.2976
  2261.2000      7.9576      2.5036      0.1190      8.8743     79.3448     23.8034
  2261.3000      7.9758      2.4858      0.0475      9.9526     73.5504     23.8815
  2261.4000      7.9758      2.4819      0.0517     10.1894     69.4510     24.0381
  2261.5000      7.9856      2.4841      0.0849     10.0566     65.5059     24.2708
  2261.6000      7.9856      2.4790      0.0265     10.3629     63.3174     24.4438
  2261.7000      7.9856      2.4744      0.0315     10.6430     66.6316     24.2343
  2261.8000      7.9899      2.4751      0.0718     10.5996     71.8614     23.8733
  2261.9000      7.9899      2.4879      0.0153      9.8226     71.8850     23.7690
  2262.0000      7.9876      2.5215      0.0845      7.7901     68.8851     23.8544
  2262.1000      7.9876      2.5526      0.1127      5.9054     69.7976     23.7100
  2262.2000      7.9876      2.5546      0.0299      5.7804     75.2405     23.2115
  2262.3000      7.9864      2.5363      0.0506      6.8916     79.7563     22.8238
  2262.4000      7.9864      2.5130      0.0598      8.3049     82.1200     22.7615
  2262.5000      7.9869      2.4931      0.0869      9.5065     87.4665     22.9033
  2262.6000      7.9869      2.4826      0.1060     10.1461     94.2727     23.3912
  2262.7000      7.9869      2.4800      0.0745     10.3014     95.1072     23.9833
  2262.8000      7.9850      2.4753      0.0847     10.5866     87.1425     23.9940
  2262.9000      7.9850      2.4546      0.0601     11.8439     75.8506     23.4408
  2263.0000      7.9840      2.4240     -0.0072     13.6969     69.3085     22.8118
  2263.1000      7.9840      2.4048      0.0373     14.8592     68.5726     22.4776
  2263.2000      7.9840      2.4025      0.0697     14.9994     69.7789     22.8663
  2263.3000      7.9918      2.4115      0.0659     14.4539     71.1868     23.8605
  2263.4000      7.9918      2.4256      0.0738     13.6002     71.7598     24.4145
  2263.5000      7.9902      2.4333      0.0345     13.1321     73.0005     24.0736
  2263.6000      7.9902      2.4246      0.1308     13.6585     76.5809     23.5453
  2263.7000      7.9902      2.4103      0.0260     14.5301     79.2076     23.4234
  2263.8000      7.9840      2.4196      0.0876     13.9658     80.0674     23.7832
  2263.9000      7.9840      2.4561      0.0492     11.7490     84.4403     24.3313
  2264.0000      7.9861      2.4865      0.1402      9.9089     96.4025     24.8094
  2264.1000      7.9861      2.4825      0.0987     10.1498    112.3652     25.1596
  2264.2000      7.9861      2.4528      0.0609     11.9500    127.2868     25.1125
  2264.3000      7.9829      2.4170      0.0304     14.1215    140.7975     24.5652
  2264.4000      7.9829      2.3878     -0.0013     15.8911    151.3747     23.9885
  2264.5000      7.9955      2.3751      0.0169     16.6618    156.1204     23.8147
  2264.6000      7.9955      2.3834      0.0138     16.1552    154.4401     23.8234
  2264.7000      7.9955      2.4054      0.0607     14.8213    149.5286     23.6632
  2264.8000      7.9941      2.4157      0.0996     14.1980    144.5585     23.5290
  2264.9000      7.9941      2.4019      0.0403     15.0356    138.4076     23.5485
  2265.0000      7.9968      2.3890      0.0115     15.8204    131.7423     23.1307
  2265.1000      7.9968      2.4028     -0.0171     14.9838    125.0739     22.1778
  2265.2000      7.9968      2.4314      0.0517     13.2500    115.6282     21.4720
  2265.3000      7.9930      2.4401      0.1092     12.7229    106.4755     21.2457
  2265.4000      7.9930      2.4189      0.0778     14.0042    102.9685     21.2409
  2265.5000      7.9887      2.3953      0.0019     15.4364    102.3223     21.5155
  2265.6000      7.9887      2.3953      0.0421     15.4383     99.2110     22.1897
  2265.7000      7.9887      2.4103      0.0735     14.5279     93.7102     23.0626
  2265.8000      7.9939      2.4198      0.0855     13.9501     88.6807     23.7364
  2265.9000      7.9939      2.4278      0.0536     13.4648     84.4943     23.9306
  2266.0000      7.9974      2.4443      0.1266     12.4639     80.5079     23.8771
  2266.1000      7.9974      2.4512      0.1262     12.0491     77.2976     24.0284
  2266.2000      7.9974      2.4374      0.0346     12.8841     75.2299     24.2153
  2266.3000      7.9970      2.4151      0.0817     14.2359     73.7446     23.8503
  2266.4000      7.9970      2.3854      0.0888     16.0367     74.6512     23.0037
  2266.5000      7.9905      2.3588     -0.0301     17.6474     78.7407     22.2044
  2266.6000      7.9905      2.3641      0.0289     17.3243     82.0465     21.8235
  2266.7000      7.9905      2.4048      0.0264     14.8577     82.4518     22.2101
  2266.8000      7.9893      2.4471      0.0972     12.2967     81.6922     23.2667
  2266.9000      7.9893      2.4605      0.0562     11.4864     79.8833     24.0791
  2267.0000      7.9869      2.4563      0.0649     11.7414     76.8194     23.8089
  2267.1000      7.9869      2.4490      0.1014     12.1830     74.6191     22.8369
  2267.2000      7.9869      2.4298      0.1089     13.3461     72.4757     22.2418
  2267.3000      7.9904      2.4083      0.0394     14.6480     68.9274     22.3396
