~Version Information
VERS.                      2.0: CWLS Log ASCII Standard - VERSION 2.0
WRAP.                       NO: One line per depth step
~Well Information Block
STRT.FT               270.0000: 
STOP.FT              1771.7000: 
STEP.FT                 0.1000: 
NULL.                -999.2500: 
COMP.          Pioneer Natural Resources: COMPANY
WELL.           Labrador 34-30: WELL
FLD.           Purgatoire River: FIELD
LOC.           926' FSL & 2080' FEL: LOCATION
PROV.                 Colorado: PROVINCE
CNTY.               Las Animas: COUNTRY
SRVC.                Patterson: SERVICE COMPANY
DATE.          Mon Dec 06 08:24:34 2004: LOG DATE
UWI.           05 071 08202 00: UNIQUE WELL ID
~Curve Information Block
DEPT.FT            0 000 00 00: Depth
DCAL.in                       : CDL Caliper
RHOB.g/cc                     : CDL Bulk Density
RHOC.g/cc                     : CDL Density Correction
DPOR.pu                       : CDL Density Porosity
NPOR.pu                       : Neutron Porosity
GR.GAPI                       : Gamma Ray
~Parameter Information Block
~A  Depth       DCAL        RHOB        RHOC        DPOR        NPOR         GR     
# ...
  1546.8000      7.9972      2.5387      0.0504      6.7437     19.4291    105.8702
  1546.9000      7.9972      2.5159      0.0230      8.1253     19.8734    105.1743
  1547.0000      7.9853      2.5094      0.0083      8.5205     20.2061    103.6126
  1547.1000      7.9853      2.5118      0.0416      8.3729     20.3704    100.5790
  1547.2000      7.9853      2.5089      0.0495      8.5537     20.5153     96.1063
  1547.3000      7.9802      2.5007      0.0299      9.0466     20.7527     92.3668
  1547.4000      7.9802      2.4982      0.0247      9.1990     21.2224     90.6500
  1547.5000      7.9822      2.5053      0.0013      8.7726     21.8095     89.1753
  1547.6000      7.9822      2.5131      0.0489      8.2955     22.3116     89.0452
  1547.7000      7.9822      2.5178     -0.0120      8.0132     22.9279     93.5177
  1547.8000      7.9914      2.5298      0.0189      7.2820     23.7006     97.9891
  1547.9000      7.9914      2.5472      0.0441      6.2309     24.1100     95.7229
  1548.0000      8.0041      2.5476      0.0749      6.2079     23.7156     90.0679
  1548.1000      8.0041      2.5181      0.0544      7.9953     22.6139     88.4896
  1548.2000      8.0041      2.4772      0.0067     10.4739     21.2961     92.2863
  1548.3000      8.0060      2.4567     -0.0009     11.7156     20.5762     98.7869
  1548.4000      8.0060      2.4664      0.0191     11.1282     20.6990    106.8179
  1548.5000      7.9940      2.4959      0.0690      9.3399     21.1395    112.3462
  1548.6000      7.9940      2.5454      0.0348      6.3402     21.6727    112.1995
  1548.7000      7.9940      2.6215      0.0763      1.7278     22.3676    112.5496
  1548.8000      7.9803      2.7091      0.1567     -3.5839     23.0805    115.0104
  1548.9000      7.9803      2.7778      0.2140     -7.7468     23.5005    111.5634
  1549.0000      7.9683      2.8162      0.1348    -10.0733     23.6826    101.8001
  1549.1000      7.9683      2.8307      0.1652    -10.9487     24.0957     95.5652
  1549.2000      7.9683      2.8154      0.1409    -10.0262     25.0288     95.6502
  1549.3000      7.9595      2.7695      0.0378     -7.2439     26.3313     96.9748
  1549.4000      7.9595      2.7122      0.0139     -3.7726     27.3001     97.0864
  1549.5000      7.9566      2.6611     -0.0320     -0.6727     27.5260     97.4002
  1549.6000      7.9566      2.6209     -0.0814      1.7616     27.3080    102.3336
  1549.7000      7.9566      2.5785     -0.0881      4.3319     26.7222    110.6073
  1549.8000      7.9585      2.5181     -0.0975      7.9963     25.6983    114.3992
  1549.9000      7.9585      2.4601     -0.0992     11.5091     24.4890    112.4453
  1550.0000      7.9660      2.4331     -0.0303     13.1441     23.4659    110.3238
  1550.1000      7.9660      2.4253      0.0308     13.6184     22.7366    111.2898
  1550.2000      7.9660      2.4190     -0.0055     14.0023     22.0434    114.3314
  1550.3000      7.9764      2.4143      0.0438     14.2821     21.3110    117.1202
  1550.4000      7.9764      2.3974      0.0688     15.3076     20.6940    120.9978
  1550.5000      7.9804      2.3612      0.0141     17.5013     20.1487    125.0345
  1550.6000      7.9804      2.3316      0.0491     19.2976     19.5668    124.9558
  1550.7000      7.9804      2.3256      0.0247     19.6576     19.1427    122.0169
  1550.8000      7.9784      2.3310      0.0577     19.3332     19.2650    121.1271
  1550.9000      7.9784      2.3293      0.0687     19.4386     19.7797    125.5384
  1551.0000      7.9763      2.3159      0.0647     20.2481     19.9439    132.6543
  1551.1000      7.9763      2.3016      0.0357     21.1160     19.6196    135.0703
  1551.2000      7.9763      2.3025      0.0176     21.0589     19.3480    134.3282
  1551.3000      7.9739      2.3254      0.0435     19.6742     19.2255    135.7866
  1551.4000      7.9739      2.3590      0.0842     17.6380     18.9494    135.6544
  1551.5000      7.9720      2.3847      0.1064     16.0780     18.6687    132.0818
  1551.6000      7.9720      2.3935      0.1350     15.5462     18.8185    131.0753
  1551.7000      7.9720      2.3867      0.0976     15.9548     19.0514    136.1426
  1551.8000      7.9779      2.3704      0.1059     16.9461     18.8699    144.7028
  1551.9000      7.9779      2.3575      0.0851     17.7289     18.6860    153.6730
  1552.0000      7.9887      2.3631      0.0576     17.3895     18.8091    158.9168
  1552.1000      7.9887      2.3809      0.0910     16.3116     18.9385    157.6702
  1552.2000      7.9887      2.3919      0.0820     15.6421     18.6416    152.9372
  1552.3000      8.0001      2.3948      0.0701     15.4681     17.9284    148.9597
  1552.4000      8.0001      2.3980      0.0766     15.2739     17.5307    146.4006
  1552.5000      8.0087      2.4066      0.0654     14.7514     17.8443    145.6172
  1552.6000      8.0087      2.4288      0.0669     13.4058     18.3479    146.5240
  1552.7000      8.0087      2.4677      0.1418     11.0508     18.5366    146.2982
  1552.8000      8.0125      2.5018      0.1522      8.9846     18.5698    143.1985
  1552.9000      8.0125      2.5057      0.1400      8.7446     18.6474    138.1602
  1553.0000      8.0115      2.4854      0.0755      9.9787     18.7769    131.5984
  1553.1000      8.0115      2.4658      0.0494     11.1664     18.9826    129.6223
  1553.2000      8.0115      2.4545      0.0371     11.8503     19.2209    134.7454
  1553.3000      8.0098      2.4464      0.0373     12.3422     19.4771    136.6713
  1553.4000      8.0098      2.4491     -0.0082     12.1744     19.7120    134.7410
  1553.5000      8.0094      2.4681      0.0671     11.0237     19.8133    135.7490
  1553.6000      8.0094      2.4834      0.0954     10.0961     19.9515    135.8039
  1553.7000      8.0094      2.4801      0.0544     10.2941     20.3261    132.5783
  1553.8000      8.0095      2.4760      0.0075     10.5452     20.8150    130.7606
  1553.9000      8.0095      2.4916      0.0503      9.5996     21.3391    130.6078
  1554.0000      8.0094      2.5154      0.0930      8.1589     21.7652    129.0199
  1554.1000      8.0094      2.5204      0.0823      7.8535     22.0557    128.9299
  1554.2000      8.0094      2.5018      0.0671      8.9837     22.2981    131.9655
  1554.3000      8.0084      2.4823      0.0102     10.1654     22.4278    132.1752
  1554.4000      8.0084      2.4849     -0.0068     10.0042     22.7379    127.9263
  1554.5000      8.0015      2.5047      0.0677      8.8052     23.4601    126.9405
  1554.6000      8.0015      2.5210      0.0392      7.8181     24.1056    132.0629
  1554.7000      8.0015      2.5327      0.0161      7.1068     24.3187    132.8477
  1554.8000      7.9890      2.5530      0.0433      5.8779     24.3772    123.4660
  1554.9000      7.9890      2.5780      0.0569      4.3616     24.4015    113.5698
  1555.0000      7.9798      2.5904      0.0894      3.6141     24.2873    110.6318
  1555.1000      7.9798      2.5841      0.0912      3.9915     24.0566    112.0004
  1555.2000      7.9798      2.5691      0.0761      4.9055     23.7293    114.1549
  1555.3000      7.9719      2.5578      0.0391      5.5869     23.5615    116.9769
  1555.4000      7.9719      2.5558      0.0829      5.7071     23.8226    122.1820
  1555.5000      7.9687      2.5530      0.1057      5.8785     24.2404    127.6545
  1555.6000      7.9687      2.5349      0.0693      6.9775     24.4150    131.3197
  1555.7000      7.9687      2.5086      0.0133      8.5688     24.2272    133.7692
  1555.8000      7.9797      2.4963      0.0225      9.3157     23.8388    134.7422
  1555.9000      7.9797      2.4957      0.0642      9.3518     23.5124    134.2144
  1556.0000      7.9945      2.4884      0.0098      9.7934     23.3954    134.4205
  1556.1000      7.9945      2.4720      0.0159     10.7882     23.5428    136.5368
  1556.2000      7.9945      2.4522      0.0224     11.9896     23.6105    141.9477
  1556.3000      8.0029      2.4299      0.0135     13.3376     23.3562    149.3191
