~Version Information
VERS.                      2.0: CWLS Log ASCII Standard - VERSION 2.0
WRAP.                       NO: One line per depth step
~Well Information Block
STRT.FT               665.0000: 
STOP.FT              1972.0000: 
STEP.FT                 0.2500: 
NULL.                -999.2500: 
COMP.          Petrogulf Corporation: COMPANY
WELL.          Great Plains 22-21V: WELL
FLD.           Purgatorie River: FIELD
LOC.           63' FNL & 1895' FWL: LOCATION
PROV.                 Colorado: PROVINCE
CNTY.               Las Animas: COUNTRY
SRVC.                Patterson: SERVICE COMPANY
DATE.          Thu Sep 01 07:36:33 2005: LOG DATE
UWI.                          : UNIQUE WELL ID
~Curve Information Block
DEPT.FT            0 000 00 00: Depth
SP.mV                         : DIL Spontaneous Potential
RILD.Ohm-m                    : DIL Deep Resistivity
RILM.Ohm-m                    : DIL Medium Resistivity
RLL3.Ohm-m                    : DIL Shallow Resistivity
GR.GAPI                       : Gamma Ray
~Parameter Information Block
~A  Depth        SP         RILD        RILM        RLL3         GR     
# ...
   749.0000   2000.0000     13.2041     11.5476   2000.0000    114.8323
   749.2500   2000.0000     13.7017     10.9043   2000.0000     95.4343
   749.5000   2000.0000     12.8675     10.3619   2000.0000    101.1911
   749.7500   2000.0000     12.3911     10.3152   2000.0000     98.6109
   750.0000   2000.0000     12.3790     10.4619   2000.0000     97.0537
   750.2500   2000.0000     12.0953     10.3577   2000.0000     98.7489
   750.5000   2000.0000     11.9533     10.3898   2000.0000    110.3857
   750.7500   2000.0000     11.8416     10.6072   2000.0000    101.0248
   751.0000   2000.0000     12.0433     10.9721   2000.0000     91.3024
   751.2500   2000.0000     12.2079     11.4148   2000.0000     89.6624
   751.5000   2000.0000     12.0414     11.9761   2000.0000     91.9670
   751.7500   2000.0000     12.6202     12.2467   2000.0000     90.2999
   752.0000   2000.0000     13.0084     12.6880   2000.0000     79.2971
   752.2500   2000.0000     13.7784     13.0482   2000.0000     94.5467
   752.5000   2000.0000     13.8937     13.6821   2000.0000    117.7183
   752.7500   2000.0000     14.2984     14.0562   2000.0000    115.6563
   753.0000   2000.0000     15.0916     13.5626   2000.0000    119.1325
   753.2500   2000.0000     15.5513     13.8420   2000.0000    119.8380
   753.5000   2000.0000     15.3439     14.0811   2000.0000    115.2350
   753.7500   2000.0000     15.0394     14.1653   2000.0000    112.4252
   754.0000   2000.0000     15.5669     14.2795   2000.0000    124.5175
   754.2500   2000.0000     15.0786     14.8641   2000.0000    122.1264
   754.5000   2000.0000     14.9838     14.6964   2000.0000    134.8109
   754.7500   2000.0000     14.9554     14.4583   2000.0000    130.5576
   755.0000   2000.0000     14.7579     14.3298   2000.0000    109.7545
   755.2500   2000.0000     15.0375     14.2488   2000.0000    119.8800
   755.5000   2000.0000     15.3380     13.8636   2000.0000    127.9656
   755.7500   2000.0000     15.5406     13.8631   2000.0000    116.6994
   756.0000   2000.0000     16.0395     13.8054   2000.0000    133.5287
   756.2500   2000.0000     16.3833     14.6509   2000.0000    121.6023
   756.5000   2000.0000     16.4816     15.6264   2000.0000     99.0911
   756.7500   2000.0000     16.5970     15.7608   2000.0000    110.3069
   757.0000   2000.0000     16.9623     16.2514   2000.0000    104.5633
   757.2500   2000.0000     16.7101     17.2734   2000.0000    106.1603
   757.5000   2000.0000     16.3043     17.9001   2000.0000    100.5428
   757.7500   2000.0000     15.8798     17.4186   2000.0000    101.4897
   758.0000   2000.0000     15.4820     17.5738   2000.0000     97.7976
   758.2500   2000.0000     15.0330     16.6068   2000.0000     99.4971
   758.5000   2000.0000     15.3991     15.9985   2000.0000    110.4915
   758.7500   2000.0000     15.1364     15.1319   2000.0000    111.5314
   759.0000   2000.0000     15.6239     14.0229   2000.0000    110.2613
   759.2500   2000.0000     15.8850     13.2628   2000.0000    108.0209
   759.5000   2000.0000     16.3377     12.7207   2000.0000     98.2000
   759.7500   2000.0000     16.7866     12.6471   2000.0000    116.2402
   760.0000   2000.0000     17.1481     12.7010   2000.0000     94.9957
   760.2500   2000.0000     17.0820     13.6296   2000.0000     80.3876
   760.5000   2000.0000     16.6571     14.1774   2000.0000     79.9982
   760.7500   2000.0000     16.7130     15.0718   2000.0000     57.6054
   761.0000   2000.0000     16.6477     15.6574   2000.0000     64.7234
   761.2500   2000.0000     15.9754     16.4528   2000.0000     73.7287
   761.5000   2000.0000     16.1071     17.3772   2000.0000     65.1112
   761.7500   2000.0000     16.2394     17.5991   2000.0000     66.3023
   762.0000   2000.0000     16.2975     17.9228   2000.0000     80.5892
   762.2500   2000.0000     16.5763     17.5772   2000.0000     80.2781
   762.5000   2000.0000     17.1950     17.4557   2000.0000     88.0589
   762.7500   2000.0000     17.5759     16.8272   2000.0000     96.5350
   763.0000   2000.0000     17.9920     16.6513   2000.0000    102.2782
   763.2500   2000.0000     17.6911     16.6016   2000.0000    116.2858
   763.5000   2000.0000     17.7113     16.1429   2000.0000    111.0721
   763.7500   2000.0000     17.8930     15.9939   2000.0000    121.3905
   764.0000   2000.0000     17.5131     16.1107   2000.0000    129.1545
   764.2500   2000.0000     17.1889     15.8558   2000.0000    118.2005
   764.5000   2000.0000     17.0213     15.5534   2000.0000    131.6370
   764.7500   2000.0000     16.5930     14.7091   2000.0000    143.9924
   765.0000   2000.0000     15.7493     14.4152   2000.0000    147.2747
   765.2500   2000.0000     15.6454     13.8796   2000.0000    135.5954
   765.5000   2000.0000     15.6405     13.6942   2000.0000    107.3793
   765.7500   2000.0000     16.4612     13.8264   2000.0000    117.1868
   766.0000   2000.0000     16.5210     14.3368   2000.0000    115.9066
   766.2500   2000.0000     15.8428     14.2828   2000.0000    101.9722
   766.5000   2000.0000     16.6174     14.3735   2000.0000    112.8180
   766.7500   2000.0000     17.3913     14.5481   2000.0000    113.1786
   767.0000   2000.0000     17.3134     14.9328   2000.0000    131.2312
   767.2500   2000.0000     17.9432     15.3643   2000.0000    130.3904
   767.5000   2000.0000     18.4295     15.8932   2000.0000    106.4749
   767.7500   2000.0000     19.4846     16.5848   2000.0000    103.3885
   768.0000   2000.0000     20.4476     17.5880   2000.0000    101.7149
   768.2500   2000.0000     20.2350     18.3668   2000.0000     95.9948
   768.5000   2000.0000     21.0938     19.5529   2000.0000     73.8695
   768.7500   2000.0000     22.8575     22.1520   2000.0000     81.3278
   769.0000   2000.0000     22.2380     24.6350   2000.0000     77.8762
   769.2500   2000.0000     24.1652     25.6631   2000.0000     73.1352
   769.5000   2000.0000     25.3236     25.9751   2000.0000     86.8586
   769.7500   2000.0000     26.5616     27.0876   2000.0000     80.1965
   770.0000   2000.0000     27.8969     29.0381   2000.0000     81.6563
   770.2500   2000.0000     29.2723     28.9738   2000.0000     83.8093
   770.5000   2000.0000     29.2101     29.1155   2000.0000     81.3488
   770.7500   2000.0000     29.5172     30.7863   2000.0000     84.8984
   771.0000   2000.0000     30.7571     31.0848   2000.0000     90.6629
   771.2500   2000.0000     30.5259     31.1893   2000.0000     92.4533
   771.5000   2000.0000     32.0787     30.7229   2000.0000    101.2610
   771.7500   2000.0000     31.7740     30.8848   2000.0000     93.3419
   772.0000   2000.0000     31.2805     30.0837   2000.0000     96.0514
   772.2500   2000.0000     33.7540     31.1084   2000.0000     96.3722
   772.5000   2000.0000     33.4499     30.7866   2000.0000     93.5316
   772.7500   2000.0000     33.4342     31.8065   2000.0000     88.4760
   773.0000   2000.0000     33.0921     30.6306   2000.0000     79.7100
   773.2500   2000.0000     30.7492     30.5446   2000.0000     92.2723
   773.5000   2000.0000     31.9898     29.6725   2000.0000     96.9158
   773.7500   2000.0000     32.4486     30.0994   2000.0000     94.4360
   774.0000   2000.0000     33.0571     30.0870   2000.0000     80.2517
   774.2500   2000.0000     34.1607     31.4729   2000.0000     82.2575
   774.5000   2000.0000     33.1546     31.9835   2000.0000     83.3742
   774.7500   2000.0000     34.9788     34.2890   2000.0000     75.8253
   775.0000   2000.0000     33.1601     35.0822   2000.0000     74.1547
   775.2500   2000.0000     35.8431     34.6678   2000.0000     70.7921
   775.5000   2000.0000     36.7183     34.6982   2000.0000     92.4405
   775.7500   2000.0000     37.0107     35.0977   2000.0000    104.0808
   776.0000   2000.0000     35.2830     32.7028   2000.0000     83.9091
   776.2500   2000.0000     34.5646     32.9599   2000.0000     74.3004
   776.5000   2000.0000     35.5154     33.0023   2000.0000     80.6439
   776.7500   2000.0000     37.2175     34.3254   2000.0000     84.1579
