~Version Information
VERS.                      2.0: CWLS Log ASCII Standard - VERSION 2.0
WRAP.                       NO: One line per depth step
~Well Information Block
STRT.FT               545.0000: 
STOP.FT              1922.0000: 
STEP.FT                 0.2500: 
NULL.                -999.2500: 
COMP.          Pioneer Natural Resources: COMPANY
WELL.            Summers 21-19: WELL
FLD.           Purgatoire River: FIELD
LOC.           900' FNL & 1950' FWL: LOCATION
PROV.                 Colorado: PROVINCE
CNTY.               Las Animas: COUNTRY
SRVC.                Patterson: SERVICE COMPANY
DATE.          Sat Oct 15 03:34:13 2005: LOG DATE
UWI.           05 071 08315 00: UNIQUE WELL ID
~Curve Information Block
DEPT.FT            0 000 00 00: Depth
SN.Ohm-m                      : IEL Short Normal
SP.mV                         : IEL Spontaneous Potential
DIR.Ohm-m                     : IEL Induction Resistivity
GR.GAPI                       : Gamma Ray
~Parameter Information Block
~A  Depth        SN          SP         DIR          GR     
# ...
  1885.0000     19.7384     44.4098     18.9626     85.0257
  1885.2500     19.7570     44.6390     19.0621     83.9943
  1885.5000     20.0064     44.8006     19.1882     81.7787
  1885.7500     20.5173     44.9064     19.3222     80.5062
  1886.0000     21.2462     44.9646     19.4601     79.2260
  1886.2500     22.1060     44.9759     19.6207     78.6500
  1886.5000     23.0308     44.9369     19.8361     77.8584
  1886.7500     23.9768     44.8475     20.1324     77.2323
  1887.0000     24.8374     44.7177     20.5161     76.1929
  1887.2500     25.4700     44.5705     20.9714     75.7699
  1887.5000     25.8407     44.4421     21.4699     76.3432
  1887.7500     26.0307     44.3765     21.9848     77.6301
  1888.0000     26.1296     44.4119     22.4994     79.8704
  1888.2500     26.2072     44.5572     23.0039     80.5528
  1888.5000     26.3246     44.7707     23.4834     79.2774
  1888.7500     26.5122     44.9536     23.9129     77.1541
  1889.0000     26.7612     44.9682     24.2703     73.6640
  1889.2500     27.0367     44.6772     24.5562     72.1043
  1889.5000     27.3188     43.9947     24.8004     71.8446
  1889.7500     27.6445     42.9178     25.0445     73.1257
  1890.0000     28.0432     41.5018     25.3135     76.5199
  1890.2500     28.4547     39.7813     25.5998     78.8226
  1890.5000     28.7692     37.7247     25.8722     80.4115
  1890.7500     28.9408     35.3115     26.1006     79.6484
  1891.0000     29.0169     32.6823     26.2744     76.6715
  1891.2500     29.0278     30.1795     26.3964     74.8202
  1891.5000     28.9398     28.1859     26.4659     74.2985
  1891.7500     28.7606     26.9004     26.4756     75.7222
  1892.0000     28.5662     26.2604     26.4246     79.4246
  1892.2500     28.4119     26.0485     26.3312     82.0872
  1892.5000     28.3174     26.0357     26.2264     85.6676
  1892.7500     28.2809     26.0342     26.1372     87.8139
  1893.0000     28.2404     25.8718     26.0733     90.6831
  1893.2500     28.1190     25.3788     26.0276     92.0246
  1893.5000     27.9511     24.4307     25.9841     92.3249
  1893.7500     27.8595     23.0109     25.9254     91.0896
  1894.0000     27.9285     21.2305     25.8302     87.2057
  1894.2500     28.1592     19.3060     25.6630     83.7129
  1894.5000     28.4256     17.5381     25.3709     78.6070
  1894.7500     28.5275     16.2624     24.8982     76.3636
  1895.0000     28.3962     15.7094     24.2162     75.8426
  1895.2500     28.1125     15.8465     23.3447     77.2017
  1895.5000     27.7577     16.3876     22.3458     80.3982
  1895.7500     27.3477     16.9992     21.2980     82.4058
  1896.0000     26.8044     17.4979     20.2734     84.5376
  1896.2500     25.9891     17.8719     19.3310     85.7235
  1896.5000     24.8274     18.1787     18.5176     88.6497
  1896.7500     23.3816     18.4515     17.8686     92.1688
  1897.0000     21.8219     18.6771     17.4027    100.1612
  1897.2500     20.3363     18.8214     17.1192    106.7574
  1897.5000     19.0736     18.8666     16.9985    116.4102
  1897.7500     18.1449     18.8303     17.0063    121.0193
  1898.0000     17.5869     18.7592     17.0966    122.8221
  1898.2500     17.3330     18.7020     17.2164    120.1624
  1898.5000     17.3413     18.6866     17.3154    111.6739
  1898.7500     17.7296     18.7189     17.3661    104.7366
  1899.0000     18.7258     18.7971     17.3821     95.7850
  1899.2500     20.5063     18.9207     17.4195     92.0916
  1899.5000     23.0189     19.0870     17.5547     89.9221
  1899.7500     25.9258     19.2882     17.8515     89.5191
  1900.0000     28.7686     19.5176     18.3370     88.0198
  1900.2500     31.1847     19.7766     18.9953     85.7800
  1900.5000     32.9919     20.0734     19.7777     81.4039
  1900.7500     34.1973     20.4208     20.6227     78.8102
  1901.0000     34.9646     20.8339     21.4731     76.3836
  1901.2500     35.4790     21.3251     22.2762     75.5746
  1901.5000     35.8094     21.8998     22.9699     74.4488
  1901.7500     35.8994     22.5598     23.4738     72.8838
  1902.0000     35.6353     23.3188     23.7072     67.6023
  1902.2500     34.9457     24.2220     23.6271     61.1833
  1902.5000     33.9108     25.3560     23.2561     46.8114
  1902.7500     32.7465     26.8395     22.6736     35.2435
  1903.0000     31.6344     28.7848     21.9804     18.8832
  1903.2500     30.6033     31.2302     21.2651     10.7169
  1903.5000     29.5625     34.0378     20.5884      3.5747
  1903.7500     28.4344     36.7970     19.9822      1.4433
  1904.0000     27.2261     38.8456     19.4522      0.2811
  1904.2500     25.9503     39.5273     18.9798      0.0778
  1904.5000     24.6258     38.6266     18.5290      0.0075
  1904.7500     23.3514     36.6923     18.0602      0.0000
  1905.0000     22.2159     34.9546     17.5479   -999.2500
  1905.2500     21.2155     34.8222     16.9923   -999.2500
  1905.5000     20.3037     37.2168     16.4195   -999.2500
  1905.7500     19.4300     42.0837     15.8695   -999.2500
  1906.0000     18.5540     48.3613     15.3829   -999.2500
  1906.2500     17.6585     54.5374     14.9918   -999.2500
  1906.5000     16.8027     59.5071     14.7160   -999.2500
  1906.7500     16.1518     63.0767     14.5637   -999.2500
  1907.0000     15.8683     65.7106     14.5318   -999.2500
  1907.2500     15.9968     67.8740     14.6066   -999.2500
  1907.5000     16.4650     69.6621     14.7664   -999.2500
  1907.7500     17.1524     70.9414     14.9841   -999.2500
  1908.0000     17.9373     71.6519     15.2309   -999.2500
  1908.2500     18.7382     71.9113     15.4803   -999.2500
  1908.5000     19.5885     71.9105     15.7116   -999.2500
  1908.7500     20.6484     71.7871     15.9147   -999.2500
  1909.0000     22.0819     71.5906     15.9123   -999.2500
  1909.2500     23.8569     71.3204     16.0790   -999.2500
  1909.5000     25.6410     70.9746     16.2545   -999.2500
  1909.7500     26.9727     70.5719     16.4426   -999.2500
  1910.0000     27.5663     70.1440     16.6263   -999.2500
  1910.2500     27.3725     69.7163     16.7734   -999.2500
  1910.5000     26.4427     69.2874     16.8544   -999.2500
  1910.7500     24.9588     68.8193     16.8596   -999.2500
  1911.0000     23.3093     68.2469     16.8047   -999.2500
  1911.2500     21.8738     67.5023     16.7288   -999.2500
  1911.5000     20.7416     66.5357     16.6984   -999.2500
  1911.7500     19.7576     65.3139     16.8234   -999.2500
  1912.0000     18.7758     63.7936     17.2797   -999.2500
  1912.2500     17.8022     61.8945     18.3263   -999.2500
  1912.5000     16.9787     59.5151     20.6726   -999.2500
  1912.7500     16.5018     56.6184     24.2162   -999.2500
  1913.0000     16.4800     53.3487     29.8560   -999.2500
  1913.2500     16.8185     50.0694     38.0773   -999.2500
  1913.5000     17.2912     47.2319     48.5572   -999.2500
  1913.7500     17.6849     45.1326     59.4031   -999.2500
  1914.0000     17.9070     43.7627     67.8766   -999.2500
  1914.2500     18.0604     42.8817     72.6809   -999.2500
  1914.5000     18.3101     42.2293     74.6411   -999.2500
  1914.7500     18.6382     41.6898     75.2699   -999.2500
  1915.0000     18.8290     41.3055     75.7003   -999.2500
  1915.2500     18.7021     41.1651     76.5807   -999.2500
  1915.5000     18.3226     41.2753  26022.0898   -999.2500
  1915.7500     17.9094     41.5307 100000.0000   -999.2500
  1916.0000     17.6035     41.8002 100000.0000   -999.2500
  1916.2500     17.4336     42.0234 100000.0000   -999.2500
  1916.5000     17.3839     42.2128 100000.0000   -999.2500
  1916.7500     17.4104     42.3809 100000.0000   -999.2500
  1917.0000     17.4438     42.4820 100000.0000   -999.2500
  1917.2500     17.3993     42.3907 100000.0000   -999.2500
  1917.5000     17.2423     41.8632 100000.0000   -999.2500
  1917.7500     17.0699     40.4313 100000.0000   -999.2500
  1918.0000     17.0208     37.3694 100000.0000   -999.2500
  1918.2500     17.0232     32.0315 100000.0000   -999.2500
