~Version Information
VERS.                      2.0: CWLS Log ASCII Standard - VERSION 2.0
WRAP.                       NO: One line per depth step
~Well Information Block
STRT.FT               488.0000: 
STOP.FT              1824.7000: 
STEP.FT                 0.1000: 
NULL.                -999.2500: 
COMP.          Pioneer Natural Resources: COMPANY
WELL.            Buckeye 11-13: WELL
FLD.           Purgatoire River: FIELD
LOC.           211' FNL & 1054' FWL: LOCATION
STAT.                 Colorado: State
CNTY.               Las Animas: COUNTY
CTRY. USA : Country
SECT. 13 : Section
TOWN. 33S : Township
RANG. 67W : Range
SRVC.                Patterson: SERVICE COMPANY
DATE.          Mon Mar 07 02:06:39 2005: LOG DATE
API.           05 071 08317 00: UNIQUE WELL ID
~Curve Information Block
DEPT.FT            0 000 00 00: Depth
DCAL.in                       : CDL Caliper
RHOB.g/cc                     : CDL Bulk Density
RHOC.g/cc                     : CDL Density Correction
DPOR.pu                       : CDL Density Porosity
GR.GAPI                       : Gamma Ray
NPOR.pu                       : Neutron Porosity
~Parameter Information Block
~A  Depth       DCAL        RHOB        RHOC        DPOR         GR         NPOR    
# ...
   929.6000      7.8987      2.4872      0.1770      9.8685     34.1407     13.8919
   929.7000      7.8987      2.4841      0.1717     10.0542     30.0053     13.4564
   929.8000      7.8986      2.4688      0.1027     10.9804     26.8062     13.3932
   929.9000      7.8986      2.4450      0.1644     12.4267     27.5543     13.8570
   930.0000      7.8985      2.4222      0.0671     13.8077     30.9528     14.4118
   930.1000      7.8985      2.4194      0.0772     13.9760     34.3461     14.6175
   930.2000      7.8985      2.4311      0.1113     13.2680     36.4931     14.6393
   930.3000      7.8955      2.4464      0.0461     12.3397     36.9397     14.6558
   930.4000      7.8955      2.4744      0.1036     10.6402     35.9783     14.6919
   930.5000      7.8888      2.5085      0.1608      8.5735     35.0380     14.9696
   930.6000      7.8888      2.5321      0.1640      7.1483     35.8528     15.6322
   930.7000      7.8888      2.5495      0.1613      6.0926     39.3635     16.2712
   930.8000      7.8623      2.5722      0.1292      4.7144     44.2985     16.3683
   930.9000      7.8623      2.5939      0.1592      3.4013     47.4536     16.2445
   931.0000      7.8589      2.5920      0.1289      3.5165     46.9182     16.1294
   931.1000      7.8589      2.5612      0.0484      5.3834     44.6288     15.8489
   931.2000      7.8589      2.5215     -0.0127      7.7869     43.7300     15.5226
   931.3000      7.8952      2.4888     -0.0154      9.7671     45.4176     15.4757
   931.4000      7.8952      2.4677     -0.0372     11.0487     47.6901     15.7255
   931.5000      7.8972      2.4664     -0.0468     11.1272     48.0599     15.8899
   931.6000      7.8972      2.4901     -0.0074      9.6920     45.9088     15.8928
   931.7000      7.8972      2.5297      0.0017      7.2908     41.4232     16.0766
   931.8000      7.8965      2.5752     -0.0130      4.5344     37.0321     16.4816
   931.9000      7.8965      2.6167      0.0355      2.0204     35.2925     16.8054
   932.0000      7.8923      2.6375      0.0965      0.7585     36.0979     16.7483
   932.1000      7.8923      2.6272      0.0942      1.3801     39.3975     16.3198
   932.2000      7.8923      2.5975      0.0670      3.1822     43.8231     15.9083
   932.3000      7.8780      2.5719      0.0602      4.7326     46.1523     15.6742
   932.4000      7.8780      2.5563      0.0480      5.6785     45.0894     15.3618
   932.5000      7.8603      2.5427      0.0334      6.5002     43.1270     15.0126
   932.6000      7.8603      2.5311      0.0017      7.2053     43.0811     14.8950
   932.7000      7.8603      2.5278      0.0020      7.4055     45.7353     15.0615
   932.8000      7.8719      2.5398      0.0007      6.6774     50.4563     15.3658
   932.9000      7.8719      2.5685      0.0022      4.9401     55.7610     15.6594
   933.0000      7.8980      2.5957      0.1066      3.2928     59.4724     16.1867
   933.1000      7.8980      2.6005      0.0745      3.0016     59.8382     16.6935
   933.2000      7.8980      2.5912      0.0031      3.5610     57.4210     16.2569
   933.3000      7.9017      2.5820      0.0317      4.1217     53.3929     15.0124
   933.4000      7.9017      2.5669      0.0338      5.0361     47.7811     14.1083
   933.5000      7.9057      2.5415      0.0310      6.5735     42.2651     14.0829
   933.6000      7.9057      2.5150     -0.0138      8.1811     39.0361     14.2961
   933.7000      7.9057      2.4960     -0.0317      9.3357     38.5272     14.1762
   933.8000      7.9044      2.4840     -0.0406     10.0597     41.9363     14.0218
   933.9000      7.9044      2.4743      0.0080     10.6481     47.3215     13.8940
   934.0000      7.9032      2.4686     -0.0664     10.9929     47.4805     13.6172
   934.1000      7.9032      2.4741     -0.0073     10.6607     41.2426     13.4315
   934.2000      7.9032      2.4822      0.0144     10.1672     36.0596     13.6212
   934.3000      7.9051      2.4804      0.0149     10.2812     36.6246     13.8424
   934.4000      7.9051      2.4659      0.0305     11.1581     40.6413     13.5824
   934.5000      7.9036      2.4382      0.0256     12.8335     44.8588     13.3160
   934.6000      7.9036      2.4100     -0.0759     14.5447     48.3230     13.6859
   934.7000      7.9036      2.4068     -0.0370     14.7386     49.4091     14.2179
   934.8000      7.9046      2.4294      0.0360     13.3679     47.7829     14.1468
   934.9000      7.9046      2.4526      0.0201     11.9617     45.0533     13.6030
   935.0000      7.9044      2.4553      0.0706     11.7974     42.6324     13.2646
   935.1000      7.9044      2.4362     -0.0058     12.9593     41.0540     13.4949
   935.2000      7.9044      2.4129     -0.0264     14.3689     39.5632     14.3289
   935.3000      7.9051      2.3991     -0.0297     15.2054     39.1687     15.2085
   935.4000      7.9051      2.3989     -0.0217     15.2211     42.3233     15.4541
   935.5000      7.9095      2.4127     -0.0104     14.3830     46.4007     15.1144
   935.6000      7.9095      2.4345      0.0039     13.0631     46.8057     14.5963
   935.7000      7.9095      2.4525      0.0293     11.9691     44.7003     14.3395
   935.8000      7.9039      2.4561      0.0460     11.7522     43.4564     14.5039
   935.9000      7.9039      2.4479     -0.0293     12.2477     43.5326     14.6774
   936.0000      7.9022      2.4469     -0.0300     12.3103     44.6080     14.4027
   936.1000      7.9022      2.4593      0.0238     11.5555     46.1628     14.2899
   936.2000      7.9022      2.4669      0.0383     11.0942     47.4228     14.7905
   936.3000      7.9033      2.4575      0.0305     11.6651     48.7726     14.9518
   936.4000      7.9033      2.4400      0.0136     12.7260     49.7534     14.4196
   936.5000      7.9006      2.4252      0.0014     13.6232     49.2942     14.0833
   936.6000      7.9006      2.4133      0.0030     14.3442     49.0410     14.2904
   936.7000      7.9006      2.4031     -0.0371     14.9636     51.0958     14.7153
   936.8000      7.9031      2.3990     -0.0062     15.2096     53.9563     14.9101
   936.9000      7.9031      2.4078     -0.0338     14.6763     55.7307     14.5686
   937.0000      7.9031      2.4267      0.0088     13.5338     58.2762     13.9015
   937.1000      7.9031      2.4416      0.0068     12.6306     62.4648     13.3936
   937.2000      7.9031      2.4463      0.0270     12.3434     64.9005     13.3790
   937.3000      7.9025      2.4471      0.0359     12.2947     62.8814     13.8843
   937.4000      7.9025      2.4495      0.0286     12.1519     59.3482     14.7224
   937.5000      7.8998      2.4459      0.0391     12.3671     58.7988     16.0510
   937.6000      7.8998      2.4144      0.0533     14.2760     61.7707     17.6361
   937.7000      7.8998      2.3401      0.0421     18.7843     65.8289     18.7819
   937.8000      7.8942      2.2508     -0.0572     24.1968     68.3212     19.7890
   937.9000      7.8942      2.2047     -0.0777     26.9871     69.4371     20.7104
   938.0000      7.8916      2.2311     -0.0501     25.3857     70.9078     21.1658
   938.1000      7.8916      2.3135      0.0273     20.3934     73.8901     21.6150
   938.2000      7.8916      2.4054      0.1520     14.8234     80.7826     22.3816
   938.3000      7.8787      2.4626      0.2037     11.3564     91.3407     23.0671
   938.4000      7.8787      2.4810      0.1984     10.2397     99.7740     23.7726
   938.5000      7.9045      2.4770      0.2156     10.4835    103.6315     24.9053
   938.6000      7.9045      2.4528      0.2547     11.9492    105.3504     25.7342
   938.7000      7.9045      2.4272     -0.0040     13.5036    107.6003     25.4812
   938.8000      7.9018      2.4409     -0.0292     12.6726    112.3909     24.8991
   938.9000      7.9018      2.4943     -0.0038      9.4361    116.1232     24.8929
   939.0000      7.9055      2.5471      0.0351      6.2357    115.9590     25.3376
   939.1000      7.9055      2.5741      0.0374      4.6025    115.9924     25.6360
