~Version Information
VERS.                      2.0: CWLS Log ASCII Standard - VERSION 2.0
WRAP.                       NO: One line per depth step
~Well Information Block
STRT.FT               -14.0000: 
STOP.FT              2531.7500: 
STEP.FT                 0.2500: 
NULL.                -999.2500: 
COMP.          Petrogulf Corporation: COMPANY
WELL.            Lavedure 7-44: WELL
FLD.           Purgatorie River: FIELD
LOC.           969' FSL & 501' FEL--: LOCATION
PROV.                       CO: PROVINCE
CNTY.               Las Animas: COUNTRY
SRVC.          Patterson Wireline: SERVICE COMPANY
DATE.          Wed Dec 10 09:23:08 2003: LOG DATE
UWI.                          : UNIQUE WELL ID
~Curve Information Block
DEPT.FT            0 000 00 00: Depth
CCL.                          : Casing Collar Locator
TT3.usec                      : CBL 3' Travel Time
AMP3.mV                       : CBL 3' Amplitude
GR.GAPI                       : Gamma Ray
~Parameter Information Block
~A  Depth       CCL         TT3         AMP3         GR     
# ...
  2498.5000      0.0000    725.8350      2.8176     56.1506
  2498.7500      0.0000    719.0315      3.0119     56.5906
  2499.0000      0.0000    715.2151      3.1911     58.8795
  2499.2500      0.0000    715.5275      3.3242     63.0277
  2499.5000      0.0000    719.6146      3.3958     67.3395
  2499.7500      0.0000    725.4428      3.4168     69.4013
  2500.0000      0.0000    730.9775      3.3969     68.0071
  2500.2500      0.0000    735.5256      3.3204     64.1020
  2500.5000      0.0000    739.2463      3.1694     59.8534
  2500.7500      0.0000    741.7809      2.9565     56.9629
  2501.0000      0.0000    741.9361      2.7208     55.7545
  2501.2500      0.0000    738.7587      2.5011     55.5154
  2501.5000      0.0000    732.4406      2.3240     55.5506
  2501.7500      0.0000    724.0898      2.2012     55.9394
  2502.0000      0.0000    715.3693      2.1180     57.3013
  2502.2500      0.0000    708.5961      2.0294     59.9574
  2502.5000      0.0000    706.1084      1.8930     63.6065
  2502.7500      0.0000    708.4345      1.7115     67.8375
  2503.0000      0.0000    713.2360      1.5372     72.5537
  2503.2500      0.0000    716.8646      1.4255     77.5396
  2503.5000      0.0000    717.4475      1.3838     81.8117
  2503.7500      0.0000    716.5763      1.3704     84.0399
  2504.0000      0.0000    718.1348      1.3422     83.8856
  2504.2500      0.0000    725.3716      1.2988     82.4762
  2504.5000      0.0000    738.2743      1.2801     81.2968
  2504.7500      0.0000    752.8047      1.3228     81.1010
  2505.0000      0.0000    762.9011      1.4226     81.9736
  2505.2500      0.0000    764.5446      1.5366     83.5436
  2505.5000      0.0000    758.6432      1.6173     84.8017
  2505.7500      0.0000    749.5263      1.6436     84.5502
  2506.0000      0.0000    740.3611      1.6277     82.4498
  2506.2500      0.0000    730.7589      1.5942     79.1222
  2506.5000      0.0000    719.1870      1.5520     75.2735
  2506.7500      0.0000    706.3929      1.4948     71.4195
  2507.0000      0.0000    695.2234      1.4293     68.3562
  2507.2500      0.0000    687.7946      1.3846     67.1054
  2507.5000      0.0000    684.0110      1.3832     68.1882
  2507.7500      0.0000    682.4863      1.4172     71.2343
  2508.0000      0.0000    681.9346      1.4575     75.2406
  2508.2500      0.0000    681.6334      1.4776     79.1502
  2508.5000      0.0000    681.2932      1.4731     82.4420
  2508.7500      0.0000    681.1067      1.4634     85.3222
  2509.0000      0.0000    682.0218      1.4737     88.2376
  2509.2500      0.0000    685.5670      1.5111     91.2241
  2509.5000      0.0000    692.7249      1.5602     93.7960
  2509.7500      0.0000    702.7362      1.5970     95.2819
  2510.0000      0.0000    713.2991      1.6041     95.1118
  2510.2500      0.0000    722.1761      1.5728     93.0210
  2510.5000      0.0000    728.4545      1.5019     89.3966
  2510.7500      0.0000    732.2510      1.3979     85.3730
  2511.0000      0.0000    733.6524      1.2798     82.1316
  2511.2500      0.0000    732.1158      1.1793     79.9601
  2511.5000      0.0000    726.7124      1.1278     78.1986
  2511.7500      0.0000    717.2732      1.1434     76.1146
  2512.0000      0.0000    705.9029      1.2238     73.6523
  2512.2500      0.0000    697.0818      1.3432     71.3729
  2512.5000      0.0000    695.2443      1.4584     69.8245
  2512.7500      0.0000    701.5098      1.5309     69.0570
  2513.0000      0.0000    712.6887      1.5511     68.8536
  2513.2500      0.0000    723.5471      1.5442     69.2962
  2513.5000      0.0000    729.9068      1.5521     70.6717
  2513.7500      0.0000    729.8824      1.5984     72.7861
  2514.0000      0.0000    723.4573      1.6708     74.8273
  2514.2500      0.0000    712.3273      1.7391     76.0691
  2514.5000      0.0000    700.0692      1.7853     76.4202
  2514.7500      0.0000    691.0381      1.8084     76.1990
  2515.0000      0.0000    688.1909      1.8135     75.7202
  2515.2500      0.0000    691.9850      1.8071     75.2011
  2515.5000      0.0000    700.7926      1.7969     74.6538
  2515.7500      0.0000    711.2035      1.7841     73.7300
  2516.0000      0.0000    718.4046      1.7543     72.1405
  2516.2500     -2.0000    718.5604      1.6847     70.3092
  2516.5000     -2.0000    711.9761      1.5694     68.7860
  2516.7500      0.0000    703.0472      1.4402     66.5686
  2517.0000      0.0000    696.6376      1.3545     60.8957
  2517.2500      0.0000    694.9380      1.3502     49.8090
  2517.5000      0.0000    697.3770      1.4083     34.8147
  2517.7500      0.0000    702.2791      1.4689     20.1712
  2518.0000      0.0000    707.9391      1.4902      9.5026
  2518.2500      0.0000    712.5208      1.4895      3.5954
  2518.5000      0.0000    714.2517      1.5199      1.0836
  2518.7500      0.0000    713.0480      1.6060      0.2584
  2519.0000      0.0000    711.3692      1.7096      0.0482
  2519.2500      0.0000    711.7894      1.7590      0.0064
  2519.5000      0.0000    713.6459      1.7078      0.0000
  2519.7500      0.0000    713.4722      1.5662   -999.2500
  2520.0000      0.0000    709.0512      1.3904   -999.2500
  2520.2500      0.0000    701.8932      1.2557   -999.2500
  2520.5000      0.0000    695.3731      1.2251   -999.2500
  2520.7500      0.0000    691.6678      1.3107   -999.2500
  2521.0000      0.0000    691.2248      1.4519   -999.2500
  2521.2500      0.0000    693.6757      1.5540   -999.2500
  2521.5000      0.0000    696.7123      1.5618   -999.2500
  2521.7500      0.0000    691.7298      1.4852   -999.2500
  2522.0000      0.0000    661.0951      1.3565   -999.2500
  2522.2500      0.0000    585.4628      1.1935   -999.2500
  2522.5000      0.0000    461.3075      1.0132   -999.2500
  2522.7500      0.0000    312.1321      0.8484   -999.2500
  2523.0000      0.0000    176.4648      0.7302   -999.2500
  2523.2500      0.0000     81.7217      0.6649   -999.2500
  2523.5000      0.0000     30.5685      0.6372   -999.2500
  2523.7500      0.0000      9.1428      0.6282   -999.2500
  2524.0000      0.0000      2.1684      0.6259   -999.2500
  2524.2500      0.0000      0.4019      0.6254   -999.2500
  2524.5000      0.0000      0.0534      0.6254   -999.2500
  2524.7500      0.0000   -999.2500   -999.2500   -999.2500
  2525.0000      0.0000   -999.2500   -999.2500   -999.2500
  2525.2500      0.0000   -999.2500   -999.2500   -999.2500
  2525.5000      0.0000   -999.2500   -999.2500   -999.2500
  2525.7500      0.0000   -999.2500   -999.2500   -999.2500
  2526.0000      0.0000   -999.2500   -999.2500   -999.2500
  2526.2500      0.0000   -999.2500   -999.2500   -999.2500
  2526.5000      0.0000   -999.2500   -999.2500   -999.2500
  2526.7500      0.0000   -999.2500   -999.2500   -999.2500
  2527.0000      0.0000   -999.2500   -999.2500   -999.2500
  2527.2500      0.0000   -999.2500   -999.2500   -999.2500
  2527.5000      0.0000   -999.2500   -999.2500   -999.2500
  2527.7500      0.0000   -999.2500   -999.2500   -999.2500
  2528.0000      0.0000   -999.2500   -999.2500   -999.2500
  2528.2500      0.0000   -999.2500   -999.2500   -999.2500
  2528.5000      0.0000   -999.2500   -999.2500   -999.2500
  2528.7500      0.0000   -999.2500   -999.2500   -999.2500
  2529.0000      0.0000   -999.2500   -999.2500   -999.2500
  2529.2500      0.0000   -999.2500   -999.2500   -999.2500
  2529.5000      0.0000   -999.2500   -999.2500   -999.2500
  2529.7500      0.0000   -999.2500   -999.2500   -999.2500
  2530.0000      0.0000   -999.2500   -999.2500   -999.2500
  2530.2500      0.0000   -999.2500   -999.2500   -999.2500
  2530.5000   -999.2500   -999.2500   -999.2500   -999.2500
  2530.7500   -999.2500   -999.2500   -999.2500   -999.2500
  2531.0000   -999.2500   -999.2500   -999.2500   -999.2500
  2531.2500   -999.2500   -999.2500   -999.2500   -999.2500
  2531.5000   -999.2500   -999.2500   -999.2500   -999.2500
  2531.7500   -999.2500   -999.2500   -999.2500   -999.2500
