~Version Information
VERS.                      2.0: CWLS Log ASCII Standard - VERSION 2.0
WRAP.                       NO: One line per depth step
~Well Information Block
STRT.FT               752.0000: 
STOP.FT              2474.2000: 
STEP.FT                 0.1000: 
NULL.                -999.2500: 
COMP.          Petrogulf Corporation: COMPANY
WELL.            Montoya 7-14V: WELL
FLD.           Purgatorie River: FIELD
LOC.           535' FSL & 491' FWL: LOCATION
CNTY.               Las Animas: COUNTY
SRVC.                         : SERVICE COMPANY
DATE.          Mon Aug 23 10:41:01 2004: LOG DATE
UWI.           05 071 08019 00: UNIQUE WELL ID
STAT.                 Colorado: STATE
~Curve Information Block
DEPT.FT            0 000 00 00: Depth
DCAL.in                       : CDL Caliper
RHOB.g/cc                     : CDL Bulk Density
RHOC.g/cc                     : CDL Density Correction
DPOR.pu                       : CDL Density Porosity
GR.GAPI                       : Gamma Ray
NPOR.pu                       : Neutron Porosity
~Parameter Information Block
~A  Depth       DCAL        RHOB        RHOC        DPOR         GR         NPOR    
# ...
  1664.0000      8.2688      2.5467      0.2873      6.2596    139.5168     28.7406
  1664.1000      8.2688      2.6205      0.3503      1.7856    142.2037     28.4969
  1664.2000      8.2688      2.6943      0.3775     -2.6863    133.8354     28.9049
  1664.3000      8.1762      2.7369      0.3610     -5.2653    123.4280     29.5148
  1664.4000      8.1762      2.7429      0.3754     -5.6291    119.6913     29.9979
  1664.5000      8.1143      2.7217      0.3554     -4.3431    122.3396     30.0370
  1664.6000      8.1143      2.6856      0.2864     -2.1581    127.1706     29.2715
  1664.7000      8.1143      2.6487      0.2088      0.0800    128.3825     28.4124
  1664.8000      8.0134      2.6192      0.1232      1.8689    125.3611     27.8408
  1664.9000      8.0134      2.5966      0.0490      3.2382    124.1377     27.2288
  1665.0000      8.0540      2.5686      0.0352      4.9305    124.0083     26.6955
  1665.1000      8.0540      2.5212     -0.0092      7.8064    120.4403     26.5682
  1665.2000      8.0540      2.4566     -0.0436     11.7240    117.4389     26.7172
  1665.3000      8.0737      2.3868     -0.0304     15.9532    118.3134     26.6522
  1665.4000      8.0737      2.3223     -0.0307     19.8587    120.0449     26.6660
  1665.5000      7.9744      2.2720     -0.0524     22.9108    121.1802     27.5543
  1665.6000      7.9744      2.2454     -0.0560     24.5187    124.3254     28.8383
  1665.7000      7.9744      2.2581     -0.0371     23.7534    128.7313     29.2849
  1665.8000      7.9679      2.3126      0.1086     20.4493    131.2866     28.7294
  1665.9000      7.9679      2.3786      0.2220     16.4487    130.9327     28.0529
  1666.0000      7.9664      2.4190      0.2911     14.0024    129.5351     27.9060
  1666.1000      7.9664      2.4270      0.3512     13.5124    129.8224     28.2494
  1666.2000      7.9664      2.4224      0.3717     13.7956    129.9499     28.8848
  1666.3000      7.9740      2.4272      0.3026     13.5013    126.9827     29.7685
  1666.4000      7.9740      2.4560      0.2957     11.7601    122.7026     30.5556
  1666.5000      7.9738      2.5066      0.3003      8.6912    121.5545     30.3746
  1666.6000      7.9738      2.5672      0.2626      5.0172    127.6456     29.4688
  1666.7000      7.9738      2.6248      0.3320      1.5296    138.5434     29.1388
  1666.8000      7.9885      2.6559      0.3516     -0.3572    146.5334     29.3834
  1666.9000      7.9885      2.6439      0.3080      0.3696    148.2386     29.3152
  1667.0000      8.1725      2.6068      0.2027      2.6155    145.0567     29.0373
  1667.1000      8.1725      2.5754      0.1696      4.5207    137.8990     29.1122
  1667.2000      8.1725      2.5559      0.1256      5.7044    129.7291     29.4518
  1667.3000      8.1987      2.5432      0.0673      6.4714    127.0454     29.8142
  1667.4000      8.1987      2.5393      0.0535      6.7116    131.8223     29.6239
  1667.5000      8.1822      2.5419      0.0659      6.5505    140.4698     28.4675
  1667.6000      8.1822      2.5546      0.0160      5.7846    147.2290     27.6194
  1667.7000      8.1822      2.5849      0.0331      3.9481    146.7714     28.1685
  1667.8000      8.2333      2.6160      0.1037      2.0588    140.7317     29.0123
  1667.9000      8.2333      2.6256      0.0640      1.4797    135.5943     29.3084
  1668.0000      8.3911      2.6164      0.1078      2.0370    133.5585     29.7860
  1668.1000      8.3911      2.5991      0.0642      3.0831    132.0629     30.5417
  1668.2000      8.3911      2.5787      0.0112      4.3193    130.4790     30.7609
  1668.3000      8.4298      2.5532      0.0292      5.8696    130.5120     30.4250
  1668.4000      8.4298      2.5223     -0.0104      7.7371    128.9931     29.7866
  1668.5000      8.1720      2.4955     -0.0051      9.3614    123.6818     28.6189
  1668.6000      8.1720      2.4754     -0.0141     10.5819    118.5013     26.8670
  1668.7000      8.1720      2.4640     -0.0243     11.2752    116.8324     25.4155
  1668.8000      8.1048      2.4689     -0.0192     10.9766    117.4035     25.7137
  1668.9000      8.1048      2.4837      0.0835     10.0769    116.4094     28.0515
  1669.0000      7.9911      2.4910      0.1063      9.6394    111.8478     30.7319
  1669.1000      7.9911      2.4821      0.1367     10.1768    105.0186     31.8009
  1669.2000      7.9911      2.4577      0.1143     11.6534    102.3741     31.1102
  1669.3000      8.0641      2.4342      0.0788     13.0818    108.1530     30.0150
  1669.4000      8.0641      2.4347      0.0997     13.0498    117.3994     29.6538
  1669.5000      8.1774      2.4687      0.1214     10.9878    123.2870     29.7858
  1669.6000      8.1774      2.5302      0.1908      7.2614    124.7042     29.8065
  1669.7000      8.1774      2.5996      0.2619      3.0538    124.2476     29.7821
  1669.8000      8.1875      2.6556      0.3211     -0.3412    122.6149     29.6929
  1669.9000      8.1875      2.6851      0.3580     -2.1266    120.5066     29.2274
  1670.0000      8.0961      2.6786      0.3703     -1.7310    121.4095     28.6971
  1670.1000      8.0961      2.6367      0.3266      0.8075    123.9276     28.6257
  1670.2000      8.0961      2.5728      0.2496      4.6790    122.6783     28.6988
  1670.3000      8.0985      2.5058      0.1273      8.7376    118.4538     28.2889
  1670.4000      8.0985      2.4606      0.0029     11.4793    114.2798     27.2746
  1670.5000      8.0332      2.4597     -0.0204     11.5361    112.4540     26.2210
  1670.6000      8.0332      2.5046      0.0254      8.8149    115.6793     25.6359
  1670.7000      8.0332      2.5637      0.1649      5.2293    120.7342     25.3341
  1670.8000      8.0207      2.5994      0.1807      3.0675    121.3830     25.1686
  1670.9000      8.0207      2.6088      0.1744      2.4993    117.1083     25.4042
  1671.0000      7.9806      2.6110      0.1874      2.3632    111.0499     25.9782
  1671.1000      7.9806      2.6091      0.2132      2.4790    107.8800     26.5060
  1671.2000      7.9806      2.5904      0.1886      3.6096    110.7050     27.0007
  1671.3000      8.0296      2.5588      0.1023      5.5284    115.1391     27.5681
  1671.4000      8.0296      2.5413      0.0887      6.5895    118.1295     27.8856
  1671.5000      8.0244      2.5563      0.1023      5.6815    120.9972     27.5594
  1671.6000      8.0244      2.5907      0.1577      3.5955    122.1844     27.0525
  1671.7000      8.0244      2.6163      0.1619      2.0416    121.5985     27.0013
  1671.8000      8.0335      2.6152      0.1529      2.1108    122.7251     27.2168
  1671.9000      8.0335      2.5918      0.1164      3.5269    126.2228     27.4312
  1672.0000      8.0227      2.5683      0.0881      4.9538    128.9556     27.5241
  1672.1000      8.0227      2.5596      0.1061      5.4811    128.2427     27.2953
  1672.2000      8.0227      2.5574      0.0729      5.6139    124.8063     26.8114
  1672.3000      8.0203      2.5446      0.0984      6.3871    121.6458     26.2069
  1672.4000      8.0203      2.5242      0.0511      7.6262    123.0135     25.7867
  1672.5000      7.9798      2.5167     -0.0072      8.0761    128.2943     26.0216
  1672.6000      7.9798      2.5252      0.0544      7.5633    133.4220     26.7822
  1672.7000      7.9798      2.5335      0.0395      7.0631    138.3098     27.6663
  1672.8000      8.0028      2.5308      0.0779      7.2259    143.2461     28.4667
  1672.9000      8.0028      2.5171      0.0386      8.0532    146.6535     28.9885
  1673.0000      8.0258      2.5053      0.0125      8.7672    147.7684     29.1311
  1673.1000      8.0258      2.5026      0.0545      8.9314    148.8517     28.9926
  1673.2000      8.0258      2.5002      0.0386      9.0785    149.0848     28.8856
  1673.3000      8.0731      2.4955      0.0133      9.3659    145.1085     28.9560
  1673.4000      8.0731      2.4933      0.0296      9.4974    140.3894     29.0368
  1673.5000      8.1216      2.4975     -0.0028      9.2405    136.6040     29.0118
