~Version Information
 VERS.                                  2.0 : CWLS LAS VERSION
 WRAP.                                   NO : WRAPING MODE
 SWARE .                 MController 2.5.0J : SOFTWARE VERSION
~Well Information
 WELL.                       Galloway 32-13 : WELL
 COMP.   Pioneer Natural Resources USA Inc. : COMPANY
 FLD.                         Spanish Peaks : FIELD
 LOC.                SW/NE Sec 13 T32S R66W : LOCATION
 DATE.                             7/6-7/05 : DATE(S) LOGGED
 SRVC.       BLANCO Geological Services LLC : SERVICE COMPANY
 STAT.                                   CO : STATE
 CNTY.                           Las Animas : COUNTY
 CTRY.                                  USA : COUNTRY
 API.                       05-071-08423-00 : API NUMBER
 STRT.FT                             596.00 : START DEPTH
 STOP.FT                            2075.00 : STOP DEPTH
 STEP.FT                               1.00 : DEPTH INCREMENT
 NULL.                                -9999 : NULL VALUE
~Curve information
 DEPTH.FT                                   :
 ROP.MIN/FT                                 :
 GAS.UNITS                                  :
~ASCII Log data
# ...
      1796.0         0.40        164.0 
      1797.0         0.27        161.5 
      1798.0         0.43        148.2 
      1799.0         0.32        147.5 
      1800.0         0.33        135.2 
      1801.0         0.33        134.8 
      1802.0         0.23        152.7 
      1803.0         0.27        163.9 
      1804.0         0.37        137.0 
      1805.0         0.30        121.2 
      1806.0         0.30        142.1 
      1807.0         0.30        166.2 
      1808.0         0.30        158.5 
      1809.0         0.40        129.5 
      1810.0         0.35        129.6 
      1811.0         0.40        145.1 
      1812.0         0.40        147.4 
      1813.0         0.43        135.8 
      1814.0         0.37        141.3 
      1815.0         0.37        143.2 
      1816.0         0.37        138.9 
      1817.0         0.37        128.1 
      1818.0         0.30        134.4 
      1819.0         0.35        136.4 
      1820.0         0.17        133.4 
      1821.0         0.20        131.6 
      1822.0         0.33        138.0 
      1823.0         0.20        146.9 
      1824.0         0.20        150.2 
      1825.0         0.33        142.3 
      1826.0         0.23        134.8 
      1827.0         0.27        121.0 
      1828.0         0.20        115.3 
      1829.0         0.20        129.4 
      1830.0         0.17        146.3 
      1831.0         0.22        165.9 
      1832.0         0.17        179.5 
      1833.0         0.30        186.5 
      1834.0         0.27        169.2 
      1835.0         0.33        160.5 
      1836.0         0.33        236.0 
      1837.0         0.27        211.2 
      1838.0         0.27        113.3 
      1839.0         0.33        124.5 
      1840.0         0.30        188.6 
      1841.0         0.30        212.2 
      1842.0         0.27        215.3 
      1843.0         0.32        196.1 
      1844.0         0.20        176.4 
      1845.0         0.27        168.2 
      1846.0         0.33        173.3 
      1847.0         0.23        179.5 
      1848.0         0.13        186.1 
      1849.0         0.23        202.2 
      1850.0         0.20        222.0 
      1851.0         0.20        230.2 
      1852.0         0.17        215.5 
      1853.0         0.23        172.3 
      1854.0         0.13        135.9 
      1855.0         0.33        126.7 
      1856.0         0.32        219.1 
      1857.0         0.33        274.0 
      1858.0         0.27        272.7 
      1859.0         0.30        227.9 
      1860.0         0.33        190.4 
      1861.0         0.33        106.3 
      1862.0         0.33        125.5 
      1863.0         0.37        193.4 
      1864.0         0.37        217.3 
      1865.0         0.32        211.7 
      1866.0         0.40        178.8 
      1867.0         0.30        168.4 
      1868.0         0.37        183.6 
      1869.0         0.23        194.4 
      1870.0         0.27        191.9 
      1871.0         0.33        169.2 
      1872.0         0.37        138.8 
      1873.0         0.30        126.8 
      1874.0         0.33        146.9 
      1875.0         0.42        195.3 
      1876.0         0.37        169.2 
      1877.0         0.37        129.3 
      1878.0         0.40        136.0 
      1879.0         0.40        159.8 
      1880.0         0.37        146.6 
      1881.0         0.37        143.5 
      1882.0         0.33        139.8 
      1883.0         0.35        150.0 
      1884.0         0.40        139.0 
      1885.0         0.33        130.3 
      1886.0         0.33        153.8 
      1887.0         0.37        165.2 
      1888.0         0.33        145.9 
      1889.0         0.33        125.8 
      1890.0         0.33        132.2 
      1891.0         0.37        139.4 
      1892.0         0.38        159.3 
      1893.0         0.33        151.9 
      1894.0         0.33        152.3 
      1895.0         0.20        163.3 
      1896.0         0.23        173.3 
      1897.0         0.33        184.2 
      1898.0         0.30        171.4 
      1899.0         0.23        182.2 
      1900.0         0.20        194.5 
      1901.0         0.23        216.6 
      1902.0         0.20        229.4 
      1903.0         0.22        230.8 
      1904.0         0.13        228.4 
      1905.0         0.27        219.2 
      1906.0         0.30        178.1 
      1907.0         0.17        137.4 
      1908.0         0.17        109.2 
      1909.0         0.20        127.9 
      1910.0         0.13        167.8 
      1911.0         0.20        220.8 
      1912.0         0.13        244.4 
      1913.0         0.20        260.0 
      1914.0         0.10        259.2 
      1915.0         0.23        241.5 
      1916.0         0.17        226.0 
      1917.0         0.17        217.7 
      1918.0         0.17        218.8 
      1919.0         0.28        190.9 
      1920.0         0.27        176.7 
      1921.0         0.20        200.8 
      1922.0         0.17        225.8 
      1923.0         0.30        243.2 
      1924.0         0.27        240.0 
      1925.0         0.27        237.2 
      1926.0         0.20        211.8 
      1927.0         0.20        168.7 
      1928.0         0.20        126.3 
      1929.0         0.17        108.8 
      1930.0         0.20        137.5 
      1931.0         0.17        188.4 
      1932.0         0.17        219.2 
      1933.0         0.13        227.7 
      1934.0         0.35        204.9 
      1935.0         0.23        146.5 
      1936.0         0.17        114.1 
      1937.0         0.37         92.4 
      1938.0         0.43        225.4 
      1939.0         0.47        208.7 
      1940.0         0.37        116.2 
      1941.0         0.33        110.3 
      1942.0         0.33        163.4 
      1943.0         0.35        172.9 
      1944.0         0.40        168.1 
      1945.0         0.43        151.6 
      1946.0         0.40        153.8 
      1947.0         0.40        185.2 
      1948.0         0.30        166.6 
      1949.0         0.33        122.0 
      1950.0         0.43        163.9 
      1951.0         0.42        308.7 
      1952.0         0.30        255.6 
      1953.0         0.40        101.1 
      1954.0         0.27         93.4 
      1955.0         0.30        164.0 
      1956.0         0.30        216.7 
      1957.0         0.33        234.7 
      1958.0         0.30        245.4 
      1959.0         0.27        191.6 
      1960.0         0.30        164.5 
      1961.0         0.28        187.7 
      1962.0         0.30        191.8 
      1963.0         0.27        179.1 
      1964.0         0.37        145.0 
      1965.0         0.33        126.7 
      1966.0         0.30        142.9 
      1967.0         0.33        175.5 
      1968.0         0.33        169.0 
      1969.0         0.23        129.9 
      1970.0         0.33        142.1 
      1971.0         0.32        176.5 
      1972.0         0.33        174.5 
      1973.0         0.33        146.5 
      1974.0         0.30        125.2 
      1975.0         0.33        147.9 
      1976.0         0.33        164.0 
      1977.0         0.30        155.7 
      1978.0         0.30        132.0 
      1979.0         0.27        108.0 
      1980.0         0.27        102.7 
      1981.0         0.35        165.6 
      1982.0         0.23        191.9 
      1983.0         0.23        207.0 
      1984.0         0.23        218.4 
      1985.0         0.30        233.1 
      1986.0         0.33        210.0 
      1987.0         0.33        165.4 
      1988.0         0.27        163.5 
      1989.0         0.23        171.3 
      1990.0         0.50        137.0 
      1991.0         0.43        130.7 
      1992.0         0.55        163.0 
      1993.0         0.53        139.7 
      1994.0         0.47        149.0 
      1995.0         0.53        151.9 
