~Version Information
 VERS.                                  2.0 : CWLS LAS VERSION
 WRAP.                                   NO : WRAPING MODE
 SWARE .                 MController 2.5.0J : SOFTWARE VERSION
~Well Information
 WELL.                      McDaniel 09-34V : WELL
 COMP.                Petrogulf Corporation : COMPANY
 FLD.                      Purgatoire River : FIELD
 LOC.                SW/SE Sec 09 T33S R67W : LOCATION
 DATE.                             09/27/05 : DATE(S) LOGGED
 SRVC.       BLANCO Geological Services LLC : SERVICE COMPANY
 STAT.                                   CO : STATE
 CNTY.                           Las Animas : COUNTY
 CTRY.                                  USA : COUNTRY
 API.                       05-071-08333-00 : API NUMBER
 STRT.FT                               0.00 : START DEPTH
 STOP.FT                             2433.0 : STOP DEPTH 775.00
 STEP.FT                               1.00 : DEPTH INCREMENT
 NULL.                                -9999 : NULL VALUE
~Curve information
 DEPTH.FT                                   :
 ROP.MIN/FT                                 :
 GAS.UNITS                                  :
~ASCII Log data
# ...
      2000.0         0.47        652.1 
      2001.0         0.27        626.3 
      2002.0         0.23        713.3 
      2003.0         0.17        765.4 
      2004.0         0.13        769.5 
      2005.0         0.23        756.8 
      2006.0         0.23        731.1 
      2007.0         0.33        715.9 
      2008.0         0.38        752.3 
      2009.0         0.33        763.5 
      2010.0         0.30        717.8 
      2011.0         0.33        608.3 
      2012.0         3.15       1811.8 
      2013.0         0.47       1248.7 
      2014.0         0.63        941.2 
      2015.0         0.72        863.8 
      2016.0         0.80        768.2 
      2017.0         0.63        609.5 
      2018.0         0.27        588.6 
      2019.0         0.27        591.1 
      2020.0         0.45        589.2 
      2021.0         0.47        570.8 
      2022.0         0.33        558.1 
      2023.0         0.33        552.1 
      2024.0         0.33        548.3 
      2025.0         0.40        545.1 
      2026.0         0.40        541.3 
      2027.0         0.48        540.7 
      2028.0         0.43        538.1 
      2029.0         0.40        537.2 
      2030.0         0.30        535.6 
      2031.0         0.27        536.8 
      2032.0         0.23        537.2 
      2033.0         0.37        538.1 
      2034.0         0.40        537.5 
      2035.0         0.43        538.4 
      2036.0         0.42        538.4 
      2037.0         0.27        541.9 
      2038.0         0.17        537.8 
      2039.0         0.17        529.5 
      2040.0         0.17        523.8 
      2041.0         0.17        518.1 
      2042.0         2.28       1382.0 
      2043.0         0.43       1394.1 
      2044.0         0.37       1327.1 
      2045.0         0.30       1218.9 
      2046.0         0.30       1132.9 
      2047.0         0.33       1055.5 
      2048.0         0.47       1024.7 
      2049.0         0.55       1025.3 
      2050.0         0.47        970.1 
      2051.0         0.40        838.7 
      2052.0         0.23        768.5 
      2053.0         0.27        727.3 
      2054.0         0.27        676.2 
      2055.0         0.37        655.2 
      2056.0         0.37        628.6 
      2057.0         0.42        574.9 
      2058.0         0.27        565.1 
      2059.0         0.20        583.2 
      2060.0         0.23        582.9 
      2061.0         0.37        574.6 
      2062.0         0.37        562.6 
      2063.0         0.43        550.2 
      2064.0         0.43        543.2 
      2065.0         0.47        541.6 
      2066.0         0.42        537.8 
      2067.0         0.47        535.3 
      2068.0         0.37        532.7 
      2069.0         0.40        532.1 
      2070.0         0.57        528.6 
      2071.0         0.40        506.4 
      2072.0         2.85       1641.3 
      2073.0         0.47       1326.2 
      2074.0         0.43       1142.4 
      2075.0         0.60       1000.9 
      2076.0         0.48        989.4 
      2077.0         0.47        910.4 
      2078.0         0.47        789.5 
      2079.0         0.50        696.2 
      2080.0         0.53        625.1 
      2081.0         0.43        609.8 
      2082.0         0.17        646.0 
      2083.0         0.38        665.4 
      2084.0         0.37        638.7 
      2085.0         0.37        687.9 
      2086.0         0.17        733.6 
      2087.0         0.17        741.6 
      2088.0         0.33        733.9 
      2089.0         0.33        716.8 
      2090.0         0.37        655.9 
      2091.0         0.40        587.6 
      2092.0         0.27        571.8 
      2093.0         0.17        596.8 
      2094.0         0.20        617.1 
      2095.0         0.32        625.1 
      2096.0         0.33        626.0 
      2097.0         0.33        621.6 
      2098.0         0.33        620.0 
      2099.0         0.37        609.8 
      2100.0         0.37        585.4 
      2101.0         2.12       1673.7 
      2102.0         0.50       1686.7 
      2103.0         0.43       1582.0 
      2104.0         0.47       1394.1 
      2105.0         0.53       1181.5 
      2106.0         0.48       1048.8 
      2107.0         0.53       1036.7 
      2108.0         0.67        923.4 
      2109.0         0.57        777.4 
      2110.0         0.60        700.0 
      2111.0         0.63        730.8 
      2112.0         0.52        733.9 
      2113.0         0.43        713.3 
      2114.0         0.40        699.7 
      2115.0         0.47        693.6 
      2116.0         0.37        684.1 
      2117.0         0.47        655.2 
      2118.0         0.40        617.1 
      2119.0         0.58        599.1 
      2120.0         0.47        591.1 
      2121.0         0.47        593.3 
      2122.0         0.43        592.4 
      2123.0         0.43        590.8 
      2124.0         0.47        588.9 
      2125.0         0.57        586.0 
      2126.0         0.27        587.6 
      2127.0         0.38        592.4 
      2128.0         0.37        592.4 
      2129.0         0.43        583.8 
      2130.0         0.30        557.2 
      2131.0         0.30        540.0 
      2132.0         1.98       1483.3 
      2133.0         0.57       1594.7 
      2134.0         0.37       1561.7 
      2135.0         0.40       1420.1 
      2136.0         0.33       1275.1 
      2137.0         0.43       1158.0 
      2138.0         0.43       1094.2 
      2139.0         0.65       1075.4 
      2140.0         0.60        934.2 
      2141.0         0.53        930.7 
      2142.0         0.60        894.2 
      2143.0         0.47        812.3 
      2144.0         0.42        766.3 
      2145.0         0.30        825.3 
      2146.0         0.30        849.5 
      2147.0         0.30        854.5 
      2148.0         0.30        835.8 
      2149.0         0.37        821.9 
      2150.0         0.40        788.8 
      2151.0         0.43        741.9 
      2152.0         0.33        694.3 
      2153.0         0.42        664.1 
      2154.0         0.40        626.0 
      2155.0         0.37        603.8 
      2156.0         0.37        598.4 
      2157.0         0.40        595.2 
      2158.0         0.53        590.8 
      2159.0         0.37        590.2 
      2160.0         0.43        589.5 
      2161.0         0.45        576.8 
      2162.0         2.40       1551.5 
      2163.0         0.35       1599.1 
      2164.0         0.30       1563.3 
      2165.0         0.33       1461.1 
      2166.0         0.23       1336.3 
      2167.0         0.33       1304.0 
      2168.0         0.27       1231.9 
      2169.0         0.50       1145.3 
      2170.0         0.57       1088.5 
      2171.0         0.72       1063.7 
      2172.0         0.50        868.2 
      2173.0         0.50        731.1 
      2174.0         0.50        682.8 
      2175.0         0.53        739.7 
      2176.0         0.53        790.1 
      2177.0         0.62        792.0 
      2178.0         0.57        786.6 
      2179.0         0.67        753.9 
      2180.0         0.77        701.6 
      2181.0         0.73        629.8 
      2182.0         0.75        599.4 
      2183.0         0.77        602.9 
      2184.0         0.70        597.8 
      2185.0         0.20        610.2 
      2186.0         0.20        622.9 
      2187.0         0.20        639.0 
      2188.0         0.20        656.5 
      2189.0         0.23        667.3 
      2190.0         0.30        676.5 
      2191.0         0.48        673.0 
      2192.0         0.47        657.1 
      2193.0         0.50        621.9 
      2194.0         2.35       1886.4 
      2195.0         0.63       1887.3 
      2196.0         0.53       1625.5 
      2197.0         0.47       1333.2 
      2198.0         0.47       1138.9 
      2199.0         0.43       1011.3 
