~Version Information
VERS.                      2.0: CWLS Log ASCII Standard - VERSION 2.0
WRAP.                       NO: One line per depth step
~Well Information Block
STRT.FT               460.5000: 
STOP.FT              2197.0000: 
STEP.FT                 0.2500: 
NULL.                -999.2500: 
COMP.          Petrogulf Corporation: COMPANY
WELL.              Silva 1-43R: WELL
FLD.           Purgatorie River: FIELD
LOC.           1971' FSL & 526' FEL: LOCATION
CNTY.               Las Animas: COUNTY
SRVC.                Patterson: SERVICE COMPANY
DATE.          Sun Jun 18 03:37:26 2006: LOG DATE
UWI.           05 071 08372 00: UNIQUE WELL ID
STAT.                 Colorado: STATE
~Curve Information Block
DEPT.FT            0 000 00 00: Depth
SN.Ohm-m                      : IEL Short Normal
SP.mV                         : IEL Spontaneous Potential
DIR.Ohm-m                     : IEL Induction Resistivity
GR.GAPI                       : Gamma Ray
~Parameter Information Block
~A  Depth        SN          SP         DIR          GR     
# ...
  1934.5000     15.5367     38.4840     14.7175    121.9394
  1934.7500     16.2372     38.3364     15.2648    113.8772
  1935.0000     17.0970     38.1932     15.7778    101.5665
  1935.2500     18.1643     38.0784     16.2882     94.6810
  1935.5000     19.4992     38.0132     16.8339     88.2847
  1935.7500     21.1393     38.0072     17.4471     86.9378
  1936.0000     23.1309     38.0539     18.1522     88.1919
  1936.2500     25.5281     38.1325     18.9687     90.0394
  1936.5000     28.2175     38.2159     19.9086     92.5904
  1936.7500     30.8023     38.2826     20.9639     93.7230
  1937.0000     32.8448     38.3273     22.0895     94.7729
  1937.2500     34.1900     38.3636     23.1936     95.2591
  1937.5000     34.9989     38.4161     24.1513     95.5530
  1937.7500     35.5600     38.5073     24.8400     95.1783
  1938.0000     36.0364     38.6450     25.1808     93.6511
  1938.2500     36.3187     38.8197     25.1596     92.3818
  1938.5000     36.1749     39.0100     24.8150     91.0830
  1938.7500     35.5052     39.1920     24.2123     90.9170
  1939.0000     34.3497     39.3468     23.4202     91.7202
  1939.2500     32.7411     39.4650     22.5007     93.0703
  1939.5000     30.6905     39.5477     21.5021     96.8824
  1939.7500     28.2952     39.6041     20.4575    100.6930
  1940.0000     25.7653     39.6457     19.3945    107.3718
  1940.2500     23.3162     39.6791     18.3480    111.6099
  1940.5000     21.0816     39.7043     17.3619    116.7807
  1940.7500     19.1326     39.7178     16.4763    119.5426
  1941.0000     17.4847     39.7165     15.7119    123.3850
  1941.2500     16.0834     39.6999     15.0663    126.0791
  1941.5000     14.8733     39.6673     14.5214    130.4233
  1941.7500     13.8673     39.6145     14.0527    133.2721
  1942.0000     13.0954     39.5331     13.6362    136.4781
  1942.2500     12.5559     39.4143     13.2506    137.2971
  1942.5000     12.2477     39.2541     12.8796    136.5817
  1942.7500     12.1688     39.0593     12.5149    135.5379
  1943.0000     12.2767     38.8491     12.1576    134.2024
  1943.2500     12.4805     38.6515     11.8166    133.3883
  1943.5000     12.6510     38.4956     11.5039    131.7155
  1943.7500     12.6575     38.4016     11.2288    130.5689
  1944.0000     12.4312     38.3755     10.9946    130.3858
  1944.2500     12.0021     38.4090     10.7974    131.9667
  1944.5000     11.4785     38.4838     10.6280    136.2941
  1944.7500     10.9839     38.5783     10.4743    139.4319
  1945.0000     10.5988     38.6756     10.3236    143.1424
  1945.2500     10.3342     38.7692     10.1655    144.8221
  1945.5000     10.1292     38.8653      9.9937    146.6367
  1945.7500      9.8872     38.9779      9.8075    147.6987
  1946.0000      9.5662     39.1172      9.6101    149.3552
  1946.2500      9.2311     39.2802      9.4073    150.4548
  1946.5000      8.9694     39.4510      9.2051    151.7213
  1946.7500      8.7989     39.6123      9.0101    152.1497
  1947.0000      8.6854     39.7540      8.8289    152.4542
  1947.2500      8.5950     39.8715      8.6681    152.8145
  1947.5000      8.5038     39.9590      8.5344    153.8251
  1947.7500      8.3996     40.0097      8.4341    154.4765
  1948.0000      8.3004     40.0242      8.3733    154.4225
  1948.2500      8.2449     40.0128      8.3577    153.2379
  1948.5000      8.2502     39.9897      8.3919    149.6441
  1948.7500      8.2995     39.9654      8.4775    146.4215
  1949.0000      8.3675     39.9449      8.6123    141.2724
  1949.2500      8.4473     39.9289      8.7901    137.9731
  1949.5000      8.5456     39.9151      9.0012    133.2897
  1949.7500      8.6651     39.8980      9.2329    130.2610
  1950.0000      8.8112     39.8718      9.4690    125.8453
  1950.2500      8.9857     39.8317      9.6942    123.0344
  1950.5000      9.1603     39.7736      9.9023    118.9173
  1950.7500      9.3034     39.6930     10.1026    116.1174
  1951.0000      9.4285     39.5862     10.3153    112.0518
  1951.2500      9.5753     39.4551     10.5611    109.8082
  1951.5000      9.7614     39.3088     10.8507    107.2765
  1951.7500      9.9816     39.1628     11.1847    105.5953
  1952.0000     10.2362     39.0337     11.5577    101.9716
  1952.2500     10.5428     38.9331     11.9662     98.8356
  1952.5000     10.9206     38.8614     12.4102     94.2877
  1952.7500     11.3708     38.8048     12.8915     92.1136
  1953.0000     11.8811     38.7403     13.4078     90.4620
  1953.2500     12.4429     38.6482     13.9504     90.0414
  1953.5000     13.0599     38.5226     14.5080     89.3674
  1953.7500     13.7474     38.3748     15.0746     88.4018
  1954.0000     14.5128     38.2282     15.6522     85.9094
  1954.2500     15.3182     38.1105     16.2420     83.6331
  1954.5000     16.0828     38.0440     16.8310     79.5096
  1954.7500     16.7535     38.0375     17.3857     76.4672
  1955.0000     17.3685     38.0832     17.8636     72.0899
  1955.2500     18.0436     38.1596     18.2372     69.8812
  1955.5000     18.9060     38.2417     18.5155     68.6914
  1955.7500     19.9978     38.3110     18.7459     69.7353
  1956.0000     21.1940     38.3623     18.9920     74.2317
  1956.2500     22.2516     38.4023     19.3046     78.9772
  1956.5000     22.9714     38.4426     19.7022     87.7251
  1956.7500     23.3140     38.4908     20.1696     93.6136
  1957.0000     23.4005     38.5470     20.6678    100.4179
  1957.2500     23.4168     38.6092     21.1497    102.6222
  1957.5000     23.4857     38.6775     21.5726    101.6579
  1957.7500     23.6201     38.7507     21.9059     98.3196
  1958.0000     23.8139     38.8226     22.1306     90.7892
  1958.2500     24.1593     38.8849     22.2364     85.5175
  1958.5000     24.8308     38.9346     22.2159     79.1391
  1958.7500     25.9245     38.9724     22.0612     76.0132
  1959.0000     27.3235     38.9978     21.7614     71.9824
  1959.2500     28.7460     39.0097     21.3009     69.2789
  1959.5000     29.9181     39.0139     20.6622     65.4728
  1959.7500     30.6788     39.0295     19.8370     63.6618
  1960.0000     30.9522     39.0856     18.8444     63.0657
  1960.2500     30.6516     39.2111     17.7393     64.5428
  1960.5000     29.6289     39.4220     16.5984     69.8278
  1960.7500     27.7393     39.7142     15.4937     75.1331
  1961.0000     24.9777     40.0618     14.4731     84.8836
  1961.2500     21.6340     40.4241     13.5588     92.1398
  1961.5000     18.2950     40.7606     12.7537    103.7530
  1961.7500     15.5250     41.0466     12.0482    111.7449
  1962.0000     13.5387     41.2798     11.4251    123.3119
  1962.2500     12.2174     41.4755     10.8642    130.0921
  1962.5000     11.3097     41.6548     10.3483    137.8724
  1962.7500     10.5907     41.8343      9.8668    141.1685
  1963.0000      9.9484     42.0204      9.4169    143.4721
  1963.2500      9.3808     42.2085      9.0022    143.7944
  1963.5000      8.9217     42.3852      8.6292    143.8148
  1963.7500      8.5797     42.5331      8.3039    144.0864
  1964.0000      8.3273     42.6389      8.0289    144.7026
  1964.2500      8.1259     42.6998      7.8031    144.6936
  1964.5000      7.9554     42.7251      7.6212    143.7255
  1964.7500      7.8101     42.7312      7.4757    143.0474
  1965.0000      7.6761     42.7361      7.3584    143.6311
  1965.2500      7.5273     42.7542      7.2624    145.6665
  1965.5000      7.3429     42.7931      7.1836    150.6728
  1965.7500      7.1398     42.8527      7.1192    154.1733
  1966.0000      6.9818     42.9248      7.0666    157.3985
  1966.2500      6.9149     42.9963      7.0218    157.5277
  1966.5000      6.9136     43.0541      6.9813    155.1966
  1966.7500      6.9332     43.0900      6.9439    152.7221
  1967.0000      6.9693     43.1028      6.9111    148.6541
  1967.2500      7.0406     43.0957      6.8856    145.9977
  1967.5000      7.1518     43.0716      6.8677    142.2869
  1967.7500      7.2816     43.0290      6.8535    140.0578
