~Version Information
VERS.                      2.0: CWLS Log ASCII Standard - VERSION 2.0
WRAP.                       NO: One line per depth step
~Well Information Block
STRT.FT               583.0000: 
STOP.FT              1700.0000: 
STEP.FT                 0.1000: 
NULL.                -999.2500: 
COMP.          Pioneer Natural Resources: COMPANY
WELL.          Scott Canyon 11-18 Tr: WELL
FLD.           Purgatoire River: FIELD
LOC.           411' FNL & 580' FWL: LOCATION
PROV.                 Colorado: PROVINCE
CNTY.               Las Animas: COUNTRY
SRVC.                Patterson: SERVICE COMPANY
DATE.          Thu Feb 17 15:41:32 2005: LOG DATE
UWI.           05 071 08286 00: UNIQUE WELL ID
~Curve Information Block
DEPT.FT            0 000 00 00: Depth
DCAL.in                       : CDL Caliper
RHOB.g/cc                     : CDL Bulk Density
RHOC.g/cc                     : CDL Density Correction
DPOR.pu                       : CDL Density Porosity
GR.GAPI                       : Gamma Ray
NPOR.pu                       : Neutron Porosity
~Parameter Information Block
~A  Depth       DCAL        RHOB        RHOC        DPOR         GR         NPOR    
# ...
  1389.4000      7.8035      2.6224      0.1420      1.6722    141.1595     24.3958
  1389.5000      7.8051      2.6361      0.1611      0.8447    133.4926     24.0823
  1389.6000      7.8051      2.6194      0.1518      1.8519    129.9586     24.3583
  1389.7000      7.8051      2.5974      0.0542      3.1904    133.6386     25.2308
  1389.8000      7.8047      2.5998      0.0881      3.0403    137.3909     26.1012
  1389.9000      7.8047      2.6177      0.0943      1.9572    140.5890     26.8658
  1390.0000      7.8178      2.6282      0.1218      1.3194    143.6895     27.6052
  1390.1000      7.8178      2.6217      0.1584      1.7151    145.3604     27.7211
  1390.2000      7.8178      2.6030      0.1240      2.8478    146.2748     27.0740
  1390.3000      7.8272      2.5911      0.1145      3.5706    146.2977     26.5595
  1390.4000      7.8272      2.6004      0.1182      3.0086    143.6279     26.7007
  1390.5000      7.8183      2.6195      0.1506      1.8515    138.6105     27.2153
  1390.6000      7.8183      2.6194      0.1517      1.8567    137.5099     27.6897
  1390.7000      7.8183      2.5918      0.0893      3.5252    143.5945     27.8064
  1390.8000      7.8666      2.5590      0.0906      5.5164    148.9881     27.5359
  1390.9000      7.8666      2.5441      0.0200      6.4156    147.6836     27.2128
  1391.0000      7.9553      2.5503      0.0762      6.0429    144.3246     27.3537
  1391.1000      7.9553      2.5544      0.0924      5.7961    143.3899     27.9112
  1391.2000      7.9553      2.5390      0.0512      6.7277    142.3399     28.1704
  1391.3000      7.9394      2.5152      0.0491      8.1727    138.7771     27.6522
  1391.4000      7.9394      2.4995      0.0499      9.1235    132.6461     26.5820
  1391.5000      7.8875      2.4963      0.0737      9.3158    126.9863     25.5478
  1391.6000      7.8875      2.5002      0.0713      9.0769    127.8925     24.9327
  1391.7000      7.8875      2.5086      0.0626      8.5720    135.0519     24.8380
  1391.8000      7.8711      2.5222      0.0968      7.7448    140.5381     24.8164
  1391.9000      7.8711      2.5415      0.1262      6.5782    139.5483     24.2169
  1392.0000      7.9176      2.5660      0.1668      5.0936    132.4847     23.3393
  1392.1000      7.9176      2.5917      0.1732      3.5306    120.6507     22.8280
  1392.2000      7.9176      2.6155      0.1501      2.0885    105.9042     22.3056
  1392.3000      7.9334      2.6332      0.1339      1.0195     93.9539     21.1085
  1392.4000      7.9334      2.6370      0.1008      0.7908     88.0705     19.6273
  1392.5000      7.8355      2.6304      0.1286      1.1889     84.4537     18.6424
  1392.6000      7.8355      2.6249      0.1185      1.5208     78.5047     18.2324
  1392.7000      7.8355      2.6236      0.0870      1.6010     72.1371     18.2966
  1392.8000      7.8406      2.6272      0.0352      1.3831     69.7324     18.7717
  1392.9000      7.8406      2.6336      0.0712      0.9931     70.4947     19.1833
  1393.0000      7.8489      2.6258      0.0966      1.4638     71.8630     18.9542
  1393.1000      7.8489      2.6016      0.0326      2.9334     73.1549     18.2315
  1393.2000      7.8489      2.5878      0.0579      3.7697     72.1558     17.5312
  1393.3000      7.8436      2.5916      0.0722      3.5393     67.2992     17.1105
  1393.4000      7.8436      2.5937      0.0782      3.4108     62.2080     17.0248
  1393.5000      7.8292      2.5894      0.0491      3.6725     61.3745     17.1961
  1393.6000      7.8292      2.5893      0.0519      3.6808     64.8192     17.8354
  1393.7000      7.8292      2.5945      0.0697      3.3622     70.1139     18.7486
  1393.8000      7.8382      2.5938      0.0722      3.4090     75.5265     19.1268
  1393.9000      7.8382      2.5836      0.0441      4.0235     78.6583     18.5523
  1394.0000      7.8293      2.5748      0.0754      4.5562     79.6670     17.4767
  1394.1000      7.8293      2.5691      0.0947      4.9057     81.6423     16.6928
  1394.2000      7.8293      2.5533      0.0684      5.8598     84.2699     16.3747
  1394.3000      7.8289      2.5289     -0.0211      7.3401     84.1018     16.1897
  1394.4000      7.8289      2.5108      0.0384      8.4371     80.7861     15.9844
  1394.5000      7.8230      2.5006      0.0490      9.0568     77.8086     15.7295
  1394.6000      7.8230      2.4999     -0.0249      9.0943     76.1543     15.4379
  1394.7000      7.8230      2.5150      0.0097      8.1788     74.0114     15.2211
  1394.8000      7.8136      2.5371      0.0164      6.8444     70.9425     15.1817
  1394.9000      7.8136      2.5591      0.0126      5.5095     67.4577     15.3307
  1395.0000      7.8195      2.5817      0.0633      4.1396     63.7429     15.5930
  1395.1000      7.8195      2.5960      0.0801      3.2726     59.9906     15.6813
  1395.2000      7.8195      2.5907      0.0692      3.5944     57.1052     15.3285
  1395.3000      7.8202      2.5679      0.0638      4.9746     56.6415     14.6656
  1395.4000      7.8202      2.5402      0.0372      6.6564     58.3789     14.1573
  1395.5000      7.8268      2.5156      0.0342      8.1468     59.7096     14.1703
  1395.6000      7.8268      2.4915      0.0326      9.6062     59.8305     14.5656
  1395.7000      7.8268      2.4669      0.0527     11.0984     60.2156     15.2224
  1395.8000      7.8194      2.4501      0.0194     12.1142     61.2719     15.9130
  1395.9000      7.8194      2.4492      0.0556     12.1685     60.5929     16.1989
  1396.0000      7.7639      2.4588      0.0826     11.5881     57.0543     16.1295
  1396.1000      7.7639      2.4715      0.0975     10.8161     52.2487     16.1113
  1396.2000      7.7639      2.4911      0.1025      9.6295     48.4061     16.2089
  1396.3000      7.7115      2.5159      0.1573      8.1276     47.5715     16.3355
  1396.4000      7.7115      2.5271      0.1799      7.4514     50.2776     16.7908
  1396.5000      7.6730      2.5077      0.1608      8.6221     55.2599     17.3941
  1396.6000      7.6730      2.4695      0.1273     10.9399     59.2749     17.4537
  1396.7000      7.6730      2.4462      0.0852     12.3545     59.6979     17.0230
  1396.8000      7.6573      2.4508      0.1499     12.0733     58.4795     17.0006
  1396.9000      7.6573      2.4619      0.1584     11.3994     58.4690     17.9428
  1397.0000      7.6623      2.4629      0.1042     11.3370     58.5949     19.2062
  1397.1000      7.6623      2.4619      0.0971     11.3992     57.5770     19.5161
  1397.2000      7.6623      2.4741      0.0590     10.6610     55.5708     18.8500
  1397.3000      7.7189      2.5013      0.1245      9.0127     52.0503     18.1992
  1397.4000      7.7189      2.5244      0.1610      7.6150     49.1871     17.7252
  1397.5000      7.8053      2.5308      0.1240      7.2235     51.4911     17.2850
  1397.6000      7.8053      2.5255      0.1437      7.5449     57.9237     17.2064
  1397.7000      7.8053      2.5059      0.1363      8.7351     61.5473     17.6997
  1397.8000      7.8255      2.4708      0.0789     10.8592     59.3826     18.5142
  1397.9000      7.8255      2.4387      0.0532     12.8087     57.3564     19.3049
  1398.0000      7.8454      2.4291      0.0309     13.3887     58.8647     19.7994
  1398.1000      7.8454      2.4407      0.0659     12.6844     59.8610     19.8647
  1398.2000      7.8454      2.4585      0.0283     11.6087     58.5371     19.4108
  1398.3000      7.8429      2.4710      0.0821     10.8471     57.0043     18.6236
  1398.4000      7.8429      2.4699      0.0665     10.9174     55.8608     18.2593
  1398.5000      7.8541      2.4506      0.0595     12.0878     55.3748     18.6769
  1398.6000      7.8541      2.4254     -0.0303     13.6131     56.5578     19.4360
  1398.7000      7.8541      2.4133     -0.0196     14.3482     57.5343     19.7733
  1398.8000      7.8614      2.4153      0.0447     14.2244     56.1164     19.2966
  1398.9000      7.8614      2.4328     -0.0200     13.1654     52.5807     18.5708
