~Version Information
VERS.                      2.0: CWLS Log ASCII Standard - VERSION 2.0
WRAP.                       NO: One line per depth step
~Well Information Block
STRT.FT               -10.3000: 
STOP.FT              1936.7000: 
STEP.FT                 0.1000: 
NULL.                -999.2500: 
COMP.          Petrogulf Corporation: COMPANY
WELL.              Graff 9-31R: WELL
FLD.           Purgatorie River: FIELD
LOC.           707' FNL & 1713' FEL------: LOCATION
CNTY.               Las Animas: COUNTY
SRVC.                         : SERVICE COMPANY
DATE.          Wed Nov 17 13:41:51 2004: LOG DATE
UWI.                          : UNIQUE WELL ID
STAT.                       CO: STATE
~Curve Information Block
DEPT.FT            0 000 00 00: Depth
GR.GAPI                       : Gamma Ray
CCL.                          : Casing Collar Locator
TT3.usec                      : CBL 3' Travel Time
AMP3.mV                       : CBL 3' Amplitude
~Parameter Information Block
~A  Depth        GR         CCL         TT3         AMP3    
# ...
  1276.1000    107.7395      0.0000    664.0831     20.4442
  1276.2000    107.7395      0.0000    664.0831     20.4442
  1276.3000    110.3540      0.0000    631.1356     20.7759
  1276.4000    110.3540      0.0000    631.1356     20.7759
  1276.5000    114.0547      0.0000    610.9882     21.0797
  1276.6000    114.0547      0.0000    610.9882     21.0797
  1276.7000    114.0547      0.0000    610.9882     21.0797
  1276.8000    118.8970      0.0000    599.8273     21.3253
  1276.9000    118.8970      0.0000    599.8273     21.3253
  1277.0000    123.7242      0.0000    588.1058     21.4792
  1277.1000    123.7242      0.0000    588.1058     21.4792
  1277.2000    123.7242      0.0000    588.1058     21.4792
  1277.3000    126.2449      0.0000    576.0931     21.5313
  1277.4000    126.2449      0.0000    576.0931     21.5313
  1277.5000    124.9469      0.0000    576.9240     21.5169
  1277.6000    124.9469      0.0000    576.9240     21.5169
  1277.7000    124.9469      0.0000    576.9240     21.5169
  1277.8000    120.7234      0.0000    601.7245     21.5062
  1277.9000    120.7234      0.0000    601.7245     21.5062
  1278.0000    116.1864      0.0000    646.2512     21.5754
  1278.1000    116.1864      0.0000    646.2512     21.5754
  1278.2000    116.1864      0.0000    646.2512     21.5754
  1278.3000    113.5184      0.0000    694.7814     21.7891
  1278.4000    113.5184      0.0000    694.7814     21.7891
  1278.5000    113.1232      0.0000    733.8444     22.1853
  1278.6000    113.1232      0.0000    733.8444     22.1853
  1278.7000    113.1232      0.0000    733.8444     22.1853
  1278.8000    114.0118      0.0000    759.3637     22.7436
  1278.9000    114.0118      0.0000    759.3637     22.7436
  1279.0000    115.0237      0.0000    773.3337     23.3651
  1279.1000    115.0237      0.0000    773.3337     23.3651
  1279.2000    115.0237      0.0000    773.3337     23.3651
  1279.3000    115.5607      0.0000    778.4202     23.9069
  1279.4000    115.5607      0.0000    778.4202     23.9069
  1279.5000    115.5255      0.0000    776.7142     24.2493
  1279.6000    115.5255      0.0000    776.7142     24.2493
  1279.7000    115.5255      0.0000    776.7142     24.2493
  1279.8000    115.0485      0.0000    770.9048     24.3385
  1279.9000    115.0485      0.0000    770.9048     24.3385
  1280.0000    114.3041      0.0000    764.2328     24.1848
  1280.1000    114.3041      0.0000    764.2328     24.1848
  1280.2000    114.3041      0.0000    764.2328     24.1848
  1280.3000    113.2534      0.0000    759.0499     23.8376
  1280.4000    113.2534      0.0000    759.0499     23.8376
  1280.5000    111.4457      0.0000    756.0239     23.3601
  1280.6000    111.4457      0.0000    756.0239     23.3601
  1280.7000    111.4457      0.0000    756.0239     23.3601
  1280.8000    108.3784      0.0000    754.6423     22.8088
  1280.9000    108.3784      0.0000    754.6423     22.8088
  1281.0000    104.4135      0.0000    754.1440     22.2161
  1281.1000    104.4135      0.0000    754.1440     22.2161
  1281.2000    104.4135      0.0000    754.1440     22.2161
  1281.3000    101.2616      0.0000    754.0142     21.5798
  1281.4000    101.2616      0.0000    754.0142     21.5798
  1281.5000    101.0961      0.0000    754.0444     20.8767
  1281.6000    101.0961      0.0000    754.0444     20.8767
  1281.7000    101.0961      0.0000    754.0444     20.8767
  1281.8000    104.8418      0.0000    754.2402     20.0998
  1281.9000    104.8418      0.0000    754.2402     20.0998
  1282.0000    111.2103      0.0000    754.7394     19.2864
  1282.1000    111.2103      0.0000    754.7394     19.2864
  1282.2000    111.2103      0.0000    754.7394     19.2864
  1282.3000    117.4413      0.0000    755.7972     18.5045
  1282.4000    117.4413      0.0000    755.7972     18.5045
  1282.5000    121.1697      0.0000    757.7155     17.8121
  1282.6000    121.1697      0.0000    757.7155     17.8121
  1282.7000    121.1697      0.0000    757.7155     17.8121
  1282.8000    121.7777      0.0000    760.4633     17.2328
  1282.9000    121.7777      0.0000    760.4633     17.2328
  1283.0000    119.9852      0.0000    763.2112     16.7552
  1283.1000    119.9852      0.0000    763.2112     16.7552
  1283.2000    119.9852      0.0000    763.2112     16.7552
  1283.3000    116.5496      0.0000    764.5716     16.3381
  1283.4000    116.5496      0.0000    764.5716     16.3381
  1283.5000    111.9782      0.0000    763.7244     15.9210
  1283.6000    111.9782      0.0000    763.7244     15.9210
  1283.7000    111.9782      0.0000    763.7244     15.9210
  1283.8000    107.3517      0.0000    761.2219     15.4548
  1283.9000    107.3517      0.0000    761.2219     15.4548
  1284.0000    104.4359      0.0000    758.4396     14.9324
  1284.1000    104.4359      0.0000    758.4396     14.9324
  1284.2000    104.4359      0.0000    758.4396     14.9324
  1284.3000    104.4228      0.0000    756.3995     14.3883
  1284.4000    104.4228      0.0000    756.3995     14.3883
  1284.5000    106.7689      0.0000    755.2762     13.8686
  1284.6000    106.7689      0.0000    755.2762     13.8686
  1284.7000    106.7689      0.0000    755.2762     13.8686
  1284.8000    109.4543      0.0000    754.7375     13.4011
  1284.9000    109.4543      0.0000    754.7375     13.4011
  1285.0000    110.4766      0.0000    754.4260     12.9830
  1285.1000    110.4766      0.0000    754.4260     12.9830
  1285.2000    110.4766      0.0000    754.4260     12.9830
  1285.3000    109.3268      0.0000    754.1560     12.5861
  1285.4000    109.3268      0.0000    754.1560     12.5861
  1285.5000    107.1171      0.0000    753.8629     12.1807
  1285.6000    107.1171      0.0000    753.8629     12.1807
  1285.7000    107.1171      0.0000    753.8629     12.1807
  1285.8000    105.4883      0.0000    753.5007     11.7668
  1285.9000    105.4883      0.0000    753.5007     11.7668
  1286.0000    105.9118      0.0000    753.0175     11.3950
  1286.1000    105.9118      0.0000    753.0175     11.3950
  1286.2000    105.9118      0.0000    753.0175     11.3950
  1286.3000    109.8867      0.0000    752.4301     11.1538
  1286.4000    109.8867      0.0000    752.4301     11.1538
  1286.5000    118.3401      0.0000    751.8368     11.1175
  1286.6000    118.3401      0.0000    751.8368     11.1175
  1286.7000    118.3401      0.0000    751.8368     11.1175
  1286.8000    129.8823      0.0000    751.2713     11.2893
  1286.9000    129.8823      0.0000    751.2713     11.2893
  1287.0000    140.3007      0.0000    750.2256     11.5886
  1287.1000    140.3007      0.0000    750.2256     11.5886
  1287.2000    140.3007      0.0000    750.2256     11.5886
  1287.3000    144.6972      0.0000    746.7097     11.8979
  1287.4000    144.6972      0.0000    746.7097     11.8979
  1287.5000    140.4795      0.0000    735.8929     12.1325
  1287.6000    140.4795      0.0000    735.8929     12.1325
  1287.7000    140.4795      0.0000    735.8929     12.1325
  1287.8000    128.8017      0.0000    709.7936     12.2797
  1287.9000    128.8017      0.0000    709.7936     12.2797
  1288.0000    113.7677      0.0000    660.9000     12.3898
  1288.1000    113.7677      0.0000    660.9000     12.3898
  1288.2000    113.7677      0.0000    660.9000     12.3898
  1288.3000    100.2128      0.0000    589.6989     12.5384
  1288.4000    100.2128      0.0000    589.6989     12.5384
  1288.5000     91.3830      0.0000    509.3936     12.7875
  1288.6000     91.3830      0.0000    509.3936     12.7875
  1288.7000     91.3830      0.0000    509.3936     12.7875
  1288.8000     87.9111      0.0000    440.4473     13.1577
  1288.9000     87.9111      0.0000    440.4473     13.1577
  1289.0000     88.4690      0.0000    399.0161     13.6187
  1289.1000     88.4690      0.0000    399.0161     13.6187
  1289.2000     88.4690      0.0000    399.0161     13.6187
  1289.3000     91.0089      0.0000    390.1237     14.1046
  1289.4000     91.0089      0.0000    390.1237     14.1046
