~Version Information
VERS.                      2.0: CWLS Log ASCII Standard - VERSION 2.0
WRAP.                       NO: One line per depth step
~Well Information Block
STRT.FT               765.6000: 
STOP.FT              2431.0000: 
STEP.FT                 0.1000: 
NULL.                -999.2500: 
COMP.          Petrogulf Corporation: COMPANY
WELL.             Norton 9-14V: WELL
FLD.           Purgatorie River: FIELD
LOC.           230' FSL & 225' FWL: LOCATION
CNTY.               Las Animas: COUNTY
SRVC.                         : SERVICE COMPANY
DATE.          Thu Oct 28 06:20:25 2004: LOG DATE
UWI.           05 071 07891 00: UNIQUE WELL ID
STAT.                 Colorado: STATE
~Curve Information Block
DEPT.FT            0 000 00 00: Depth
DCAL.in                       : CDL Caliper
RHOB.g/cc                     : CDL Bulk Density
RHOC.g/cc                     : CDL Density Correction
DPOR.pu                       : CDL Density Porosity
GR.GAPI                       : Gamma Ray
NPOR.pu                       : Neutron Porosity
~Parameter Information Block
~A  Depth       DCAL        RHOB        RHOC        DPOR         GR         NPOR    
# ...
  1005.6000      8.1591      2.6052      0.0394      2.7135    129.3204     28.5023
  1005.7000      8.1591      2.5866      0.0418      3.8427    131.3696     28.0946
  1005.8000      8.1708      2.5751      0.0677      4.5375    129.5917     27.8546
  1005.9000      8.1708      2.5613      0.0506      5.3774    123.9653     27.3592
  1006.0000      8.1137      2.5389     -0.0207      6.7341    121.7913     26.5785
  1006.1000      8.1137      2.5226     -0.0118      7.7198    127.1561     26.1551
  1006.2000      8.1137      2.5271      0.0238      7.4470    133.1274     26.0895
  1006.3000      8.0780      2.5461     -0.0035      6.2980    133.5240     26.1491
  1006.4000      8.0780      2.5617      0.0618      5.3490    130.8015     26.3149
  1006.5000      8.0723      2.5629      0.0587      5.2810    127.9085     26.5859
  1006.6000      8.0723      2.5601     -0.0035      5.4463    125.4300     27.0825
  1006.7000      8.0723      2.5688      0.0151      4.9205    124.5483     27.5024
  1006.8000      8.0723      2.5831      0.0502      4.0517    125.5159     27.4381
  1006.9000      8.0723      2.5981      0.0371      3.1455    127.9630     27.1956
  1007.0000      8.0732      2.6163      0.0625      2.0434    130.5762     27.2301
  1007.1000      8.0732      2.6282      0.0880      1.3215    129.6264     27.4753
  1007.2000      8.0732      2.6263      0.0552      1.4370    125.1262     27.7126
  1007.3000      8.0666      2.6145      0.0163      2.1536    122.1553     27.8858
  1007.4000      8.0666      2.5974      0.0537      3.1875    121.6724     27.8851
  1007.5000      8.0681      2.5969     -0.0490      3.2164    120.8086     27.5633
  1007.6000      8.0681      2.6390      0.0213      0.6696    117.0331     27.1307
  1007.7000      8.0681      2.7009      0.0634     -3.0841    109.1729     27.2485
  1007.8000      8.0729      2.7350      0.0845     -5.1521    100.7592     27.9989
  1007.9000      8.0729      2.7306      0.0456     -4.8823     97.8370     28.4830
  1008.0000      8.0747      2.7235      0.0240     -4.4562    101.9458     28.3338
  1008.1000      8.0747      2.7433      0.0296     -5.6554    110.7311     27.9948
  1008.2000      8.0747      2.7712      0.0962     -7.3441    117.3238     27.6277
  1008.3000      8.0698      2.7736      0.0879     -7.4926    114.4431     27.3934
  1008.4000      8.0698      2.7450      0.0535     -5.7582    107.1612     27.3083
  1008.5000      8.0697      2.6971     -0.0163     -2.8564    104.6745     26.8471
  1008.6000      8.0697      2.6484     -0.0988      0.0986    107.0224     25.9712
  1008.7000      8.0697      2.6131     -0.0118      2.2357    110.9442     25.2228
  1008.8000      8.0723      2.5901     -0.0421      3.6279    115.4027     24.8286
  1008.9000      8.0723      2.5806      0.0092      4.2078    116.9931     24.7790
  1009.0000      8.0812      2.5770      0.0562      4.4229    113.2793     25.1962
  1009.1000      8.0812      2.5680      0.0022      4.9705    110.3339     25.8721
  1009.2000      8.0812      2.5612      0.0246      5.3818    115.2009     26.0111
  1009.3000      8.0896      2.5684      0.0166      4.9434    121.0443     25.2478
  1009.4000      8.0896      2.5866      0.0398      3.8429    118.5832     24.0765
  1009.5000      8.0886      2.5976      0.0634      3.1729    113.2721     23.1481
  1009.6000      8.0886      2.5853      0.0432      3.9205    112.2694     22.7729
  1009.7000      8.0886      2.5584      0.0214      5.5539    112.8195     22.7182
  1009.8000      8.0910      2.5469     -0.0196      6.2488    113.3315     22.7489
  1009.9000      8.0910      2.5669      0.0783      5.0368    115.8105     22.9900
  1010.0000      8.0929      2.6019      0.0769      2.9148    119.7001     23.7112
  1010.1000      8.0929      2.6267      0.1101      1.4099    122.9924     24.6893
  1010.2000      8.0929      2.6311      0.0919      1.1453    124.3863     25.2962
  1010.3000      8.0809      2.6217      0.1084      1.7122    124.4193     25.5631
  1010.4000      8.0809      2.6100      0.0537      2.4245    121.6810     26.1301
  1010.5000      8.0597      2.6018      0.0730      2.9217    116.2378     27.2561
  1010.6000      8.0597      2.5946      0.0319      3.3573    112.8568     28.2099
  1010.7000      8.0597      2.5887      0.0617      3.7161    113.2440     28.3591
  1010.8000      8.0693      2.5895      0.0512      3.6648    114.3123     28.0176
  1010.9000      8.0693      2.6013      0.0444      2.9539    112.6381     27.7523
  1011.0000      8.0916      2.6255      0.0567      1.4878    108.2991     27.7845
  1011.1000      8.0916      2.6593      0.0684     -0.5647    104.3192     27.8297
  1011.2000      8.0916      2.6931      0.1080     -2.6110    102.1866     27.4225
  1011.3000      8.0972      2.7095      0.1438     -3.6064    101.2009     26.6314
  1011.4000      8.0972      2.6974      0.0659     -2.8749    102.0539     25.8325
  1011.5000      8.0969      2.6710      0.0674     -1.2719    104.2244     25.1349
  1011.6000      8.0969      2.6544      0.0000     -0.2662    104.5945     24.2853
  1011.7000      8.0969      2.6444      0.0287      0.3368    104.0828     23.3341
  1011.8000      8.0948      2.6154      0.0265      2.0962    107.5693     22.8365
  1011.9000      8.0948      2.5671     -0.0148      5.0249    115.0520     22.8170
  1012.0000      8.0907      2.5328     -0.0558      7.1029    121.1386     22.6764
  1012.1000      8.0907      2.5335     -0.0349      7.0615    124.7156     22.0976
  1012.2000      8.0907      2.5483      0.0213      6.1653    127.7628     21.3534
  1012.3000      8.0928      2.5585      0.0128      5.5485    126.6689     21.2003
  1012.4000      8.0928      2.5759      0.0113      4.4927    122.1059     21.9721
  1012.5000      8.0922      2.5938      0.0660      3.4083    123.6054     23.0327
  1012.6000      8.0922      2.5846      0.0647      3.9640    131.6279     23.7452
  1012.7000      8.0922      2.5563      0.0455      5.6807    136.7109     24.1759
  1012.8000      8.0964      2.5417      0.0386      6.5647    135.9501     24.7328
  1012.9000      8.0964      2.5539      0.0054      5.8241    133.8846     25.5968
  1013.0000      8.1051      2.5808      0.0237      4.1910    133.9403     26.4556
  1013.1000      8.1051      2.5982      0.1075      3.1419    135.1974     26.7751
  1013.2000      8.1051      2.5986      0.0330      3.1180    135.2235     26.6122
  1013.3000      8.1102      2.6041      0.0622      2.7820    131.0061     26.5961
  1013.4000      8.1102      2.6196      0.0691      1.8414    121.8786     26.6463
  1013.5000      8.1088      2.6245      0.0478      1.5465    113.4980     26.3367
  1013.6000      8.1088      2.6140      0.0380      2.1788    110.8042     26.0271
  1013.7000      8.1088      2.6000      0.0108      3.0299    115.0276     26.1494
  1013.8000      8.1092      2.5855      0.0321      3.9078    120.8683     26.2051
  1013.9000      8.1092      2.5693     -0.0154      4.8906    120.7427     25.4061
  1014.0000      8.1168      2.5569      0.0090      5.6429    119.4213     24.2386
  1014.1000      8.1168      2.5502      0.0127      6.0467    124.8913     23.7219
  1014.2000      8.1168      2.5423      0.0290      6.5300    132.2660     23.6250
  1014.3000      8.1137      2.5246      0.0269      7.5976    131.8722     23.3079
  1014.4000      8.1137      2.5046     -0.0082      8.8100    126.2728     22.9130
  1014.5000      8.1110      2.5029      0.0122      8.9129    126.3396     22.7386
  1014.6000      8.1110      2.5210      0.0214      7.8183    131.8339     22.7651
  1014.7000      8.1110      2.5338      0.0823      7.0411    134.0594     22.8333
  1014.8000      8.1163      2.5203      0.1037      7.8578    134.5785     22.9792
  1014.9000      8.1163      2.4930      0.0266      9.5145    140.6378     23.3565
  1015.0000      8.1203      2.4753      0.0894     10.5878    148.2453     23.9480
  1015.1000      8.1203      2.4696      0.0781     10.9358    148.8680     24.5651
