~Version Information
VERS.                      2.0: CWLS Log ASCII Standard - VERSION 2.0
WRAP.                       NO: One line per depth step
~Well Information Block
STRT.FT               650.0000: 
STOP.FT              1080.5000: 
STEP.FT                 0.2500: 
NULL.                -999.2500: 
COMP.          Pioneer Natural Resources: COMPANY
WELL.            Galileo 21-11: WELL
FLD.           Purgatoire River: FIELD
LOC.           407' FNL & 2394' FWL: LOCATION
PROV.                 Colorado: PROVINCE
CNTY.               Las Animas: COUNTRY
SRVC.                Patterson: SERVICE COMPANY
DATE.          Mon Apr 11 11:14:18 2005: LOG DATE
UWI.           05 071 08353 00: UNIQUE WELL ID
~Curve Information Block
DEPT.FT            0 000 00 00: Depth
SN.Ohm-m                      : IEL Short Normal
SP.mV                         : IEL Spontaneous Potential
DIR.Ohm-m                     : IEL Induction Resistivity
GR.GAPI                       : Gamma Ray
~Parameter Information Block
~A  Depth        SN          SP         DIR          GR     
# ...
   951.5000     42.3539    192.3757     31.8732    106.7560
   951.7500     43.4348    155.6503     32.2607    108.9962
   952.0000     44.2747    108.9979     32.5159    111.4567
   952.2500     46.5563     54.9367     32.6168    112.0717
   952.5000     56.2825     -1.0644     32.5679    111.5608
   952.7500     84.6287    -51.7471     32.4054    110.3260
   953.0000    142.7065    -90.6496     32.1852    107.1233
   953.2500    227.9043   -114.6524     31.9536    104.4352
   953.5000    315.8497   -124.6664     31.7203    100.5382
   953.7500    377.3184   -124.1297     31.4530     98.2493
   954.0000    404.0600   -116.8124     31.0978     95.2833
   954.2500    408.8160   -105.5140     30.6130     94.0224
   954.5000    405.1607    -91.9228     30.0013     94.3108
   954.7500    396.7856    -77.0212     29.3181     95.9639
   955.0000    379.9287    -61.5130     28.6457     98.9816
   955.2500    346.4571    -46.1024     28.0459    100.1969
   955.5000    288.7173    -31.6061     27.5251    100.3490
   955.7500    211.2688    -18.9271     27.0400    100.0818
   956.0000    134.0339     -8.9476     26.5390    100.6991
   956.2500     75.5525     -2.3907     26.0061    102.0022
   956.5000     39.4709      0.3060     25.4697    104.2631
   956.7500     20.2813     -0.9085     24.9763    105.1746
   957.0000     12.0296     -5.6229     24.5600    105.1283
   957.2500      9.9383    -12.9476     24.2332    104.4774
   957.5000     10.4175    -21.6200     23.9957    103.4681
   957.7500     11.3996    -30.2086     23.8472    103.0280
   958.0000     11.9686    -37.2609     23.7890    102.5733
   958.2500     11.9032    -41.2967     23.8158    102.2876
   958.5000     11.5845    -40.7890     23.9084    102.0585
   958.7500     11.9890    -34.3808     24.0317    102.2840
   959.0000     14.1876    -21.3318     24.1451    103.4248
   959.2500     18.1551     -1.8578     24.2172    104.5826
   959.5000     22.5406     22.9510     24.2372    106.3045
   959.7500     26.7628     51.5699     24.2145    107.1284
   960.0000     31.8272     82.4891     24.1671    107.6643
   960.2500     37.0442    114.4058     24.1088    107.4086
   960.5000     38.5359    146.1756     24.0424    105.5190
   960.7500     33.7240    176.6981     23.9630    103.0940
   961.0000     25.0446    204.8423     23.8665     98.6176
   961.2500     17.1998    229.4416     23.7545     96.0930
   961.5000     12.8208    249.4100     23.6324     94.2548
   961.7500     11.9509    264.0206     23.5051     94.3848
   962.0000     13.7843    273.2283     23.3748     95.8962
   962.2500     17.7566    277.7565     23.2415     97.2857
   962.5000     23.1896    278.7735     23.1065     99.4575
   962.7500     28.5273    277.3777     22.9741    100.8992
   963.0000     32.0607    274.2907     22.8528    102.9917
   963.2500     33.3819    269.8748     22.7547    104.2525
   963.5000     33.2788    264.2414     22.6931    105.8584
   963.7500     32.6428    257.2543     22.6759    106.7530
   964.0000     32.0400    248.4821     22.7005    107.7193
   964.2500     31.7913    237.2602     22.7522    107.8563
   964.5000     31.9500    222.9085     22.8101    106.7986
   964.7500     32.4783    205.0047     22.8570    105.2969
   965.0000     33.8418    183.5613     22.8870    102.8655
   965.2500     37.1426    159.1331     22.9061    101.8508
   965.5000     42.5208    133.0829     22.9274    101.5314
   965.7500     47.6213    108.0490     22.9664    101.6992
   966.0000     50.4928     88.0398     23.0389    101.7576
   966.2500     53.2696     77.4202     23.1570    101.4737
   966.5000     58.0689     78.9983     23.3220    100.2878
   966.7500     61.1952     92.5962     23.5193     98.8065
   967.0000     57.4491    115.3082     23.7196     95.7828
   967.2500     47.6685    143.1309     23.8887     93.8696
   967.5000     36.8531    172.5557     24.0025     92.4717
   967.7500     27.7988    201.1479     24.0581     92.8456
   968.0000     20.3095    227.2448     24.0708     94.7109
   968.2500     14.2434    249.4922     24.0622     96.0397
   968.5000     10.6027    266.7688     24.0467     97.0847
   968.7500     10.5726    278.5217     24.0295     96.9436
   969.0000     14.4722    285.0825     24.0140     95.7253
   969.2500     20.9244    287.5555     24.0078     94.5956
   969.5000     27.0624    287.3268     24.0199     93.0081
   969.7500     30.6649    285.5907     24.0483     92.0777
   970.0000     31.9418    283.1433     24.0702     90.4687
   970.2500     32.4860    280.3752     24.0453     89.1149
   970.5000     33.2996    277.3315     23.9345     87.1849
   970.7500     34.3658    273.8445     23.7220     86.5493
   971.0000     35.2780    269.7943     23.4229     87.2883
   971.2500     35.8599    265.4024     23.0737     88.9062
   971.5000     36.3482    261.2834     22.7136     92.3215
   971.7500     36.7695    258.0731     22.3743     94.6307
   972.0000     36.2550    255.8297     22.0776     97.1386
   972.2500     34.1072    253.6515     21.8362     97.8666
   972.5000     31.4218    249.7318     21.6533     97.8112
   972.7500     29.9395    241.6869     21.5218     97.5718
   973.0000     29.9003    226.9157     21.4259     97.8017
   973.2500     30.4595    202.9615     21.3461     98.3231
   973.5000     31.0371    168.1344     21.2678     98.6075
   973.7500     31.5210    122.7541     21.1872     97.8363
   974.0000     31.9184     70.7358     21.1112     95.3227
   974.2500     32.0366     19.9766     21.0506     93.5015
   974.5000     31.2457    -20.0201     21.0153     91.9482
   974.7500     28.5107    -42.3943     21.0157     92.0413
   975.0000     23.4968    -45.7432     21.0665     93.6611
   975.2500     18.1407    -33.3673     21.1816     95.3599
   975.5000     15.3402    -10.2919     21.3624     97.8022
   975.7500     15.5327     19.1875     21.5873     98.5228
   976.0000     16.9508     52.2466     21.8139     97.3108
   976.2500     18.7637     87.1202     21.9954     95.4100
   976.5000     21.2285    122.4192     22.1030     93.2080
   976.7500     23.3329    156.6268     22.1402     93.2671
   977.0000     22.8380    187.9262     22.1365     95.2231
   977.2500     19.1452    214.4335     22.1270     96.5014
   977.5000     14.7324    234.7758     22.1349     96.7042
   977.7500     13.3529    248.6658     22.1684     95.6589
   978.0000     16.9604    257.0007     22.2280     93.1912
   978.2500     23.8377    261.3682     22.3135     91.4806
   978.5000     30.2248    263.3457     22.4243     89.6621
   978.7500     33.9661    264.0661     22.5588     89.4246
   979.0000     35.4324    264.1784     22.7144     90.7730
   979.2500     35.7454    264.0163     22.8893     92.2967
   979.5000     35.6811    263.7613     23.0828     93.9637
   979.7500     35.6693    263.5289     23.2945     94.0890
   980.0000     35.8635    263.3984     23.5253     93.1422
   980.2500     36.2251    263.4223     23.7782     92.3895
   980.5000     36.6585    263.6332     24.0564     91.8048
   980.7500     37.1015    264.0457     24.3586     91.7874
   981.0000     37.5831    264.6327     24.6764     91.9263
   981.2500     38.1653    265.2654     24.9963     91.8635
   981.5000     38.7854    265.6543     25.3028     91.3106
   981.7500     39.2320    265.3639     25.5781     90.7348
   982.0000     39.3035    263.9245     25.7961     89.9494
   982.2500     38.9799    260.9869     25.9221     89.6133
   982.5000     38.4161    256.4495     25.9222     89.3245
   982.7500     37.7757    250.5239     25.7801     89.2425
   983.0000     37.3076    243.7396     25.5082     89.5095
   983.2500     37.6793    236.9324     25.1440     90.1288
   983.5000     40.0597    231.2351     24.7333     91.7150
   983.7500     46.3162    227.9371     24.3124     92.9535
   984.0000     59.7704    228.0253     23.8990     94.4138
   984.2500     83.7014    231.5370     23.4960     94.7830
   984.5000    113.8653    237.2956     23.0999     94.2419
   984.7500    132.5212    243.4605     22.7068     93.3328
