~Version Information
VERS.                      2.0: CWLS Log ASCII Standard - VERSION 2.0
WRAP.                       NO: One line per depth step
~Well Information Block
STRT.FT               300.0000: 
STOP.FT               871.2000: 
STEP.FT                 0.1000: 
NULL.                -999.2500: 
COMP.          Pioneer Natural Resources: COMPANY
WELL.            Hustler 12-17: WELL
FLD.           Purgatoire River: FIELD
LOC.           2150' FNL & 450' FWL: LOCATION
PROV.                 Colorado: PROVINCE
CNTY.               Las Animas: COUNTRY
SRVC.                Patterson: SERVICE COMPANY
DATE.          Mon Dec 20 11:14:19 2004: LOG DATE
UWI.           05 071 08236 00: UNIQUE WELL ID
~Curve Information Block
DEPT.FT            0 000 00 00: Depth
DCAL.in                       : CDL Caliper
RHOB.g/cc                     : CDL Bulk Density
RHOC.g/cc                     : CDL Density Correction
DPOR.pu                       : CDL Density Porosity
NPOR.pu                       : Neutron Porosity
GR.GAPI                       : Gamma Ray
~Parameter Information Block
~A  Depth       DCAL        RHOB        RHOC        DPOR        NPOR         GR     
# ...
   732.0000      7.9091      2.6073     -0.0166      2.5894     25.3418    101.1972
   732.1000      7.9091      2.6009      0.0053      2.9777     25.5945     96.8828
   732.2000      7.9091      2.5902      0.0276      3.6230     25.7353     92.8941
   732.3000      7.9077      2.5698      0.0199      4.8625     25.7239     93.4679
   732.4000      7.9077      2.5431      0.0232      6.4763     25.4678     95.6206
   732.5000      7.9076      2.5271     -0.0162      7.4475     24.9047     93.8884
   732.6000      7.9076      2.5224      0.0413      7.7312     24.0845     86.9299
   732.7000      7.9076      2.5077      0.0398      8.6246     23.0226     82.0818
   732.8000      7.9074      2.4769      0.0250     10.4880     21.7967     83.6366
   732.9000      7.9074      2.4473     -0.0199     12.2832     20.6831     87.9517
   733.0000      7.9080      2.4363     -0.0028     12.9489     19.8990     93.0909
   733.1000      7.9080      2.4448      0.0041     12.4360     19.6066     98.6029
   733.2000      7.9080      2.4590      0.0293     11.5771     19.5947    102.5083
   733.3000      7.9107      2.4681      0.0444     11.0226     19.3317    104.1157
   733.4000      7.9107      2.4723      0.0238     10.7686     18.8314    105.4152
   733.5000      7.9124      2.4715      0.0231     10.8165     18.5755    104.4639
   733.6000      7.9124      2.4627      0.0439     11.3498     18.6811    102.1719
   733.7000      7.9124      2.4513      0.0372     12.0446     18.8241    106.1069
   733.8000      7.9109      2.4501     -0.0093     12.1126     18.9402    113.5413
   733.9000      7.9109      2.4635      0.0147     11.3029     19.1491    114.0501
   734.0000      7.9083      2.4745      0.0831     10.6349     19.4579    107.1871
   734.1000      7.9083      2.4681      0.0172     11.0248     19.7174    100.4952
   734.2000      7.9083      2.4539      0.0130     11.8836     19.6916     99.0757
   734.3000      7.9082      2.4458      0.0159     12.3778     19.5181    102.3206
   734.4000      7.9082      2.4474      0.0217     12.2780     19.4468    105.9377
   734.5000      7.9090      2.4539      0.0590     11.8833     19.4498    105.3565
   734.6000      7.9090      2.4566      0.0125     11.7218     19.5644    102.3680
   734.7000      7.9090      2.4543      0.0027     11.8634     19.9294    102.2725
   734.8000      7.9080      2.4490     -0.0005     12.1807     20.1594    106.6095
   734.9000      7.9080      2.4424     -0.0118     12.5840     19.7497    111.0897
   735.0000      7.9036      2.4385      0.0020     12.8199     19.1959    108.4532
   735.1000      7.9036      2.4401      0.0181     12.7234     19.1166     99.4176
   735.2000      7.9036      2.4404      0.0329     12.7009     19.2555     93.5430
   735.3000      7.9004      2.4361     -0.0103     12.9642     19.2764     93.1760
   735.4000      7.9004      2.4386      0.0096     12.8094     19.2130     94.3589
   735.5000      7.9011      2.4551      0.0415     11.8127     19.1471     98.4778
   735.6000      7.9011      2.4706      0.0670     10.8726     18.9539    105.3957
   735.7000      7.9011      2.4658      0.0564     11.1647     18.7019    114.8539
   735.8000      7.9009      2.4464      0.0493     12.3412     18.6382    124.1876
   735.9000      7.9009      2.4372     -0.0078     12.8988     18.6619    122.4999
   736.0000      7.8985      2.4490      0.0364     12.1805     18.5884    111.4729
   736.1000      7.8985      2.4648      0.0358     11.2252     18.4423    106.1380
   736.2000      7.8985      2.4696      0.0060     10.9327     18.3624    107.7609
   736.3000      7.8970      2.4669      0.0385     11.0946     18.3503    106.0453
   736.4000      7.8970      2.4671      0.0118     11.0837     18.2820     98.9257
   736.5000      7.8974      2.4731      0.0541     10.7206     18.1321     95.8426
   736.6000      7.8974      2.4722      0.0564     10.7730     18.0956    102.1865
   736.7000      7.8974      2.4587      0.0326     11.5948     18.3005    110.0665
   736.8000      7.8978      2.4512     -0.0184     12.0504     18.4303    114.2122
   736.9000      7.8978      2.4649      0.0159     11.2188     18.2931    116.9429
   737.0000      7.8978      2.4876      0.0379      9.8394     18.3916    119.7828
   737.1000      7.8978      2.5043      0.0301      8.8315     18.8583    119.4618
   737.2000      7.8978      2.5118      0.0528      8.3753     19.1268    112.3663
   737.3000      7.8979      2.5116      0.0628      8.3896     19.1608    105.9097
   737.4000      7.8979      2.5119      0.0113      8.3685     19.4796    109.3682
   737.5000      7.8968      2.5154      0.0603      8.1592     20.3262    115.2750
   737.6000      7.8968      2.5042      0.0642      8.8349     21.4776    112.8175
   737.7000      7.8968      2.4815     -0.0387     10.2093     22.5583    106.8970
   737.8000      7.8969      2.4752     -0.0299     10.5955     23.2502    106.4373
   737.9000      7.8969      2.4883      0.0297      9.7976     23.2953    112.1162
   738.0000      7.8974      2.5085      0.0192      8.5755     23.0045    116.2693
   738.1000      7.8974      2.5305      0.0265      7.2425     23.0549    113.0867
   738.2000      7.8974      2.5474      0.0324      6.2170     23.2884    107.4810
   738.3000      7.8979      2.5493      0.0586      6.1038     23.1313    106.1437
   738.4000      7.8979      2.5332      0.0247      7.0802     22.6812    109.3035
   738.5000      7.8983      2.5104     -0.0011      8.4621     22.4410    110.6363
   738.6000      7.8983      2.4998      0.0110      9.1006     22.5625    108.7455
   738.7000      7.8983      2.5065      0.0320      8.6987     22.8964    106.8877
   738.8000      7.8993      2.5114      0.0688      8.3999     23.3687    101.9251
   738.9000      7.8993      2.5062     -0.0034      8.7148     23.7814     94.7521
   739.0000      7.9002      2.5051      0.0194      8.7846     23.9210     94.8882
   739.1000      7.9002      2.5029      0.0154      8.9172     23.8293    101.2916
   739.2000      7.9002      2.4863     -0.0075      9.9232     23.5912    103.1242
   739.3000      7.8999      2.4698     -0.0339     10.9199     23.3125     98.8262
   739.4000      7.8999      2.4660      0.0121     11.1512     22.9441     98.5076
   739.5000      7.8990      2.4634      0.0065     11.3073     22.1640    104.9797
   739.6000      7.8990      2.4567     -0.0126     11.7178     21.1992    108.1714
   739.7000      7.8990      2.4493      0.0320     12.1639     20.7664    104.9825
   739.8000      7.8982      2.4424     -0.0147     12.5798     20.8001    103.4499
   739.9000      7.8982      2.4419      0.0011     12.6119     20.7273    108.9929
   740.0000      7.8975      2.4460      0.0469     12.3645     20.4495    116.5681
   740.1000      7.8975      2.4470      0.0208     12.3007     20.1074    119.7477
   740.2000      7.8975      2.4548     -0.0351     11.8333     19.7911    120.1993
   740.3000      7.8975      2.4783      0.0399     10.4037     19.8852    119.8007
   740.4000      7.8975      2.4993      0.0790      9.1313     20.4879    118.6676
   740.5000      7.8975      2.5006      0.0600      9.0521     20.9567    115.5235
   740.6000      7.8975      2.4943      0.0180      9.4342     21.1155    110.1888
   740.7000      7.8975      2.5041     -0.0266      8.8396     21.4780    107.4668
   740.8000      7.8977      2.5335      0.0601      7.0626     22.3558    108.2006
   740.9000      7.8977      2.5552      0.0619      5.7478     23.5546    107.4124
   741.0000      7.8981      2.5484      0.0333      6.1584     24.4741    103.9948
   741.1000      7.8981      2.5252     -0.0053      7.5657     24.9957    100.8357
   741.2000      7.8981      2.5047     -0.0201      8.8089     25.6137     98.5578
   741.3000      7.8974      2.4858     -0.0127      9.9502     26.2052     99.5006
   741.4000      7.8974      2.4613     -0.0032     11.4342     26.4388    107.0461
   741.5000      7.8965      2.4432     -0.0594     12.5347     26.5055    112.7740
