~Version Information
VERS.                      2.0: CWLS Log ASCII Standard - VERSION 2.0
WRAP.                       NO: One line per depth step
~Well Information Block
STRT.FT                10.0000: 
STOP.FT               859.0000: 
STEP.FT                 0.2500: 
NULL.                -999.2500: 
COMP.          Pioneer Natural Resources: COMPANY
WELL.          Prospector 12-19: WELL
FLD.           Purgatoire River: FIELD
LOC.           2262' FNL & 634' FWL: LOCATION
PROV.                 Colorado: PROVINCE
CNTY.               Las Animas: COUNTRY
SRVC.                Patterson: SERVICE COMPANY
DATE.          Tue May 10 11:52:48 2005: LOG DATE
UWI.           05 071 08191 00: UNIQUE WELL ID
~Curve Information Block
DEPT.FT            0 000 00 00: Depth
CCL.                          : Casing Collar Locator
TT3.usec                      : CBL 3' Travel Time
AMP3.mV                       : CBL 3' Amplitude
GR.GAPI                       : Gamma Ray
~Parameter Information Block
~A  Depth       CCL         TT3         AMP3         GR     
    10.0000      0.0000   1464.0000      1.3027     89.8107
    10.2500      0.0000   1464.0000      1.3339     94.6828
    10.5000      0.0000   1464.0000      1.3646     97.2920
    10.7500      0.0000   1464.0000      1.3984     97.0275
    11.0000      0.0000   1464.0000      1.4461     94.2676
    11.2500      0.0000   1464.0000      1.5183     90.2885
    11.5000      0.0000   1464.0000      1.6165     86.7901
    11.7500      0.0000   1464.0000      1.7231     84.9153
    12.0000      0.0000   1464.0000      1.8133     84.4730
    12.2500      0.0000   1464.0000      1.8806     84.2883
    12.5000      0.0000   1464.0000      1.9392     83.4288
    12.7500      0.0000   1464.0000      1.9993     82.0303
    13.0000      0.0000   1464.0000      2.0565     80.9472
    13.2500      0.0000   1464.0000      2.1096     80.8239
    13.5000      0.0000   1464.0000      2.1685     81.5527
    13.7500      0.0000   1464.0000      2.2378     82.3664
    14.0000      0.0000   1464.0000      2.3126     82.2859
    14.2500      0.0000   1464.0000      2.3972     80.6706
    14.5000      0.0000   1464.0000      2.5099     77.7585
    14.7500      0.0000   1464.0000      2.6566     74.7103
    15.0000      0.0000   1464.0000      2.8119     72.6240
    15.2500      0.0000   1464.0000      2.9334     71.3789
    15.5000      0.0000   1464.0000      2.9904     69.9379
    15.7500      0.0000   1464.0000      2.9800     67.7989
    16.0000      0.0000   1464.0000      2.9307     65.7002
    16.2500      0.0000   1464.0000      2.8977     64.9030
    16.5000      0.0000   1464.0000      2.9421     66.0024
    16.7500      0.0000   1464.0000      3.0953     68.3930
    17.0000      0.0000   1464.0000      3.3328     70.8068
    17.2500      0.0000   1464.0000      3.5870     72.3951
    17.5000      0.0000   1464.0000      3.7889     73.2034
    17.7500      0.0000   1464.0000      3.9012     73.5878
    18.0000      0.0000   1464.0000      3.9234     73.4466
    18.2500      0.0000   1464.0000      3.8780     72.2787
    18.5000      0.0000   1464.0000      3.7939     69.9838
    18.7500      0.0000   1464.0000      3.7027     67.2996
    19.0000      0.0000   1464.0000      3.6461     65.1604
    19.2500      0.0000   1464.0000      3.6718     63.7533
    19.5000      0.0000   1464.0000      3.8065     62.5077
    19.7500      0.0000   1464.0000      4.0315     60.9007
    20.0000      0.0000   1464.0000      4.2932     59.0102
    20.2500      0.0000   1464.0000      4.5376     57.2746
    20.5000      0.0000   1464.0000      4.7333     55.9295
    20.7500      0.0000   1464.0000      4.8718     54.8849
    21.0000      0.0000   1464.0000      4.9587     54.0687
    21.2500      0.0000   1464.0000      5.0055     53.6250
    21.5000      0.0000   1464.0000      5.0203     53.6854
    21.7500      0.0000   1464.0000      5.0063     54.0831
    22.0000      0.0000   1464.0000      4.9729     54.3865
    22.2500      0.0000   1464.0000      4.9512     54.2709
    22.5000      0.0000   1464.0000      4.9936     53.8188
    22.7500      0.0000   1464.0000      5.1440     53.3491
    23.0000      0.0000   1464.0000      5.4033     52.9839
    23.2500      0.0000   1464.0000      5.7229     52.5025
    23.5000      0.0000   1464.0000      6.0359     51.6771
    23.7500      0.0000   1464.0000      6.2941     50.6754
    24.0000      0.0000   1464.0000      6.4838     50.0147
    24.2500      0.0000   1464.0000      6.6145     50.0730
    24.5000      0.0000   1464.0000      6.6992     50.5920
    24.7500      0.0000   1464.0000      6.7419     50.6776
    25.0000      0.0000   1464.0000      6.7375     49.5411
    25.2500      0.0000   1464.0000      6.6820     47.4467
    25.5000      0.0000   1464.0000      6.5806     45.8070
    25.7500      0.0000   1464.0000      6.4473     46.0997
    26.0000      0.0000   1464.0000      6.2972     48.4778
    26.2500      0.0000   1464.0000      6.1472     51.4342
    26.5000      0.0000   1464.0000      6.0269     52.9597
    26.7500      0.0000   1464.0000      5.9783     52.0508
    27.0000      0.0000   1464.0000      6.0305     49.2048
    27.2500      0.0000   1464.0000      6.1695     45.8106
    27.5000      0.0000   1464.0000      6.3404     43.2738
    27.7500      0.0000   1464.0000      6.4822     42.5312
    28.0000      0.0000   1464.0000      6.5586     43.9537
    28.2500      0.0000   1464.0000      6.5632     47.1962
    28.5000      0.0000   1464.0000      6.5061     50.9297
    28.7500      0.0000   1464.0000      6.4019     53.2971
    29.0000      0.0000   1464.0000      6.2619     53.3995
    29.2500      0.0000   1464.0000      6.0963     52.2867
    29.5000      0.0000   1464.0000      5.9288     51.9770
    29.7500      0.0000   1464.0000      5.8098     53.5698
    30.0000      0.0000   1464.0000      5.7957     56.6402
    30.2500      0.0000   1464.0000      5.9052     60.2343
    30.5000      0.0000   1464.0000      6.0991     63.8701
    30.7500      0.0000   1464.0000      6.3092     67.4211
    31.0000      0.0000   1464.0000      6.4825     70.6230
    31.2500      0.0000   1464.0000      6.5963     73.2933
    31.5000      0.0000   1464.0000      6.6474     75.8090
    31.7500      0.0000   1464.0000      6.6377     78.7022
    32.0000      0.0000   1464.0000      6.5708     81.7835
    32.2500      0.0000   1464.0000      6.4574     84.0913
    32.5000      0.0000   1464.0000      6.3210     84.7516
    32.7500      0.0000   1464.0000      6.1958     83.8380
    33.0000      0.0000   1464.0000      6.1192     82.5356
    33.2500      0.0000   1464.0000      6.1257     82.3224
    33.5000      0.0000   1464.0000      6.2349     83.6008
    33.7500      0.0000   1464.0000      6.4333     85.1245
    34.0000      0.0000   1464.0000      6.6716     84.9454
    34.2500      0.0000   1464.0000      6.8935     81.8689
    34.5000      0.0000   1464.0000      7.0671     76.0783
    34.7500      0.0000   1464.0000      7.1864     68.9222
    35.0000      0.0000   1464.0000      7.2553     62.3363
    35.2500      0.0000   1464.0000      7.2802     57.8790
    35.5000      0.0000   1464.0000      7.2759     55.8603
    35.7500      0.0000   1464.0000      7.2663     55.6132
    36.0000      0.0000   1464.0000      7.2711     56.7008
    36.2500      0.0000   1464.0000      7.2940     59.4108
    36.5000      0.0000   1464.0000      7.3232     63.9756
    36.7500      0.0000   1464.0000      7.3436     69.9115
    37.0000      0.0000   1464.0000      7.3453     76.4209
    37.2500      0.0000   1464.0000      7.3223     82.9892
    37.5000      0.0000   1464.0000      7.2726     89.2776
    37.7500      0.0000   1464.0000      7.2033     94.7590
    38.0000      0.0000   1464.0000      7.1354     98.8759
    38.2500      0.0000   1464.0000      7.0951    101.5205
    38.5000      0.0000   1464.0000      7.0872    103.0253
    38.7500      0.0000   1464.0000      7.0724    103.5564
    39.0000      0.0000   1464.0000      6.9715    102.6820
    39.2500      0.0000   1464.0000      6.7145     99.8538
    39.5000      0.0000   1464.0000      6.3028     95.5112
    39.7500      0.0000   1464.0000      5.8228     91.2151
    40.0000      0.0000   1464.0000      5.3835     88.0358
    40.2500      0.0000   1464.0000      5.0438     85.1878
    40.5000      0.0000   1464.0000      4.8067     81.1335
    40.7500      0.0000   1464.0000      4.6602     75.9140
    41.0000      0.0000   1464.0000      4.5888     71.6031
    41.2500      0.0000   1464.0000      4.5573     70.4014
    41.5000      0.0000   1464.0000      4.5119     72.7211
    41.7500      2.0000   1464.0000      4.4169     77.0634
    42.0000      0.0000   1464.0000      4.2965     81.2956
    42.2500      0.0000   1464.0000      4.2477     83.7980
    42.5000      0.0000   1464.0000      4.3917     83.6423
    42.7500      0.0000   1464.0000      4.7791     80.3894
    43.0000      0.0000   1464.0000      5.3363     74.4338
    43.2500      0.0000   1464.0000      5.9202     67.5489
