~Version Information
VERS.                      2.0: CWLS Log ASCII Standard - VERSION 2.0
WRAP.                       NO: One line per depth step
~Well Information Block
STRT.FT               698.9000: 
STOP.FT              2460.4000: 
STEP.FT                 0.1000: 
NULL.                -999.2500: 
COMP.          Petrogulf Corporation: COMPANY
WELL.             State 16-23V: WELL
FLD.           Purgatorie River: FIELD
LOC.           2414' FSL & 2215' FWL: LOCATION
PROV.                 Colorado: PROVINCE
CNTY.               Las Animas: COUNTRY
SRVC.                         : SERVICE COMPANY
DATE.          Mon Jun 09 14:24:56 2003: LOG DATE
UWI.           05 071 07865 00: UNIQUE WELL ID
~Curve Information Block
DEPT.FT            0 000 00 00: Depth
DCAL.in                       : CDL Caliper
RHOB.g/cc                     : CDL Bulk Density
RHOC.g/cc                     : CDL Density Correction
DPOR.pu                       : CDL Density Porosity
GR.GAPI                       : Gamma Ray
NPOR.pu                       : Neutron Porosity
~Parameter Information Block
~A  Depth       DCAL        RHOB        RHOC        DPOR         GR         NPOR    
# ...
   958.1000      8.1597      2.5403      0.0051      6.6474     68.0482     16.5473
   958.2000      8.1597      2.5382      0.0097      6.7775     66.8506     16.5270
   958.3000      8.1624      2.5368      0.0144      6.8589     65.7431     16.5032
   958.4000      8.1624      2.5361      0.0189      6.9003     64.7421     16.4789
   958.5000      8.1576      2.5360      0.0230      6.9111     63.8601     16.4571
   958.6000      8.1576      2.5361      0.0268      6.9008     63.1107     16.4410
   958.7000      8.1576      2.5365      0.0300      6.8785     62.5096     16.4338
   958.8000      8.1402      2.5369      0.0329      6.8529     62.0710     16.4383
   958.9000      8.1402      2.5373      0.0356      6.8313     61.8087     16.4568
   959.0000      8.1194      2.5375      0.0380      6.8202     61.7282     16.4914
   959.1000      8.1194      2.5374      0.0403      6.8247     61.8247     16.5434
   959.2000      8.1194      2.5370      0.0425      6.8484     62.0800     16.6133
   959.3000      8.1061      2.5363      0.0446      6.8937     62.4607     16.7005
   959.4000      8.1061      2.5351      0.0467      6.9615     62.9187     16.8034
   959.5000      8.1066      2.5337      0.0485      7.0514     63.3968     16.9184
   959.6000      8.1066      2.5318      0.0502      7.1616     63.8360     17.0410
   959.7000      8.1066      2.5297      0.0515      7.2890     64.1833     17.1652
   959.8000      8.1138      2.5274      0.0525      7.4294     64.4051     17.2841
   959.9000      8.1138      2.5250      0.0534      7.5776     64.4931     17.3907
   960.0000      8.1207      2.5225      0.0540      7.7275     64.4712     17.4786
   960.1000      8.1207      2.5201      0.0546      7.8724     64.3907     17.5427
   960.2000      8.1207      2.5179      0.0552      8.0057     64.3222     17.5806
   960.3000      8.1247      2.5160      0.0558      8.1209     64.3443     17.5924
   960.4000      8.1247      2.5145      0.0564      8.2123     64.5250     17.5816
   960.5000      8.1257      2.5135      0.0571      8.2753     64.9082     17.5543
   960.6000      8.1257      2.5129      0.0579      8.3073     65.5021     17.5179
   960.7000      8.1257      2.5129      0.0588      8.3072     66.2762     17.4802
   960.8000      8.1227      2.5134      0.0597      8.2766     67.1631     17.4477
   960.9000      8.1227      2.5144      0.0607      8.2190     68.0677     17.4241
   961.0000      8.1113      2.5157      0.0618      8.1401     68.8814     17.4098
   961.1000      8.1113      2.5172      0.0629      8.0474     69.4981     17.4022
   961.2000      8.1113      2.5188      0.0639      7.9500     69.8288     17.3957
   961.3000      8.0940      2.5204      0.0649      7.8572     69.8142     17.3834
   961.4000      8.0940      2.5216      0.0656      7.7789     69.4324     17.3585
   961.5000      8.0813      2.5226      0.0661      7.7239     68.7016     17.3154
   961.6000      8.0813      2.5230      0.0662      7.6999     67.6777     17.2510
   961.7000      8.0813      2.5227      0.0660      7.7129     66.4470     17.1649
   961.8000      8.0836      2.5219      0.0655      7.7665     65.1150     17.0596
   961.9000      8.0836      2.5203      0.0647      7.8620     63.7925     16.9400
   962.0000      8.1055      2.5180      0.0637      7.9983     62.5839     16.8128
   962.1000      8.1055      2.5152      0.0626      8.1718     61.5727     16.6851
   962.2000      8.1055      2.5118      0.0614      8.3774     60.8115     16.5642
   962.3000      8.1370      2.5080      0.0602      8.6079     60.3205     16.4561
   962.4000      8.1370      2.5039      0.0590      8.8555     60.0868     16.3654
   962.5000      8.1580      2.4997      0.0579      9.1117     60.0708     16.2952
   962.6000      8.1580      2.4954      0.0570      9.3677     60.2180     16.2463
   962.7000      8.1580      2.4913      0.0561      9.6152     60.4733     16.2184
   962.8000      8.1640      2.4875      0.0554      9.8465     60.7898     16.2100
   962.9000      8.1640      2.4841      0.0548     10.0549     61.1405     16.2193
   963.0000      8.1563      2.4811      0.0544     10.2345     61.5229     16.2447
   963.1000      8.1563      2.4787      0.0541     10.3806     61.9585     16.2855
   963.2000      8.1563      2.4769      0.0540     10.4896     62.4901     16.3424
   963.3000      8.1451      2.4758      0.0540     10.5587     63.1693     16.4172
   963.4000      8.1451      2.4753      0.0542     10.5862     64.0516     16.5131
   963.5000      8.1393      2.4756      0.0544     10.5712     65.1856     16.6341
   963.6000      8.1393      2.4765      0.0548     10.5135     66.6050     16.7847
   963.7000      8.1393      2.4782      0.0553     10.4140     68.3217     16.9689
   963.8000      8.1314      2.4805      0.0559     10.2742     70.3272     17.1898
   963.9000      8.1314      2.4834      0.0568     10.0969     72.5888     17.4484
   964.0000      8.1223      2.4869      0.0578      9.8858     75.0553     17.7428
   964.1000      8.1223      2.4908      0.0591      9.6458     77.6569     18.0675
   964.2000      8.1223      2.4952      0.0605      9.3831     80.3156     18.4134
   964.3000      8.1254      2.4998      0.0619      9.1046     82.9486     18.7676
   964.4000      8.1254      2.5045      0.0633      8.8183     85.4739     19.1158
   964.5000      8.1361      2.5092      0.0644      8.5322     87.8191     19.4420
   964.6000      8.1361      2.5138      0.0652      8.2545     89.9261     19.7326
   964.7000      8.1361      2.5181      0.0654      7.9926     91.7584     19.9765
   964.8000      8.1443      2.5221      0.0651      7.7527     93.3001     20.1677
   964.9000      8.1443      2.5256      0.0641      7.5395     94.5563     20.3047
   965.0000      8.1457      2.5286      0.0624      7.3554     95.5543     20.3911
   965.1000      8.1457      2.5312      0.0601      7.2008     96.3357     20.4338
   965.2000      8.1457      2.5333      0.0575      7.0736     96.9556     20.4416
   965.3000      8.1492      2.5350      0.0546      6.9698     97.4757     20.4240
   965.4000      8.1492      2.5364      0.0518      6.8836     97.9633     20.3898
   965.5000      8.1625      2.5377      0.0494      6.8082     98.4850     20.3464
   965.6000      8.1625      2.5389      0.0476      6.7361     99.1077     20.3000
   965.7000      8.1625      2.5401      0.0466      6.6603     99.8915     20.2553
   965.8000      8.1696      2.5415      0.0468      6.5744    100.8854     20.2164
   965.9000      8.1696      2.5432      0.0480      6.4737    102.1233     20.1864
   966.0000      8.1601      2.5451      0.0505      6.3554    103.6149     20.1683
   966.1000      8.1601      2.5474      0.0541      6.2191    105.3421     20.1645
   966.2000      8.1601      2.5499      0.0588      6.0671    107.2556     20.1769
   966.3000      8.1488      2.5526      0.0645      5.9041    109.2777     20.2065
   966.4000      8.1488      2.5553      0.0710      5.7373    111.3052     20.2535
   966.5000      8.1432      2.5580      0.0781      5.5759    113.2213     20.3170
   966.6000      8.1432      2.5604      0.0855      5.4305    114.9041     20.3946
   966.7000      8.1432      2.5623      0.0928      5.3123    116.2403     20.4832
   966.8000      8.1382      2.5637      0.0997      5.2326    117.1334     20.5789
   966.9000      8.1382      2.5642      0.1056      5.2016    117.5161     20.6775
   967.0000      8.1278      2.5637      0.1101      5.2275    117.3546     20.7750
   967.1000      8.1278      2.5623      0.1129      5.3159    116.6480     20.8676
   967.2000      8.1278      2.5598      0.1138      5.4690    115.4284     20.9523
   967.3000      8.1126      2.5562      0.1126      5.6850    113.7544     21.0262
   967.4000      8.1126      2.5517      0.1093      5.9582    111.7033     21.0863
   967.5000      8.1126      2.5464      0.1044      6.2790    109.3578     21.1288
   967.6000      8.1126      2.5405      0.0981      6.6341    106.7971     21.1486
