~Version Information
VERS.                      2.0: CWLS Log ASCII Standard - VERSION 2.0
WRAP.                       NO: One line per depth step
~Well Information Block
STRT.FT               930.0000: 
STOP.FT              2783.2500: 
STEP.FT                 0.2500: 
NULL.                -999.2500: 
COMP.          Pioneer Natural Resources: COMPANY
WELL.           Desoto 13-7TR: WELL
FLD.           Purgatoire River: FIELD
LOC.           1404' FSL & 1115' FWL: LOCATION
PROV.                 Colorado: PROVINCE
CNTY.               Las Animas: COUNTRY
SRVC.                Patterson: SERVICE COMPANY
DATE.          Fri Jan 14 11:02:13 2005: LOG DATE
UWI.           05 071 08216 00: UNIQUE WELL ID
~Curve Information Block
DEPT.FT            0 000 00 00: Depth
SN.Ohm-m                      : IEL Short Normal
SP.mV                         : IEL Spontaneous Potential
DIR.Ohm-m                     : IEL Induction Resistivity
GR.GAPI                       : Gamma Ray
~Parameter Information Block
~A  Depth        SN          SP         DIR          GR     
# ...
  2504.5000     13.3523     44.7203     10.4816    159.5056
  2504.7500     12.3626     46.0912      9.9404    162.2956
  2505.0000     11.6085     46.8998      9.4665    164.9288
  2505.2500     11.1044     47.2137      9.0656    165.5912
  2505.5000     10.8267     47.1353      8.7369    164.6563
  2505.7500     10.7225     46.7833      8.4740    162.8042
  2506.0000     10.7144     46.2789      8.2666    158.8521
  2506.2500     10.7096     45.7346      8.1041    155.8142
  2506.5000     10.6263     45.2459      7.9780    150.9113
  2506.7500     10.4213     44.8837      7.8840    147.6390
  2507.0000     10.0961     44.6889      7.8212    143.8143
  2507.2500      9.6738     44.6698      7.7900    142.7029
  2507.5000      9.1751     44.8067      7.7897    143.2690
  2507.7500      8.6148     45.0634      7.8145    144.2523
  2508.0000      8.0212     45.4018      7.8526    144.5831
  2508.2500      7.4573     45.7958      7.8879    143.4700
  2508.5000      7.0222     46.2367      7.9063    140.7114
  2508.7500      6.8213     46.7306      7.9010    139.3286
  2509.0000      6.9224     47.2887      7.8737    139.4103
  2509.2500      7.3189     47.9161      7.8306    140.9183
  2509.5000      7.9169     48.6054      7.7763    144.2990
  2509.7500      8.5584     49.3362      7.7106    146.6238
  2510.0000      9.0830     50.0788      7.6307    149.6744
  2510.2500      9.3933     50.8007      7.5354    151.4957
  2510.5000      9.4791     51.4698      7.4295    154.2984
  2510.7500      9.3903     52.0573      7.3232    156.2994
  2511.0000      9.1936     52.5384      7.2275    159.1766
  2511.2500      8.9459     52.8958      7.1500    160.7156
  2511.5000      8.6895     53.1218      7.0925    162.1230
  2511.7500      8.4530     53.2213      7.0528    162.3316
  2512.0000      8.2515     53.2110      7.0270    161.2814
  2512.2500      8.0879     53.1161      7.0113    159.6583
  2512.5000      7.9587     52.9644      7.0018    156.5212
  2512.7500      7.8590     52.7821      6.9936    154.6421
  2513.0000      7.7839     52.5906      6.9793    152.9010
  2513.2500      7.7260     52.4050      6.9510    152.3794
  2513.5000      7.6727     52.2330      6.9030    151.9891
  2513.7500      7.6099     52.0733      6.8356    151.7872
  2514.0000      7.5281     51.9153      6.7549    151.5401
  2514.2500      7.4273     51.7403      6.6705    151.4002
  2514.5000      7.3171     51.5252      6.5924    151.1666
  2514.7500      7.2129     51.2488      6.5289    151.0992
  2515.0000      7.1316     50.8969      6.4856    151.7512
  2515.2500      7.0907     50.4649      6.4655    153.1439
  2515.5000      7.1038     49.9570      6.4691    156.8749
  2515.7500      7.1737     49.3823      6.4946    160.0224
  2516.0000      7.2883     48.7498      6.5394    164.4682
  2516.2500      7.4275     48.0653      6.6007    166.6010
  2516.5000      7.5740     47.3296      6.6760    167.9248
  2516.7500      7.7177     46.5396      6.7631    167.5185
  2517.0000      7.8531     45.6905      6.8598    165.5195
  2517.2500      7.9754     44.7772      6.9628    163.8181
  2517.5000      8.0748     43.7950      7.0675    161.6960
  2517.7500      8.1389     42.7392      7.1678    160.9945
  2518.0000      8.1644     41.6040      7.2579    161.2648
  2518.2500      8.1657     40.3833      7.3348    162.1016
  2518.5000      8.1696     39.0723      7.4019    163.2805
  2518.7500      8.1983     37.6709      7.4681    163.1544
  2519.0000      8.2583     36.1866      7.5454    160.4767
  2519.2500      8.3444     34.6353      7.6449    157.1225
  2519.5000      8.4522     33.0369      7.7738    151.1311
  2519.7500      8.5852     31.4079      7.9349    147.2160
  2520.0000      8.7498     29.7510      8.1278    141.4785
  2520.2500      8.9473     28.0468      8.3514    137.5025
  2520.5000      9.1777     26.2521      8.6082    131.9294
  2520.7500      9.4549     24.3063      8.9082    129.4143
  2521.0000      9.8140     22.1473      9.2688    128.5223
  2521.2500     10.2960     19.7328      9.7079    129.4351
  2521.5000     10.9205     17.0615     10.2330    130.8027
  2521.7500     11.6710     14.1897     10.8332    130.3001
  2522.0000     12.4989     11.2352     11.4777    125.8335
  2522.2500     13.3348      8.3687     12.1228    119.8598
  2522.5000     14.1027      5.7898     12.7210    106.3582
  2522.7500     14.7425      3.6927     13.2301     95.3864
  2523.0000     15.2390      2.2292     13.6233     80.0325
  2523.2500     15.6367      1.4771     13.9001     73.3053
  2523.5000     16.0162      1.4246     14.0868     71.4422
  2523.7500     16.4359      1.9732     14.2221     75.7029
  2524.0000     16.8760      2.9586     14.3359     87.8323
  2524.2500     17.2339      4.1826     14.4362     97.4218
  2524.5000     17.3789      5.4462     14.5079    110.0540
  2524.7500     17.2290      6.5776     14.5240    115.7290
  2525.0000     16.7953      7.4499     14.4624    119.3758
  2525.2500     16.1748      7.9900     14.3232    119.0232
  2525.5000     15.5089      8.1784     14.1375    115.8554
  2525.7500     14.9359      8.0450     13.9602    113.0922
  2526.0000     14.5532      7.6594     13.8525    109.9371
  2526.2500     14.3942      7.1207     13.8642    109.3130
  2526.5000     14.4290      6.5458     14.0179    110.6887
  2526.7500     14.5845      6.0579     14.2976    112.4525
  2527.0000     14.7715      5.7756     14.6430    114.8661
  2527.2500     14.9052      5.8016     14.9583    115.8243
  2527.5000     14.9168      6.2114     15.1438    116.3027
  2527.7500     14.7610      7.0426     15.1361    116.2470
  2528.0000     14.4271      8.2891     14.9256    116.1898
  2528.2500     13.9447      9.9009     14.5434    116.6560
  2528.5000     13.3708     11.7931     14.0347    119.2099
  2528.7500     12.7638     13.8592     13.4451    122.5845
  2529.0000     12.1635     15.9874     12.8177    129.6807
  2529.2500     11.5928     18.0739     12.1937    134.7525
  2529.5000     11.0696     20.0322     11.6063    141.0250
  2529.7500     10.6122     21.7978     11.0735    143.8981
  2530.0000     10.2310     23.3295     10.5970    146.8452
  2530.2500      9.9204     24.6098     10.1713    148.5359
  2530.5000      9.6620     25.6436      9.7955    151.3362
  2530.7500      9.4367     26.4557      9.4791    153.3698
  2531.0000      9.2300     27.0869      9.2357    156.0688
  2531.2500      9.0319     27.5875      9.0725    157.1094
  2531.5000      8.8336     28.0095      8.9832    156.7452
  2531.7500      8.6286     28.4000      8.9497    154.9572
  2532.0000      8.4165     28.7957      8.9485    149.8301
  2532.2500      8.2091     29.2214      8.9574    145.0126
  2532.5000      8.0324     29.6903      8.9588    137.1702
  2532.7500      7.9160     30.2060      8.9405    133.0705
  2533.0000      7.8738     30.7648      8.8951    131.0706
  2533.2500      7.8912     31.3571      8.8195    132.7983
  2533.5000      7.9335     31.9693      8.7149    137.9399
  2533.7500      7.9663     32.5860      8.5851    141.0943
  2534.0000      7.9701     33.1923      8.4341    142.8186
  2534.2500      7.9391     33.7765      8.2647    141.7349
  2534.5000      7.8751     34.3312      8.0787    138.7099
  2534.7500      7.7822     34.8530      7.8792    137.6110
  2535.0000      7.6656     35.3406      7.6726    139.8122
  2535.2500      7.5331     35.7922      7.4681    144.0015
  2535.5000      7.3972     36.2040      7.2756    152.1874
  2535.7500      7.2704     36.5691      7.1030    157.0633
  2536.0000      7.1556     36.8787      6.9547    161.4972
  2536.2500      7.0450     37.1238      6.8322    162.5435
  2536.5000      6.9290     37.2971      6.7344    162.5866
  2536.7500      6.8045     37.3934      6.6572    162.3807
  2537.0000      6.6758     37.4105      6.5938    162.0028
  2537.2500      6.5532     37.3485      6.5378    161.2428
  2537.5000      6.4525     37.2095      6.4848    158.6589
  2537.7500      6.3879     36.9980      6.4341    156.3231
