~Version Information
 VERS.                                  2.0 : CWLS LAS VERSION
 WRAP.                                   NO : WRAPING MODE
 SWARE .                 MController 2.5.0N : SOFTWARE VERSION
~Well Information
 WELL.                                  N/A : WELL
 COMP.                                  N/A : COMPANY
 FLD.                                   N/A : FIELD
 LOC.                                   N/A : LOCATION
 DATE.                                  N/A : DATE(S) LOGGED
 SRVC.                                  N/A : SERVICE COMPANY
 STAT.                                  N/A : STATE
 CNTY.                                  N/A : COUNTY
 CTRY.                                  N/A : COUNTRY
 API.                                   N/A : API NUMBER
 STRT.FT                               0.00 : START DEPTH
 STOP.FT                            2050.00 : STOP DEPTH
 STEP.FT                               1.00 : DEPTH INCREMENT
 NULL.                                -9999 : NULL VALUE
~Curve information
 DEPTH.FT                                   :
 ROP.MIN/FT                                 :
 GAS.UNITS                                  :
~ASCII Log data
# ...
      1000.0         0.40          3.2 
      1001.0         0.30          3.0 
      1002.0         0.37          3.0 
      1003.0         0.50          3.3 
      1004.0         0.43          3.3 
      1005.0         0.23          3.1 
      1006.0         0.30          3.4 
      1007.0         0.27          3.3 
      1008.0         0.32          3.2 
      1009.0         0.23          3.1 
      1010.0         0.23          3.0 
      1011.0         0.20          3.1 
      1012.0         0.27          3.6 
      1013.0         0.23          4.3 
      1014.0         0.20          5.0 
      1015.0         0.20          4.6 
      1016.0         0.23          4.0 
      1017.0         0.23          4.1 
      1018.0         2.88          9.7 
      1019.0         0.23          9.4 
      1020.0         0.23          7.9 
      1021.0         0.17          5.9 
      1022.0         0.20          4.9 
      1023.0         0.13          4.2 
      1024.0         0.13          4.3 
      1025.0         0.10          4.2 
      1026.0         0.13          4.6 
      1027.0         0.10          5.0 
      1028.0         0.18          4.8 
      1029.0         0.20          4.4 
      1030.0         0.23          4.3 
      1031.0         0.23          3.4 
      1032.0         0.23          4.0 
      1033.0         0.17          3.5 
      1034.0         0.10          3.3 
      1035.0         0.23          3.4 
      1036.0         0.23          3.2 
      1037.0         0.20          3.3 
      1038.0         0.23          3.2 
      1039.0         0.30          3.5 
      1040.0         0.23          2.8 
      1041.0         0.23          3.3 
      1042.0         0.27          3.3 
      1043.0         0.22          3.0 
      1044.0         0.33          3.3 
      1045.0         0.40          3.6 
      1046.0         0.27          3.9 
      1047.0         0.27          4.0 
      1048.0         1.43          3.9 
      1049.0         0.37          6.1 
      1050.0         0.28          5.7 
      1051.0         0.30          4.5 
      1052.0         0.23          3.7 
      1053.0         0.20          3.6 
      1054.0         0.17          3.3 
      1055.0         0.10          3.2 
      1056.0         0.23          3.0 
      1057.0         0.37          3.1 
      1058.0         0.20          2.9 
      1059.0         0.23          2.9 
      1060.0         0.20          2.6 
      1061.0         0.47          2.9 
      1062.0         0.23          3.2 
      1063.0         0.20          3.0 
      1064.0         0.32          2.9 
      1065.0         0.23          2.9 
      1066.0         0.37          3.3 
      1067.0         0.83          3.4 
      1068.0         0.43          3.5 
      1069.0         0.33          3.5 
      1070.0         0.30          3.6 
      1071.0         0.30          3.5 
      1072.0         0.42          3.2 
      1073.0         0.27          3.7 
      1074.0         0.27          4.4 
      1075.0         0.20          5.2 
      1076.0         0.20          5.5 
      1077.0         0.23          5.6 
      1078.0         0.90          5.1 
      1079.0         0.30          3.1 
      1080.0         0.40          3.9 
      1081.0         0.33          3.9 
      1082.0         0.32          3.8 
      1083.0         0.30          3.1 
      1084.0         0.23          3.0 
      1085.0         0.17          3.1 
      1086.0         0.30          2.8 
      1087.0         0.30          2.9 
      1088.0         0.23          2.8 
      1089.0         0.27          2.9 
      1090.0         0.30          2.8 
      1091.0         0.30          3.2 
      1092.0         0.27          6.2 
      1093.0         0.23          6.9 
      1094.0         0.20          6.3 
      1095.0         0.22          5.5 
      1096.0         0.27          4.7 
      1097.0         0.27          3.7 
      1098.0         0.13          3.1 
      1099.0         0.10          2.9 
      1100.0         0.13          3.0 
      1101.0         0.23          3.2 
      1102.0         0.17          2.5 
      1103.0         0.23          2.4 
      1104.0         0.30          2.7 
      1105.0         0.20          2.7 
      1106.0         0.20          3.4 
      1107.0         0.20          3.8 
      1108.0         1.75          6.6 
      1109.0         0.27          2.4 
      1110.0         0.30          2.2 
      1111.0         0.43          1.6 
      1112.0         0.33          1.7 
      1113.0         0.33          1.3 
      1114.0         0.33          1.4 
      1115.0         0.33          1.6 
      1116.0         0.35          1.6 
      1117.0         0.20          1.9 
      1118.0         0.20          1.7 
      1119.0         0.23          1.7 
      1120.0         0.23          1.7 
      1121.0         0.20          1.7 
      1122.0         0.20          1.9 
      1123.0         0.27          1.8 
      1124.0         0.20          1.8 
      1125.0         0.20          2.0 
      1126.0         0.23          2.5 
      1127.0         0.23          3.1 
      1128.0         0.27          4.3 
      1129.0         0.30          4.7 
      1130.0         0.25          4.3 
      1131.0         0.23          3.7 
      1132.0         0.20          3.1 
      1133.0         0.20          3.1 
      1134.0         0.23          2.8 
      1135.0         0.23          3.0 
      1136.0         0.23          3.5 
      1137.0         0.27          4.0 
      1138.0         2.52         12.5 
      1139.0         0.37          2.7 
      1140.0         0.30          2.5 
      1141.0         0.23          2.1 
      1142.0         0.17          2.2 
      1143.0         0.23          2.1 
      1144.0         0.27          2.1 
      1145.0         0.27          2.3 
      1146.0         0.23          2.4 
      1147.0         0.30          2.3 
      1148.0         0.28          2.3 
      1149.0         0.37          2.3 
      1150.0         0.27          2.2 
      1151.0         0.27          2.5 
      1152.0         0.33          2.3 
      1153.0         0.37          2.9 
      1154.0         0.40          2.7 
      1155.0         0.37          2.3 
      1156.0         0.33          2.6 
      1157.0         0.30          3.1 
      1158.0         0.32          3.6 
      1159.0         0.27          4.0 
      1160.0         0.30          3.9 
      1161.0         0.30          4.4 
      1162.0         0.27          5.6 
      1163.0         0.30          6.4 
      1164.0         0.30          8.5 
      1165.0         0.33          8.7 
      1166.0         0.30          6.8 
      1167.0         0.30          4.5 
      1168.0         0.85          3.3 
      1169.0         0.30          2.5 
      1170.0         0.27          2.4 
      1171.0         0.30          2.2 
      1172.0         0.23          2.1 
      1173.0         0.23          2.1 
      1174.0         0.23          2.1 
      1175.0         0.30          2.0 
      1176.0         0.23          2.0 
      1177.0         0.20          2.0 
      1178.0         0.23          2.0 
      1179.0         0.30          1.8 
      1180.0         0.22          2.0 
      1181.0         0.30          2.0 
      1182.0         0.17          1.9 
      1183.0         0.20          1.8 
      1184.0         0.17          1.7 
      1185.0         0.23          2.0 
      1186.0         0.27          1.6 
      1187.0         0.20          1.7 
      1188.0         0.23          1.9 
      1189.0         0.23          1.4 
      1190.0         0.20          1.7 
      1191.0         0.20          1.6 
      1192.0         0.17          1.7 
      1193.0         0.27          2.2 
      1194.0         0.20          2.7 
      1195.0         0.25          4.0 
      1196.0         0.20          4.4 
      1197.0         0.30          5.6 
      1198.0         0.87          5.3 
      1199.0         0.33          2.2 
