~Version Information
VERS.                      2.0: CWLS Log ASCII Standard - VERSION 2.0
WRAP.                       NO: One line per depth step
~Well Information Block
STRT.FT               185.5000: 
STOP.FT              2039.2500: 
STEP.FT                 0.2500: 
NULL.                -999.2500: 
COMP.          Petrogulf Corporation: COMPANY
WELL.            Montoya 7-12R: WELL
FLD.           Purgatorie River: FIELD
LOC.           1769' FNL & 658' FWL--: LOCATION
PROV.                       CO: PROVINCE
CNTY.               Las Animas: COUNTRY
SRVC.                         : SERVICE COMPANY
DATE.          Wed Feb 09 09:05:42 2005: LOG DATE
UWI.         005 071 08240  : UNIQUE WELL ID
~Curve Information Block
DEPT.FT            0 000 00 00: Depth
CCL.                          : Casing Collar Locator
CCLRT.                        : CCLRT
TT3.usec                      : CBL 3' Travel Time
AMP3.mV                       : CBL 3' Amplitude
GR.GAPI                       : Gamma Ray
~Parameter Information Block
~A  Depth       CCL        CCLRT        TT3         AMP3         GR     
# ...
  1389.5000      0.0000   -999.2500    687.5140      3.8222    145.8454
  1389.7500      0.0000   -999.2500    686.3008      3.9882    150.2367
  1390.0000      0.0000   -999.2500    684.2151      4.2040    153.8750
  1390.2500      0.0000   -999.2500    681.7392      4.4645    156.6329
  1390.5000      0.0000   -999.2500    681.0581      4.8028    158.8201
  1390.7500      0.0000   -999.2500    683.2422      5.2719    159.9754
  1391.0000      0.0000   -999.2500    686.4747      5.8973    159.6691
  1391.2500      0.0000   -999.2500    686.8258      6.6445    158.6293
  1391.5000      0.0000   -999.2500    679.3386      7.4391    157.8532
  1391.7500      0.0000   -999.2500    657.9677      8.2185    156.8747
  1392.0000      0.0000   -999.2500    617.6290      8.9489    154.1245
  1392.2500      0.0000   -999.2500    561.3456      9.5847    149.1954
  1392.5000      0.0000   -999.2500    505.4002     10.0333    143.6315
  1392.7500      0.0000   -999.2500    471.8547     10.1883    138.9834
  1393.0000      0.0000   -999.2500    472.6149     10.0069    135.0260
  1393.2500      0.0000   -999.2500    501.8279      9.5409    130.7157
  1393.5000      0.0000   -999.2500    542.6311      8.8877    126.2634
  1393.7500      0.0000   -999.2500    577.8090      8.1290    123.1588
  1394.0000      0.0000   -999.2500    596.8171      7.3228    122.1186
  1394.2500      0.0000   -999.2500    599.9068      6.5305    121.9871
  1394.5000      0.0000   -999.2500    597.1033      5.8211    121.0866
  1394.7500      0.0000   -999.2500    599.4355      5.2429    119.0535
  1395.0000      0.0000   -999.2500    610.0685      4.8013    116.7886
  1395.2500      0.0000   -999.2500    625.0435      4.4642    115.0952
  1395.5000      0.0000   -999.2500    640.3196      4.1848    114.0019
  1395.7500      0.0000   -999.2500    654.5758      3.9244    112.9098
  1396.0000      0.0000   -999.2500    666.3956      3.6706    110.8296
  1396.2500      0.0000   -999.2500    673.3540      3.4491    106.9679
  1396.5000      0.0000   -999.2500    675.1624      3.3141    101.5596
  1396.7500      0.0000   -999.2500    675.0916      3.3135     95.8741
  1397.0000      0.0000   -999.2500    676.2515      3.4553     91.3280
  1397.2500      0.0000   -999.2500    677.0657      3.7030     88.7437
  1397.5000      0.0000   -999.2500    672.2572      3.9961     88.0852
  1397.7500      0.0000   -999.2500    659.5023      4.2698     88.5475
  1398.0000      0.0000   -999.2500    644.7410      4.4642     89.2801
  1398.2500      0.0000   -999.2500    638.5016      4.5394     90.3443
  1398.5000      0.0000   -999.2500    644.8267      4.5020     92.5911
  1398.7500      0.0000   -999.2500    655.5891      4.4137     96.4051
  1399.0000      0.0000   -999.2500    658.8680      4.3633    100.9598
  1399.2500      0.0000   -999.2500    652.2351      4.4120    104.8559
  1399.5000      0.0000   -999.2500    644.6161      4.5490    107.0610
  1399.7500      0.0000   -999.2500    644.6084      4.6960    107.0792
  1400.0000      0.0000   -999.2500    649.6357      4.7702    104.8385
  1400.2500      0.0000   -999.2500    647.8251      4.7490    100.9851
  1400.5000      0.0000   -999.2500    629.5476      4.6660     97.0220
  1400.7500      0.0000   -999.2500    597.5580      4.5551     94.5108
  1401.0000     -2.0000   -999.2500    566.5323      4.4229     93.8532
  1401.2500      0.0000   -999.2500    551.0912      4.2757     94.0241
  1401.5000      0.0000   -999.2500    554.7214      4.1443     93.8748
  1401.7500      0.0000   -999.2500    572.2546      4.0672     93.7449
  1402.0000      0.0000   -999.2500    599.1129      4.0613     95.4220
  1402.2500      0.0000   -999.2500    632.4888      4.1074    100.4045
  1402.5000      0.0000   -999.2500    666.5167      4.1559    108.5193
  1402.7500      0.0000   -999.2500    693.1398      4.1545    118.2638
  1403.0000      0.0000   -999.2500    707.9250      4.0897    128.0227
  1403.2500      0.0000   -999.2500    712.4102      3.9992    136.7835
  1403.5000      0.0000   -999.2500    711.5500      3.9383    144.0840
  1403.7500      0.0000   -999.2500    710.3932      3.9483    149.6362
  1404.0000      0.0000   -999.2500    712.0513      4.0611    152.8879
  1404.2500      0.0000   -999.2500    717.0035      4.3153    152.7760
  1404.5000      0.0000   -999.2500    723.8834      4.7535    148.2184
  1404.7500      0.0000   -999.2500    730.6306      5.4015    139.1660
  1405.0000      0.0000   -999.2500    734.2757      6.2510    126.9117
  1405.2500      0.0000   -999.2500    729.2114      7.2601    113.2646
  1405.5000      0.0000   -999.2500    706.3174      8.3657    100.0424
  1405.7500      0.0000   -999.2500    656.7409      9.5092     89.4540
  1406.0000      0.0000   -999.2500    580.5046     10.6640     83.7967
  1406.2500      0.0000   -999.2500    491.8309     11.8394     83.8128
  1406.5000      0.0000   -999.2500    412.4272     13.0369     87.5105
  1406.7500      0.0000   -999.2500    357.4294     14.1917     91.4610
  1407.0000      0.0000   -999.2500    328.6057     15.1605     93.8807
  1407.2500      0.0000   -999.2500    320.1504     15.7640     96.1797
  1407.5000      0.0000   -999.2500    328.6931     15.8376    100.7645
  1407.7500      0.0000   -999.2500    357.5916     15.2675    107.5564
  1408.0000      0.0000   -999.2500    412.1293     14.0338    113.5567
  1408.2500      0.0000   -999.2500    489.4547     12.2533    115.9042
  1408.5000      0.0000   -999.2500    573.5439     10.1780    114.7257
  1408.7500      0.0000   -999.2500    642.9082      8.1257    112.8417
  1409.0000      0.0000   -999.2500    684.5436      6.3695    113.1513
  1409.2500      0.0000   -999.2500    699.8183      5.0510    116.3394
  1409.5000      0.0000   -999.2500    699.0424      4.1644    120.5210
  1409.7500      0.0000   -999.2500    693.3526      3.6059    122.9250
  1410.0000      0.0000   -999.2500    690.2601      3.2468    122.4137
  1410.2500      0.0000   -999.2500    692.3601      2.9889    120.5411
  1410.5000      0.0000   -999.2500    697.9059      2.7833    119.9593
  1410.7500      0.0000   -999.2500    703.2809      2.6190    121.8600
  1411.0000      0.0000   -999.2500    705.9631      2.5015    125.0568
  1411.2500      0.0000   -999.2500    705.3809      2.4348    127.5064
  1411.5000      0.0000   -999.2500    701.7830      2.4127    128.6298
  1411.7500      0.0000   -999.2500    695.6467      2.4196    129.9637
  1412.0000      0.0000   -999.2500    688.4073      2.4377    133.2694
  1412.2500      0.0000   -999.2500    682.5576      2.4555    138.0477
  1412.5000      0.0000   -999.2500    680.1883      2.4717    141.4798
  1412.7500      0.0000   -999.2500    681.3221      2.4915    141.1812
  1413.0000      0.0000   -999.2500    683.4593      2.5163    137.4364
  1413.2500      0.0000   -999.2500    682.5783      2.5388    132.3354
  1413.5000      0.0000   -999.2500    675.0924      2.5547    127.5306
  1413.7500      0.0000   -999.2500    659.7661      2.5767    123.4706
  1414.0000      0.0000   -999.2500    638.7944      2.6278    120.0203
  1414.2500      0.0000   -999.2500    617.6688      2.7133    116.9664
  1414.5000      0.0000   -999.2500    603.6073      2.8047    114.3358
  1414.7500      0.0000   -999.2500    602.9083      2.8594    112.7170
  1415.0000      0.0000   -999.2500    618.1078      2.8585    113.0415
  1415.2500      0.0000   -999.2500    645.7538      2.8254    115.9077
  1415.5000      0.0000   -999.2500    676.5325      2.8058    121.0383
  1415.7500      0.0000   -999.2500    699.5516      2.8273    126.8675
  1416.0000      0.0000   -999.2500    708.3975      2.8767    130.7004
  1416.2500      0.0000   -999.2500    703.4103      2.9211    130.2957
  1416.5000      0.0000   -999.2500    688.6064      2.9457    125.7696
  1416.7500      0.0000   -999.2500    667.8332      2.9626    119.5321
  1417.0000      0.0000   -999.2500    643.9547      2.9829    114.1677
  1417.2500      0.0000   -999.2500    619.9931      2.9960    110.6135
