~Version Information
VERS.                      2.0: CWLS Log ASCII Standard - VERSION 2.0
WRAP.                       NO: One line per depth step
~Well Information Block
STRT.FT               492.8000: 
STOP.FT              1992.0000: 
STEP.FT                 0.1000: 
NULL.                -999.2500: 
COMP.          Petrogulf Corporation: COMPANY
WELL.               Furu 6-23R: WELL
FLD.           Purgatoire River: FIELD
LOC.           2211' FSL & 1780' FWL--: LOCATION
CNTY.               Las Animas: COUNTY
SRVC.                Patterson: SERVICE COMPANY
DATE.          Thu Jun 22 14:21:35 2006: LOG DATE
UWI.           05 071 08266 00: UNIQUE WELL ID
STAT.                 Colorado: STATE
~Curve Information Block
DEPT.FT            0 000 00 00: Depth
DCAL.in                       : CDL Caliper
RHOB.g/cc                     : CDL Bulk Density
RHOC.g/cc                     : CDL Density Correction
DPOR.pu                       : CDL Density Porosity
NPOR.pu                       : Neutron Porosity
GR.GAPI                       : Gamma Ray
~Parameter Information Block
~A  Depth       DCAL        RHOB        RHOC        DPOR        NPOR         GR     
# ...
  1472.0000      8.2308      2.3113      0.0724     20.5286     33.6634    146.5990
  1472.1000      8.2308      2.3425      0.0665     18.6373     33.3785    151.5206
  1472.2000      8.2308      2.3661      0.1044     17.2053     33.2545    154.9326
  1472.3000      8.2299      2.3791      0.0756     16.4206     32.7996    151.4572
  1472.4000      8.2299      2.3894      0.1051     15.7912     32.3395    141.1985
  1472.5000      8.2283      2.3990      0.1088     15.2106     32.4163    133.7663
  1472.6000      8.2283      2.4052      0.0963     14.8348     32.5374    132.4679
  1472.7000      8.2283      2.4171      0.1114     14.1172     31.9616    129.7032
  1472.8000      8.2281      2.4435      0.0646     12.5173     30.9517    124.2089
  1472.9000      8.2281      2.4734      0.0905     10.7032     30.3608    121.7053
  1473.0000      8.2291      2.4920      0.0465      9.5737     30.4592    123.3288
  1473.1000      8.2291      2.5003      0.0995      9.0724     30.6366    126.1319
  1473.2000      8.2291      2.4988      0.0929      9.1632     30.6458    129.0394
  1473.3000      8.2298      2.4842      0.0842     10.0475     30.8020    132.0883
  1473.4000      8.2298      2.4662      0.0241     11.1419     31.1484    134.7002
  1473.5000      8.2325      2.4631      0.0248     11.3289     31.4200    139.3282
  1473.6000      8.2325      2.4718      0.0568     10.8015     31.2788    145.5541
  1473.7000      8.2325      2.4712      0.0659     10.8353     30.6366    145.9240
  1473.8000      8.2371      2.4557      0.0160     11.7759     29.8953    139.1935
  1473.9000      8.2371      2.4342      0.0223     13.0808     29.5191    136.2678
  1474.0000      8.2438      2.4086     -0.0098     14.6305     29.3251    142.0343
  1474.1000      8.2438      2.3799     -0.0136     16.3700     29.0064    146.7236
  1474.2000      8.2438      2.3600     -0.0178     17.5731     29.0243    141.1990
  1474.3000      8.2509      2.3585      0.0258     17.6689     29.5344    129.6713
  1474.4000      8.2509      2.3728      0.0226     16.8004     29.9573    121.5419
  1474.5000      8.2532      2.3984      0.0672     15.2465     30.1488    118.3492
  1474.6000      8.2532      2.4246      0.1041     13.6598     30.0319    115.0119
  1474.7000      8.2532      2.4372      0.1365     12.8977     29.4125    111.3636
  1474.8000      8.2527      2.4382      0.1165     12.8341     28.6062    111.7344
  1474.9000      8.2527      2.4410      0.1829     12.6648     28.2297    113.6965
  1475.0000      8.2568      2.4485      0.1963     12.2094     28.6867    112.9647
  1475.1000      8.2568      2.4552      0.1779     11.8052     29.3559    112.8392
  1475.2000      8.2568      2.4587      0.1247     11.5915     29.3451    120.3099
  1475.3000      8.2640      2.4686      0.0583     10.9916     29.2661    134.3487
  1475.4000      8.2640      2.4918      0.0839      9.5899     29.9362    144.6297
  1475.5000      8.2664      2.5131      0.1210      8.2955     30.7547    144.1769
  1475.6000      8.2664      2.5165      0.0568      8.0887     31.2965    137.4700
  1475.7000      8.2664      2.5000      0.1118      9.0888     31.8061    130.8461
  1475.8000      8.2642      2.4714      0.0367     10.8223     31.9180    127.8668
  1475.9000      8.2642      2.4497      0.0088     12.1392     31.4803    130.8901
  1476.0000      8.2607      2.4397      0.0174     12.7453     31.4095    134.1546
  1476.1000      8.2607      2.4326      0.0256     13.1787     32.0211    133.7764
  1476.2000      8.2607      2.4306      0.0323     13.2968     32.3664    133.6949
  1476.3000      8.2584      2.4355      0.0430     12.9996     31.9007    133.2681
  1476.4000      8.2584      2.4376      0.0711     12.8716     31.2562    129.5686
  1476.5000      8.2568      2.4255      0.0568     13.6038     31.2930    126.4217
  1476.6000      8.2568      2.4002      0.0455     15.1391     32.1306    127.4534
  1476.7000      8.2568      2.3695      0.0583     16.9978     33.0522    126.1508
  1476.8000      8.2574      2.3231      0.0579     19.8111     33.8183    118.1479
  1476.9000      8.2574      2.2445     -0.0078     24.5728     34.7968    111.7006
  1477.0000      8.2608      2.1350     -0.0222     31.2114     35.5439    113.6423
  1477.1000      8.2608      2.0128     -0.0800     38.6167     35.3985    115.5327
  1477.2000      8.2608      1.9156     -0.1612     44.5111     34.8705    107.5881
  1477.3000      8.2644      1.8646     -0.0888     47.5977     34.8664     95.3213
  1477.4000      8.2644      1.8404     -0.0748     49.0652     35.3374     87.4257
  1477.5000      8.2678      1.8233     -0.0181     50.1057     35.7383     85.5594
  1477.6000      8.2678      1.8161      0.0056     50.5365     35.6592     88.6181
  1477.7000      8.2678      1.8281      0.1192     49.8140     35.0029     94.0381
  1477.8000      8.2801      1.8584      0.1414     47.9746     34.2094     99.2848
  1477.9000      8.2801      1.9049      0.1873     45.1573     33.7668    103.0742
  1478.0000      8.2915      1.9707      0.1758     41.1700     33.5864    104.6353
  1478.1000      8.2915      2.0584      0.1687     35.8556     33.4741    103.9766
  1478.2000      8.2915      2.1563      0.1728     29.9226     33.6887    102.4294
  1478.3000      8.2801      2.2360      0.1699     25.0916     34.0845    103.9276
  1478.4000      8.2801      2.2793      0.1336     22.4691     34.0427    110.9836
  1478.5000      8.2633      2.3059      0.0493     20.8529     33.7109    120.2582
  1478.6000      8.2633      2.3485      0.0583     18.2738     33.4776    123.8883
  1478.7000      8.2633      2.4012      0.0905     15.0813     33.1447    119.6784
  1478.8000      8.2575      2.4309      0.1409     13.2769     32.5235    116.0842
  1478.9000      8.2575      2.4282      0.0464     13.4438     31.8362    119.1382
  1479.0000      8.2586      2.4047      0.0219     14.8668     31.3134    124.2911
  1479.1000      8.2586      2.3605      0.0247     17.5477     31.3580    126.8699
  1479.2000      8.2586      2.3042     -0.0516     20.9599     32.3164    127.4584
  1479.3000      8.2597      2.2591     -0.0400     23.6908     33.5502    128.0933
  1479.4000      8.2597      2.2337     -0.0409     25.2330     34.3023    127.3224
  1479.5000      8.2582      2.2279     -0.0158     25.5814     34.5468    125.6705
  1479.6000      8.2582      2.2429      0.0074     24.6743     34.3673    128.0817
  1479.7000      8.2582      2.2695      0.0547     23.0609     34.0113    133.6497
  1479.8000      8.2566      2.2923      0.0993     21.6798     33.6534    134.5162
  1479.9000      8.2566      2.3081      0.1034     20.7203     33.1679    127.7684
  1480.0000      8.2567      2.3246      0.1365     19.7219     32.5649    118.0792
  1480.1000      8.2567      2.3466      0.1659     18.3853     32.0678    111.1575
  1480.2000      8.2567      2.3759      0.1801     16.6092     31.6260    109.0517
  1480.3000      8.2588      2.4076      0.1921     14.6925     31.0130    110.4694
  1480.4000      8.2588      2.4355      0.1006     13.0018     30.1212    111.2654
  1480.5000      8.2606      2.4624      0.0479     11.3708     29.1371    110.7673
  1480.6000      8.2606      2.4895      0.0707      9.7276     28.7654    113.2235
  1480.7000      8.2606      2.5113      0.0828      8.4083     29.3367    118.9840
  1480.8000      8.2596      2.5264      0.0626      7.4892     30.1463    123.8372
  1480.9000      8.2596      2.5430      0.0619      6.4830     30.2952    122.5987
  1481.0000      8.2581      2.5665      0.0559      5.0577     29.8525    113.9549
  1481.1000      8.2581      2.5860      0.1152      3.8810     29.4648    106.8203
  1481.2000      8.2581      2.5781      0.1023      4.3547     29.3977    108.9906
  1481.3000      8.2576      2.5409      0.0706      6.6114     29.4666    115.0060
  1481.4000      8.2576      2.5076      0.0003      8.6303     29.2098    117.0164
  1481.5000      8.2576      2.5133      0.0310      8.2830     28.4563    117.1411
