~Version Information
VERS.                      2.0: CWLS Log ASCII Standard - VERSION 2.0
WRAP.                       NO: One line per depth step
~Well Information Block
STRT.FT                -8.2500: 
STOP.FT              1119.7500: 
STEP.FT                 0.2500: 
NULL.                -999.2500: 
COMP.          Pioneer Natural Resources: COMPANY
WELL.             Linda T 32-3: WELL
FLD.           Purgatorie River: FIELD
LOC.           1350' FNL & 2290' FEL------: LOCATION
PROV.                       CO: PROVINCE
CNTY.               Las Animas: COUNTRY
SRVC.                         : SERVICE COMPANY
DATE.          Thu Feb 10 08:20:40 2005: LOG DATE
UWI.          005 071 08215   : UNIQUE WELL ID
~Curve Information Block
DEPT.FT            0 000 00 00: Depth
CCL.                          : Casing Collar Locator
TT3.usec                      : CBL 3' Travel Time
AMP3.mV                       : CBL 3' Amplitude
GR.GAPI                       : Gamma Ray
~Parameter Information Block
~A  Depth       CCL         TT3         AMP3         GR     
# ...
  1097.2500      0.0000    654.5068     10.3870    108.1140
  1097.5000      0.0000    608.4324     10.5726    113.9004
  1097.7500      0.0000    553.0554     10.8999    119.3791
  1098.0000      0.0000    493.8812     11.3414    123.6044
  1098.2500      0.0000    435.6114     11.8390    126.1150
  1098.5000      0.0000    385.0512     12.3311    127.0792
  1098.7500      0.0000    348.7068     12.7772    126.8281
  1099.0000      0.0000    327.9355     13.1822    125.5530
  1099.2500      0.0000    318.6873     13.5861    123.5021
  1099.5000      0.0000    315.4961     14.0114    121.1632
  1099.7500      0.0000    314.6268     14.4224    119.3755
  1100.0000      0.0000    314.4180     14.7374    119.1385
  1100.2500      0.0000    314.3428     14.8863    120.6834
  1100.5000      0.0000    314.2943     14.8656    122.6942
  1100.7500      0.0000    314.2338     14.7431    123.2844
  1101.0000      0.0000    314.1577     14.6084    122.0542
  1101.2500      0.0000    314.0734     14.5176    120.6302
  1101.5000      0.0000    313.9926     14.4712    120.9847
  1101.7500      0.0000    313.9232     14.4388    123.7545
  1102.0000      0.0000    313.8667     14.4050    128.2269
  1102.2500      0.0000    313.8213     14.3915    133.2027
  1102.5000      0.0000    313.7848     14.4325    137.4811
  1102.7500      0.0000    313.7534     14.5424    139.9778
  1103.0000      0.0000    313.7211     14.7135    140.0293
  1103.2500      0.0000    313.6921     14.9230    138.0122
  1103.5000      0.0000    313.6879     15.1282    135.6418
  1103.7500      0.0000    313.7301     15.2723    134.9873
  1104.0000      0.0000    313.8122     15.3131    136.5862
  1104.2500      0.0000    313.9004     15.2407    138.7370
  1104.5000      0.0000    313.9648     15.0684    138.9835
  1104.7500      0.0000    314.0043     14.8223    136.2738
  1105.0000      0.0000    314.0377     14.5383    131.4155
  1105.2500      0.0000    314.0786     14.2636    125.1141
  1105.5000      0.0000    314.1229     14.0563    115.7964
  1105.7500      0.0000    314.1612     13.9687    100.3588
  1106.0000      0.0000    314.1942     14.0116     77.8436
  1106.2500      0.0000    314.2288     14.1451     51.9553
  1106.5000      0.0000    314.2581     14.3148     28.9886
  1106.7500      0.0000    314.2549     14.4881     13.2533
  1107.0000      0.0000    314.1926     14.6600      4.8980
  1107.2500      0.0000    314.0705     14.8560      1.4489
  1107.5000      0.0000    313.9126     15.1314      0.3403
  1107.7500      0.0000    313.7408     15.5298      0.0625
  1108.0000      0.0000    313.5600     16.0200      0.0080
  1108.2500      0.0000    313.3737     16.4899      0.0000
  1108.5000      0.0000    313.2039     16.8144   -999.2500
  1108.7500      0.0000    313.0819     16.9343   -999.2500
  1109.0000      0.0000    313.0169     16.8919   -999.2500
  1109.2500      0.0000    312.9830     16.8064   -999.2500
  1109.5000      0.0000    312.9289     16.8065   -999.2500
  1109.7500      0.0000    312.7573     16.9609   -999.2500
  1110.0000      0.0000    312.0385     17.2386   -999.2500
  1110.2500      0.0000    309.2713     17.4885   -999.2500
  1110.5000      0.0000    300.7723     17.4210   -999.2500
  1110.7500      0.0000    280.4263     16.6265   -999.2500
  1111.0000      0.0000    242.4962     14.7495   -999.2500
  1111.2500      0.0000    187.3983     11.8180   -999.2500
  1111.5000      0.0000    125.0308      8.4189   -999.2500
  1111.7500      0.0000     70.0271      5.4040   -999.2500
  1112.0000      0.0000     32.2377      3.3369   -999.2500
  1112.2500      0.0000     12.0147      2.2366   -999.2500
  1112.5000      0.0000      3.5854      1.7810   -999.2500
  1112.7500      0.0000      0.8490      1.6340   -999.2500
  1113.0000      0.0000      0.1571      1.5971   -999.2500
  1113.2500      0.0000      0.0209      1.5899   -999.2500
  1113.5000      0.0000   -999.2500   -999.2500   -999.2500
  1113.7500      0.0000   -999.2500   -999.2500   -999.2500
  1114.0000      0.0000   -999.2500   -999.2500   -999.2500
  1114.2500      0.0000   -999.2500   -999.2500   -999.2500
  1114.5000      0.0000   -999.2500   -999.2500   -999.2500
  1114.7500      0.0000   -999.2500   -999.2500   -999.2500
  1115.0000      0.0000   -999.2500   -999.2500   -999.2500
  1115.2500      0.0000   -999.2500   -999.2500   -999.2500
  1115.5000      0.0000   -999.2500   -999.2500   -999.2500
  1115.7500      0.0000   -999.2500   -999.2500   -999.2500
  1116.0000      0.0000   -999.2500   -999.2500   -999.2500
  1116.2500      0.0000   -999.2500   -999.2500   -999.2500
  1116.5000      0.0000   -999.2500   -999.2500   -999.2500
  1116.7500      0.0000   -999.2500   -999.2500   -999.2500
  1117.0000      0.0000   -999.2500   -999.2500   -999.2500
  1117.2500      0.0000   -999.2500   -999.2500   -999.2500
  1117.5000      0.0000   -999.2500   -999.2500   -999.2500
  1117.7500      0.0000   -999.2500   -999.2500   -999.2500
  1118.0000      0.0000   -999.2500   -999.2500   -999.2500
  1118.2500      0.0000   -999.2500   -999.2500   -999.2500
  1118.5000      0.0000   -999.2500   -999.2500   -999.2500
  1118.7500      2.0000   -999.2500   -999.2500   -999.2500
  1119.0000      0.0000   -999.2500   -999.2500   -999.2500
  1119.2500   -999.2500   -999.2500   -999.2500   -999.2500
  1119.5000   -999.2500   -999.2500   -999.2500   -999.2500
  1119.7500   -999.2500   -999.2500   -999.2500   -999.2500
