~Version Information
 VERS.                                  2.0 : CWLS LAS VERSION
 WRAP.                                   NO : WRAPING MODE
 SWARE .                 MController 2.5.0I : SOFTWARE VERSION
~Well Information
 WELL.                       Montoya 12-41v : WELL
 COMP.                       Petrogulf Corp : COMPANY
 FLD.                      Purgatoire River : FIELD
 LOC.                NE/NE Sec 12 T33S R68W : LOCATION
 DATE.                              8/10/04 : DATE(S) LOGGED
 SRVC.       Blanco Geological Services LLc : SERVICE COMPANY
 STAT.                                   CO : STATE
 CNTY.                           Las Animas : COUNTY
 CTRY.                                  USA : COUNTRY
 API.                       05-071-08139-00 : API NUMBER
 STRT.FT                            698.00 : START DEPTH
 STOP.FT                            2660.00 : STOP DEPTH
 STEP.FT                               1.00 : DEPTH INCREMENT
 NULL.                                 9999 : NULL VALUE
~Curve information
 DEPTH.FT                                   :
 ROP.MIN/FT                                 :
 GAS.UNITS                                  :
~ASCII Log data
# ...
      1890.0          0.4          8.2 
      1891.0          0.3          8.1 
      1892.0          0.4          8.9 
      1893.0          6.9        121.8 
      1894.0          0.5          5.1 
      1895.0          0.6          6.3 
      1896.0          0.5         10.0 
      1897.0          0.5         10.6 
      1898.0          0.6          8.4 
      1899.0          0.6          8.9 
      1900.0          0.3          8.3 
      1901.0          0.3          7.0 
      1902.0          0.3          7.7 
      1903.0          0.3          8.0 
      1904.0          0.3          7.1 
      1905.0          0.3          9.1 
      1906.0          0.4          8.6 
      1907.0          0.4          8.5 
      1908.0          0.5          8.8 
      1909.0          0.4          9.4 
      1910.0          0.4          9.1 
      1912.0          0.4          7.5 
      1912.0          0.4          7.4 
      1913.0          0.4          7.9 
      1914.0          0.3          9.9 
      1915.0          0.4          8.8 
      1916.0          0.4          8.8 
      1917.0          0.4          8.0 
      1918.0          0.4          7.8 
      1919.0          0.3          7.2 
      1920.0          0.3          7.0 
      1921.0          0.3          6.6 
      1922.0          0.3          6.6 
      1923.0          6.5        128.5 
      1924.0          0.2         58.7 
      1925.0          0.2         29.0 
      1926.0          0.4         12.2 
      1927.0          0.5          3.5 
      1928.0          0.5          4.3 
      1929.0          0.3          6.5 
      1930.0          0.3         10.4 
      1931.0          0.3         12.4 
      1932.0          0.3          9.1 
      1933.0          0.2          7.7 
      1934.0          0.3          8.8 
      1935.0          0.3          8.2 
      1936.0          0.2          7.3 
      1937.0          0.3          8.5 
      1938.0          0.3          8.4 
      1939.0          0.5          7.7 
      1940.0          0.3          8.3 
      1941.0          0.6          9.0 
      1942.0          0.5          9.5 
      1943.0          0.4          7.2 
      1944.0          0.4          6.9 
      1945.0          0.4          8.1 
      1946.0          0.4          8.9 
      1947.0          0.4          8.3 
      1948.0          0.4          7.3 
      1949.0          0.4          8.2 
      1950.0          0.4          8.6 
      1951.0          0.4          8.8 
      1952.0          0.2          5.9 
      1953.0          6.1        120.6 
      1954.0          0.2         53.6 
      1955.0          0.2         26.1 
      1956.0          0.3          9.2 
      1957.0          0.3          3.6 
      1958.0          0.3          2.5 
      1959.0          0.2          2.0 
      1960.0          0.3          4.4 
      1961.0          0.3          6.9 
      1962.0          0.5          8.2 
      1963.0          0.6          9.7 
      1964.0          0.5          8.7 
      1965.0          0.3          5.9 
      1966.0          0.3          5.8 
      1967.0          0.4          7.6 
      1968.0          0.4          6.9 
      1969.0          0.4          7.6 
      1970.0          0.3          8.0 
      1971.0          0.4          8.2 
      1972.0          0.4          6.5 
      1973.0          0.4          6.8 
      1974.0          0.3          9.8 
      1975.0          0.4          9.3 
      1976.0          0.3          8.1 
      1977.0          0.3          6.9 
      1978.0          0.3          6.4 
      1979.0          0.3          9.1 
      1980.0          0.4          8.7 
      1981.0          0.3          7.6 
      1982.0          0.5          6.4 
      1983.0          6.6        105.3 
      1984.0          0.1        104.7 
      1985.0          0.4        101.4 
      1986.0          0.3         43.7 
      1987.0          0.6         12.3 
      1988.0          0.8          3.5 
      1989.0          0.4          5.4 
      1990.0          0.5          6.9 
      1991.0          0.4          7.5 
      1992.0          0.5          9.5 
      1993.0          0.5          9.6 
      1994.0          0.2          7.8 
      1995.0          0.2          5.3 
      1996.0          0.3          5.2 
      1997.0          0.3          4.4 
      1998.0          0.2          4.8 
      1999.0          0.4          5.1 
      2000.0          0.4          4.8 
      2001.0          0.3          4.3 
      2002.0          0.3          4.2 
      2003.0          0.3          4.3 
      2004.0          0.3          4.1 
      2005.0          0.3          3.4 
      2006.0          0.3          3.9 
      2007.0          0.3          4.2 
      2008.0          0.3          4.2 
      2009.0          0.3          4.9 
      2010.0          0.3          4.3 
      2012.0          0.3          4.5 
      2012.0          0.3          4.3 
      2013.0          7.8        127.5 
      2014.0          0.7        120.8 
      2015.0          0.6          3.1 
      2016.0          0.3          1.5 
      2017.0          0.3          2.0 
      2018.0          0.4          5.5 
      2019.0          0.3          7.7 
      2020.0          0.3          6.8 
      2021.0          0.2          7.1 
      2022.0          0.3          6.8 
      2023.0          0.4          6.6 
      2024.0          0.3          7.7 
      2025.0          0.3          6.9 
      2026.0          0.2          7.1 
      2027.0          0.3          6.1 
      2028.0          0.3          6.2 
      2029.0          0.3          5.6 
      2030.0          0.4          6.2 
      2031.0          0.4          6.2 
      2032.0          0.4          6.1 
      2033.0          0.3          5.5 
      2034.0          0.3          5.6 
      2035.0          0.3          3.8 
      2036.0          0.3          4.4 
      2037.0          0.3          4.3 
      2038.0          0.4          4.4 
      2039.0          0.3          4.9 
      2040.0          0.3          6.2 
      2041.0          0.7          5.8 
      2042.0          0.4          4.4 
      2043.0          0.3          3.9 
      2044.0          0.4          5.2 
      2045.0          7.1        135.4 
      2046.0          0.4          0.5 
      2047.0          0.4          1.5 
      2048.0          0.5          5.4 
      2049.0          0.6          7.6 
      2050.0          0.4          5.8 
      2051.0          0.4          6.8 
      2052.0          0.4          7.3 
      2053.0          0.6          8.5 
      2054.0          0.3          6.9 
      2055.0          0.4          7.0 
      2056.0          0.5          7.4 
      2057.0          0.3          5.6 
      2058.0          0.6          6.0 
      2059.0          0.4          5.4 
      2060.0          0.4          5.4 
      2061.0          0.5          5.1 
      2062.0          0.3          4.9 
      2063.0          0.4          5.4 
      2064.0          0.4          5.1 
      2065.0          0.4          5.7 
      2066.0          0.4          5.5 
      2067.0          0.6         12.2 
      2068.0          0.3         12.8 
      2069.0          0.5          7.7 
      2070.0          0.4          3.7 
      2071.0          0.6          1.6 
      2072.0          0.4          0.7 
      2073.0          0.5          0.4 
      2074.0          0.5          0.7 
      2075.0          2.7        143.7 
      2076.0          0.6          9.9 
      2077.0          0.6          1.0 
      2078.0          0.5          3.8 
      2079.0          0.6          6.9 
      2080.0          0.6          6.9 
      2081.0          0.5          6.2 
      2082.0          0.4          6.7 
      2083.0          0.4          6.5 
      2084.0          0.6          6.9 
      2085.0          0.4          7.3 
      2086.0          0.5          6.7 
      2087.0          0.4          6.4 
      2088.0          0.3          6.0 
      2089.0          0.5          6.5 
