~Version Information
VERS.                      2.0: CWLS Log ASCII Standard - VERSION 2.0
WRAP.                       NO: One line per depth step
~Well Information Block
STRT.FT               533.0000: 
STOP.FT              1578.0000: 
STEP.FT                 0.2500: 
NULL.                -999.2500: 
COMP.          Pioneer Natural Resources: COMPANY
WELL.           Telna 24-22 Tr: WELL
FLD.           Purgatoire River: FIELD
LOC.           748' FSL & 1931' FWL: LOCATION
PROV.                 Colorado: PROVINCE
CNTY.               Las Animas: COUNTRY
SRVC.                Patterson: SERVICE COMPANY
DATE.          Sun May 01 14:14:42 2005: LOG DATE
UWI.           05 071 08304 00: UNIQUE WELL ID
~Curve Information Block
DEPT.FT            0 000 00 00: Depth
SN.Ohm-m                      : IEL Short Normal
SP.mV                         : IEL Spontaneous Potential
DIR.Ohm-m                     : IEL Induction Resistivity
GR.GAPI                       : Gamma Ray
~Parameter Information Block
~A  Depth        SN          SP         DIR          GR     
# ...
  1069.0000     16.3354      0.2964     18.5371    128.9104
  1069.2500     15.3840     -0.4625     18.1511    131.1763
  1069.5000     14.4262     -1.0855     17.7070    132.2413
  1069.7500     13.6284     -1.5762     17.2243    131.6352
  1070.0000     13.0986     -1.9466     16.7299    129.5624
  1070.2500     12.8520     -2.2113     16.2535    127.9522
  1070.5000     12.8614     -2.3845     15.8159    126.3302
  1070.7500     13.0633     -2.4793     15.4223    126.4661
  1071.0000     13.3425     -2.5073     15.0670    128.9298
  1071.2500     13.5782     -2.4813     14.7452    131.5980
  1071.5000     13.7015     -2.4143     14.4596    135.7121
  1071.7500     13.6917     -2.3141     14.2180    138.0235
  1072.0000     13.5613     -2.1793     14.0260    140.9301
  1072.2500     13.3606     -2.0035     13.8829    142.7456
  1072.5000     13.1562     -1.7842     13.7842    145.4041
  1072.7500     12.9993     -1.5274     13.7252    146.9512
  1073.0000     12.9175     -1.2489     13.7016    148.4755
  1073.2500     12.8853     -0.9717     13.7060    148.8390
  1073.5000     12.8038     -0.7145     13.7250    148.6260
  1073.7500     12.5892     -0.4773     13.7429    148.2082
  1074.0000     12.2569     -0.2374     13.7487    147.3753
  1074.2500     11.8617      0.0347     13.7438    146.5814
  1074.5000     11.4640      0.3551     13.7424    144.4242
  1074.7500     11.1660      0.7190     13.7658    141.9668
  1075.0000     11.0772      1.1050     13.8331    136.9839
  1075.2500     11.2681      1.4828     13.9550    133.5873
  1075.5000     11.7553      1.8207     14.1331    129.7535
  1075.7500     12.4607      2.0936     14.3634    128.2075
  1076.0000     13.2206      2.2912     14.6392    126.8168
  1076.2500     13.8976      2.4206     14.9524    126.1468
  1076.5000     14.4542      2.5009     15.2935    125.1307
  1076.7500     14.9213      2.5524     15.6528    124.2420
  1077.0000     15.3481      2.5894     16.0230    122.3756
  1077.2500     15.7774      2.6204     16.4001    120.7520
  1077.5000     16.2485      2.6511     16.7837    117.5875
  1077.7500     16.8073      2.6842     17.1777    114.8120
  1078.0000     17.4904      2.7186     17.5901    109.7256
  1078.2500     18.2792      2.7472     18.0296    106.1846
  1078.5000     19.0732      2.7583     18.4981    101.8532
  1078.7500     19.7364      2.7401     18.9815    100.2537
  1079.0000     20.1930      2.6909     19.4473    100.4467
  1079.2500     20.4608      2.6259     19.8525    102.3159
  1079.5000     20.5972      2.5695     20.1586    106.8839
  1079.7500     20.6513      2.5376     20.3434    110.2121
  1080.0000     20.6653      2.5307     20.4057    114.1331
  1080.2500     20.6714      2.5472     20.3651    115.5508
  1080.5000     20.6812      2.5942     20.2599    116.0589
  1080.7500     20.6971      2.6768     20.1393    115.9717
  1081.0000     20.7245      2.7845     20.0502    116.5112
  1081.2500     20.7692      2.8946     20.0257    117.5762
  1081.5000     20.8207      2.9885     20.0837    119.4856
  1081.7500     20.8498      3.0608     20.2358    120.3923
  1082.0000     20.8363      3.1145     20.4939    121.1275
  1082.2500     20.7900      3.1536     20.8638    121.6122
  1082.5000     20.7437      3.1811     21.3302    122.6236
  1082.7500     20.7428      3.2015     21.8458    123.0389
  1083.0000     20.8386      3.2228     22.3437    121.9801
  1083.2500     21.0919      3.2565     22.7693    119.5457
  1083.5000     21.5981      3.3152     23.1108    112.7600
  1083.7500     22.5135      3.4108     23.4030    106.1404
  1084.0000     24.0387      3.5553     23.7059     93.8479
  1084.2500     26.3376      3.7634     24.0780     85.0539
  1084.5000     29.4135      4.0520     24.5610     73.1381
  1084.7500     33.0098      4.4370     25.1767     67.2158
  1085.0000     36.5830      4.9273     25.9307     62.5412
  1085.2500     39.3650      5.5212     26.8199     62.2648
  1085.5000     40.6237      6.2044     27.8349     65.3699
  1085.7500     40.1355      6.9511     28.9495     69.2533
  1086.0000     38.4679      7.7277     30.0967     76.9837
  1086.2500     36.6217      8.4967     31.1443     82.7655
  1086.5000     35.3004      9.2197     31.9023     90.5386
  1086.7500     34.5901      9.8634     32.1866     93.8251
  1087.0000     34.2628     10.4107     31.9199     94.4867
  1087.2500     34.1600     10.8674     31.1814     92.2548
  1087.5000     34.2409     11.2565     30.1535     86.7610
  1087.7500     34.4422     11.6032     29.0176     83.0203
  1088.0000     34.6042     11.9234     27.8899     78.9091
  1088.2500     34.4895     12.2226     26.8187     77.5810
  1088.5000     33.8588     12.5015     25.8114     77.9683
  1088.7500     32.5980     12.7608     24.8596     79.8144
  1089.0000     30.8007     13.0014     23.9476     84.3867
  1089.2500     28.6962     13.2222     23.0528     87.9207
  1089.5000     26.4947     13.4189     22.1483     92.7879
  1089.7500     24.3360     13.5883     21.2133     95.5519
  1090.0000     22.3359     13.7344     20.2485     99.4321
  1090.2500     20.5830     13.8674     19.2803    102.1390
  1090.5000     19.1032     13.9936     18.3506    106.4208
  1090.7500     17.8618     14.1086     17.4963    109.2424
  1091.0000     16.8032     14.2050     16.7367    113.2033
  1091.2500     15.9029     14.2833     16.0717    115.7484
  1091.5000     15.1634     14.3529     15.4893    119.7770
  1091.7500     14.5681     14.4267     14.9744    122.6503
  1092.0000     14.0741     14.5184     14.5149    126.7976
  1092.2500     13.6364     14.6384     14.1055    129.1012
  1092.5000     13.2247     14.7880     13.7477    131.6965
  1092.7500     12.8386     14.9549     13.4457    133.0681
  1093.0000     12.5019     15.1170     13.2002    134.9854
  1093.2500     12.2230     15.2525     13.0077    136.0759
  1093.5000     11.9636     15.3510     12.8642    136.6823
  1093.7500     11.6612     15.4199     12.7714    135.9805
  1094.0000     11.2983     15.4813     12.7367    133.2412
  1094.2500     10.9507     15.5616     12.7665    130.6522
  1094.5000     10.7578     15.6817     12.8568    126.2835
  1094.7500     10.8454     15.8475     12.9904    123.2264
  1095.0000     11.2674     16.0433     13.1407    118.4934
  1095.2500     11.9789     16.2309     13.2811    115.2945
  1095.5000     12.8485     16.3670     13.3920    110.6000
  1095.7500     13.7106     16.4315     13.4658    107.6584
  1096.0000     14.4195     16.4422     13.5069    103.9312
  1096.2500     14.8750     16.4395     13.5263    102.4055
  1096.5000     15.0353     16.4552     13.5341    102.7361
  1096.7500     14.9263     16.4955     13.5297    105.1780
  1097.0000     14.6277     16.5475     13.5002    111.8092
  1097.2500     14.2266     16.5945     13.4285    117.2549
  1097.5000     13.7721     16.6234     13.3070    124.8254
  1097.7500     13.2845     16.6266     13.1455    128.4798
  1098.0000     12.7917     16.6027     12.9664    131.1983
  1098.2500     12.3293     16.5536     12.7921    131.4271
  1098.5000     11.9257     16.4813     12.6364    130.6320
  1098.7500     11.6115     16.3881     12.5066    130.1219
  1099.0000     11.4023     16.2791     12.4130    129.9304
  1099.2500     11.2490     16.1628     12.3745    129.8910
  1099.5000     11.0550     16.0454     12.4160    129.0590
  1099.7500     10.7609     15.9257     12.5546    127.7230
  1100.0000     10.3958     15.7961     12.7867    124.7950
  1100.2500     10.0674     15.6491     13.0824    122.5083
  1100.5000      9.9169     15.4864     13.3948    118.8124
  1100.7500     10.0777     15.3209     13.6797    116.1862
  1101.0000     10.6555     15.1735     13.9148    112.1763
  1101.2500     11.6857     15.0664     14.1055    109.7526
  1101.5000     13.0723     15.0179     14.2774    107.3110
  1101.7500     14.5933     15.0360     14.4600    106.9748
  1102.0000     15.9741     15.1123     14.6706    108.7007
  1102.2500     16.9663     15.2204     14.8981    110.9566
