~Version Information
 VERS.                                  2.0 : CWLS LAS VERSION
 WRAP.                                   NO : WRAPING MODE
 SWARE .                  MController 2.6.3 : SOFTWARE VERSION
~Well Information
 WELL.                       Stampede 42-18 : WELL
 COMP.    Pioneer Natural Resources USA Inc : COMPANY
 FLD.                      Purgatoire River : FIELD
 LOC.                SE/NE Sec 18 T32S R65W : LOCATION
 DATE.                           6/8-9/2007 : DATE(S) LOGGED
 SRVC.       Blanco Geological Services LLC : SERVICE COMPANY
 STAT.                                   CO : STATE
 CNTY.                           Las Animas : COUNTY
 CTRY.                                  USA : COUNTRY
 API.                       05-071-08237-00 : API NUMBER
 STRT.FT                             561.00 : START DEPTH
 STOP.FT                            1934.00 : STOP DEPTH
 STEP.FT                               1.00 : DEPTH INCREMENT
 NULL.                                -9999 : NULL VALUE
~Curve information
 DEPTH.FT                                   :
 ROP.MIN/FT                                 :
 GAS.UNITS                                  :
~ASCII Log data
# ...
     1161.00         0.30       1255.0 
     1162.00         3.18       1385.2 
     1163.00         0.47       3680.0 
     1164.00         0.47       4285.0 
     1165.00         0.53       3909.7 
     1166.00         0.43       3466.4 
     1167.00         0.38       3382.7 
     1168.00         0.33       3109.4 
     1169.00         0.27       2598.2 
     1170.00         0.23       2237.5 
     1171.00         0.27       2003.6 
     1172.00         0.37       1543.8 
     1173.00         0.40        467.7 
     1174.00         0.43        440.0 
     1175.00         0.50       1222.1 
     1176.00         0.42       2100.6 
     1177.00         0.47       2814.4 
     1178.00         0.43       2848.0 
     1179.00         0.23       2799.7 
     1180.00         0.13       2793.8 
     1181.00         0.40       2762.3 
     1182.00         0.40       2689.5 
     1183.00         0.43       2587.8 
     1184.00         0.40       2478.0 
     1185.00         0.42       2481.4 
     1186.00         0.40       2414.3 
     1187.00         0.40       2341.2 
     1188.00         0.33       2384.6 
     1189.00         0.40       2445.8 
     1190.00         0.30       2430.7 
     1191.00         0.23       2352.4 
     1192.00         3.35       2384.9 
     1193.00         0.33       2320.1 
     1194.00         0.47       4292.3 
     1195.00         0.48       4336.5 
     1196.00         0.57       3972.8 
     1197.00         0.53       3826.7 
     1198.00         0.43       3157.2 
     1199.00         0.63       2236.8 
     1200.00         0.37        939.1 
     1201.00         0.53        538.4 
     1202.00         0.48        440.0 
     1203.00         0.47        318.6 
     1204.00         0.50        256.9 
     1205.00         0.47        259.9 
     1206.00         0.40        282.3 
     1207.00         0.43        325.8 
     1208.00         0.33        356.5 
     1209.00         0.35        404.9 
     1210.00         0.30        455.8 
     1211.00         0.37        525.8 
     1212.00         0.40        546.7 
     1213.00         0.40        556.8 
     1214.00         0.40        609.6 
     1215.00         0.40        606.1 
     1216.00         0.40        687.2 
     1217.00         0.40        941.4 
     1218.00         0.38       1242.6 
     1219.00         0.33       1400.8 
     1220.00         0.27       1526.7 
     1221.00         0.37       1634.2 
     1222.00         4.28       2663.2 
     1223.00         0.53       3001.2 
     1224.00         0.40       2454.4 
     1225.00         0.30       2644.0 
     1226.00         0.35       2811.9 
     1227.00         0.33       2964.9 
     1228.00         0.30       2916.9 
     1229.00         0.30       2716.2 
     1230.00         0.33       2601.7 
     1231.00         0.30       2430.2 
     1232.00         0.33       2144.9 
     1233.00         0.37       1597.4 
     1234.00         0.33        878.7 
     1235.00         0.20        460.7 
     1236.00         0.17        440.0 
     1237.00         0.28        440.0 
     1238.00         0.33        440.0 
     1239.00         0.30        440.0 
     1240.00         0.33        348.1 
     1241.00         0.30        657.1 
     1242.00         0.30       1249.1 
     1243.00         0.33       1858.2 
     1244.00         0.30       2356.1 
     1245.00         0.37       2616.6 
     1246.00         0.33       2710.0 
     1247.00         0.35       2697.4 
     1248.00         0.33       2589.6 
     1249.00         0.37       2378.9 
     1250.00         0.40       2157.4 
     1251.00         0.37       2022.2 
     1252.00         2.42       1817.9 
     1253.00         0.57       2750.2 
     1254.00         0.53       3558.5 
     1255.00         0.43       3451.9 
     1256.00         0.47       3254.8 
     1257.00         0.63       3007.0 
     1258.00         0.55       1679.0 
     1259.00         0.50        692.2 
     1260.00         0.50        440.0 
     1261.00         0.53        440.0 
     1262.00         0.40        345.8 
     1263.00         0.47        246.6 
     1264.00         0.48        132.2 
     1265.00         0.50         58.5 
     1266.00         0.50         35.0 
     1267.00         0.43         24.6 
     1268.00         0.50         20.4 
     1269.00         0.57         19.4 
     1270.00         0.37         20.0 
     1271.00         0.43         24.0 
     1272.00         0.58         30.1 
     1273.00         0.40         32.4 
     1274.00         0.20         34.9 
     1275.00         0.20         37.5 
     1276.00         0.47         41.5 
     1277.00         0.47         41.5 
     1278.00         0.47         36.8 
     1279.00         0.47         43.2 
     1280.00         0.48         48.2 
     1281.00         0.40         48.7 
     1282.00         3.05        193.1 
     1283.00         0.30        119.0 
     1284.00         0.50        251.3 
     1285.00         0.40        619.9 
     1286.00         0.33        669.7 
     1287.00         0.50        619.5 
     1288.00         0.50        606.2 
     1289.00         0.52        604.1 
     1290.00         0.43        440.0 
     1291.00         0.33        398.5 
     1292.00         0.30        306.5 
     1293.00         0.37        229.9 
     1294.00         0.37        164.6 
     1295.00         0.33        154.2 
     1296.00         0.40        142.7 
     1297.00         0.47        399.3 
     1298.00         0.45        487.5 
     1299.00         0.47        440.0 
     1300.00         0.43        260.8 
     1301.00         0.43        367.5 
     1302.00         0.50        402.4 
     1303.00         0.57        403.2 
     1304.00         0.43        412.8 
     1305.00         0.38        416.9 
     1306.00         0.30        435.2 
     1307.00         0.40        440.1 
     1308.00         0.47        447.2 
     1309.00         0.47        453.6 
     1310.00         0.40        479.1 
     1311.00         0.33        486.3 
     1312.00         3.32        561.4 
     1313.00         0.33        191.9 
     1314.00         0.53       1064.6 
     1315.00         0.48       1148.7 
     1316.00         0.40       1037.7 
     1317.00         0.30       1099.9 
     1318.00         0.40       1201.4 
     1319.00         0.50       1221.2 
     1320.00         0.37       1148.7 
     1321.00         0.43        872.3 
     1322.00         0.40        896.0 
     1323.00         0.35        984.7 
     1324.00         0.40       1076.6 
     1325.00         0.40       1083.3 
     1326.00         0.47       1050.5 
     1327.00         0.43        929.9 
     1328.00         0.47        774.1 
     1329.00         0.40        655.7 
     1330.00         0.40        543.3 
     1331.00         0.42        440.0 
     1332.00         0.40        440.0 
     1333.00         0.40        330.9 
     1334.00         0.23        325.6 
     1335.00         0.30        331.6 
     1336.00         0.20        336.5 
     1337.00         0.43        354.8 
     1338.00         0.37        380.6 
     1339.00         0.40        443.4 
     1340.00         0.42        681.3 
     1341.00         0.40        867.6 
     1342.00         3.38       1004.4 
     1343.00         0.40       1209.2 
     1344.00         0.57       2550.5 
     1345.00         0.57       2489.3 
     1346.00         0.50       2399.0 
     1347.00         0.73       2510.5 
     1348.00         0.65       2406.0 
     1349.00         0.63       2004.2 
     1350.00         0.53       1705.0 
     1351.00         0.47       1104.1 
     1352.00         0.43        590.3 
     1353.00         0.57        365.6 
     1354.00         0.45        212.7 
     1355.00         0.50        135.6 
     1356.00         0.50        100.7 
     1357.00         0.50         93.6 
     1358.00         0.43         99.5 
     1359.00         0.43        103.3 
     1360.00         0.37        104.9 
