~Version Information
VERS.                      2.0: CWLS Log ASCII Standard - VERSION 2.0
WRAP.                       NO: One line per depth step
~Well Information Block
STRT.FT               450.0000: 
STOP.FT              2756.0000: 
STEP.FT                 0.2500: 
NULL.                -999.2500: 
COMP.          Pioneer Natural Resources: COMPANY
WELL.             Squeal 11-26: WELL
FLD.           Purgatoire River: FIELD
LOC.           1186' FNL & 152' FWL: LOCATION
PROV.                 Colorado: PROVINCE
CNTY.               Las Animas: COUNTRY
SRVC.                Patterson: SERVICE COMPANY
DATE.          Wed Jun 15 02:22:08 2005: LOG DATE
UWI.           05 071 08404 00: UNIQUE WELL ID
~Curve Information Block
DEPT.FT            0 000 00 00: Depth
SN.Ohm-m                      : IEL Short Normal
SP.mV                         : IEL Spontaneous Potential
DIR.Ohm-m                     : IEL Induction Resistivity
GR.GAPI                       : Gamma Ray
~Parameter Information Block
~A  Depth        SN          SP         DIR          GR     
# ...
  2426.5000     15.8898    -62.0389      9.8709     84.6989
  2426.7500     16.3412    -62.0695      9.8814     83.1624
  2427.0000     16.8730    -62.1013     10.0474     80.0059
  2427.2500     17.4869    -62.1329     10.4617     77.2685
  2427.5000     18.0942    -62.1566     11.3685     72.9340
  2427.7500     18.6041    -62.1636     13.4039     70.6269
  2428.0000     19.0477    -62.1516     18.7001     68.9043
  2428.2500     19.4803    -62.1305     42.1189     68.9495
  2428.5000     19.8865    -62.1217 100000.0000     70.3538
  2428.7500     20.2058    -62.1525 100000.0000     71.7757
  2429.0000     20.3738    -62.2488 100000.0000     73.8199
  2429.2500     20.3677    -62.4322 100000.0000     74.7800
  2429.5000     20.2125    -62.7188 100000.0000     75.7815
  2429.7500     19.9338    -63.1153 100000.0000     76.6285
  2430.0000     19.5853    -63.6116 100000.0000     78.6813
  2430.2500     19.3097    -64.1740 100000.0000     80.2875
  2430.5000     19.2382    -64.7496 100000.0000     81.9016
  2430.7500     19.3308    -65.2840 100000.0000     81.9196
  2431.0000     19.4177    -65.7455 100000.0000     80.0804
  2431.2500     19.3936    -66.1442 100000.0000     77.5727
  2431.5000     19.3237    -66.5374 100000.0000     71.8960
  2431.7500     19.3557    -67.0169 100000.0000     67.2491
  2432.0000     19.5801    -67.6833 100000.0000     60.7131
  2432.2500     20.0635    -68.6263 100000.0000     57.6775
  2432.5000     20.9418    -69.9309 100000.0000     55.5651
  2432.7500     22.2282    -71.7134 100000.0000     55.2755
  2433.0000     23.4756    -74.1587 100000.0000     55.4419
  2433.2500     23.8936    -77.5293 100000.0000     55.7417
  2433.5000     23.0072    -82.1428 100000.0000     56.9361
  2433.7500     21.1273    -88.3526 100000.0000     58.6398
  2434.0000     19.1000    -96.5511 100000.0000     62.6677
  2434.2500     17.5901   -107.1618      8.0946     65.8799
  2434.5000     16.6136   -120.4941      2.0046     70.3397
  2434.7500     15.7585   -136.3432      0.8233     72.6194
  2435.0000     14.6965   -153.5127      0.3920     74.9190
  2435.2500     13.3644   -169.8278      0.1910     75.9322
  2435.5000     11.7894   -183.0104      0.0950     77.0866
  2435.7500      9.9345   -191.8690      0.0526     77.6917
  2436.0000      7.7792   -196.7468      0.0349     78.1084
  2436.2500      5.5049   -198.9260      0.0284     77.7287
  2436.5000      3.5150   -199.7107      0.0283     75.4019
  2436.7500      2.1721   -199.9373      0.0344     72.2570
  2437.0000      1.5153   -199.9895      0.0503     65.0582
  2437.2500      1.2994   -199.9990      0.0868     59.2111
  2437.5000      1.3107   -200.0001      0.1675     50.8263
  2437.7500      1.6903   -200.0001      0.3354     46.5499
  2438.0000      2.8827   -199.9989      0.6842     42.5901
  2438.2500      4.9324   -199.9871      1.5521     41.0288
  2438.5000      6.8661   -199.9208      4.7756     38.8719
  2438.7500      7.3501   -199.6275    128.4606     37.0058
  2439.0000      6.0702   -198.5977 100000.0000     33.4763
  2439.2500      3.9856   -195.7132 100000.0000     31.0176
  2439.5000      2.2440   -189.2458 100000.0000     28.2547
  2439.7500      1.2848   -177.5906 100000.0000     27.6731
  2440.0000      0.9398   -160.6059 100000.0000     29.4344
  2440.2500      0.9083   -140.4085 100000.0000     32.5703
  2440.5000      0.9832   -120.5196 100000.0000     40.3281
  2440.7500      1.0428   -103.9114 100000.0000     47.3713
  2441.0000      1.0243    -91.7078 100000.0000     59.7328
  2441.2500      1.0690    -83.3935 100000.0000     68.2525
  2441.5000      1.6441    -77.8040 100000.0000     80.0426
  2441.7500      3.2557    -73.8764     26.9947     86.7791
  2442.0000      5.9032    -70.8862      2.5266     94.8345
  2442.2500      8.9167    -68.4040      1.1518     98.6810
  2442.5000     11.4519    -66.1966      0.7463    101.8869
  2442.7500     13.1445    -64.1424      0.6044    102.1609
  2443.0000     14.2462    -62.1746      0.5907     99.6166
  2443.2500     15.2041    -60.2510      0.6805     95.9974
  2443.5000     16.2456    -58.3487      0.9083     88.1522
  2443.7500     17.3747    -56.4704      1.4229     81.8265
  2444.0000     18.6536    -54.6448      2.8820     71.8576
  2444.2500     20.3711    -52.9205     13.7308     65.5679
  2444.5000     22.7468    -51.3561 100000.0000     57.6192
  2444.7500     25.3607    -50.0101 100000.0000     53.8507
  2445.0000     27.1457    -48.9236 100000.0000     51.6120
  2445.2500     27.2265    -48.1009 100000.0000     52.9545
  2445.5000     25.6530    -47.5074 100000.0000     59.1542
  2445.7500     23.2049    -47.0861 100000.0000     65.2441
  2446.0000     20.7010    -46.7783 100000.0000     75.2455
  2446.2500     18.6181    -46.5334 100000.0000     81.5932
  2446.5000     17.1064    -46.3124     25.6696     90.1644
  2446.7500     16.1146    -46.0933     15.4792     95.2739
  2447.0000     15.5028    -45.8750     13.0645    101.8553
  2447.2500     15.1403    -45.6725     12.6626    105.3281
  2447.5000     14.9706    -45.5052     13.2196    109.0515
  2447.7500     15.0103    -45.3898     14.5660    110.5035
  2448.0000     15.2873    -45.3372     17.0960    110.8613
  2448.2500     15.7681    -45.3503     22.1325    109.8966
  2448.5000     16.3400    -45.4169     33.7301    107.5341
  2448.7500     16.8824    -45.5026     69.7694    106.0945
  2449.0000     17.3448    -45.5534    405.9850    104.5870
  2449.2500     17.6747    -45.5186 100000.0000    103.5344
  2449.5000     17.7350    -45.3819 100000.0000    100.7891
  2449.7500     17.4509    -45.1735    244.4444     98.2773
  2450.0000     16.9653    -44.9458     65.2226     95.3728
  2450.2500     16.5720    -44.7330     34.4066     95.2340
  2450.5000     16.6127    -44.5322     23.0363     97.9354
  2450.7500     17.3113    -44.3156     17.6380    100.5223
  2451.0000     18.4552    -44.0605     14.8160    102.9635
  2451.2500     19.3787    -43.7671     13.3676    102.6371
  2451.5000     19.5175    -43.4530     12.7719     99.0320
  2451.7500     18.9353    -43.1366     12.7656     95.1786
  2452.0000     18.2073    -42.8274     13.1898     88.9179
  2452.2500     17.8568    -42.5275     13.9219     85.3026
  2452.5000     17.9862    -42.2366     14.8453     81.2708
  2452.7500     18.3829    -41.9543     15.8444     79.2445
  2453.0000     18.8344    -41.6807     16.8152     76.4839
  2453.2500     19.3179    -41.4166     17.6779     74.6887
  2453.5000     19.9351    -41.1633     18.3825     72.3232
  2453.7500     20.6795    -40.9206     18.9050     71.1562
  2454.0000     21.3429    -40.6860     19.2445     70.2184
  2454.2500     21.7104    -40.4564     19.4190     70.2236
  2454.5000     21.7502    -40.2328     19.4579     71.1210
  2454.7500     21.5670    -40.0206     19.3906     72.0200
  2455.0000     21.2691    -39.8261     19.2332     73.1491
  2455.2500     20.9258    -39.6518     18.9817     73.5608
  2455.5000     20.5499    -39.4971     18.6186     73.7758
  2455.7500     20.0725    -39.3624     18.1320     73.8282
  2456.0000     19.4127    -39.2512     17.5334     74.1167
  2456.2500     18.5738    -39.1669     16.8603     74.5745
  2456.5000     17.6369    -39.1073     16.1614     75.4309
  2456.7500     16.7104    -39.0587     15.4787     75.8007
  2457.0000     15.8659    -38.9968     14.8395     75.9455
  2457.2500     15.0941    -38.8946     14.2618     76.2847
  2457.5000     14.3387    -38.7370     13.7586     78.7059
  2457.7500     13.5664    -38.5306     13.3391     82.2654
  2458.0000     12.8147    -38.2985     13.0059     90.1400
  2458.2500     12.1820    -38.0661     12.7542     95.8743
  2458.5000     11.7702    -37.8518     12.5762    102.6207
  2458.7500     11.6492    -37.6693     12.4652    104.9408
  2459.0000     11.8382    -37.5305     12.4195    105.1568
  2459.2500     12.2469    -37.4445     12.4401    103.6944
  2459.5000     12.6857    -37.4125     12.5265     99.9176
  2459.7500     13.0158    -37.4263     12.6715     96.5312
