~Version Information
VERS.                      2.0: CWLS Log ASCII Standard - VERSION 2.0
WRAP.                       NO: One line per depth step
~Well Information Block
STRT.FT               745.2500: 
STOP.FT              2003.5000: 
STEP.FT                 0.2500: 
NULL.                -999.2500: 
COMP.          Petrogulf Corporation: COMPANY
WELL.            Montoya 6-14V: WELL
FLD.           Purgatorie River: FIELD
LOC.           318' FSL & 882' FWL: LOCATION
CNTY.               Las Animas: COUNTY
SRVC.                         : SERVICE COMPANY
DATE.          Fri Aug 13 04:55:06 2004: LOG DATE
UWI.           05 071 08020 00: UNIQUE WELL ID
STAT.                 Colorado: STATE
~Curve Information Block
DEPT.FT            0 000 00 00: Depth
SP.mV                         : DIL Spontaneous Potential
RILD.Ohm-m                    : DIL Deep Resistivity
RILM.Ohm-m                    : DIL Medium Resistivity
RLL3.Ohm-m                    : DIL Shallow Resistivity
GR.GAPI                       : Gamma Ray
~Parameter Information Block
~A  Depth        SP         RILD        RILM        RLL3         GR     
# ...
  1417.2500     16.2261     12.2280     11.2759     17.0592     96.3742
  1417.5000     16.2090     12.1154     11.5443     18.6274    113.5474
  1417.7500     16.1941     12.0993     11.8620     20.2329    124.3629
  1418.0000     16.1645     12.1929     12.2247     21.7156    137.1610
  1418.2500     16.1056     12.4050     12.6301     22.9446    142.6784
  1418.5000     16.0077     12.7411     13.0779     23.8488    146.6102
  1418.7500     15.8666     13.2040     13.5706     24.4346    147.1296
  1419.0000     15.6831     13.7928     14.1128     24.7817    146.4687
  1419.2500     15.4616     14.4994     14.7118     25.0148    145.7091
  1419.5000     15.2097     15.3077     15.3765     25.2581    144.2986
  1419.7500     14.9369     16.1959     16.1179     25.5961    143.0707
  1420.0000     14.6542     17.1454     16.9484     26.0592    140.6328
  1420.2500     14.3736     18.1513     17.8822     26.6375    138.5869
  1420.5000     14.1067     19.2262     18.9346     27.3184    135.3063
  1420.7500     13.8634     20.3910     20.1226     28.1359    133.5819
  1421.0000     13.6514     21.6547     21.4633     29.2222    132.6294
  1421.2500     13.4741     22.9937     22.9725     30.8447    132.9712
  1421.5000     13.3308     24.3440     24.6611     33.4006    133.3936
  1421.7500     13.2165     25.6160     26.5301     37.3444    132.4497
  1422.0000     13.1224     26.7286     28.5632     43.0414    128.1753
  1422.2500     13.0377     27.6438     30.7201     50.5812    123.6850
  1422.5000     12.9516     28.3822     32.9303     59.6236    115.6928
  1422.7500     12.8550     29.0118     35.0938     69.3815    110.0621
  1423.0000     12.7420     29.6260     37.0909     78.8148    101.5714
  1423.2500     12.6109     30.3234     38.8028     86.9874     96.1829
  1423.5000     12.4631     31.1933     40.1373     93.3759     89.4578
  1423.7500     12.3027     32.3040     41.0521     97.8791     86.3367
  1424.0000     12.1349     33.6930     41.5648    100.4860     83.6729
  1424.2500     11.9647     35.3556     41.7473    100.8987     82.9227
  1424.5000     11.7965     37.2383     41.7076     98.5201     83.1251
  1424.7500     11.6335     39.2368     41.5665     92.9275     84.3373
  1425.0000     11.4778     41.2012     41.4384     84.4774     87.9343
  1425.2500     11.3310     42.9472     41.4167     74.5006     91.1877
  1425.5000     11.1942     44.2768     41.5676     64.8708     96.3502
  1425.7500     11.0688     45.0168     41.9283     57.2564     99.5709
  1426.0000     10.9564     45.0735     42.5087     52.5880    103.8957
  1426.2500     10.8583     44.4806     43.2948     51.0246    106.4156
  1426.5000     10.7757     43.4026     44.2547     52.2783    109.3984
  1426.7500     10.7084     42.0832     45.3449     55.9784    110.6063
  1427.0000     10.6547     40.7740     46.5178     61.8575    110.7157
  1427.2500     10.6113     39.6773     47.7309     69.6994    109.3670
  1427.5000     10.5735     38.9197     48.9528     79.0971    105.1742
  1427.7500     10.5370     38.5473     50.1669     89.1796    101.2846
  1428.0000     10.4989     38.5249     51.3686     98.5986     94.7084
  1428.2500     10.4600     38.7377     52.5553    106.0513     90.3902
  1428.5000     10.4262     39.0009     53.7079    111.2618     85.0254
  1428.7500     10.4090     39.0911     54.7671    116.1550     82.6818
  1429.0000     10.4250     38.7994     55.6074    125.5191     81.1817
  1429.2500     10.4933     37.9899     56.0207    146.6485     81.0940
  1429.5000     10.6313     36.6311     55.7328    187.4558     80.9719
  1429.7500     10.8508     34.7953     54.4668    252.5685     80.1053
  1430.0000     11.1537     32.6319     52.0589    338.0399     76.9593
  1430.2500     11.5309     30.3288     48.5681    427.7192     73.7943
  1430.5000     11.9624     28.0698     44.2980    495.8913     68.4760
  1430.7500     12.4209     25.9967     39.6955    517.8989     65.3878
  1431.0000     12.8766     24.1895     35.1957    483.4157     62.8901
  1431.2500     13.3012     22.6668     31.1086    402.6677     63.3518
  1431.5000     13.6719     21.3998     27.5905    300.4496     68.0563
  1431.7500     13.9727     20.3305     24.6746    202.7543     74.0101
  1432.0000     14.1954     19.3890     22.3189    125.9476     86.4910
  1432.2500     14.3387     18.5106     20.4453     74.2511     96.1542
  1432.5000     14.4074     17.6476     18.9647     43.7620    110.0256
  1432.7500     14.4116     16.7775     17.7898     27.8852    117.1381
  1433.0000     14.3649     15.9034     16.8413     20.7878    122.5223
  1433.2500     14.2837     15.0466     16.0508     18.4797    122.6253
  1433.5000     14.1845     14.2377     15.3634     18.5712    120.0016
  1433.7500     14.0831     13.5054     14.7390     19.7010    118.3924
  1434.0000     13.9925     12.8706     14.1533     21.0207    118.4962
  1434.2500     13.9219     12.3431     13.5965     21.9842    120.5219
  1434.5000     13.8763     11.9229     13.0701     22.2779    125.8513
  1434.7500     13.8560     11.6030     12.5823     21.8083    130.3822
  1435.0000     13.8579     11.3724     12.1440     20.6941    137.5763
  1435.2500     13.8758     11.2191     11.7654     19.2073    141.9114
  1435.5000     13.9018     11.1308     11.4540     17.6710    146.7547
  1435.7500     13.9275     11.0963     11.2148     16.3557    148.7751
  1436.0000     13.9446     11.1074     11.0505     15.4139    150.4827
  1436.2500     13.9457     11.1603     10.9632     14.8725    151.0521
  1436.5000     13.9254     11.2582     10.9551     14.6720    151.1485
  1436.7500     13.8812     11.4114     11.0299     14.7240    150.5203
  1437.0000     13.8143     11.6365     11.1935     14.9640    148.3180
  1437.2500     13.7304     11.9539     11.4546     15.3864    146.2170
  1437.5000     13.6385     12.3835     11.8246     16.0608    142.9068
  1437.7500     13.5499     12.9411     12.3179     17.1300    140.9178
  1438.0000     13.4754     13.6366     12.9517     18.7921    138.3170
  1438.2500     13.4229     14.4733     13.7454     21.2646    136.7556
  1438.5000     13.3956     15.4520     14.7204     24.7330    134.5074
  1438.7500     13.3914     16.5766     15.8995     29.2913    132.9011
  1439.0000     13.4034     17.8594     17.3061     34.8883    130.0346
  1439.2500     13.4223     19.3242     18.9629     41.3038    127.7762
  1439.5000     13.4382     21.0011     20.8913     48.1859    123.8764
  1439.7500     13.4437     22.9174     23.1094     55.1647    120.8009
  1440.0000     13.4356     25.0817     25.6303     62.0002    115.0735
  1440.2500     13.4156     27.4648     28.4600     68.6568    110.4435
  1440.5000     13.3910     29.9802     31.5938     75.2015    102.7851
  1440.7500     13.3731     32.4698     35.0095     81.5771     97.7755
  1441.0000     13.3757     34.7089     38.6575     87.5047     91.4427
  1441.2500     13.4129     36.4448     42.4461     92.8120     88.5003
  1441.5000     13.4964     37.4737     46.2203     98.1909     86.4387
  1441.7500     13.6342     37.7198     49.7398    106.1316     86.4180
  1442.0000     13.8285     37.2627     52.6698    121.4811     86.9760
  1442.2500     14.0763     36.2854     54.6064    150.9479     86.5645
  1442.5000     14.3698     34.9831     55.1658    201.1941     83.2389
  1442.7500     14.6982     33.4976     54.1260    275.2581     78.9383
  1443.0000     15.0497     31.9065     51.5563    367.9751     69.8304
  1443.2500     15.4133     30.2497     47.8306    462.8599     62.7459
  1443.5000     15.7793     28.5625     43.4973    534.3483     52.7384
  1443.7500     16.1397     26.8905     39.0930    557.4098     47.9119
  1444.0000     16.4871     25.2856     35.0105    520.5707     45.1319
  1444.2500     16.8132     23.7935     31.4666    433.3354     46.4753
  1444.5000     17.1091     22.4457     28.5344    321.6049     52.7099
  1444.7500     17.3650     21.2570     26.1965    214.1493     59.1502
  1445.0000     17.5722     20.2267     24.3890    130.0862     71.2512
