~Version Information
VERS.                      2.0: CWLS Log ASCII Standard - VERSION 2.0
WRAP.                       NO: One line per depth step
~Well Information Block
STRT.FT               830.0000: 
STOP.FT              3122.7500: 
STEP.FT                 0.2500: 
NULL.                -999.2500: 
COMP.          Pioneer Natural Resources: COMPANY
WELL.              Stones 24-8: WELL
FLD.           Purgatoire River: FIELD
LOC.           648' FSL & 2264' FWL: LOCATION
PROV.                 Colorado: PROVINCE
CNTY.               Las Animas: COUNTRY
SRVC.                Patterson: SERVICE COMPANY
DATE.          Wed Jan 19 12:44:32 2005: LOG DATE
UWI.           05 071 07945 00: UNIQUE WELL ID
~Curve Information Block
DEPT.FT            0 000 00 00: Depth
SN.Ohm-m                      : IEL Short Normal
SP.mV                         : IEL Spontaneous Potential
DIR.Ohm-m                     : IEL Induction Resistivity
GR.GAPI                       : Gamma Ray
~Parameter Information Block
~A  Depth        SN          SP         DIR          GR     
# ...
  3074.5000     29.0562    -85.1125     25.5904     97.2101
  3074.7500     28.5095    -83.5128     25.3310     97.5102
  3075.0000     28.0089    -82.0820     25.1277     99.8362
  3075.2500     27.5541    -80.7800     24.9412    101.8631
  3075.5000     27.1413    -79.5729     24.7375    104.4210
  3075.7500     26.7683    -78.4335     24.5057    105.5450
  3076.0000     26.4370    -77.3406     24.2584    106.3391
  3076.2500     26.1504    -76.2778     24.0157    106.2425
  3076.5000     25.9083    -75.2329     23.7878    105.3584
  3076.7500     25.7096    -74.1967     23.5727    104.7850
  3077.0000     25.5547    -73.1626     23.3658    104.8036
  3077.2500     25.4383    -72.1264     23.1698    105.2278
  3077.5000     25.3383    -71.0867     22.9924    104.9765
  3077.7500     25.2208    -70.0466     22.8398    103.4185
  3078.0000     25.0669    -69.0133     22.7120     99.2422
  3078.2500     24.8894    -67.9956     22.6056     96.3255
  3078.5000     24.7192    -66.9992     22.5191     93.7216
  3078.7500     24.5806    -66.0223     22.4539     93.4704
  3079.0000     24.4820    -65.0550     22.4120     94.3360
  3079.2500     24.4200    -64.0822     22.3934     94.9799
  3079.5000     24.3861    -63.0887     22.3952     95.3961
  3079.7500     24.3698    -62.0644     22.4102     95.3308
  3080.0000     24.3602    -61.0070     22.4269     95.1327
  3080.2500     24.3464    -59.9216     22.4297     95.2029
  3080.5000     24.3193    -58.8195     22.4044     95.6012
  3080.7500     24.2768    -57.7146     22.3443     95.6878
  3081.0000     24.2244    -56.6199     22.2531     94.9420
  3081.2500     24.1705    -55.5442     22.1415     93.9754
  3081.5000     24.1210    -54.4905     22.0216     92.7052
  3081.7500     24.0785    -53.4581     21.9025     92.4125
  3082.0000     24.0435    -52.4474     21.7908     92.8320
  3082.2500     24.0162    -51.4652     21.6916     93.3899
  3082.5000     23.9954    -50.5281     21.6080     94.1762
  3082.7500     23.9794    -49.6609     21.5412     94.6424
  3083.0000     23.9676    -48.8905     21.4928     95.5256
  3083.2500     23.9619    -48.2378     21.4694     96.3040
  3083.5000     23.9660    -47.7084     21.4829     97.3027
  3083.7500     23.9805    -47.2882     21.5420     97.3256
  3084.0000     23.9999    -46.9435     21.6412     95.7981
  3084.2500     24.0141    -46.6261     21.7580     94.0307
  3084.5000     24.0157    -46.2821     21.8622     91.8436
  3084.7500     24.0028    -45.8619     21.9278     91.6600
  3085.0000     23.9768    -45.3285     21.9414     93.8043
  3085.2500     23.9391    -44.6628     21.9008     96.2661
  3085.5000     23.8909    -43.8666     21.8122     99.6241
  3085.7500     23.8361    -42.9623     21.6858    100.7644
  3086.0000     23.7826    -41.9896     21.5316    100.9085
  3086.2500     23.7397    -41.0002     21.3560    100.8309
  3086.5000     23.7107    -40.0498     21.1639    101.9278
  3086.7500     23.6895    -39.1910     20.9637    103.7583
  3087.0000     23.6617    -38.4672     20.7710    107.7485
  3087.2500     23.6128    -37.9077     20.6062    110.5594
  3087.5000     23.5337    -37.5194     20.4897    113.1609
  3087.7500     23.4239    -37.2759     20.4390    112.8523
  3088.0000     23.2891    -37.1026     20.4649    109.2008
  3088.2500     23.1376    -36.8704     20.5623    105.5172
  3088.5000     22.9746    -36.4087     20.6964     99.8863
  3088.7500     22.7953    -35.5465     20.7979     96.6102
  3089.0000     22.5808    -34.1708     20.7828     92.7099
  3089.2500     22.3086    -32.2806     20.5917     90.9748
  3089.5000     21.9772    -30.0049     20.2223     89.7775
  3089.7500     21.6222    -27.5739     19.7300     89.0898
  3090.0000     21.2994    -25.2549     19.1990     84.5442
  3090.2500     21.0443    -23.2858     18.7081     76.7279
  3090.5000     20.8455    -21.8291     18.3104     57.0379
  3090.7500     20.6543    -20.9504     18.0298     41.2029
  3091.0000     20.4212    -20.6072     17.8681     20.2194
  3091.2500     20.1302    -20.6412     17.8139     10.6938
  3091.5000     19.8089    -20.7840     17.8456      3.1745
  3091.7500     19.5124    -20.6978     17.9282      1.1808
  3092.0000     19.2963    -20.0591     18.0113      0.2023
  3092.2500     19.1918    -18.6590     18.0381      0.0504
  3092.5000     19.1936    -16.4752     17.9686      0.0027
  3092.7500     19.2680    -13.6780     17.8024   -999.2500
  3093.0000     19.3759    -10.5703     17.5773   -999.2500
  3093.2500     19.4906     -7.4962     17.3455   -999.2500
  3093.5000     19.5975     -4.7623     17.1490   -999.2500
  3093.7500     19.6859     -2.5986     17.0099   -999.2500
  3094.0000     19.7454     -1.1524     16.9321   -999.2500
  3094.2500     19.7724     -0.4968     16.9072   -999.2500
  3094.5000     19.7847     -0.6326     16.9244   -999.2500
  3094.7500     19.8345     -1.4831     16.9842   -999.2500
  3095.0000     19.9983     -2.8952     17.1076   -999.2500
  3095.2500     20.3349     -4.6584     17.3269   -999.2500
  3095.5000     20.8377     -6.5446     17.6646   -999.2500
  3095.7500     21.4224     -8.3536     18.1116   -999.2500
  3096.0000     21.9638     -9.9403     18.6184   -999.2500
  3096.2500     22.3548    -11.2104     19.1048   -999.2500
  3096.5000     22.5465    -12.0843     19.4830   -999.2500
  3096.7500     22.5438    -12.4588     19.6859   -999.2500
  3097.0000     22.3704    -12.1945     19.6808   -999.2500
  3097.2500     22.0346    -11.1482     19.4625   -999.2500
  3097.5000     21.5225     -9.2375     19.0409   -999.2500
  3097.7500     20.8188     -6.5022     18.4375   -999.2500
  3098.0000     19.9445     -3.1236     17.6932   -999.2500
  3098.2500     18.9792      0.6162     16.8729   -999.2500
  3098.5000     18.0404      4.4171     16.0531   -999.2500
  3098.7500     17.2273      8.0497     15.2999   -999.2500
  3099.0000     16.5730     11.4086     14.6515   -999.2500
  3099.2500     16.0413     14.5093     14.1116   -999.2500
  3099.5000     15.5578     17.4361     13.6566   -999.2500
  3099.7500     15.0497     20.2725     13.2499   -999.2500
  3100.0000     14.4820     23.0496     12.8584   -999.2500
  3100.2500     13.8798     25.7324     12.4664   -999.2500
  3100.5000     13.3221     28.2432     12.0819   -999.2500
  3100.7500     12.9063     30.4986     11.7333   -999.2500
  3101.0000     12.7030     32.4373     11.4570   -999.2500
  3101.2500     12.7270     34.0265     11.2818   -999.2500
  3101.5000     12.9327     35.2546     11.2180   -999.2500
  3101.7500     13.2288     36.1258     11.2543   -999.2500
  3102.0000     13.5123     36.6649     11.3625   -999.2500
  3102.2500     13.7186     36.9326     11.5068   -999.2500
  3102.5000     13.8554     37.0330     11.6549   -999.2500
  3102.7500     13.9905     37.1020     11.7880   -999.2500
  3103.0000     14.2003     37.2700     11.9039   -999.2500
  3103.2500     14.5222     37.6105     12.0128   -999.2500
  3103.5000     14.9399     38.0958     12.1308   -999.2500
  3103.7500     15.4065     38.5812     12.2762   -999.2500
  3104.0000     15.8822     38.8318     12.4694   -999.2500
  3104.2500     16.3574     38.5872     12.7312   -999.2500
  3104.5000     16.8483     37.6432     13.0783   -999.2500
  3104.7500     17.3756     35.9236     13.5141   -999.2500
  3105.0000     17.9475     33.5121     14.0256   -999.2500
  3105.2500     18.5570     30.6371     14.5842   -999.2500
  3105.5000     19.1907     27.6141     15.1548   -999.2500
  3105.7500     19.8382     24.7685     15.7055   -999.2500
  3106.0000     20.5018     22.3638     16.2157   -999.2500
  3106.2500     21.2075     20.5555     16.6804   -999.2500
  3106.5000     22.0043     19.3756     17.1096   -999.2500
  3106.7500     22.9313     18.7431     17.5226   -999.2500
  3107.0000     23.9630     18.4908     17.9385   -999.2500
  3107.2500     24.9822     18.3991     18.3653   -999.2500
  3107.5000     25.8233     18.2361     18.7899   -999.2500
  3107.7500     26.3596     17.8016     19.1745   -999.2500
