~Version Information
VERS.                      2.0: CWLS Log ASCII Standard - VERSION 2.0
WRAP.                       NO: One line per depth step
~Well Information Block
STRT.FT               698.9000: 
STOP.FT              2460.4000: 
STEP.FT                 0.1000: 
NULL.                -999.2500: 
COMP.          Petrogulf Corporation: COMPANY
WELL.             State 16-23V: WELL
FLD.           Purgatorie River: FIELD
LOC.           2414' FSL & 2215' FWL: LOCATION
PROV.                 Colorado: PROVINCE
CNTY.               Las Animas: COUNTRY
SRVC.                         : SERVICE COMPANY
DATE.          Mon Jun 09 14:24:56 2003: LOG DATE
UWI.           05 071 07865 00: UNIQUE WELL ID
~Curve Information Block
DEPT.FT            0 000 00 00: Depth
DCAL.in                       : CDL Caliper
RHOB.g/cc                     : CDL Bulk Density
RHOC.g/cc                     : CDL Density Correction
DPOR.pu                       : CDL Density Porosity
GR.GAPI                       : Gamma Ray
NPOR.pu                       : Neutron Porosity
~Parameter Information Block
~A  Depth       DCAL        RHOB        RHOC        DPOR         GR         NPOR    
# ...
  2340.5000     11.9755      2.1504      0.0996     30.2798    103.9382     28.3626
  2340.6000     11.9755      2.2022      0.0942     27.1394    110.7839     27.5092
  2340.7000     11.9755      2.2506      0.0893     24.2066    117.0376     26.7243
  2340.8000     10.0544      2.2951      0.0850     21.5066    122.6025     26.0138
  2340.9000     10.0544      2.3356      0.0814     19.0570    127.4285     25.3790
  2341.0000      8.6747      2.3717      0.0784     16.8678    131.5073     24.8178
  2341.1000      8.6747      2.4035      0.0759     14.9408    134.8593     24.3255
  2341.2000      8.6747      2.4310      0.0739     13.2703    137.5190     23.8954
  2341.3000      8.1994      2.4546      0.0723     11.8442    139.5206     23.5195
  2341.4000      8.1994      2.4744      0.0711     10.6446    140.8942     23.1890
  2341.5000      8.1079      2.4908      0.0702      9.6501    141.6613     22.8945
  2341.6000      8.1079      2.5042      0.0696      8.8367    141.8392     22.6265
  2341.7000      8.1079      2.5150      0.0693      8.1795    141.4485     22.3757
  2341.8000      8.0886      2.5237      0.0691      7.6538    140.5202     22.1338
  2341.9000      8.0886      2.5306      0.0690      7.2363    139.0956     21.8938
  2342.0000      8.0575      2.5361      0.0690      6.9055    137.2305     21.6506
  2342.1000      8.0575      2.5404      0.0691      6.6422    134.9896     21.4008
  2342.2000      8.0575      2.5439      0.0692      6.4297    132.4410     21.1434
  2342.3000      8.0173      2.5468      0.0693      6.2536    129.6534     20.8786
  2342.4000      8.0173      2.5493      0.0694      6.1016    126.6929     20.6078
  2342.5000      7.9938      2.5516      0.0696      5.9638    123.6215     20.3328
  2342.6000      7.9938      2.5538      0.0698      5.8317    120.4973     20.0555
  2342.7000      7.9938      2.5560      0.0701      5.6992    117.3825     19.7779
  2342.8000      7.9850      2.5582      0.0704      5.5616    114.3402     19.5019
  2342.9000      7.9850      2.5606      0.0709      5.4160    111.4344     19.2301
  2343.0000      7.9797      2.5632      0.0715      5.2617    108.7229     18.9662
  2343.1000      7.9797      2.5659      0.0721      5.0993    106.2583     18.7150
  2343.2000      7.9797      2.5686      0.0727      4.9316    104.0753     18.4829
  2343.3000      7.9778      2.5714      0.0733      4.7628    102.1944     18.2771
  2343.4000      7.9778      2.5741      0.0737      4.5983    100.6163     18.1049
  2343.5000      7.9809      2.5767      0.0738      4.4448     99.3304     17.9727
  2343.6000      7.9809      2.5789      0.0734      4.3091     98.3199     17.8851
  2343.7000      7.9809      2.5807      0.0724      4.1981     97.5700     17.8446
  2343.8000      7.9840      2.5821      0.0707      4.1181     97.0742     17.8511
  2343.9000      7.9840      2.5828      0.0683      4.0739     96.8381     17.9025
  2344.0000      7.9878      2.5829      0.0651      4.0689     96.8756     17.9956
  2344.1000      7.9878      2.5823      0.0614      4.1046     97.2122     18.1276
  2344.2000      7.9878      2.5810      0.0574      4.1803     97.8710     18.2961
  2344.3000      7.9955      2.5792      0.0533      4.2937     98.8743     18.5003
  2344.4000      7.9955      2.5767      0.0494      4.4406    100.2323     18.7406
  2344.5000      8.0072      2.5738      0.0462      4.6156    101.9442     19.0180
  2344.6000      8.0072      2.5706      0.0437      4.8124    103.9932     19.3327
  2344.7000      8.0072      2.5671      0.0420      5.0245    106.3474     19.6837
  2344.8000      8.0181      2.5634      0.0412      5.2456    108.9633     20.0676
  2344.9000      8.0181      2.5598      0.0411      5.4695    111.7835     20.4779
  2345.0000      8.0215      2.5561      0.0416      5.6908    114.7462     20.9058
  2345.1000      8.0215      2.5526      0.0424      5.9047    117.7809     21.3401
  2345.2000      8.0215      2.5492      0.0432      6.1073    120.8150     21.7688
  2345.3000      8.0228      2.5461      0.0440      6.2951    123.7753     22.1794
  2345.4000      8.0228      2.5433      0.0445      6.4650    126.5913     22.5604
  2345.5000      8.0308      2.5409      0.0447      6.6144    129.1922     22.9019
  2345.6000      8.0308      2.5388      0.0448      6.7409    131.5130     23.1957
  2345.7000      8.0308      2.5371      0.0447      6.8427    133.4944     23.4363
  2345.8000      8.0413      2.5359      0.0447      6.9181    135.0855     23.6207
  2345.9000      8.0413      2.5351      0.0448      6.9665    136.2470     23.7482
  2346.0000      8.0401      2.5347      0.0453      6.9881    136.9550     23.8208
  2346.1000      8.0401      2.5348      0.0462      6.9846    137.2050     23.8428
  2346.2000      8.0401      2.5352      0.0475      6.9596    137.0089     23.8205
  2346.3000      8.0353      2.5358      0.0494      6.9189    136.4018     23.7614
  2346.4000      8.0353      2.5366      0.0516      6.8712    135.4317     23.6740
  2346.5000      8.0340      2.5373      0.0540      6.8281    134.1597     23.5669
  2346.6000      8.0340      2.5377      0.0567      6.8050    132.6525     23.4485
  2346.7000      8.0340      2.5375      0.0594      6.8206    130.9771     23.3267
  2346.8000      8.0253      2.5362      0.0622      6.8972    129.1944     23.2084
  2346.9000      8.0253      2.5335      0.0648      7.0606    127.3616     23.0996
  2347.0000      8.0095      2.5289      0.0673      7.3393    125.5315     23.0060
  2347.1000      8.0095      2.5219      0.0696      7.7636    123.7568     22.9328
  2347.2000      8.0095      2.5120      0.0716      8.3645    122.0912     22.8855
  2347.3000      7.9984      2.4987      0.0730      9.1716    120.5934     22.8698
  2347.4000      7.9984      2.4815      0.0736     10.2118    119.3240     22.8921
  2347.5000      7.9948      2.4601      0.0732     11.5061    118.3440     22.9596
  2347.6000      7.9948      2.4344      0.0715     13.0684    117.7100     23.0800
  2347.7000      7.9948      2.4041      0.0680     14.9023    117.4641     23.2614
  2347.8000      7.9902      2.3695      0.0628     17.0001    117.6299     23.5116
  2347.9000      7.9902      2.3309      0.0557     19.3412    118.2072     23.8377
  2348.0000      7.9834      2.2888      0.0469     21.8917    119.1639     24.2446
  2348.1000      7.9834      2.2440      0.0370     24.6052    120.4348     24.7345
  2348.2000      7.9834      2.1975      0.0266     27.4239    121.9201     25.3058
  2348.3000      7.9793      2.1504      0.0167     30.2811    123.4904     25.9528
  2348.4000      7.9793      2.1038      0.0082     33.1043    124.9875     26.6656
  2348.5000      7.9823      2.0590      0.0022     35.8184    126.2422     27.4296
  2348.6000      7.9823      2.0172     -0.0006     38.3497    127.0872     28.2267
  2348.7000      7.9823      1.9796      0.0005     40.6293    127.3753     29.0358
  2348.8000      7.9862      1.9472      0.0057     42.5964    126.9962     29.8332
  2348.9000      7.9862      1.9207      0.0148     44.2006    125.8916     30.5944
  2349.0000      7.9861      1.9008      0.0273     45.4039    124.0677     31.2945
  2349.1000      7.9861      1.8880      0.0424     46.1816    121.5887     31.9101
  2349.2000      7.9861      1.8824      0.0590     46.5226    118.5770     32.4198
  2349.3000      7.9846      1.8839      0.0760     46.4292    115.1931     32.8063
  2349.4000      7.9846      1.8924      0.0924     45.9157    111.6171     33.0579
  2349.5000      7.9875      1.9074      0.1071     45.0077    108.0284     33.1685
  2349.6000      7.9875      1.9283      0.1195     43.7399    104.5844     33.1394
  2349.7000      7.9875      1.9544      0.1289     42.1550    101.4045     32.9781
  2349.8000      8.0285      1.9850      0.1351     40.3013     98.5617     32.6987
  2349.9000      8.0285      2.0192      0.1380     38.2317     96.0821     32.3195
  2350.0000      8.0900      2.0560      0.1378     36.0011     93.9509     31.8619
