~Version Information
VERS.                      2.0: CWLS Log ASCII Standard - VERSION 2.0
WRAP.                       NO: One line per depth step
~Well Information Block
STRT.FT                -4.2500: 
STOP.FT              2018.7500: 
STEP.FT                 0.2500: 
NULL.                -999.2500: 
COMP.          Petrogulf Corporation: COMPANY
WELL.             State 16-21R: WELL
FLD.           Purgatoire River: FIELD
LOC.           203' FNL & 1560' FWL----: LOCATION
PROV.                 Colorado: PROVINCE
CNTY.               Las Animas: COUNTRY
SRVC.                         : SERVICE COMPANY
DATE.          Thu Sep 29 11:32:19 2005: LOG DATE
API.           05-071-08313 : API Number
~Curve Information Block
DEPT.FT            0 000 00 00: Depth
GR.GAPI                       : Gamma Ray
CCL.                          : Casing Collar Locator
AMP3.mV                       : CBL 3' Amplitude
AMP5.mV                       : CBL 5' Amplitude
~Parameter Information Block
~A  Depth        GR         CCL         AMP3        AMP5    
# ...
  1034.2500    113.6587      0.0000      8.1574      1.5134
  1034.5000    104.4972     -1.0623      7.9201      1.4607
  1034.7500     95.4502     -1.5103      7.9601      1.4071
  1035.0000     89.4056      0.0000      8.0747      1.3769
  1035.2500     87.8361      0.0000      8.1625      1.3929
  1035.5000     90.3253      0.0000      8.2572      1.4665
  1035.7500     95.2921      0.0000      8.4723      1.5907
  1036.0000    101.0189      0.0000      8.9402      1.7458
  1036.2500    106.1353      0.0000      9.8042      1.9177
  1036.5000    109.6572      0.0000     11.1825      2.1075
  1036.7500    111.0935      0.0000     13.0650      2.3212
  1037.0000    110.6928      0.0000     15.2686      2.5621
  1037.2500    109.4837      0.0000     17.5288      2.8394
  1037.5000    108.8804      0.0000     19.6216      3.1712
  1037.7500    109.9380      0.0000     21.4124      3.5638
  1038.0000    112.5939      0.0000     22.8485      3.9992
  1038.2500    115.3694      0.0000     23.9339      4.4509
  1038.5000    115.9379      0.0000     24.6965      4.9052
  1038.7500    112.5911      0.0000     25.1707      5.3627
  1039.0000    105.7583      0.0000     25.4279      5.8312
  1039.2500     98.1496      0.0000     25.6117      6.3251
  1039.5000     93.1048      0.0000     25.9066      6.8639
  1039.7500     92.4998      0.0000     26.4565      7.4626
  1040.0000     95.9572      0.0000     27.3173      8.1268
  1040.2500    101.6853      0.0000     28.4825      8.8608
  1040.5000    107.8396      0.0000     29.9400      9.6723
  1040.7500    113.2163      0.0000     31.7091     10.5670
  1041.0000    117.0586      0.0000     33.8525     11.5460
  1041.2500    118.6077      0.0000     36.4656     12.6137
  1041.5000    117.1485      0.0000     39.6259     13.7792
  1041.7500    112.7038      0.0000     43.3126     15.0575
  1042.0000    106.6497      0.0000     47.3608     16.4773
  1042.2500    101.2973      0.0000     51.4877     18.0877
  1042.5000     98.6340      0.0000     55.3642     19.9376
  1042.7500     99.6447      0.0000     58.7153     22.0151
  1043.0000    104.5719      0.0000     61.4136     24.1740
  1043.2500    112.8788      0.0000     63.4788     26.1242
  1043.5000    122.5931      0.0000     64.9693     27.5361
  1043.7500    130.4391      0.0000     65.8797     28.1985
  1044.0000    133.4020      0.0000     66.1377     28.1050
  1044.2500    130.3566      0.0000     65.6750     27.4020
  1044.5000    122.2340      0.0000     64.5008     26.2660
  1044.7500    110.9785      0.0000     62.7188     24.8333
  1045.0000     98.7566      0.0000     60.4791     23.2128
  1045.2500     87.9467      0.0000     57.9110     21.5051
  1045.5000     80.9329      0.0000     55.0822     19.7833
  1045.7500     79.1043      0.0000     51.9945     18.0695
  1046.0000     81.9981      0.0000     48.6262     16.3455
  1046.2500     87.6648      0.0000     45.0001     14.5905
  1046.5000     94.0308      0.0000     41.1989     12.8197
  1046.7500    100.0843      0.0000     37.3087     11.0947
  1047.0000    105.9335      0.0000     33.3755      9.4994
  1047.2500    111.8928      0.0000     29.4539      8.1025
  1047.5000    117.7935      0.0000     25.7034      6.9349
  1047.7500    123.1956      0.0000     22.3958      5.9911
  1048.0000    127.8020      0.0000     19.7769      5.2462
  1048.2500    131.3161      0.0000     17.9132      4.6698
  1048.5000    133.1886      0.0000     16.6834      4.2278
  1048.7500    132.9884      0.0000     15.8988      3.8836
  1049.0000    131.1515      0.0000     15.4113      3.6072
  1049.2500    129.1332      0.0000     15.1194      3.3824
  1049.5000    128.4794      0.0000     14.9074      3.2026
  1049.7500    129.4958      0.0000     14.6278      3.0604
  1050.0000    130.7812      0.0000     14.1755      2.9437
  1050.2500    130.3171      0.0000     13.5771      2.8393
  1050.5000    127.3468      0.0000     12.9796      2.7362
  1050.7500    123.1422      0.0000     12.5365      2.6219
  1051.0000    119.7617      0.0000     12.3018      2.4816
  1051.2500    118.2230      0.0000     12.2176      2.3096
  1051.5000    118.1366      0.0000     12.1701      2.1185
  1051.7500    118.8507      0.0000     12.0474      1.9346
  1052.0000    120.3511      0.0000     11.7747      1.7779
  1052.2500    122.8807      0.0000     11.3324      1.6482
  1052.5000    126.1470      0.0000     10.7526      1.5303
  1052.7500    129.3950      0.0000     10.0921      1.4132
  1053.0000    132.2724      0.0000      9.4035      1.3038
  1053.2500    134.9988      0.0000      8.7206      1.2232
  1053.5000    137.2571      0.0000      8.0616      1.1896
  1053.7500    137.5377      0.0000      7.4437      1.2071
  1054.0000    134.4017      0.0000      6.9005      1.2685
  1054.2500    128.2549      0.0000      6.4888      1.3659
  1054.5000    121.3435      0.0000      6.2749      1.4948
  1054.7500    116.1134      0.0000      6.3156      1.6509
  1055.0000    113.8452      0.0000      6.6504      1.8269
  1055.2500    114.6196      0.0000      7.3060      2.0121
  1055.5000    117.9837      0.0000      8.3081      2.1931
  1055.7500    123.2137      0.0000      9.6929      2.3584
  1056.0000    129.0219      0.0000     11.5012      2.5090
  1056.2500    133.6154      0.0000     13.7431      2.6665
  1056.5000    135.5333      0.0000     16.3751      2.8692
  1056.7500    134.5548      0.0000     19.3248      3.1550
  1057.0000    131.8199      0.0000     22.5207      3.5466
  1057.2500    129.0859      0.0000     25.8524      4.0510
  1057.5000    127.7783      0.0000     29.0865      4.6702
  1057.7500    128.4225      0.0000     31.8658      5.4034
  1058.0000    130.5569      0.0000     33.8491      6.2251
  1058.2500    133.0293      0.0000     34.9012      7.0591
  1058.5000    134.7757      0.0000     35.1629      7.7883
  1058.7500    135.6731      0.0000     34.9199      8.3072
  1059.0000    136.4200      0.0000     34.3828      8.5815
  1059.2500    137.3186      0.0000     33.6009      8.6601
  1059.5000    137.4763      0.0000     32.5891      8.6250
  1059.7500    135.5755      0.0000     31.4905      8.5307
  1060.0000    131.1865      0.0000     30.5635      8.3890
  1060.2500    125.1036      0.0000     29.9982      8.2002
  1060.5000    118.7044      0.0000     29.7553      7.9797
  1060.7500    113.2669      0.0000     29.6070      7.7475
  1061.0000    109.6321      0.0000     29.3524      7.4981
  1061.2500    108.1554      0.0000     28.9678      7.1896
  1061.5000    108.8205      0.0000     28.5283      6.7743
  1061.7500    111.2639      0.0000     28.0193      6.2459
  1062.0000    114.7861      0.0000     27.2690      5.6516
  1062.2500    118.6513      0.0000     26.0666      5.0568
  1062.5000    122.4992      0.0000     24.3506      4.5056
  1062.7500    126.2544      0.0000     22.2948      4.0172
  1063.0000    129.5474      0.0000     20.2034      3.5997
  1063.2500    131.3630      0.0000     18.3044      3.2548
  1063.5000    130.5182      0.0000     16.6470      2.9770
  1063.7500    126.6524      0.0000     15.1695      2.7574
  1064.0000    120.6965      0.0000     13.8123      2.5821
  1064.2500    114.2410      0.0000     12.5589      2.4228
  1064.5000    108.5850      0.0000     11.4189      2.2395
  1064.7500    104.4922      0.0000     10.3957      2.0038
  1065.0000    102.3844      0.0000      9.4659      1.7226
  1065.2500    102.1968      0.0000      8.5990      1.4359
  1065.5000    103.0148      0.0000      7.7974      1.1876
  1065.7500    103.2206      0.0000      7.0922      0.9965
  1066.0000    101.3617      0.0000      6.4929      0.8531
  1066.2500     97.0230      0.0000      5.9813      0.7375
  1066.5000     90.8585      0.0000      5.5558      0.6359
  1066.7500     83.9736      0.0000      5.2356      0.5465
  1067.0000     77.7197      0.0000      5.0212      0.4759
  1067.2500     73.9433      0.0000      4.8821      0.4315
  1067.5000     74.3288      0.0000      4.7867      0.4131
