~Version Information
VERS.                      2.0: CWLS Log ASCII Standard - VERSION 2.0
WRAP.                       NO: One line per depth step
~Well Information Block
STRT.FT               -11.2500: 
STOP.FT              1934.7500: 
STEP.FT                 0.2500: 
NULL.                -999.2500: 
COMP.          Pioneer Natural Resources: COMPANY
WELL.          Commander 43-26 Tr: WELL
FLD.           Purgatorie River: FIELD
LOC.           2439' FSL  & 446' FEL--------: LOCATION
PROV.                       CO: PROVINCE
CNTY.               Las Animas: COUNTRY
SRVC.          Patterson Wireline: SERVICE COMPANY
DATE.          Tue Apr 26 09:07:23 2005: LOG DATE
UWI.           05 071 08341 00: UNIQUE WELL ID
~Curve Information Block
DEPT.FT            0 000 00 00: Depth
CCL.                          : Casing Collar Locator
TT3.usec                      : CBL 3' Travel Time
AMP3.mV                       : CBL 3' Amplitude
GR.GAPI                       : Gamma Ray
~Parameter Information Block
~A  Depth       CCL         TT3         AMP3         GR     
# ...
   893.2500      0.0000    308.3589     23.5989    133.4411
   893.5000      0.0000    308.3871     23.6617    139.4005
   893.7500      0.0000    308.3679     23.6940    145.9554
   894.0000      0.0000    308.3151     23.7077    152.0147
   894.2500      0.0000    308.2590     23.6988    155.5832
   894.5000      0.0000    308.2248     23.6551    154.7061
   894.7500      0.0000    308.2197     23.5915    149.0660
   895.0000      0.0000    308.2361     23.5675    140.9303
   895.2500      0.0000    308.2600     23.6506    133.8832
   895.5000      0.0000    308.2764     23.8524    130.1240
   895.7500      0.0000    308.2746     24.1137    129.1896
   896.0000      0.0000    308.2508     24.3574    129.1953
   896.2500      0.0000    308.2060     24.5432    128.5677
   896.5000      0.0000    308.1444     24.6705    126.5360
   896.7500      0.0000    308.0749     24.7520    122.9947
   897.0000      0.0000    308.0080     24.8013    118.4952
   897.2500      0.0000    307.9513     24.8375    113.9251
   897.5000      0.0000    307.9099     24.8848    109.8387
   897.7500      0.0000    307.8928     24.9528    106.3403
   898.0000      0.0000    307.9094     25.0167    103.5146
   898.2500      0.0000    307.9568     25.0266    101.4654
   898.5000      0.0000    308.0157     24.9491    100.1483
   898.7500      0.0000    308.0679     24.8038     99.8269
   899.0000      0.0000    308.1103     24.6553    101.6212
   899.2500      0.0000    308.1469     24.5690    106.8566
   899.5000      0.0000    308.1750     24.5754    115.5757
   899.7500      0.0000    308.1887     24.6638    125.9225
   900.0000      0.0000    308.1867     24.7903    135.1359
   900.2500      0.0000    308.1697     24.8803    141.0907
   900.5000      0.0000    308.1403     24.8256    143.0677
   900.7500      0.0000    308.1259     24.5008    141.4614
   901.0000      0.0000    308.1968     23.8157    137.1261
   901.2500      0.0000    308.4492     22.7792    131.1949
   901.5000      0.0000    308.9648     21.5133    125.3167
   901.7500      0.0000    309.8025     20.2033    121.1360
   902.0000      0.0000    311.0348     19.0267    118.7323
   902.2500      0.0000    312.8068     18.0978    116.0864
   902.5000      0.0000    315.2769     17.4441    111.0888
   902.7500      0.0000    318.2802     17.0341    103.9623
   903.0000      0.0000    320.9446     16.8405     97.2713
   903.2500      0.0000    321.9704     16.8737     93.9893
   903.5000      0.0000    320.6956     17.1543     95.9918
   903.7500      0.0000    317.7821     17.6820    103.5472
   904.0000      0.0000    314.5989     18.4658    115.0636
   904.2500      0.0000    312.0915     19.5736    127.2964
   904.5000      0.0000    310.4026     21.0910    136.8015
   904.7500      0.0000    309.2798     22.9869    141.9923
   905.0000      0.0000    308.5091     25.0292    143.9542
   905.2500      0.0000    308.0106     26.8738    145.0532
   905.5000      0.0000    307.7454     28.2474    146.6451
   905.7500      0.0000    307.6476     29.0545    148.1102
   906.0000      0.0000    307.6270     29.3615    147.8669
   906.2500      0.0000    307.6138     29.3277    145.0327
   906.5000      0.0000    307.5831     29.1324    140.2789
   906.7500      0.0000    307.5493     28.9110    135.2858
   907.0000      0.0000    307.5378     28.7280    131.1409
   907.2500      0.0000    307.5600     28.5975    127.2586
   907.5000      0.0000    307.6073     28.5105    122.3505
   907.7500      0.0000    307.6622     28.4391    116.5193
   908.0000      0.0000    307.7146     28.3338    111.8726
   908.2500      0.0000    307.7650     28.1429    110.7546
   908.5000      0.0000    307.8125     27.8541    113.7215
   908.7500      0.0000    307.8477     27.5255    119.4793
   909.0000      0.0000    307.8608     27.2584    126.2613
   909.2500      0.0000    307.8550     27.1154    132.5447
   909.5000      0.0000    307.8479     27.0632    136.8512
   909.7500      0.0000    307.8568     27.0018    138.1289
   910.0000      0.0000    307.8840     26.8493    136.6702
   910.2500      0.0000    307.9139     26.6030    133.8874
   910.5000      0.0000    307.9285     26.3319    130.9954
   910.7500      0.0000    307.9265     26.1182    128.3501
   911.0000      0.0000    307.9256     26.0030    125.9046
   911.2500      0.0000    307.9454     25.9782    123.7542
   911.5000      0.0000    307.9885     26.0163    122.1089
   911.7500      0.0000    308.0409     26.1002    120.8328
   912.0000      0.0000    308.0877     26.2271    119.2562
   912.2500      0.0000    308.1241     26.3856    116.8281
   912.5000      0.0000    308.1509     26.5278    114.0367
   912.7500      0.0000    308.1652     26.5799    112.2945
   913.0000      0.0000    308.1602     26.4963    112.6791
   913.2500      0.0000    308.1353     26.2996    114.9096
   913.5000      0.0000    308.1045     26.0608    117.6835
   913.7500      0.0000    308.0909     25.8481    119.9141
   914.0000      0.0000    308.1139     25.6929    121.5116
   914.2500      0.0000    308.1761     25.5860    122.9634
   914.5000      0.0000    308.2610     25.4997    124.3892
   914.7500      0.0000    308.3445     25.4198    125.3508
   915.0000      0.0000    308.4107     25.3560    125.5770
   915.2500      0.0000    308.4568     25.3283    125.3785
   915.5000      0.0000    308.4887     25.3475    125.0575
   915.7500      0.0000    308.5549     25.4052    124.2793
   916.0000      0.0000    308.8858     25.4646    122.4568
   916.2500      0.0000    310.4018     25.4567    119.4906
   916.5000      0.0000    315.8594     25.2861    115.7761
   916.7500      0.0000    331.1275     24.8354    111.7525
   917.0000      0.0000    364.3775     23.9861    107.8540
   917.2500      0.0000    420.4344     22.6944    104.7569
   917.5000      0.0000    493.0449     21.0810    102.9848
   917.7500      0.0000    564.9859     19.4238    101.8933
   918.0000      0.0000    620.6216     18.0392     99.6056
   918.2500      0.0000    658.1458     17.1521     94.7893
   918.5000      0.0000    686.0201     16.8158     88.4054
   918.7500      0.0000    709.4482     16.9027     83.0546
   919.0000      0.0000    724.6969     17.1852     80.6965
   919.2500     -2.0000    724.4822     17.4717     81.4637
   919.5000     -2.0000    703.7589     17.7032     84.3662
   919.7500      0.0000    661.1271     18.0025     88.4115
   920.0000      0.0000    599.3891     18.6662     93.0013
   920.2500      0.0000    526.3967     19.9955     97.7480
   920.5000      0.0000    453.7627     21.9800    102.3001
   920.7500      0.0000    392.8673     24.1752    106.4859
   921.0000      0.0000    350.2908     26.0254    110.5840
   921.2500      0.0000    325.7517     27.2824    115.2216
   921.5000      0.0000    314.1689     28.0443    120.6752
   921.7500      0.0000    309.6671     28.5059    126.2043
   922.0000      0.0000    308.1883     28.7976    130.3207
   922.2500      0.0000    307.7499     28.9901    131.9559
   922.5000      0.0000    307.6023     29.1305    131.4115
   922.7500      0.0000    307.5264     29.2510    130.2815
   923.0000      0.0000    307.4672     29.3676    130.4946
   923.2500      0.0000    307.4223     29.4829    133.1687
   923.5000      0.0000    307.3969     29.5840    137.8918
   923.7500      0.0000    307.3878     29.6495    142.9071
   924.0000      0.0000    307.3844     29.6677    146.2940
   924.2500      0.0000    307.3759     29.6581    147.3716
   924.5000      0.0000    307.3617     29.6639    147.1068
   924.7500      0.0000    307.3531     29.7137    147.0155
   925.0000      0.0000    307.3615     29.7956    147.4316
   925.2500      0.0000    307.3800     29.8798    147.0368
   925.5000      0.0000    307.3843     29.9579    144.4401
   925.7500      0.0000    307.3506     30.0501    139.9521
   926.0000      0.0000    307.2762     30.1819    135.3957
   926.2500      0.0000    307.1815     30.3614    132.4788
   926.5000      0.0000    307.0951     30.5687    131.7751
