~Version Information
VERS.                      2.0: CWLS Log ASCII Standard - VERSION 2.0
WRAP.                       NO: One line per depth step
~Well Information Block
STRT.FT                -7.7500: 
STOP.FT              1383.2500: 
STEP.FT                 0.2500: 
NULL.                -999.2500: 
COMP.          Petrogulf Corporation: COMPANY
WELL.          Great Plains 22-22R: WELL
FLD.           Purgatoire River: FIELD
LOC.           2042' FNL & 1657' FWL SENW 22 33S 67W ----: LOCATION
PROV.                 Colorado: PROVINCE
CNTY.               Las Animas: COUNTRY
SRVC.                         : SERVICE COMPANY
DATE.          Thu Sep 22 14:55:58 2005: LOG DATE
UWI.             07108028     : UNIQUE WELL ID
~Curve Information Block
DEPT.FT            0 000 00 00: Depth
CCL.                          : Casing Collar Locator
TT3.usec                      : CBL 3' Travel Time
AMP3.mV                       : CBL 3' Amplitude
GR.GAPI                       : Gamma Ray
~Parameter Information Block
~A  Depth       CCL         TT3         AMP3         GR     
# ...
   729.2500      0.0000    605.9659      5.8145    151.3739
   729.5000      0.0000    610.7707      6.8106    145.4902
   729.7500      0.0000    612.0021      7.6505    140.2953
   730.0000      0.0000    611.3275      8.2407    137.0040
   730.2500      0.0000    612.3147      8.5834    136.2741
   730.5000      0.0000    615.1460      8.7042    138.3963
   730.7500      0.0000    616.4437      8.6347    142.5219
   731.0000      0.0000    613.4417      8.4427    146.4449
   731.2500      0.0000    606.9008      8.2290    147.9987
   731.5000      0.0000    599.1081      8.0756    146.6210
   731.7500      0.0000    590.2397      8.0067    143.4860
   732.0000      0.0000    578.5217      8.0041    140.5191
   732.2500      0.0000    563.5787      8.0524    139.1942
   732.5000      0.0000    547.8848      8.1628    139.5145
   732.7500      0.0000    534.5589      8.3624    139.7474
   733.0000      0.0000    524.8018      8.6619    137.5977
   733.2500      0.0000    517.6971      9.0330    132.3039
   733.5000      0.0000    511.1977      9.4127    125.5908
   733.7500      0.0000    502.8253      9.7377    120.2182
   734.0000      0.0000    491.0797      9.9761    117.6918
   734.2500      0.0000    477.6116     10.1298    117.6713
   734.5000      0.0000    467.1866     10.2165    119.2117
   734.7500      0.0000    463.8736     10.2581    121.8251
   735.0000      0.0000    467.3887     10.2807    125.4768
   735.2500      0.0000    473.8473     10.3118    130.3512
   735.5000      0.0000    479.5695     10.3684    136.7640
   735.7500      0.0000    483.5299     10.4477    144.7611
   736.0000      0.0000    486.8592     10.5288    153.4454
   736.2500      0.0000    491.0510     10.5826    160.8324
   736.5000      0.0000    496.6321     10.5821    164.8037
   736.7500      0.0000    502.9882     10.5109    164.4695
   737.0000      0.0000    509.1216     10.3692    160.4209
   737.2500      0.0000    514.7893     10.1771    153.7097
   737.5000      0.0000    521.1458      9.9712    145.3300
   737.7500      0.0000    529.7234      9.7902    136.7480
   738.0000      0.0000    539.9574      9.6537    129.7636
   738.2500      0.0000    548.5297      9.5551    125.1028
   738.5000      0.0000    552.8597      9.4754    121.6068
   738.7500      0.0000    554.5005      9.4025    117.3769
   739.0000      0.0000    556.9509      9.3364    112.0478
   739.2500      0.0000    560.4932      9.2806    107.9581
   739.5000      0.0000    561.4639      9.2365    108.4443
   739.7500      0.0000    557.0056      9.2005    114.4674
   740.0000      0.0000    548.6779      9.1625    123.3763
   740.2500      0.0000    540.6174      9.1122    131.4968
   740.5000      0.0000    535.7068      9.0547    137.4111
   740.7500      0.0000    534.5544      9.0173    142.1937
   741.0000      0.0000    537.1696      9.0337    147.0913
   741.2500      0.0000    544.2838      9.1174    151.8323
   741.5000      0.0000    556.7751      9.2474    155.0472
   741.7500      0.0000    574.3027      9.3775    155.6115
   742.0000      0.0000    595.0539      9.4612    153.4464
   742.2500      0.0000    616.7072      9.4743    149.4421
   742.5000      0.0000    637.0145      9.4236    144.8787
   742.7500      0.0000    653.7230      9.3425    140.7641
   743.0000      0.0000    665.2184      9.2742    137.5102
   743.2500      0.0000    671.5736      9.2455    134.9796
   743.5000      0.0000    674.3787      9.2500    132.7045
   743.7500      0.0000    675.4709      9.2577    130.3540
   744.0000      0.0000    676.0021      9.2430    128.2581
   744.2500      0.0000    676.3852      9.2032    127.3127
   744.5000      0.0000    676.6332      9.1539    128.1381
   744.7500      0.0000    676.6039      9.1112    130.4996
   745.0000      0.0000    676.1025      9.0757    133.6865
   745.2500      0.0000    674.9443      9.0281    137.1651
   745.5000      0.0000    673.1915      8.9477    140.3934
   745.7500      0.0000    671.2838      8.8394    142.2786
   746.0000      0.0000    669.4487      8.7396    141.8154
   746.2500      0.0000    666.4254      8.6872    139.6909
   746.5000      0.0000    658.9567      8.6871    138.5529
   746.7500      0.0000    643.7591      8.7062    140.9839
   747.0000      0.0000    621.1099      8.7036    147.2191
   747.2500      0.0000    596.4858      8.6640    155.0064
   747.5000      0.0000    577.5091      8.6041    161.6129
   747.7500      0.0000    568.7703      8.5552    165.8006
   748.0000      0.0000    570.0438      8.5434    167.8885
   748.2500      0.0000    579.0523      8.5782    168.3343
   748.5000      0.0000    593.8276      8.6493    166.7733
   748.7500      0.0000    611.5385      8.7342    162.4974
   749.0000      0.0000    627.6640      8.8135    155.5495
   749.2500      0.0000    639.0741      8.8827    147.0976
   749.5000      0.0000    646.7870      8.9500    138.6425
   749.7500      0.0000    653.4278      9.0261    131.0823
   750.0000      0.0000    658.5629      9.1181    124.6955
   750.2500      0.0000    657.3862      9.2304    119.7652
   750.5000      0.0000    642.9911      9.3645    116.8285
   750.7500      0.0000    610.5240      9.5175    116.2009
   751.0000      0.0000    562.5416      9.6796    117.4373
   751.2500      0.0000    512.1332      9.8362    119.5744
   751.5000      0.0000    478.0510      9.9733    121.9387
   751.7500      0.0000    472.6175     10.0874    124.5926
   752.0000      0.0000    491.8192     10.1900    127.9790
   752.2500      0.0000    517.4113     10.2979    132.0975
   752.5000      0.0000    531.2634     10.4137    136.0447
   752.7500      0.0000    530.0558     10.5152    138.6420
   753.0000      0.0000    526.2635     10.5638    139.5137
   753.2500      0.0000    535.1703     10.5279    139.2077
   753.5000      0.0000    561.6528     10.4059    138.4017
   753.7500      0.0000    598.0754     10.2312    137.5423
   754.0000      0.0000    632.1447     10.0533    137.0158
   754.2500      0.0000    655.7435      9.9119    136.9731
   754.5000      0.0000    667.7715      9.8215    137.0251
   754.7500      0.0000    671.2684      9.7740    136.5181
   755.0000      0.0000    669.7979      9.7458    135.0219
   755.2500      0.0000    666.3156      9.7018    132.5605
   755.5000      0.0000    663.4622      9.6028    129.8794
   755.7500      0.0000    663.1525      9.4203    128.5402
   756.0000      0.0000    665.5828      9.1564    130.2219
   756.2500      0.0000    669.2714      8.8488    135.6308
   756.5000      0.0000    672.3705      8.5540    143.9938
   756.7500      0.0000    673.8209      8.3200    153.3804
   757.0000      0.0000    673.4713      8.1694    161.6066
   757.2500      0.0000    671.7914      8.0982    167.1624
   757.5000      0.0000    669.7797      8.0838    169.4393
   757.7500      0.0000    668.6589      8.0979    168.3621
   758.0000      0.0000    669.0551      8.1171    164.2499
   758.2500      0.0000    670.3550      8.1275    157.9687
   758.5000      0.0000    670.8295      8.1248    150.7723
   758.7500      0.0000    667.9252      8.1165    143.9747
   759.0000      0.0000    658.3686      8.1196    138.9538
   759.2500      0.0000    639.2783      8.1508    137.0338
   759.5000      0.0000    610.9723      8.2144    138.5529
   759.7500      0.0000    578.9109      8.2997    142.0623
   760.0000      0.0000    551.2550      8.3947    145.3536
   760.2500      0.0000    533.4244      8.5004    147.6775
   760.5000      0.0000    525.2735      8.6283    150.2368
   760.7500      0.0000    523.3306      8.7859    154.0827
   761.0000      0.0000    524.2934      8.9682    158.2951
   761.2500      0.0000    525.5482      9.1667    160.7690
   761.5000      0.0000    523.6380      9.3820    160.1600
   761.7500      0.0000    514.8069      9.6236    156.4547
   762.0000      0.0000    498.2041      9.8988    150.2584
   762.2500      0.0000    477.0788     10.2020    142.4344
   762.5000      0.0000    455.7628     10.5101    134.4517
