~Version Information
VERS.                      2.0: CWLS Log ASCII Standard - VERSION 2.0
WRAP.                       NO: One line per depth step
~Well Information Block
STRT.FT               494.2500: 
STOP.FT              1992.0000: 
STEP.FT                 0.2500: 
NULL.                -999.2500: 
COMP.          Petrogulf Corporation: COMPANY
WELL.               Furu 6-23R: WELL
FLD.           Purgatoire River: FIELD
LOC.           2211' FSL & 1780' FWL--: LOCATION
CNTY.               Las Animas: COUNTY
SRVC.                Patterson: SERVICE COMPANY
DATE.          Wed Jun 21 14:57:59 2006: LOG DATE
UWI.           05 071 08266 00: UNIQUE WELL ID
STAT.                 Colorado: STATE
~Curve Information Block
DEPT.FT            0 000 00 00: Depth
GR.GAPI                       : Gamma Ray
RILD.Ohm-m                    : DIL Deep Resistivity
RILM.Ohm-m                    : DIL Medium Resistivity
RLL3.Ohm-m                    : DIL Shallow Resistivity
SP.mV                         : DIL Spontaneous Potential
~Parameter Information Block
~A  Depth        GR         RILD        RILM        RLL3         SP     
# ...
  1110.2500     95.3591     43.0254     42.5375     66.3222     54.5962
  1110.5000     96.3034     43.7250     43.6063     68.8865     55.5901
  1110.7500     98.2156     44.4661     44.7284     71.2148     55.7248
  1111.0000    102.3562     45.3081     45.8742     72.7693     55.2778
  1111.2500    104.9553     46.2947     47.0530     73.9603     54.6412
  1111.5000    106.3965     47.4501     48.3160     76.0761     54.0958
  1111.7500    104.5978     48.7707     49.7402     80.4036     53.7618
  1112.0000     96.8209     50.2082     51.4117     87.4071     53.6485
  1112.2500     88.6405     51.6539     53.4128     96.6866     53.7135
  1112.5000     74.4250     52.9554     55.8006    107.5231     53.9073
  1112.7500     65.6547     53.9761     58.5648    119.3003     54.1960
  1113.0000     55.8762     54.6536     61.5760    131.3404     54.5639
  1113.2500     51.7841     55.0028     64.5633    142.3651     55.0078
  1113.5000     48.3805     55.0634     67.1639    150.4115     55.5249
  1113.7500     47.3384     54.8522     69.0343    153.8105     56.0985
  1114.0000     46.8109     54.3531     69.9454    152.5610     56.6926
  1114.2500     46.7653     53.5368     69.7872    148.5884     57.2720
  1114.5000     46.8659     52.3866     68.5154    144.4264     57.8317
  1114.7500     47.2790     50.9221     66.1316    141.5116     58.4057
  1115.0000     49.4391     49.2105     62.7271    139.3469     59.0419
  1115.2500     52.5670     47.3538     58.5241    135.7961     59.7676
  1115.5000     60.3519     45.4569     53.8537    128.2665     60.5727
  1115.7500     67.4304     43.5982     49.0863    115.3114     61.4166
  1116.0000     80.0530     41.8196     44.5618     97.7053     62.2452
  1116.2500     89.3696     40.1378     40.5387     78.1968     63.0069
  1116.5000    104.1557     38.5663     37.1669     60.1719     63.6634
  1116.7500    113.9379     37.1310     34.4908     46.1981     64.1968
  1117.0000    126.3541     35.8729     32.4754     37.2283     64.6144
  1117.2500    131.7167     34.8325     31.0399     32.6785     64.9419
  1117.5000    134.3911     34.0308     30.0875     31.1279     65.2066
  1117.7500    133.2170     33.4581     29.5249     31.1429     65.4262
  1118.0000    129.2298     33.0767     29.2738     31.8082     65.6144
  1118.2500    126.2027     32.8371     29.2746     32.8317     65.7888
  1118.5000    121.6917     32.6983     29.4817     34.3263     65.9691
  1118.7500    118.4014     32.6424     29.8527     36.4553     66.1706
  1119.0000    112.8282     32.6737     30.3410     39.1401     66.4004
  1119.2500    109.3446     32.8065     30.8988     41.9758     66.6529
  1119.5000    106.2186     33.0502     31.4883     44.3874     66.9113
  1119.7500    105.8788     33.4007     32.0922     45.9393     67.1618
  1120.0000    106.6231     33.8399     32.7125     46.6198     67.4069
  1120.2500    106.7203     34.3373     33.3596     46.8796     67.6594
  1120.5000    105.3502     34.8526     34.0374     47.3138     67.9212
  1120.7500    103.9184     35.3387     34.7303     48.1999     68.1735
  1121.0000    102.5610     35.7495     35.3916     49.3214     68.3881
  1121.2500    102.7365     36.0498     35.9426     50.2409     68.5469
  1121.5000    104.4567     36.2218     36.2931     50.6572     68.6480
  1121.7500    106.1700     36.2632     36.3810     50.4150     68.6948
  1122.0000    109.2035     36.1843     36.2068     49.3153     68.6814
  1122.2500    111.5028     36.0090     35.8349     47.2277     68.5937
  1122.5000    115.0599     35.7733     35.3618     44.4834     68.4254
  1122.7500    117.0777     35.5153     34.8747     41.9281     68.1891
  1123.0000    118.9013     35.2566     34.4245     40.3971     67.9132
  1123.2500    119.1539     34.9941     34.0210     40.1616     67.6345
  1123.5000    118.1571     34.7073     33.6461     40.8610     67.3941
  1123.7500    116.8028     34.3752     33.2721     41.8283     67.2232
  1124.0000    114.4851     33.9868     32.8772     42.4756     67.1113
  1124.2500    113.3016     33.5411     32.4510     42.5568     66.9910
  1124.5000    112.8721     33.0447     31.9949     42.1974     66.7847
  1124.7500    113.7480     32.5151     31.5236     41.6771     66.4723
  1125.0000    116.7813     31.9843     31.0612     41.1679     66.0942
  1125.2500    119.6515     31.4936     30.6304     40.6746     65.6940
  1125.5000    124.6111     31.0830     30.2395     40.1477     65.2956
  1125.7500    128.2503     30.7793     29.8777     39.5765     64.9196
  1126.0000    134.2772     30.5915     29.5270     39.0008     64.5726
  1126.2500    138.2586     30.5094     29.1810     38.4981     64.2188
  1126.5000    142.3352     30.5065     28.8551     38.1631     63.7996
  1126.7500    142.9248     30.5482     28.5799     38.0729     63.2901
  1127.0000    141.2412     30.6049     28.3852     38.2464     62.7282
  1127.2500    139.6927     30.6659     28.2899     38.6097     62.1985
  1127.5000    138.2924     30.7411     28.3010     38.9932     61.7911
  1127.7500    137.8942     30.8495     28.4198     39.2179     61.5534
  1128.0000    137.1333     31.0000     28.6482     39.2673     61.4525
  1128.2500    136.1029     31.1801     28.9912     39.4373     61.3829
  1128.5000    133.4791     31.3612     29.4535     40.3225     61.2285
  1128.7500    130.9267     31.5125     30.0292     42.5646     60.9352
  1129.0000    126.0087     31.6135     30.6904     46.4169     60.5383
  1129.2500    122.4205     31.6575     31.3825     51.3894     60.1270
  1129.5000    117.8654     31.6508     32.0325     56.3402     59.7830
  1129.7500    116.1097     31.6157     32.5680     60.0963     59.5382
  1130.0000    115.7074     31.5907     32.9350     62.1247     59.3735
  1130.2500    116.4425     31.6240     33.1030     62.6183     59.2466
  1130.5000    117.9828     31.7598     33.0603     61.9273     59.1197
  1130.7500    119.2040     32.0282     32.8172     60.0045     58.9674
  1131.0000    122.0736     32.4390     32.4222     56.5288     58.7705
  1131.2500    124.8703     32.9776     31.9760     51.5680     58.5106
  1131.5000    129.0877     33.5998     31.6193     45.9979     58.1768
  1131.7500    130.6155     34.2329     31.4987     41.2838     57.7787
  1132.0000    129.8521     34.7895     31.7295     39.1184     57.3555
  1132.2500    127.7092     35.1893     32.3710     41.5155     56.9708
  1132.5000    123.1987     35.3821     33.4124     51.0669     56.6988
  1132.7500    119.4745     35.3639     34.7611     70.3014     56.6083
  1133.0000    112.4099     35.1824     36.2380     99.5566     56.7496
  1133.2500    106.7448     34.9260     37.5971    134.4461     57.1430
  1133.5000     97.6896     34.6961     38.5944    165.4186     57.7735
  1133.7500     91.9758     34.5771     39.0895    181.3181     58.5998
  1134.0000     84.9440     34.6158     39.1117    175.8233     59.5681
  1134.2500     81.7390     34.8139     38.8319    152.2050     60.6200
  1134.5000     79.5084     35.1285     38.4663    121.6593     61.6944
  1134.7500     79.6198     35.4773     38.1904     95.6285     62.7339
  1135.0000     81.6437     35.7505     38.1023     78.7621     63.6936
  1135.2500     83.9174     35.8324     38.2241     68.7367     64.5478
  1135.5000     88.2575     35.6272     38.5170     61.6765     65.2898
  1135.7500     91.3934     35.0814     38.8892     56.6698     65.9228
  1136.0000     95.2138     34.1949     39.1926     55.7788     66.4484
  1136.2500     96.1479     33.0176     39.2219     61.4344     66.8646
  1136.5000     94.0609     31.6358     38.7457     74.0759     67.1788
  1136.7500     90.8888     30.1543     37.5869     90.8890     67.4204
  1137.0000     86.4255     28.6796     35.7216    105.9846     67.6359
  1137.2500     85.7111     27.3046     33.3159    112.6896     67.8660
  1137.5000     90.3430     26.0951     30.6612    107.2067     68.1235
  1137.7500     97.2623     25.0811     28.0552     90.9903     68.3913
  1138.0000    110.9882     24.2551     25.7155     69.7389     68.6405
