~Version Information
VERS.                      2.0: CWLS Log ASCII Standard - VERSION 2.0
WRAP.                       NO: One line per depth step
~Well Information Block
STRT.FT                 0.0000: 
STOP.FT              2384.7500: 
STEP.FT                 0.2500: 
NULL.                -999.2500: 
COMP.          Petrogulf Corporation: COMPANY
WELL.           McDaniel 9-34V: WELL
FLD.           Purgatorie River: FIELD
LOC.           620' FSL & 1800' FEL: LOCATION
STAT.                 Colorado: State
CNTY.               Las Animas: COUNTY
CTRY. USA : Country
SECT. 9 : Section
TOWN. 33S : Township
RANG. 67W : Range
SRVC.                Patterson: SERVICE COMPANY
DATE.          Thu Nov 10 12:28:18 2005: LOG DATE
API. 05-071-08333                         : UNIQUE WELL ID
~Curve Information Block
DEPT.FT            0 000 00 00: Depth
AMP3.mV                       : CBL 3' Amplitude
CCL.                          : Casing Collar Locator
GR.GAPI                       : Gamma Ray
TT3.usec                      : CBL 3' Travel Time
~Parameter Information Block
~A  Depth       AMP3        CCL          GR         TT3     
# ...
  1105.5000      7.5831      0.0000     84.1611    547.7170
  1105.7500      7.4407      0.0000     88.9700    581.3008
  1106.0000      7.2576      0.0000     92.3685    589.6716
  1106.2500      7.0949      0.0000     95.0369    572.6904
  1106.5000      7.0069      0.0000     98.3551    542.1486
  1106.7500      6.9935      0.0000    102.7575    517.1992
  1107.0000      7.0459      0.0000    107.3017    511.1583
  1107.2500      7.1673      0.0000    110.6950    521.0064
  1107.5000      7.3316      0.0000    112.4594    533.7954
  1107.7500      7.4663      0.0000    112.9824    540.7672
  1108.0000      7.5053      0.0000    112.7225    538.5007
  1108.2500      7.4482      0.0000    111.6913    526.3176
  1108.5000      7.3222      0.0000    109.7317    513.1844
  1108.7500      7.1095      0.0000    107.0439    512.3763
  1109.0000      6.8073      0.0000    104.1841    523.5250
  1109.2500      6.5145      0.0000    101.4179    532.7879
  1109.5000      6.3391      0.0000     98.2794    533.0797
  1109.7500      6.2778      0.0000     94.1320    532.6032
  1110.0000      6.2683      0.0000     89.0786    541.1610
  1110.2500      6.3015      0.0000     83.9028    555.9489
  1110.5000      6.4206      0.0000     79.2752    563.9907
  1110.7500      6.6186      0.0000     75.6575    561.8834
  1111.0000      6.8049      0.0000     73.9757    563.6502
  1111.2500      6.8972      0.0000     75.5634    578.8840
  1111.5000      6.8872      0.0000     80.9440    598.8906
  1111.7500      6.8053      0.0000     88.9595    612.3959
  1112.0000      6.6885      0.0000     97.4743    617.6620
  1112.2500      6.5882      0.0000    104.8538    617.3065
  1112.5000      6.5647      0.0000    110.7725    613.3335
  1112.7500      6.6473      0.0000    115.9115    604.7430
  1113.0000      6.7942      0.0000    121.0581    588.9346
  1113.2500      6.9157      0.0000    126.3619    573.4626
  1113.5000      6.9433      0.0000    131.1460    575.3738
  1113.7500      6.8608      0.0000    134.2144    596.0338
  1114.0000      6.7099      0.0000    134.5966    614.3962
  1114.2500      6.5688      0.0000    132.5410    614.9850
  1114.5000      6.4877      0.0000    129.9221    603.7220
  1114.7500      6.4435      0.0000    129.1862    593.2678
  1115.0000      6.3759      0.0000    131.4055    588.4476
  1115.2500      6.2777      0.0000    135.3013    587.4570
  1115.5000      6.2153      0.0000    138.3590    587.8171
  1115.7500      6.2259      0.0000    138.8671    588.2512
  1116.0000      6.2701      0.0000    136.7914    587.9203
  1116.2500      6.3059      0.0000    133.0009    585.9597
  1116.5000      6.3222      0.0000    128.1922    582.2325
  1116.7500      6.3113      0.0000    122.6162    579.5594
  1117.0000      6.2685      0.0000    116.5885    583.3983
  1117.2500      6.1978      0.0000    111.0869    594.7057
  1117.5000      6.1151      0.0000    107.6031    606.5223
  1117.7500      6.0477      0.0000    107.1463    611.8300
  1118.0000      6.0098      0.0000    109.3863    608.7079
  1118.2500      6.0020      0.0000    112.8467    598.2889
  1118.5000      6.0298      0.0000    115.9087    584.4310
  1118.7500      6.0858      0.0000    117.7458    572.4858
  1119.0000      6.1379      0.0000    118.6128    563.8741
  1119.2500      6.1966      0.0000    119.4514    553.4567
  1119.5000      6.3406      0.0000    121.2952    534.4449
  1119.7500      6.5913      0.0000    125.0685    509.4077
  1120.0000      6.8346      0.0000    131.4769    493.5151
  1120.2500      6.9434      0.0000    140.2142    496.5966
  1120.5000      6.9139      0.0000    149.2506    509.0465
  1120.7500      6.8502      0.0000    155.9046    515.1212
  1121.0000      6.8617      0.0000    159.1002    508.0783
  1121.2500      6.9658      0.0000    159.8470    492.6846
  1121.5000      7.0482      0.0000    159.1156    483.0392
  1121.7500      6.9694      0.0000    156.2030    489.0047
  1122.0000      6.7179      0.0000    149.9516    505.5100
  1122.2500      6.3961      0.0000    140.6923    525.0715
  1122.5000      6.1215      0.0000    130.0466    547.1046
  1122.7500      6.0016      0.0000    119.5087    568.7076
  1123.0000      6.1025      0.0000    109.9940    582.9316
  1123.2500      6.3558      0.0000    101.9373    588.8209
  1123.5000      6.5409      0.0000     95.0440    592.0488
  1123.7500      6.4728      0.0000     88.7043    597.3923
  1124.0000      6.3090      0.0000     83.1723    607.0313
  1124.2500      6.4298      0.0000     79.5072    622.9647
  1124.5000      6.8295      0.0000     78.0457    644.0412
  1124.7500      7.1871      0.0000     77.8217    662.4165
  1125.0000      7.5135      0.0000     77.7020    670.3088
  1125.2500      7.9861      0.0000     77.4102    666.8607
  1125.5000      8.5487      0.0000     77.5278    654.9095
  1125.7500      9.1250     -2.0000     79.1532    637.6803
  1126.0000      9.7302      2.0000     83.2740    622.5300
  1126.2500     10.2802      0.0000     89.5570    617.9786
  1126.5000     10.6623      0.0000     95.8016    612.0078
  1126.7500     10.9676      0.0000     99.3688    576.3033
  1127.0000     11.2721      0.0000     99.3808    517.6104
  1127.2500     11.2981      0.0000     97.1358    485.4666
  1127.5000     11.0117      0.0000     94.4388    506.9890
  1127.7500     11.0289      0.0000     92.2353    552.1089
  1128.0000     11.5971      0.0000     91.0722    572.4575
  1128.2500     12.2431      0.0000     91.9329    552.1708
  1128.5000     12.6542      0.0000     95.4963    519.4946
  1128.7500     12.9004      0.0000    100.6546    512.5989
  1129.0000     13.0385      0.0000    104.7949    536.9464
  1129.2500     13.0412      0.0000    106.1405    569.1597
  1129.5000     12.9257      0.0000    105.4193    590.2698
  1129.7500     12.7656      0.0000    104.8051    594.0592
  1130.0000     12.6364      0.0000    105.6630    578.1685
  1130.2500     12.5928      0.0000    107.8780    546.2748
  1130.5000     12.6549      0.0000    110.7969    512.3920
  1130.7500     12.8042      0.0000    113.8476    487.5101
  1131.0000     12.9961      0.0000    116.4024    464.1462
  1131.2500     13.1357      0.0000    117.8296    432.5627
  1131.5000     13.1151      0.0000    117.9098    401.2032
  1131.7500     12.9405      0.0000    116.9549    382.2260
  1132.0000     12.7350      0.0000    115.5279    375.2686
  1132.2500     12.5796      0.0000    114.2465    374.0256
  1132.5000     12.4244      0.0000    113.6960    374.4175
  1132.7500     12.1706      0.0000    114.2106    374.8094
  1133.0000     11.7832      0.0000    115.8044    374.7360
  1133.2500     11.3146      0.0000    118.5466    374.3929
  1133.5000     10.8771      0.0000    122.8596    374.0698
  1133.7500     10.5779      0.0000    129.0411    373.8309
  1134.0000     10.4278      0.0000    136.3808    373.7718
  1134.2500     10.3380      0.0000    143.0593    374.8972
  1134.5000     10.2251      0.0000    147.1895    381.3998
  1134.7500     10.0458      0.0000    148.0352    402.7176
  1135.0000      9.7276      0.0000    146.4017    447.2782
  1135.2500      9.1919      0.0000    143.8865    507.1498
  1135.5000      8.4679      0.0000    141.3676    557.7238
  1135.7500      7.6855      0.0000    138.1853    583.3240
  1136.0000      6.9604      0.0000    133.2914    592.5799
  1136.2500      6.3747      0.0000    127.0346    602.6262
  1136.5000      6.0247      0.0000    120.9042    619.3312
  1136.7500      5.9466      0.0000    115.3840    636.8695
  1137.0000      6.0303      0.0000    108.9614    652.6436
  1137.2500      6.1129      0.0000     99.6941    673.6420
  1137.5000      6.1296      0.0000     87.4253    702.5307
  1137.7500      6.1062      0.0000     74.2402    728.5579
  1138.0000      6.0473      0.0000     62.9462    736.0076
  1138.2500      5.9307      0.0000     55.2215    717.2781
  1138.5000      5.8337      0.0000     51.1036    683.3586
  1138.7500      5.9120      0.0000     49.9274    656.9444
