~Version Information
VERS.                      2.0: CWLS Log ASCII Standard - VERSION 2.0
WRAP.                       NO: One line per depth step
~Well Information Block
STRT.FT               250.0000: 
STOP.FT              1573.7000: 
STEP.FT                 0.1000: 
NULL.                -999.2500: 
COMP.          Pioneer Natural Resources: COMPANY
WELL.          Big Cat Federal 44-1: WELL
FLD.           Purgatoire River: FIELD
LOC.           197' FSL & 973' FEL--: LOCATION
CNTY.               Las Animas: COUNTY
SRVC.                Patterson: SERVICE COMPANY
DATE.          Mon Apr 24 08:33:37 2006: LOG DATE
UWI.           05 071 08042 00: UNIQUE WELL ID
STAT.                 Colorado: STATE
~Curve Information Block
DEPT.FT            0 000 00 00: Depth
DCAL.in                       : CDL Caliper
RHOB.g/cc                     : CDL Bulk Density
RHOC.g/cc                     : CDL Density Correction
DPOR.pu                       : CDL Density Porosity
NPOR.pu                       : Neutron Porosity
GR.GAPI                       : Gamma Ray
~Parameter Information Block
~A  Depth       DCAL        RHOB        RHOC        DPOR        NPOR         GR     
# ...
  1027.6000      7.8916      2.1851     -0.0599     28.1763     18.9884    118.7129
  1027.7000      7.8916      2.2168     -0.0182     26.2548     17.8615    115.1880
  1027.8000      7.8927      2.2573      0.0979     23.8006     16.8486    112.4372
  1027.9000      7.8927      2.2880      0.0921     21.9404     16.0518    111.4480
  1028.0000      7.8950      2.3247      0.1399     19.7141     15.6053    112.6595
  1028.1000      7.8950      2.3902      0.2807     15.7434     15.5768    115.2604
  1028.2000      7.8950      2.4702      0.3329     10.8994     15.9070    117.0403
  1028.3000      7.8916      2.5284      0.2972      7.3705     16.6445    117.3825
  1028.4000      7.8916      2.5476      0.1716      6.2057     17.6674    117.3236
  1028.5000      7.8780      2.5445      0.1320      6.3968     18.3168    119.0213
  1028.6000      7.8780      2.5413      0.0644      6.5880     18.0146    123.4805
  1028.7000      7.8780      2.5414      0.0723      6.5799     17.3912    130.2275
  1028.8000      7.8681      2.5424      0.0818      6.5188     17.3516    137.3425
  1028.9000      7.8681      2.5471      0.0796      6.2356     17.5842    139.5652
  1029.0000      7.8643      2.5495      0.1164      6.0896     17.3843    133.7964
  1029.1000      7.8643      2.5475      0.0746      6.2148     16.9396    126.0431
  1029.2000      7.8643      2.5528      0.1168      5.8880     16.9449    123.1159
  1029.3000      7.8632      2.5651      0.1245      5.1438     17.3357    122.8483
  1029.4000      7.8632      2.5700      0.0812      4.8479     17.3968    122.4580
  1029.5000      7.8648      2.5567      0.1073      5.6555     17.1132    122.3132
  1029.6000      7.8648      2.5326      0.0254      7.1143     17.1167    123.3757
  1029.7000      7.8648      2.5229      0.0314      7.7005     17.8325    125.4549
  1029.8000      7.8679      2.5365      0.0273      6.8795     18.9659    127.2081
  1029.9000      7.8679      2.5574      0.0369      5.6146     19.8167    128.5079
  1030.0000      7.8682      2.5664      0.0747      5.0638     20.3210    130.4737
  1030.1000      7.8682      2.5597      0.0512      5.4711     21.0370    131.1490
  1030.2000      7.8682      2.5456      0.0341      6.3274     21.9427    128.3094
  1030.3000      7.8664      2.5305      0.0338      7.2408     22.4055    124.0649
  1030.4000      7.8664      2.5239      0.0301      7.6443     22.6423    122.8981
  1030.5000      7.8672      2.5309      0.0486      7.2199     23.3084    126.5861
  1030.6000      7.8672      2.5425      0.0246      6.5157     24.1108    133.7527
  1030.7000      7.8672      2.5507      0.0246      6.0170     24.3724    141.3765
  1030.8000      7.8696      2.5522      0.0217      5.9248     24.3752    145.2718
  1030.9000      7.8696      2.5401      0.0566      6.6623     24.8716    144.6345
  1031.0000      7.8687      2.5085      0.0224      8.5748     25.6258    144.0127
  1031.1000      7.8687      2.4744     -0.0382     10.6397     25.8592    144.7538
  1031.2000      7.8687      2.4656     -0.0228     11.1741     25.5250    142.2232
  1031.3000      7.8674      2.4783      0.0361     10.4090     25.4070    136.6223
  1031.4000      7.8674      2.4861      0.0146      9.9321     25.9544    135.6633
  1031.5000      7.8682      2.4813      0.0155     10.2260     26.6496    140.7723
  1031.6000      7.8682      2.4743     -0.0055     10.6477     26.7412    145.8299
  1031.7000      7.8682      2.4707      0.0332     10.8643     25.9205    148.3889
  1031.8000      7.8686      2.4679      0.0369     11.0350     24.6345    148.4823
  1031.9000      7.8686      2.4706      0.0387     10.8707     23.5856    147.8923
  1032.0000      7.8693      2.4852      0.0562      9.9887     22.7408    151.1857
  1032.1000      7.8693      2.5053      0.0739      8.7681     21.5271    157.3628
  1032.2000      7.8693      2.5228      0.0979      7.7067     20.0134    158.9424
  1032.3000      7.8698      2.5367      0.0682      6.8663     19.0293    153.0343
  1032.4000      7.8698      2.5447      0.1268      6.3803     18.9752    145.4978
  1032.5000      7.8695      2.5448      0.1039      6.3749     19.4404    143.6559
  1032.6000      7.8695      2.5406      0.1374      6.6299     19.9044    147.5845
  1032.7000      7.8695      2.5353      0.0784      6.9543     20.3442    153.4426
  1032.8000      7.8694      2.5313      0.0533      7.1954     20.9005    158.5263
  1032.9000      7.8694      2.5271      0.0668      7.4498     21.2901    161.2437
  1033.0000      7.8674      2.5199      0.0481      7.8842     21.4613    161.0677
  1033.1000      7.8674      2.5096      0.0584      8.5092     21.7748    158.6365
  1033.2000      7.8674      2.4916      0.0455      9.5975     22.0307    155.5682
  1033.3000      7.8642      2.4714      0.0185     10.8265     21.8268    151.8439
  1033.4000      7.8642      2.4711     -0.0140     10.8396     21.3162    147.6075
  1033.5000      7.8624      2.4972      0.0325      9.2583     20.8599    146.5503
  1033.6000      7.8624      2.5217      0.0864      7.7780     20.6047    150.4033
  1033.7000      7.8624      2.5213      0.0571      7.8000     20.4612    156.6266
  1033.8000      7.8631      2.5108      0.0353      8.4345     20.2660    158.7802
  1033.9000      7.8631      2.5125      0.0689      8.3331     20.1149    153.7930
  1034.0000      7.8657      2.5227      0.0460      7.7141     20.1439    148.5041
  1034.1000      7.8657      2.5253      0.0751      7.5586     20.2664    149.0762
  1034.2000      7.8657      2.5146      0.0776      8.2043     20.2739    152.7305
  1034.3000      7.8674      2.5045      0.0531      8.8164     20.1889    153.1566
  1034.4000      7.8674      2.5116      0.0681      8.3903     20.3871    149.4803
  1034.5000      7.8675      2.5274      0.0937      7.4277     20.6087    145.3286
  1034.6000      7.8675      2.5338      0.0689      7.0403     20.1158    141.4668
  1034.7000      7.8675      2.5342      0.0479      7.0201     19.1949    138.9907
  1034.8000      7.8647      2.5437      0.0411      6.4398     18.7412    139.1243
  1034.9000      7.8647      2.5563      0.1226      5.6770     18.8440    137.3097
  1035.0000      7.8560      2.5551      0.0834      5.7489     19.1418    129.8513
  1035.1000      7.8560      2.5525      0.0588      5.9073     19.5896    118.6558
  1035.2000      7.8560      2.5716      0.0567      4.7537     20.1015    106.7562
  1035.3000      7.8408      2.6087      0.0896      2.5012     20.5784     97.0815
  1035.4000      7.8408      2.6422      0.1183      0.4717     20.8946     88.8202
  1035.5000      7.8245      2.6592      0.1182     -0.5592     21.1770     82.0141
  1035.6000      7.8245      2.6624      0.0709     -0.7527     22.0252     80.6173
  1035.7000      7.8245      2.6619      0.0751     -0.7220     23.2686     84.9123
  1035.8000      7.8156      2.6678      0.0793     -1.0801     24.0858     91.4821
  1035.9000      7.8156      2.6776      0.1096     -1.6749     24.3353     98.8344
  1036.0000      7.8172      2.6743      0.1430     -1.4737     24.5548    104.3390
  1036.1000      7.8172      2.6527      0.0866     -0.1654     24.9612    103.9288
  1036.2000      7.8172      2.6308      0.0715      1.1638     25.1719    100.2344
  1036.3000      7.8337      2.6162      0.0683      2.0457     24.7966     98.3673
  1036.4000      7.8337      2.5981      0.0434      3.1462     24.0768     98.7774
  1036.5000      7.8628      2.5777     -0.0156      4.3833     23.6462     99.6330
  1036.6000      7.8628      2.5752     -0.0034      4.5356     23.6202    101.1185
  1036.7000      7.8628      2.5929      0.0476      3.4594     23.8287    105.4178
  1036.8000      7.8840      2.6053      0.0466      2.7119     24.3018    112.7072
  1036.9000      7.8840      2.5996      0.0296      3.0529     24.9494    123.8761
  1037.0000      7.8916      2.5886      0.0086      3.7194     25.3126    137.1106
  1037.1000      7.8916      2.5791      0.0677      4.2959     25.1614    142.7969
