~Version Information
VERS.                      2.0: CWLS Log ASCII Standard - VERSION 2.0
WRAP.                       NO: One line per depth step
~Well Information Block
STRT.FT               433.5000: 
STOP.FT              1880.2500: 
STEP.FT                 0.2500: 
NULL.                -999.2500: 
COMP.          Pioneer Natural Resources: COMPANY
WELL.           Buckhorn 12-21: WELL
FLD.           Purgatorie River: FIELD
LOC.           2450' FNL & 608' FWL--: LOCATION
PROV.                       CO: PROVINCE
CNTY.               Las Animas: COUNTRY
SRVC.                         : SERVICE COMPANY
DATE.          Fri Dec 03 14:13:08 2004: LOG DATE
UWI.          005 071 08129 : UNIQUE WELL ID
~Curve Information Block
DEPT.FT            0 000 00 00: Depth
NPOR.pu                       : Neutron Porosity
CCL.                          : Casing Collar Locator
TT3.usec                      : CBL 3' Travel Time
AMP3.mV                       : CBL 3' Amplitude
GR.GAPI                       : Gamma Ray
~Parameter Information Block
~A  Depth       NPOR        CCL         TT3         AMP3         GR     
# ...
  1385.5000     22.8148      0.0000    678.1410      2.9292     64.7571
  1385.7500     22.9472      0.0000    677.5496      2.9213     64.3167
  1386.0000     22.8991      0.0000    672.8751      2.8854     63.3316
  1386.2500     22.6136      0.0000    664.8328      2.8162     61.8804
  1386.5000     22.1629      0.0000    655.0439      2.7271     60.0171
  1386.7500     21.7316      0.0000    644.4927      2.6456     57.8543
  1387.0000     21.4810      0.0000    632.3925      2.5922     55.8079
  1387.2500     21.4332      0.0000    617.9563      2.5613     54.2316
  1387.5000     21.4850      0.0000    604.0948      2.5253     52.9421
  1387.7500     21.4939      0.0000    597.7743      2.4571     51.3576
  1388.0000     21.3474      0.0000    604.3354      2.3535     48.9632
  1388.2500     21.0007      0.0000    620.9694      2.2402     45.6655
  1388.5000     20.4840      0.0000    637.1775      2.1522     42.0235
  1388.7500     19.8746      0.0000    642.7590      2.1105     39.1481
  1389.0000     19.2604      0.0000    635.5366      2.1121     38.1340
  1389.2500     18.7329      0.0000    621.8702      2.1361     39.4554
  1389.5000     18.3949      0.0000    610.8698      2.1599     42.7198
  1389.7500     18.3536      0.0000    608.0435      2.1745     46.9045
  1390.0000     18.6795      0.0000    612.3062      2.1885     51.0085
  1390.2500     19.3695      0.0000    617.0245      2.2155     54.7070
  1390.5000     20.3731      0.0000    614.1793      2.2575     58.4949
  1390.7500     21.6362      0.0000    599.5084      2.3028     63.3249
  1391.0000     23.0757      0.0000    574.9929      2.3384     70.1432
  1391.2500     24.5485      0.0000    546.4772      2.3591     79.6214
  1391.5000     25.9139      0.0000    519.1846      2.3705     91.9653
  1391.7500     27.1053      0.0000    495.9315      2.3869    106.4932
  1392.0000     28.1035      0.0000    478.3677      2.4260    121.3797
  1392.2500     28.8757      0.0000    467.9038      2.4977    134.4259
  1392.5000     29.3975      0.0000    465.1161      2.5934    144.4141
  1392.7500     29.7077      0.0000    469.1190      2.6895    151.3738
  1393.0000     29.8697      0.0000    477.7426      2.7660    155.4317
  1393.2500     29.8773      0.0000    488.2175      2.8227    155.9535
  1393.5000     29.6730      0.0000    498.4189      2.8746    152.2948
  1393.7500     29.2658      0.0000    508.1858      2.9333    145.3072
  1394.0000     28.7676      0.0000    519.2982      2.9959    137.7197
  1394.2500     28.2986      0.0000    533.1498      3.0531    132.6799
  1394.5000     27.9015      0.0000    547.3746      3.1001    131.6821
  1394.7500     27.5447      0.0000    555.0604      3.1386    133.7266
  1395.0000     27.1679      0.0000    549.3623      3.1711    136.3947
  1395.2500     26.7367      0.0000    530.2112      3.1991    137.8011
  1395.5000     26.2927      0.0000    505.3103      3.2235    137.6309
  1395.7500     25.9505      0.0000    483.6992      3.2424    136.4663
  1396.0000     25.8337      0.0000    469.4186      3.2491    134.5904
  1396.2500     26.0082      0.0000    461.1400      3.2392    131.9758
  1396.5000     26.4435      0.0000    455.6028      3.2167    129.1949
  1396.7500     26.9907      0.0000    450.5760      3.1893    127.4579
  1397.0000     27.4188      0.0000    445.7307      3.1615    127.5695
  1397.2500     27.5384      0.0000    441.7717      3.1385    129.4969
  1397.5000     27.3254      0.0000    439.1719      3.1283    132.9791
  1397.7500     26.9206      0.0000    437.7103      3.1344    137.7171
  1398.0000     26.5030      0.0000    436.8344      3.1470    142.6845
  1398.2500     26.1658      0.0000    436.0199      3.1510    145.9014
  1398.5000     25.8962      0.0000    434.8172      3.1403    145.4587
  1398.7500     25.6509      0.0000    432.8672      3.1187    140.8195
  1399.0000     25.4313      0.0000    430.1928      3.0906    133.2354
  1399.2500     25.3006      0.0000    427.5405      3.0560    125.1489
  1399.5000     25.3392      0.0000    426.0976      3.0181    118.9874
  1399.7500     25.5709      0.0000    426.4997      2.9865    115.8945
  1400.0000     25.9281      0.0000    428.2249      2.9696    115.2630
  1400.2500     26.2897      0.0000    430.2015      2.9652    115.5744
  1400.5000     26.5451      0.0000    431.8890      2.9650    115.7927
  1400.7500     26.6339      0.0000    433.7035      2.9665    115.9443
  1401.0000     26.5648      0.0000    436.6746      2.9772    116.6000
  1401.2500     26.3996      0.0000    441.7271      3.0045    118.1819
  1401.5000     26.1987      0.0000    448.8858      3.0467    120.7670
  1401.7500     25.9882      0.0000    456.9438      3.0961    124.2577
  1402.0000     25.7962      0.0000    464.4216      3.1452    128.5854
  1402.2500     25.7001      0.0000    471.4504      3.1859    133.5522
  1402.5000     25.7921      0.0000    480.6477      3.2071    138.4046
  1402.7500     26.0818      0.0000    495.1870      3.2036    141.9689
  1403.0000     26.4536      0.0000    514.9164      3.1837    143.4913
  1403.2500     26.7394      0.0000    534.4205      3.1651    143.1789
  1403.5000     26.8229      0.0000    546.1119      3.1616    141.8886
  1403.7500     26.6801      0.0000    546.0566      3.1766    140.3759
  1404.0000     26.3471      0.0000    536.4543      3.2049    138.8155
  1404.2500     25.8722      0.0000    522.4370      3.2384    136.9735
  1404.5000     25.3048      0.0000    507.4479      3.2719    134.6754
  1404.7500     24.7413      0.0000    492.0723      3.3071    131.9193
  1405.0000     24.3595      0.0000    476.2367      3.3523    128.6579
  1405.2500     24.3598      0.0000    461.2309      3.4137    124.8606
  1405.5000     24.8307      0.0000    449.2544      3.4849    120.8966
  1405.7500     25.6602      0.0000    441.6109      3.5516    117.5977
  1406.0000     26.5752      0.0000    437.9550      3.6073    115.7879
  1406.2500     27.2836      0.0000    437.0114      3.6548    115.7467
  1406.5000     27.6375      0.0000    437.5407      3.6885    117.1290
  1406.7500     27.7049      0.0000    438.6919      3.6897    119.2840
  1407.0000     27.6815      0.0000    439.9973      3.6496    121.6973
  1407.2500     27.7001      0.0000    441.4548      3.5858    124.3089
  1407.5000     27.7226      0.0000    443.7607      3.5246    127.2910
  1407.7500     27.6164      0.0000    448.4220      3.4775    130.3005
  1408.0000     27.3108      0.0000    457.3972      3.4410    132.1165
  1408.2500     26.8494      0.0000    472.2540      3.4101    131.2716
  1408.5000     26.3158      0.0000    493.6006      3.3834    127.2124
  1408.7500     25.7494      0.0000    521.2895      3.3604    121.0388
  1409.0000     25.1520      0.0000    554.2259      3.3413    115.1290
  1409.2500     24.5714      0.0000    588.4844      3.3271    111.7264
  1409.5000     24.1407      0.0000    616.5820      3.3210    111.5025
  1409.7500     23.9768      0.0000    631.9119      3.3254    113.2795
  1410.0000     24.0485      0.0000    635.0352      3.3353    115.1215
  1410.2500     24.1982      0.0000    633.2210      3.3330    115.8501
  1410.5000     24.2995      0.0000    632.5075      3.2905    115.6402
  1410.7500     24.3621      0.0000    631.4321      3.1861    115.2823
  1411.0000     24.4785      0.0000    622.9246      3.0260    115.1789
  1411.2500     24.6938      0.0000    601.5955      2.8525    115.2041
  1411.5000     24.9409      0.0000    569.3533      2.7209    115.2409
  1411.7500     25.1020      0.0000    534.4087      2.6608    115.6042
  1412.0000     25.1320      0.0000    505.1613      2.6612    116.9259
  1412.2500     25.1086      0.0000    485.4867      2.6873    119.5587
  1412.5000     25.1589      0.0000    475.2243      2.7066    123.0198
  1412.7500     25.3313      0.0000    473.4031      2.7011    126.1678
  1413.0000     25.5584      2.0000    480.4546      2.6672    128.1309
  1413.2500     25.7709      0.0000    497.7189      2.6126    129.3038
