~Version Information
VERS.                      2.0: CWLS Log ASCII Standard - VERSION 2.0
WRAP.                       NO: One line per depth step
~Well Information Block
STRT.FT               250.0000: 
STOP.FT              2600.7000: 
STEP.FT                 0.1000: 
NULL.                -999.2500: 
COMP.          Pioneer Natural Resources: COMPANY
WELL.              Quack 22-24: WELL
FLD.           Purgatoire River: FIELD
LOC.           2492' FNL & 2459' FWL--: LOCATION
PROV.                 Colorado: PROVINCE
CNTY.               Las Animas: COUNTRY
SRVC.                Patterson: SERVICE COMPANY
DATE.          Mon Jun 13 08:03:15 2005: LOG DATE
UWI.            05 071 0840200: UNIQUE WELL ID
~Curve Information Block
DEPT.FT            0 000 00 00: Depth
DCAL.in                       : CDL Caliper
RHOB.g/cc                     : CDL Bulk Density
RHOC.g/cc                     : CDL Density Correction
DPOR.pu                       : CDL Density Porosity
NPOR.pu                       : Neutron Porosity
GR.GAPI                       : Gamma Ray
~Parameter Information Block
~A  Depth       DCAL        RHOB        RHOC        DPOR        NPOR         GR     
# ...
  1488.4000      8.1961      2.5523      0.0764      5.9196     29.6095    125.3168
  1488.5000      8.2082      2.5381      0.0536      6.7795     29.8981    124.1373
  1488.6000      8.2082      2.5425      0.0380      6.5181     29.9356    119.5510
  1488.7000      8.2082      2.5634      0.0898      5.2479     29.9514    116.6816
  1488.8000      8.1993      2.5799      0.1081      4.2463     29.8381    116.3945
  1488.9000      8.1993      2.5798      0.0888      4.2543     29.5114    115.9105
  1489.0000      8.1661      2.5633      0.0801      5.2558     29.0378    117.1701
  1489.1000      8.1661      2.5362      0.0510      6.8968     28.5826    122.7355
  1489.2000      8.1661      2.5117      0.0555      8.3790     28.2951    127.1329
  1489.3000      8.1317      2.4958      0.0478      9.3470     28.4802    123.8523
  1489.4000      8.1317      2.4784      0.1205     10.3973     29.2515    116.2072
  1489.5000      8.1131      2.4516      0.0622     12.0236     29.7196    110.5852
  1489.6000      8.1131      2.4222      0.0178     13.8078     29.0961    106.9165
  1489.7000      8.1131      2.3895      0.0319     15.7888     28.3012    103.7527
  1489.8000      8.1036      2.3475     -0.0073     18.3361     28.4045     98.3946
  1489.9000      8.1036      2.3008      0.0247     21.1627     28.7490     88.7809
  1490.0000      8.0922      2.2443      0.0038     24.5866     28.5059     79.6151
  1490.1000      8.0922      2.1737     -0.0642     28.8680     28.2235     72.7341
  1490.2000      8.0922      2.1028     -0.0468     33.1663     28.6941     66.3023
  1490.3000      8.0787      2.0434     -0.0820     36.7637     29.6830     61.6625
  1490.4000      8.0787      1.9931     -0.0470     39.8109     30.3320     57.9348
  1490.5000      8.0670      1.9458     -0.0852     42.6799     30.2540     53.9305
  1490.6000      8.0670      1.9086     -0.0320     44.9363     29.7136     53.5094
  1490.7000      8.0670      1.8939      0.0201     45.8257     29.0070     54.6131
  1490.8000      8.0572      1.9017      0.0873     45.3533     28.2189     53.4212
  1490.9000      8.0572      1.9220      0.1032     44.1205     27.5896     54.0783
  1491.0000      8.0512      1.9533      0.0691     42.2253     27.4460     55.6536
  1491.1000      8.0512      1.9989      0.1177     39.4605     27.6547     53.0144
  1491.2000      8.0512      2.0579      0.1051     35.8869     27.6691     48.4552
  1491.3000      8.0483      2.1323      0.1108     31.3765     27.3177     47.1324
  1491.4000      8.0483      2.2199      0.1635     26.0672     27.1396     47.8723
  1491.5000      8.0480      2.3168      0.1692     20.1958     27.2370     45.1437
  1491.6000      8.0480      2.4222      0.2499     13.8083     27.1522     38.5215
  1491.7000      8.0480      2.5212      0.3051      7.8046     26.7528     33.1434
  1491.8000      8.0488      2.5969      0.3018      3.2155     26.3261     31.6807
  1491.9000      8.0488      2.6508      0.2947     -0.0502     26.2365     32.3116
  1492.0000      8.0487      2.6902      0.2625     -2.4381     26.3548     32.8703
  1492.1000      8.0487      2.7110      0.2508     -3.6986     26.3262     33.9477
  1492.2000      8.0487      2.7037      0.1986     -3.2530     25.9980     37.5458
  1492.3000      8.0485      2.6789      0.1050     -1.7511     25.4906     41.1763
  1492.4000      8.0485      2.6632      0.0565     -0.8003     25.1329     41.6304
  1492.5000      8.0510      2.6674      0.0869     -1.0572     25.2056     40.9419
  1492.6000      8.0510      2.6861      0.0920     -2.1857     25.8105     41.8431
  1492.7000      8.0510      2.7121      0.1043     -3.7649     26.8028     42.4210
  1492.8000      8.0576      2.7365      0.1108     -5.2452     27.7147     41.1664
  1492.9000      8.0576      2.7537      0.1059     -6.2854     28.3579     42.5106
  1493.0000      8.0673      2.7607      0.1061     -6.7092     28.7873     47.4448
  1493.1000      8.0673      2.7500      0.1043     -6.0622     28.5518     51.7032
  1493.2000      8.0673      2.7235      0.0814     -4.4544     27.6581     52.3816
  1493.3000      8.0774      2.6894      0.0594     -2.3879     27.0319     49.2501
  1493.4000      8.0774      2.6527      0.0332     -0.1636     27.0050     46.0042
  1493.5000      8.0845      2.6233     -0.0151      1.6174     26.9465     44.7160
  1493.6000      8.0845      2.6066      0.0423      2.6294     26.5415     42.4659
  1493.7000      8.0845      2.5954      0.0746      3.3090     26.4210     39.1395
  1493.8000      8.0934      2.5860      0.0377      3.8784     26.9567     39.1779
  1493.9000      8.0934      2.5747      0.0588      4.5633     27.4123     43.3463
  1494.0000      8.1030      2.5536      0.0253      5.8394     27.1944     48.2353
  1494.1000      8.1030      2.5334      0.0096      7.0672     26.6766     52.3398
  1494.2000      8.1030      2.5288      0.0417      7.3457     26.2730     54.2583
  1494.3000      8.1043      2.5231      0.0883      7.6892     26.1972     52.8956
  1494.4000      8.1043      2.4985      0.0541      9.1836     26.6254     51.5234
  1494.5000      8.0933      2.4695      0.0735     10.9394     27.3852     51.1456
  1494.6000      8.0933      2.4450      0.1149     12.4233     28.0522     49.3937
  1494.7000      8.0933      2.4132      0.0946     14.3520     28.3468     45.7442
  1494.8000      8.0801      2.3715      0.0483     16.8765     28.1351     42.1733
  1494.9000      8.0801      2.3270      0.0287     19.5776     27.6700     40.3778
  1495.0000      8.0779      2.2830     -0.0292     22.2454     27.5526     41.3144
  1495.1000      8.0779      2.2403     -0.0235     24.8293     27.6678     42.7715
  1495.2000      8.0779      2.2043     -0.0498     27.0093     27.3520     40.1225
  1495.3000      8.0822      2.1860     -0.0158     28.1219     26.6918     36.0996
  1495.4000      8.0822      2.1827      0.0798     28.3188     26.3766     37.9243
  1495.5000      8.0861      2.1792      0.0888     28.5352     26.8318     44.9591
  1495.6000      8.0861      2.1675      0.1258     29.2441     27.8407     49.8618
  1495.7000      8.0861      2.1474      0.0621     30.4583     28.6003     49.6440
  1495.8000      8.0911      2.1279      0.0390     31.6394     28.7504     48.6261
  1495.9000      8.0911      2.1251      0.0300     31.8144     28.5363     49.8955
  1496.0000      8.0957      2.1465      0.0383     30.5140     28.2506     50.7805
  1496.1000      8.0957      2.1841      0.0329     28.2375     28.0020     50.1672
  1496.2000      8.0957      2.2285      0.0201     25.5460     27.6770     53.6141
  1496.3000      8.0987      2.2842      0.0476     22.1691     27.0243     59.8965
  1496.4000      8.0987      2.3607      0.1613     17.5344     25.9889     61.1355
  1496.5000      8.1024      2.4558      0.2112     11.7702     25.1262     58.8787
  1496.6000      8.1024      2.5555      0.2513      5.7300     24.7316     59.0719
  1496.7000      8.1024      2.6396      0.2783      0.6317     24.4123     62.1635
  1496.8000      8.1048      2.6980      0.2165     -2.9062     23.7919     65.7503
  1496.9000      8.1048      2.7404      0.1910     -5.4793     22.7973     68.7097
  1497.0000      8.1060      2.7738      0.1254     -7.5004     21.9284     70.6837
  1497.1000      8.1060      2.7931      0.1227     -8.6714     21.5712     71.4022
  1497.2000      8.1060      2.8000      0.0335     -9.0909     21.3725     72.5685
  1497.3000      8.1082      2.8042      0.0613     -9.3453     21.1427     73.4076
  1497.4000      8.1082      2.8026      0.0958     -9.2501     21.1363     71.0744
  1497.5000      8.1112      2.7872      0.0550     -8.3150     21.4758     66.2743
  1497.6000      8.1112      2.7622      0.0629     -6.7987     21.9585     61.5556
  1497.7000      8.1112      2.7341      0.0250     -5.0980     22.3440     58.9577
  1497.8000      8.1115      2.7085      0.0407     -3.5480     22.8947     62.0756
  1497.9000      8.1115      2.6870      0.0124     -2.2430     23.9232     72.1651
