~Version Information
VERS.                      2.0: CWLS Log ASCII Standard - VERSION 2.0
WRAP.                       NO: One line per depth step
~Well Information Block
STRT.FT               582.2500: 
STOP.FT              2642.5000: 
STEP.FT                 0.2500: 
NULL.                -999.2500: 
COMP.          Petrogulf Corporation: COMPANY
WELL.           Montoya 12-41V: WELL
FLD.           Purgatorie River: FIELD
LOC.           1081' FNL & 605' FEL: LOCATION
CNTY.               Las Animas: COUNTY
SRVC.                         : SERVICE COMPANY
DATE.          Tue Aug 10 10:59:28 2004: LOG DATE
UWI.           05 071 08094 00: UNIQUE WELL ID
STAT.                 Colorado: STATE
~Curve Information Block
DEPT.FT            0 000 00 00: Depth
SP.mV                         : DIL Spontaneous Potential
RILD.Ohm-m                    : DIL Deep Resistivity
RILM.Ohm-m                    : DIL Medium Resistivity
RLL3.Ohm-m                    : DIL Shallow Resistivity
GR.GAPI                       : Gamma Ray
~Parameter Information Block
~A  Depth        SP         RILD        RILM        RLL3         GR     
# ...
  1422.2500    -41.2142     16.5764     18.4758     25.1005    161.2338
  1422.5000    -40.4348     17.2607     19.5793     28.1506    158.7529
  1422.7500    -39.6791     17.9398     20.8605     32.0464    155.9620
  1423.0000    -38.9206     18.5667     22.3381     36.8136    149.0919
  1423.2500    -38.2037     19.1165     24.0239     42.3057    142.4895
  1423.5000    -37.6301     19.5954     25.9112     48.1688    130.2193
  1423.7500    -37.3109     20.0300     27.9555     53.8657    121.4094
  1424.0000    -37.3187     20.4427     30.0508     58.7683    109.4513
  1424.2500    -37.6630     20.8273     32.0112     62.2866    103.4933
  1424.5000    -38.2963     21.1370     33.5789     63.9922     98.5061
  1424.7500    -39.1443     21.2918     34.4791     63.6936     97.5919
  1425.0000    -40.1444     21.2041     34.5175     61.4555     98.9451
  1425.2500    -41.2694     20.8178     33.6681     57.5766    101.3087
  1425.5000    -42.5227     20.1411     32.0846     52.5370    106.7465
  1425.7500    -43.9199     19.2497     30.0255     46.9167    111.4375
  1426.0000    -45.4513     18.2558     27.7585     41.2823    119.6072
  1426.2500    -47.0582     17.2641     25.4912     36.0699    125.4210
  1426.5000    -48.6296     16.3444     23.3558     31.5106    133.4557
  1426.7500    -50.0231     15.5256     21.4205     27.6344    137.4346
  1427.0000    -51.1066     14.8062     19.7110     24.3470    140.6437
  1427.2500    -51.8069     14.1683     18.2275     21.5323    141.4864
  1427.5000    -52.1379     13.5892     16.9566     19.1285    142.5534
  1427.7500    -52.1985     13.0478     15.8768     17.1450    143.7924
  1428.0000    -52.1358     12.5282     14.9619     15.6285    145.9921
  1428.2500    -52.0873     12.0219     14.1837     14.6076    146.6728
  1428.5000    -52.1323     11.5287     13.5142     14.0516    145.1711
  1428.7500    -52.2708     11.0544     12.9288     13.8611    142.8977
  1429.0000    -52.4422     10.6066     12.4071     13.8912    139.9889
  1429.2500    -52.5652     10.1908     11.9354     13.9933    139.5036
  1429.5000    -52.5781      9.8091     11.5056     14.0515    140.7435
  1429.7500    -52.4555      9.4616     11.1134     13.9999    141.8820
  1430.0000    -52.2077      9.1483     10.7569     13.8238    142.5364
  1430.2500    -51.8642      8.8696     10.4343     13.5465    141.9784
  1430.5000    -51.4656      8.6262     10.1432     13.2136    140.1356
  1430.7500    -51.0599      8.4178      9.8799     12.8751    138.8362
  1431.0000    -50.7098      8.2436      9.6406     12.5685    137.6935
  1431.2500    -50.4836      8.1025      9.4217     12.3073    137.6401
  1431.5000    -50.4344      7.9937      9.2203     12.0797    138.2900
  1431.7500    -50.5709      7.9162      9.0345     11.8566    138.8161
  1432.0000    -50.8446      7.8676      8.8635     11.6078    138.9346
  1432.2500    -51.1551      7.8435      8.7069     11.3182    138.1872
  1432.5000    -51.3845      7.8389      8.5647     10.9965    135.9384
  1432.7500    -51.4359      7.8495      8.4377     10.6743    134.3839
  1433.0000    -51.2598      7.8727      8.3268     10.3900    133.6593
  1433.2500    -50.8641      7.9059      8.2342     10.1695    134.8855
  1433.5000    -50.3005      7.9455      8.1629     10.0151    139.0699
  1433.7500    -49.6416      7.9867      8.1168      9.9085    142.6491
  1434.0000    -48.9598      8.0258      8.1003      9.8279    147.5317
  1434.2500    -48.3124      8.0638      8.1175      9.7640    149.7255
  1434.5000    -47.7294      8.1068      8.1721      9.7274    151.1174
  1434.7500    -47.2175      8.1630      8.2665      9.7451    151.0791
  1435.0000    -46.7685      8.2378      8.4015      9.8519    150.1099
  1435.2500    -46.3796      8.3310      8.5762     10.0818    148.8378
  1435.5000    -46.0703      8.4376      8.7886     10.4586    145.6957
  1435.7500    -45.8842      8.5529      9.0357     10.9894    142.8589
  1436.0000    -45.8707      8.6773      9.3149     11.6599    138.1174
  1436.2500    -46.0563      8.8192      9.6243     12.4359    134.9220
  1436.5000    -46.4156      8.9930      9.9638     13.2718    130.1328
  1436.7500    -46.8790      9.2146     10.3344     14.1196    127.0191
  1437.0000    -47.3596      9.4959     10.7370     14.9356    123.3083
  1437.2500    -47.7907      9.8418     11.1708     15.6838    122.3526
  1437.5000    -48.1559     10.2480     11.6319     16.3390    124.5722
  1437.7500    -48.4809     10.7009     12.1118     16.8915    128.5973
  1438.0000    -48.7973     11.1779     12.5988     17.3512    136.8404
  1438.2500    -49.1005     11.6501     13.0793     17.7456    142.2354
  1438.5000    -49.3282     12.0873     13.5407     18.1125    148.1741
  1438.7500    -49.3729     12.4663     13.9753     18.4860    150.5089
  1439.0000    -49.1306     12.7794     14.3813     18.8869    152.1551
  1439.2500    -48.5505     13.0378     14.7638     19.3195    152.1442
  1439.5000    -47.6689     13.2657     15.1340     19.7763    150.4555
  1439.7500    -46.5994     13.4913     15.5070     20.2464    148.8521
  1440.0000    -45.4971     13.7396     15.9002     20.7229    148.0578
  1440.2500    -44.5045     14.0295     16.3309     21.2046    149.4538
  1440.5000    -43.7117     14.3724     16.8150     21.6953    153.1520
  1440.7500    -43.1467     14.7706     17.3658     22.2010    154.9149
  1441.0000    -42.7927     15.2137     17.9930     22.7291    154.4949
  1441.2500    -42.6152     15.6793     18.7008     23.2862    152.3664
  1441.5000    -42.5833     16.1375     19.4864     23.8756    148.1580
  1441.7500    -42.6718     16.5639     20.3375     24.4922    145.5390
  1442.0000    -42.8442     16.9480     21.2293     25.1173    142.2035
  1442.2500    -43.0425     17.2925     22.1234     25.7157    140.1866
  1442.5000    -43.1913     17.6022     22.9686     26.2395    137.4689
  1442.7500    -43.2225     17.8685     23.7065     26.6394    136.2305
  1443.0000    -43.1045     18.0640     24.2838     26.8804    136.0246
  1443.2500    -42.8606     18.1520     24.6643     26.9557    137.0470
  1443.5000    -42.5592     18.1097     24.8385     26.8909    139.2433
  1443.7500    -42.2905     17.9507     24.8253     26.7354    140.0932
  1444.0000    -42.1362     17.7272     24.6637     26.5486    139.1516
  1444.2500    -42.1608     17.5102     24.3992     26.3818    137.2203
  1444.5000    -42.4075     17.3586     24.0712     26.2648    134.3679
  1444.7500    -42.8972     17.2945     23.7032     26.2012    133.9454
  1445.0000    -43.6210     17.2930     23.3004     26.1741    136.6349
  1445.2500    -44.5265     17.2890     22.8524     26.1601    140.0255
  1445.5000    -45.5121     17.2013     22.3394     26.1458    145.2084
  1445.7500    -46.4452     16.9697     21.7416     26.1343    147.6887
  1446.0000    -47.2000     16.5809     21.0471     26.1348    149.8207
  1446.2500    -47.6944     16.0705     20.2592     26.1369    150.6945
  1446.5000    -47.9107     15.4996     19.3971     26.0866    151.6164
  1446.7500    -47.8877     14.9290     18.4939     25.8786    151.8526
  1447.0000    -47.6949     14.4047     17.5906     25.3787    151.8141
  1447.2500    -47.4081     13.9546     16.7297     24.4690    152.0159
  1447.5000    -47.0957     13.5906     15.9494     23.1002    153.1863
  1447.7500    -46.8121     13.3113     15.2799     21.3268    154.2034
  1448.0000    -46.5901     13.1053     14.7420     19.3128    154.7740
  1448.2500    -46.4299     12.9589     14.3485     17.2997    153.9809
  1448.5000    -46.2885     12.8638     14.1047     15.5563    151.1268
  1448.7500    -46.0813     12.8225     14.0114     14.3306    148.4786
  1449.0000    -45.7050     12.8466     14.0664     13.8310    143.9385
  1449.2500    -45.0782     12.9487     14.2653     14.2431    141.0019
  1449.5000    -44.1759     13.1348     14.6028     15.7577    138.3154
  1449.7500    -43.0522     13.3994     15.0715     18.5777    138.8469
  1450.0000    -41.8323     13.7283     15.6601     22.8759    144.7154
