~Version Information
VERS.                      2.0: CWLS Log ASCII Standard - VERSION 2.0
WRAP.                       NO: One line per depth step
~Well Information Block
STRT.FT               555.5000: 
STOP.FT              2179.0000: 
STEP.FT                 0.2500: 
NULL.                -999.2500: 
COMP.          Petrogulf Corporation: COMPANY
WELL.            Montoya 6-14R: WELL
FLD.           Purgatorie River: FIELD
LOC.           867' FSL & 751' FWL: LOCATION
CNTY.               Las Animas: COUNTY
SRVC.                         : SERVICE COMPANY
DATE.          Mon Nov 15 07:02:23 2004: LOG DATE
UWI.           05 071 08242 00: UNIQUE WELL ID
STAT.                 Colorado: STATE
~Curve Information Block
DEPT.FT            0 000 00 00: Depth
SP.mV                         : DIL Spontaneous Potential
RILD.Ohm-m                    : DIL Deep Resistivity
RILM.Ohm-m                    : DIL Medium Resistivity
RLL3.Ohm-m                    : DIL Shallow Resistivity
GR.GAPI                       : Gamma Ray
~Parameter Information Block
~A  Depth        SP         RILD        RILM        RLL3         GR     
# ...
   891.5000   2000.0000     23.3815     18.3811   2000.0000    144.6665
   891.7500   2000.0000     23.5326     18.4561   2000.0000    143.5706
   892.0000   2000.0000     23.7097     18.6511   2000.0000    143.6787
   892.2500   2000.0000     23.9030     18.9723   2000.0000    144.3579
   892.5000   2000.0000     24.0960     19.4207   2000.0000    144.6410
   892.7500   2000.0000     24.2659     19.9885   2000.0000    143.3882
   893.0000   2000.0000     24.3857     20.6541   2000.0000    138.4118
   893.2500   2000.0000     24.4310     21.3790   2000.0000    133.1267
   893.5000   2000.0000     24.3841     22.1053   2000.0000    123.5421
   893.7500   2000.0000     24.2401     22.7596   2000.0000    117.2119
   894.0000   2000.0000     24.0075     23.2615   2000.0000    109.7615
   894.2500   2000.0000     23.7042     23.5404   2000.0000    106.8947
   894.5000   2000.0000     23.3519     23.5529   2000.0000    105.8429
   894.7500   2000.0000     22.9691     23.2944   2000.0000    106.7472
   895.0000   2000.0000     22.5669     22.7995   2000.0000    109.3979
   895.2500   2000.0000     22.1478     22.1304   2000.0000    111.8352
   895.5000   2000.0000     21.7082     21.3605   2000.0000    116.9189
   895.7500   2000.0000     21.2427     20.5584   2000.0000    121.3666
   896.0000   2000.0000     20.7489     19.7791   2000.0000    128.7247
   896.2500   2000.0000     20.2311     19.0609   2000.0000    133.0962
   896.5000   2000.0000     19.7014     18.4267   2000.0000    137.3669
   896.7500   2000.0000     19.1777     17.8870   2000.0000    138.3713
   897.0000   2000.0000     18.6805     17.4437   2000.0000    137.7011
   897.2500   2000.0000     18.2295     17.0932   2000.0000    136.6526
   897.5000   2000.0000     17.8409     16.8279   2000.0000    135.7066
   897.7500   2000.0000     17.5269     16.6377   2000.0000    135.8614
   898.0000   2000.0000     17.2949     16.5114   2000.0000    136.6083
   898.2500   2000.0000     17.1483     16.4368   2000.0000    136.6820
   898.5000   2000.0000     17.0867     16.4018   2000.0000    135.2255
   898.7500   2000.0000     17.1057     16.3951   2000.0000    133.1759
   899.0000   2000.0000     17.1969     16.4062   2000.0000    129.2455
   899.2500   2000.0000     17.3474     16.4268   2000.0000    126.8188
   899.5000   2000.0000     17.5398     16.4504   2000.0000    124.9067
   899.7500   2000.0000     17.7532     16.4727   2000.0000    125.3854
   900.0000   2000.0000     17.9655     16.4913   2000.0000    128.8905
   900.2500   2000.0000     18.1564     16.5056   2000.0000    132.6642
   900.5000   2000.0000     18.3113     16.5164   2000.0000    139.2074
   900.7500   2000.0000     18.4235     16.5255   2000.0000    143.3361
   901.0000   2000.0000     18.4947     16.5356   2000.0000    148.1276
   901.2500   2000.0000     18.5340     16.5499   2000.0000    150.1670
   901.5000   2000.0000     18.5551     16.5721   2000.0000    151.7825
   901.7500   2000.0000     18.5725     16.6074   2000.0000    152.2481
   902.0000   2000.0000     18.5995     16.6626   2000.0000    152.3710
   902.2500   2000.0000     18.6468     16.7469   2000.0000    151.9602
   902.5000   2000.0000     18.7216     16.8708   2000.0000    150.3808
   902.7500   2000.0000     18.8294     17.0460   2000.0000    148.9707
   903.0000   2000.0000     18.9734     17.2825   2000.0000    147.6039
   903.2500   2000.0000     19.1556     17.5869   2000.0000    147.9127
   903.5000   2000.0000     19.3772     17.9599   2000.0000    150.2569
   903.7500   2000.0000     19.6382     18.3947   2000.0000    152.1590
   904.0000   2000.0000     19.9372     18.8769   2000.0000    153.0718
   904.2500   2000.0000     20.2706     19.3859   2000.0000    151.3121
   904.5000   2000.0000     20.6327     19.8977   2000.0000    145.3069
   904.7500   2000.0000     21.0152     20.3899   2000.0000    140.4548
   905.0000   2000.0000     21.4082     20.8451   2000.0000    135.0527
   905.2500   2000.0000     21.8014     21.2537   2000.0000    133.8006
   905.5000   2000.0000     22.1854     21.6139   2000.0000    134.9870
   905.7500   2000.0000     22.5539     21.9280   2000.0000    136.7231
   906.0000   2000.0000     22.9045     22.2003   2000.0000    139.1457
   906.2500   2000.0000     23.2386     22.4322   2000.0000    140.2613
   906.5000   2000.0000     23.5606     22.6206   2000.0000    141.1132
   906.7500   2000.0000     23.8747     22.7565   2000.0000    141.1549
   907.0000   2000.0000     24.1823     22.8278   2000.0000    140.4155
   907.2500   2000.0000     24.4803     22.8220   2000.0000    139.3941
   907.5000   2000.0000     24.7597     22.7310   2000.0000    137.2613
   907.7500   2000.0000     25.0079     22.5544   2000.0000    135.7189
   908.0000   2000.0000     25.2117     22.3022   2000.0000    133.8871
   908.2500   2000.0000     25.3623     21.9951   2000.0000    133.3467
   908.5000   2000.0000     25.4578     21.6607   2000.0000    133.9482
   908.7500   2000.0000     25.5050     21.3298   2000.0000    135.3787
   909.0000   2000.0000     25.5172     21.0320   2000.0000    139.1232
   909.2500   2000.0000     25.5100     20.7913   2000.0000    142.6522
   909.5000   2000.0000     25.4981     20.6249   2000.0000    148.9241
   909.7500   2000.0000     25.4909     20.5413   2000.0000    152.8945
   910.0000   2000.0000     25.4912     20.5416   2000.0000    156.5240
   910.2500   2000.0000     25.4948     20.6196   2000.0000    156.4918
   910.5000   2000.0000     25.4912     20.7629   2000.0000    152.5725
   910.7500   2000.0000     25.4644     20.9541   2000.0000    148.1565
   911.0000   2000.0000     25.3956     21.1707   2000.0000    141.0731
   911.2500   2000.0000     25.2648     21.3870   2000.0000    137.1960
   911.5000   2000.0000     25.0546     21.5736   2000.0000    133.3799
   911.7500   2000.0000     24.7526     21.7009   2000.0000    132.0984
   912.0000   2000.0000     24.3545     21.7406   2000.0000    132.2866
   912.2500   2000.0000     23.8648     21.6705   2000.0000    134.3050
   912.5000   2000.0000     23.2975     21.4772   2000.0000    140.6592
   912.7500   2000.0000     22.6717     21.1597   2000.0000    146.6624
   913.0000   2000.0000     22.0105     20.7293   2000.0000    156.4702
   913.2500   2000.0000     21.3364     20.2078   2000.0000    162.4341
   913.5000   2000.0000     20.6707     19.6245   2000.0000    169.3816
   913.7500   2000.0000     20.0314     19.0113   2000.0000    172.4918
   914.0000   2000.0000     19.4334     18.3989   2000.0000    175.0129
   914.2500   2000.0000     18.8893     17.8140   2000.0000    175.4939
   914.5000   2000.0000     18.4091     17.2785   2000.0000    175.0278
   914.7500   2000.0000     18.0016     16.8092   2000.0000    174.3626
   915.0000   2000.0000     17.6743     16.4187   2000.0000    173.3605
   915.2500   2000.0000     17.4341     16.1154   2000.0000    172.6990
   915.5000   2000.0000     17.2872     15.9055   2000.0000    171.3294
   915.7500   2000.0000     17.2388     15.7935   2000.0000    169.8554
   916.0000   2000.0000     17.2927     15.7820   2000.0000    166.2723
   916.2500   2000.0000     17.4497     15.8722   2000.0000    162.7839
   916.5000   2000.0000     17.7071     16.0643   2000.0000    156.1942
   916.7500   2000.0000     18.0573     16.3562   2000.0000    151.4216
   917.0000   2000.0000     18.4868     16.7437   2000.0000    144.6300
   917.2500   2000.0000     18.9764     17.2191   2000.0000    140.5901
   917.5000   2000.0000     19.5018     17.7704   2000.0000    135.1880
   917.7500   2000.0000     20.0363     18.3792   2000.0000    131.9799
   918.0000   2000.0000     20.5525     19.0199   2000.0000    128.0004
   918.2500   2000.0000     21.0267     19.6582   2000.0000    126.0387
   918.5000   2000.0000     21.4407     20.2532   2000.0000    123.8840
   918.7500   2000.0000     21.7825     20.7622   2000.0000    122.6273
   919.0000   2000.0000     22.0455     21.1483   2000.0000    120.8079
   919.2500   2000.0000     22.2280     21.3896   2000.0000    119.9807
