~Version Information
VERS.                      2.0: CWLS Log ASCII Standard - VERSION 2.0
WRAP.                       NO: One line per depth step
~Well Information Block
STRT.FT                -7.5000: 
STOP.FT              1702.2500: 
STEP.FT                 0.2500: 
NULL.                -999.2500: 
COMP.          Pioneer Natural Resources: COMPANY
WELL.          Warrior 33-1 Tr: WELL
FLD.           Purgatoire River: FIELD
LOC.           2648' FSL & 2341' FEL--: LOCATION
PROV.                 Colorado: PROVINCE
CNTY.               Las Animas: COUNTRY
SRVC.                Patterson: SERVICE COMPANY
DATE.          Wed Jun 22 12:18:08 2005: LOG DATE
UWI.           05 071 08412 00: UNIQUE WELL ID
~Curve Information Block
DEPT.FT            0 000 00 00: Depth
CCL.                          : Casing Collar Locator
TT3.usec                      : CBL 3' Travel Time
AMP3.mV                       : CBL 3' Amplitude
GR.GAPI                       : Gamma Ray
~Parameter Information Block
~A  Depth       CCL         TT3         AMP3         GR     
# ...
   763.0000      0.0000    723.8287      9.7088    106.3259
   763.2500      0.0000    720.6608      9.7375    101.2277
   763.5000      0.0000    719.1260      9.7719     97.0340
   763.7500      0.0000    718.4548      9.8070     95.0992
   764.0000      0.0000    718.1518      9.8316     95.3271
   764.2500      0.0000    718.0312      9.8355     96.5944
   764.5000      0.0000    717.9973      9.8147     97.6429
   764.7500      0.0000    717.8540      9.7729     97.7944
   765.0000      0.0000    717.2021      9.7200     97.1510
   765.2500      0.0000    715.5854      9.6702     96.3184
   765.5000      0.0000    712.9943      9.6352     95.9198
   765.7500      0.0000    710.3690      9.6149     96.1898
   766.0000      0.0000    709.2381      9.5943     96.9267
   766.2500      0.0000    710.4368      9.5517     97.7282
   766.5000      0.0000    713.3577      9.4715     98.1271
   766.7500      0.0000    716.7867      9.3514     97.5647
   767.0000      0.0000    720.3276      9.2049     95.5411
   767.2500      0.0000    724.7424      9.0551     92.0403
   767.5000      0.0000    730.8852      8.9214     87.8521
   767.7500      0.0000    738.4634      8.8098     84.3794
   768.0000      0.0000    746.1848      8.7197     82.9760
   768.2500      0.0000    753.1694      8.6569     84.4600
   768.5000      0.0000    759.5385      8.6337     89.1801
   768.7500      0.0000    765.3090      8.6561     96.9720
   769.0000      0.0000    769.5751      8.7153    106.5075
   769.2500      0.0000    771.2357      8.7895    115.1744
   769.5000      0.0000    769.8014      8.8504    120.5016
   769.7500      0.0000    765.3698      8.8693    121.7900
   770.0000      0.0000    758.5977      8.8262    120.1220
   770.2500      0.0000    750.7236      8.7203    117.1733
   770.5000      0.0000    742.7672      8.5756    114.3770
   770.7500      0.0000    734.4144      8.4308    112.6568
   771.0000      0.0000    724.3688      8.3177    112.2980
   771.2500      0.0000    712.3415      8.2488    113.1739
   771.5000      0.0000    700.4103      8.2224    115.1417
   771.7500      0.0000    691.9132      8.2314    117.9153
   772.0000      0.0000    688.8242      8.2667    120.6595
   772.2500      0.0000    690.0811      8.3162    122.1689
   772.5000      0.0000    692.3541      8.3671    121.5580
   772.7500      0.0000    692.7433      8.4080    118.7888
   773.0000      0.0000    691.0518      8.4349    114.8060
   773.2500      0.0000    689.3316      8.4552    111.3610
   773.5000      0.0000    689.2613      8.4839    110.3184
   773.7500      0.0000    690.3841      8.5289    112.3940
   774.0000      0.0000    690.8622      8.5829    116.3781
   774.2500      0.0000    689.4266      8.6284    120.1184
   774.5000      0.0000    686.5213      8.6470    122.5131
   774.7500      0.0000    684.0446      8.6268    124.0919
   775.0000      0.0000    684.2689      8.5673    125.5389
   775.2500      0.0000    688.7626      8.4784    126.3897
   775.5000      0.0000    697.8193      8.3726    125.6042
   775.7500      0.0000    710.4288      8.2578    122.8382
   776.0000      0.0000    724.5189      8.1429    118.6162
   776.2500      0.0000    737.2606      8.0430    113.7014
   776.5000      0.0000    745.9063      7.9741    108.8151
   776.7500      0.0000    749.5737      7.9428    104.7999
   777.0000      0.0000    750.2850      7.9436    102.7320
   777.2500      0.0000    751.0736      7.9597    103.5841
   777.5000      0.0000    752.5009      7.9633    107.5005
   777.7500      0.0000    751.6326      7.9192    113.2424
   778.0000      0.0000    744.7988      7.7971    118.4183
   778.2500      0.0000    731.6224      7.5821    120.4407
   778.5000      0.0000    717.1226      7.2811    117.5963
   778.7500      0.0000    710.7064      6.9236    109.7149
   779.0000      0.0000    722.3358      6.5598     98.1487
   779.2500      0.0000    756.2234      6.2479     85.1224
   779.5000      0.0000    804.9274      6.0303     72.9741
   779.7500      0.0000    851.2670      5.9123     63.6135
   780.0000      0.0000    880.7957      5.8617     58.1650
   780.2500      0.0000    892.1368      5.8294     57.0039
   780.5000      0.0000    891.8674      5.7765     60.0668
   780.7500      0.0000    882.5084      5.6910     66.8991
   781.0000      0.0000    861.6183      5.5953     76.5522
   781.2500      0.0000    830.8148      5.5406     87.8804
   781.5000      0.0000    798.9166      5.5868    100.1057
   781.7500      0.0000    774.9434      5.7710    112.9956
   782.0000      0.0000    761.5740      6.0870    126.3611
   782.2500      0.0000    756.2522      6.4900    139.1292
   782.5000      0.0000    755.7157      6.9130    149.0685
   782.7500      0.0000    757.9980      7.2863    154.2366
   783.0000      0.0000    761.8300      7.5588    155.0598
   783.2500      0.0000    766.1631      7.7184    154.4031
   783.5000      0.0000    770.2756      7.7930    155.0810
   783.7500      0.0000    773.5565      7.8272    157.4225
   784.0000      0.0000    775.4828      7.8523    159.2126
   784.2500      0.0000    776.3231      7.8722    157.6638
   784.5000      0.0000    777.3043      7.8735    151.6106
   784.7500      0.0000    779.2347      7.8482    142.3951
   785.0000      0.0000    781.4144      7.8060    132.9764
   785.2500      0.0000    782.7199      7.7651    126.1954
   785.5000      0.0000    783.2439      7.7354    123.4362
   785.7500      0.0000    783.9479      7.7128    124.2491
   786.0000      0.0000    785.0187      7.6894    126.8619
   786.2500      0.0000    785.5582      7.6628    129.2024
   786.5000      0.0000    785.0437      7.6363    129.7768
   786.7500      0.0000    784.3109      7.6150    128.0276
   787.0000      0.0000    784.4849      7.6056    124.4017
   787.2500      0.0000    785.1120      7.6164    120.2281
   787.5000      0.0000    783.8577      7.6515    117.1536
   787.7500      0.0000    778.4698      7.7042    116.2502
   788.0000      0.0000    769.2201      7.7586    117.4190
   788.2500      0.0000    759.4377      7.7988    119.5614
   788.5000      0.0000    753.3728      7.8173    121.4303
   788.7500      0.0000    753.2978      7.8164    122.5089
   789.0000      0.0000    758.4291      7.8025    123.1327
   789.2500      0.0000    766.0352      7.7783    123.8220
   789.5000      0.0000    773.2148      7.7414    124.7527
   789.7500      0.0000    778.0114      7.6912    126.0520
   790.0000      0.0000    779.5831      7.6350    128.2020
   790.2500      0.0000    778.0353      7.5861    131.5213
   790.5000      0.0000    774.4409      7.5568    135.2815
   790.7500      0.0000    770.3458      7.5510    138.0428
   791.0000      0.0000    766.2527      7.5585    138.9621
   791.2500      0.0000    760.8622      7.5565    138.1396
   791.5000      0.0000    752.7833      7.5208    135.8247
   791.7500      0.0000    742.7570      7.4405    132.1452
   792.0000      0.0000    733.3436      7.3250    127.6275
   792.2500      0.0000    726.7191      7.1972    123.0438
   792.5000      0.0000    723.4808      7.0838    118.4629
   792.7500      0.0000    723.2486      7.0077    113.1701
   793.0000      0.0000    725.4871      6.9835    107.0195
   793.2500      0.0000    729.7280      7.0165    101.4987
   793.5000      0.0000    735.8380      7.1072     98.9185
   793.7500      0.0000    744.3415      7.2563    100.3746
   794.0000      0.0000    755.6545      7.4600    104.6452
   794.2500      0.0000    768.5131      7.7026    109.1816
   794.5000      0.0000    779.8181      7.9593    112.1968
   794.7500      0.0000    786.4279      8.2075    113.6991
   795.0000      0.0000    786.5127      8.4197    114.5363
   795.2500      0.0000    778.9675      8.5350    114.7699
   795.5000      0.0000    762.3209      8.4499    113.1649
   795.7500      0.0000    735.2890      8.0854    108.0105
   796.0000      0.0000    698.3672      7.5059     98.5154
   796.2500      0.0000    653.6042      6.9436     85.9239
