~Version Information
VERS.                      2.0: CWLS Log ASCII Standard - VERSION 2.0
WRAP.                       NO: One line per depth step
~Well Information Block
STRT.FT                -8.2500: 
STOP.FT              2356.2500: 
STEP.FT                 0.2500: 
NULL.                -999.2500: 
COMP.          Petrogulf Corporation: COMPANY
WELL.             State 16-12V: WELL
FLD.           Purgatorie River: FIELD
LOC.           1992' FNL & 1237' FWL: LOCATION
PROV.                 Colorado: PROVINCE
CNTY.               Las Animas: COUNTRY
SRVC.                Patterson: SERVICE COMPANY
DATE.          Thu Aug 11 14:44:06 2005: LOG DATE
UWI.                          : UNIQUE WELL ID
~Curve Information Block
DEPT.FT            0 000 00 00: Depth
GR.GAPI                       : Gamma Ray
CCL.                          : Casing Collar Locator
TT3.usec                      : CBL 3' Travel Time
AMP3.mV                       : CBL 3' Amplitude
~Parameter Information Block
~A  Depth        GR         CCL         TT3         AMP3    
# ...
   293.2500     79.4846      0.0000    794.1432     13.9668
   293.5000     74.1159      0.0000    769.6219     13.9967
   293.7500     69.3724      0.0000    751.0313     14.0566
   294.0000     65.3151      0.0000    756.9238     14.1313
   294.2500     62.0679      0.0000    780.6912     14.1632
   294.5000     59.9485      0.0000    800.1265     14.1601
   294.7500     59.4112      0.0000    802.7704     14.1666
   295.0000     60.8397      0.0000    796.0786     14.2010
   295.2500     64.3490      0.0000    793.3504     14.2919
   295.5000     69.6729      0.0000    796.1322     14.4914
   295.7500     76.0988      0.0000    800.3623     14.7953
   296.0000     82.5832      0.0000    805.5961     15.0947
   296.2500     88.1303      0.0000    810.8188     15.2269
   296.5000     92.1150      0.0000    813.0740     15.0754
   296.7500     94.1729      0.0000    810.9651     14.6821
   297.0000     93.9647      0.0000    806.2503     14.3191
   297.2500     91.3654      0.0000    803.1612     14.3754
   297.5000     86.8644      0.0000    803.6445     15.0498
   297.7500     81.4230      0.0000    803.6959     16.1535
   298.0000     75.8153      0.0000    798.8768     17.2720
   298.2500     70.2386      0.0000    790.3904     18.1108
   298.5000     64.6041      0.0000    779.6315     18.6566
   298.7500     59.1394      0.0000    760.8059     19.0248
   299.0000     54.6322      0.0000    730.3491     19.2333
   299.2500     52.0631      0.0000    699.0984     19.2336
   299.5000     52.0071      0.0000    683.4255     19.0856
   299.7500     54.3265      0.0000    692.9503     18.9402
   300.0000     58.2429      0.0000    720.3069     18.9260
   300.2500     62.6244      0.0000    735.5219     19.1146
   300.5000     66.3569      0.0000    721.2855     19.4170
   300.7500     68.6793      0.0000    706.1512     19.5457
   301.0000     69.3920      0.0000    724.8992     19.2813
   301.2500     68.8285      0.0000    765.4490     18.7173
   301.5000     67.4858      0.0000    788.6934     18.1834
   301.7500     65.4390      0.0000    774.3126     17.9981
   302.0000     62.1526      0.0000    729.8871     18.2327
   302.2500     57.1693      0.0000    677.8643     18.6354
   302.5000     51.0892      0.0000    636.3175     18.8374
   302.7500     45.5728      0.0000    618.7995     18.6914
   303.0000     42.1104      0.0000    643.7165     18.3514
   303.2500     40.8569      0.0000    706.0530     18.0325
   303.5000     40.7824      0.0000    767.0505     17.8411
   303.7500     40.8221      0.0000    797.1299     17.7936
   304.0000     40.6272      0.0000    798.6909     17.8420
   304.2500     40.3625      0.0000    789.4969     17.9538
   304.5000     40.2588      0.0000    780.5294     18.2018
   304.7500     40.4801      0.0000    770.0063     18.6145
   305.0000     41.0780      0.0000    760.2704     19.0215
   305.2500     41.8938      0.0000    763.2311     19.2567
   305.5000     42.5899      0.0000    780.6342     19.3733
   305.7500     42.8543      0.0000    799.5638     19.5010
   306.0000     42.6110      0.0000    810.3346     19.6778
   306.2500     41.9984      0.0000    814.0699     19.8777
   306.5000     41.2210      0.0000    815.7279     20.0174
   306.7500     40.5955      0.0000    818.5712     19.9735
   307.0000     40.6076      0.0000    822.5029     19.7425
   307.2500     41.6012      0.0000    823.9222     19.5159
   307.5000     43.4647      0.0000    818.8317     19.4873
   307.7500     45.8810      0.0000    806.1509     19.6463
   308.0000     48.7817      0.0000    789.2126     19.8121
   308.2500     52.1877      0.0000    775.8921     19.7947
   308.5000     55.5260      0.0000    767.2770     19.5106
   308.7500     57.4757      0.0000    744.3829     19.0114
   309.0000     56.9158      0.0000    687.6453     18.4191
   309.2500     54.1059      0.0000    615.0719     17.8216
   309.5000     50.6836      0.0000    575.9179     17.2259
   309.7500     48.4146      0.0000    597.3481     16.6310
   310.0000     48.0211      0.0000    657.0323     16.1284
   310.2500     48.9349      0.0000    713.7414     15.8322
   310.5000     49.8550      0.0000    748.1849     15.6412
   310.7500     49.8228      0.0000    770.1175     15.1878
   311.0000     49.1085      0.0000    798.3400     14.1707
   311.2500     48.8643      0.0000    830.1994     12.6309
   311.5000     49.7511      0.0000    836.7723     10.8523
   311.7500     51.1190      0.0000    807.7777      9.2259
   312.0000     51.6365      0.0000    773.9292      8.1113
   312.2500     50.6798      0.0000    762.6110      7.5610
   312.5000     49.2598      0.0000    768.0955      7.3365
   312.7500     49.5590      0.0000    767.6187      7.2488
   313.0000     53.1298      2.0000    744.1800      7.3070
   313.2500     59.3145      0.0000    713.0991      7.5476
   313.5000     65.6381      0.0000    710.0787      7.9807
   313.7500     69.9056      0.0000    723.8249      8.7710
   314.0000     71.7365      0.0000    703.7277      9.9721
   314.2500     72.1344      0.0000    649.5032     11.0280
   314.5000     72.1321      0.0000    606.9600     11.3583
   314.7500     72.1603      0.0000    584.5768     11.1957
   315.0000     72.3243      0.0000    556.1154     11.0687
   315.2500     72.6807      0.0000    519.5146     11.0874
   315.5000     73.1329      0.0000    493.2103     11.0815
   315.7500     73.4332      0.0000    484.5498     10.9430
   316.0000     73.4411      0.0000    492.6017     10.7522
   316.2500     73.0779      0.0000    520.3730     10.6717
   316.5000     72.0165      0.0000    566.0983     10.7263
   316.7500     69.7786      0.0000    607.3842     10.7765
   317.0000     66.2374      0.0000    615.4415     10.7343
   317.2500     61.8941      0.0000    594.6730     10.6636
   317.5000     57.7512      0.0000    585.0492     10.6329
   317.7500     54.9714      0.0000    612.0500     10.6179
   318.0000     54.4512      0.0000    650.8826     10.5668
   318.2500     56.5513      0.0000    657.9348     10.4566
   318.5000     61.1100      0.0000    631.9963     10.2778
   318.7500     67.5119      0.0000    612.9432     10.0263
   319.0000     74.7047      0.0000    626.4901      9.7417
   319.2500     81.3888      0.0000    667.6822      9.5169
   319.5000     86.4019      0.0000    719.3495      9.4292
   319.7500     89.1165      0.0000    764.3903      9.4773
   320.0000     89.7601      0.0000    797.5080      9.5596
   320.2500     89.3382      0.0000    823.4230      9.5142
   320.5000     88.8946      0.0000    842.8731      9.2797
   320.7500     88.6615      0.0000    849.9769      8.9921
   321.0000     88.0048      0.0000    842.3054      8.8273
   321.2500     86.2091      0.0000    828.6180      8.8168
   321.5000     83.3481      0.0000    821.6309      8.8777
   321.7500     80.4421      0.0000    824.1853      8.9175
   322.0000     78.7886      0.0000    828.7813      8.8808
   322.2500     79.0934      0.0000    828.7087      8.7765
   322.5000     81.1980      0.0000    823.4006      8.6582
   322.7500     84.3860      0.0000    814.5776      8.5390
   323.0000     87.6085      0.0000    800.3997      8.3534
   323.2500     89.6603      0.0000    777.9626      8.0662
   323.5000     89.8721      0.0000    754.3834      7.7674
   323.7500     88.8443      0.0000    747.1178      7.5622
   324.0000     88.0840      0.0000    765.9192      7.4639
   324.2500     88.7683      0.0000    799.0524      7.4506
   324.5000     91.0640      0.0000    824.2507      7.5062
   324.7500     94.4019      0.0000    830.9605      7.5967
   325.0000     97.8577      0.0000    825.4342      7.6875
   325.2500    100.3682      0.0000    818.3967      7.7567
   325.5000    101.1778      0.0000    814.8219      7.7694
   325.7500    100.2414      0.0000    813.9691      7.7015
   326.0000     98.0588      0.0000    813.6810      7.6109
   326.2500     95.2112      0.0000    812.3022      7.6061
   326.5000     92.2482      0.0000    808.6460      7.7138
