~Version Information
 VERS.                                  2.0 : CWLS LAS VERSION
 WRAP.                                   NO : WRAPING MODE
 SWARE .                 MController 2.5.0J : SOFTWARE VERSION
~Well Information
 WELL.                          Quack 22-24 : WELL
 COMP.    PIONEER NATURAL RESOURCES USA INC : COMPANY
 FLD.                      PURGATOIRE RIVER : FIELD
 LOC.                 SE/NW Sec 24 32S  67W : LOCATION
 DATE.                                  N/A : DATE(S) LOGGED
 SRVC.       Blanco Geological Services LLC : SERVICE COMPANY
 STAT.                                   CO : STATE
 CNTY.                           LAS ANIMAS : COUNTY
 CTRY.                                  USA : COUNTRY
 API.                       05-071-08402-00 : API NUMBER
 STRT.FT                             201.00 : START DEPTH
 STOP.FT                            2610.00 : STOP DEPTH
 STEP.FT                               1.00 : DEPTH INCREMENT
 NULL.                                -9999 : NULL VALUE
~Curve information
 DEPTH.FT                                   :
 ROP.MIN/FT                                 :
 GAS.UNITS                                  :
~ASCII Log data
# ...
      1801.0         0.43        688.8 
      1802.0         0.40        661.5 
      1803.0         0.37        654.4 
      1804.0         0.30        653.4 
      1805.0         0.30        650.7 
      1806.0         0.30        649.1 
      1807.0         0.32        648.0 
      1808.0         0.30        646.4 
      1809.0         0.27        646.4 
      1810.0         0.23        647.7 
      1811.0         0.27        645.7 
      1812.0         0.23        645.0 
      1813.0         0.27        644.7 
      1814.0         0.27        644.0 
      1815.0         0.23        643.0 
      1816.0         0.23        645.4 
      1817.0         0.27        649.1 
      1818.0         0.27        639.3 
      1819.0         0.23        520.4 
      1820.0         0.25        440.0 
      1821.0         0.23        440.0 
      1822.0         0.23        152.8 
      1823.0         0.17        184.1 
      1824.0         0.20        256.8 
      1825.0         0.20        353.2 
      1826.0         2.55       2946.1 
      1827.0         0.57       1361.0 
      1828.0         0.50        973.5 
      1829.0         0.33        808.4 
      1830.0         0.33        742.0 
      1831.0         0.43        716.4 
      1832.0         0.47        735.0 
      1833.0         0.45        734.6 
      1834.0         0.43        721.5 
      1835.0         0.33        691.2 
      1836.0         0.43        671.6 
      1837.0         0.47        676.3 
      1838.0         0.53        688.8 
      1839.0         0.27        686.1 
      1840.0         0.30        680.4 
      1841.0         0.30        670.3 
      1842.0         0.32        657.5 
      1843.0         0.30        643.3 
      1844.0         0.23        638.3 
      1845.0         0.27        636.3 
      1846.0         0.50        647.4 
      1847.0         0.43        650.7 
      1848.0         0.40        657.1 
      1849.0         0.23        655.8 
      1850.0         0.33        655.8 
      1851.0         0.40        633.6 
      1852.0         0.32        486.0 
      1853.0         0.37        440.0 
      1854.0         0.33        241.5 
      1855.0         0.33        406.6 
      1856.0         2.38       2980.5 
      1857.0         0.33       1511.6 
      1858.0         0.60       1200.9 
      1859.0         0.60        853.6 
      1860.0         0.57        692.9 
      1861.0         0.50        662.9 
      1862.0         0.62        676.3 
      1863.0         0.80        654.4 
      1864.0         0.60        606.9 
      1865.0         0.43        608.6 
      1866.0         0.37        606.6 
      1867.0         0.37        603.6 
      1868.0         0.40        601.2 
      1869.0         0.38        602.2 
      1870.0         0.40        608.3 
      1871.0         0.37        609.3 
      1872.0         0.37        605.3 
      1873.0         0.33        600.5 
      1874.0         0.37        597.2 
      1875.0         0.37        590.8 
      1876.0         0.33        590.1 
      1877.0         0.33        593.8 
      1878.0         0.38        592.5 
      1879.0         0.30        591.8 
      1880.0         0.33        590.4 
      1881.0         0.30        588.4 
      1882.0         0.37        589.8 
      1883.0         0.33        517.0 
      1884.0         0.37        440.0 
      1885.0         0.40        136.4 
      1886.0         3.58       2785.1 
      1887.0         0.65        902.8 
      1888.0         0.57        713.7 
      1889.0         0.53        645.4 
      1890.0         0.47        642.0 
      1891.0         0.57        623.5 
      1892.0         0.63        598.5 
      1893.0         0.72        570.2 
      1894.0         0.60        558.4 
      1895.0         0.53        548.3 
      1896.0         0.43        547.0 
      1897.0         0.40        548.0 
      1898.0         0.40        547.6 
      1899.0         0.40        547.0 
      1900.0         0.45        548.7 
      1901.0         0.40        543.3 
      1902.0         0.23        545.0 
      1903.0         0.47        544.3 
      1904.0         0.43        549.3 
      1905.0         0.40        545.6 
      1906.0         0.37        541.6 
      1907.0         0.43        560.1 
      1908.0         0.40        561.5 
      1909.0         0.42        555.4 
      1910.0         0.37        464.4 
      1911.0         0.40         90.1 
      1912.0         0.30         97.5 
      1913.0         0.33        167.2 
      1914.0         0.27        257.3 
      1915.0         0.30        383.6 
      1916.0         3.25       3056.0 
      1917.0         0.53        937.8 
      1918.0         0.47        745.8 
      1919.0         0.55        661.5 
      1920.0         0.60        667.3 
      1921.0         0.43        668.9 
      1922.0         0.53        661.2 
      1923.0         0.50        654.4 
      1924.0         0.43        637.3 
      1925.0         0.43        622.8 
      1926.0         0.48        624.5 
      1927.0         0.37        624.5 
      1928.0         0.33        623.5 
      1929.0         0.30        617.4 
      1930.0         0.30        615.7 
      1931.0         0.40        616.7 
      1932.0         0.33        610.3 
      1933.0         0.37        612.0 
      1934.0         0.30        606.6 
      1935.0         0.38        596.8 
      1936.0         0.37        599.5 
      1937.0         0.33        597.2 
      1938.0         0.33        600.9 
      1939.0         0.37        602.6 
      1940.0         0.33        596.5 
      1941.0         0.30        483.6 
      1942.0         0.30        440.0 
      1943.0         0.23         94.1 
      1944.0         0.33        125.6 
      1945.0         0.38        202.5 
      1946.0         2.77       1519.0 
      1947.0         0.62        802.7 
      1948.0         0.37        691.8 
      1949.0         0.30        647.4 
      1950.0         0.30        616.0 
      1951.0         0.33        600.2 
      1952.0         0.40        618.1 
      1953.0         0.40        618.4 
      1954.0         0.30        614.0 
      1955.0         0.30        624.5 
      1956.0         0.33        622.4 
      1957.0         0.32        591.1 
      1958.0         0.30        551.0 
      1959.0         0.50        531.8 
      1960.0         0.37        533.8 
      1961.0         0.27        547.6 
      1962.0         0.33        564.8 
      1963.0         0.20        568.9 
      1964.0         0.20        571.2 
      1965.0         0.23        579.7 
      1966.0         0.30        587.1 
      1967.0         0.40        596.5 
      1968.0         0.42        598.2 
      1969.0         0.47        600.2 
      1970.0         0.40        597.8 
      1971.0         0.40        495.8 
      1972.0         0.37        105.3 
      1973.0         0.40        117.8 
      1974.0         0.40        193.2 
      1975.0         0.37        291.2 
      1976.0         2.35       1759.9 
      1977.0         0.33        981.3 
      1978.0         0.57        870.1 
      1979.0         0.48        719.8 
      1980.0         0.47        644.0 
      1981.0         0.47        630.2 
      1982.0         0.40        630.2 
      1983.0         0.37        633.9 
      1984.0         0.43        631.5 
      1985.0         0.47        613.3 
      1986.0         0.47        597.2 
      1987.0         0.48        580.3 
      1988.0         0.57        568.9 
      1989.0         0.40        559.1 
      1990.0         0.43        545.6 
      1991.0         0.40        538.2 
      1992.0         0.37        542.6 
      1993.0         0.40        559.1 
      1994.0         0.30        561.8 
      1995.0         0.35        555.4 
      1996.0         0.40        543.9 
      1997.0         0.40        539.9 
      1998.0         0.40        538.6 
      1999.0         0.30        545.3 
      2000.0         0.27        538.9 
