~Version Information
VERS.                      2.0: CWLS Log ASCII Standard - VERSION 2.0
WRAP.                       NO: One line per depth step
~Well Information Block
STRT.FT                15.0000: 
STOP.FT              2620.5000: 
STEP.FT                 0.2500: 
NULL.                -999.2500: 
COMP.          Pioneer Natural Resources: COMPANY
WELL.               Zink 44-10: WELL
FLD.           Purgatoire River: FIELD
LOC.           548' FSL & 473' FEL: LOCATION
PROV.                 Colorado: PROVINCE
CNTY.               Las Animas: COUNTRY
SRVC.                Patterson: SERVICE COMPANY
DATE.          Tue Jun 21 13:36:23 2005: LOG DATE
UWI.           05 071 08380 00: UNIQUE WELL ID
~Curve Information Block
DEPT.FT            0 000 00 00: Depth
GR.GAPI                       : Gamma Ray
CCL.                          : Casing Collar Locator
TT3.usec                      : CBL 3' Travel Time
AMP3.mV                       : CBL 3' Amplitude
~Parameter Information Block
~A  Depth        GR         CCL         TT3         AMP3    
# ...
  2259.5000    119.7127      0.0000    443.7430      2.4501
  2259.7500    120.0986      0.0000    438.1771      2.4554
  2260.0000    121.5767      0.0000    435.7525      2.4688
  2260.2500    123.4200      0.0000    434.5878      2.4894
  2260.5000    124.3432      0.0000    433.7697      2.5131
  2260.7500    123.4829      0.0000    433.2153      2.5358
  2261.0000    121.0824      0.0000    433.5088      2.5586
  2261.2500    118.1283      0.0000    435.7987      2.5870
  2261.5000    115.3780      0.0000    441.2765      2.6238
  2261.7500    112.8389      0.0000    449.6648      2.6626
  2262.0000    110.1257      0.0000    457.8221      2.6924
  2262.2500    107.0754      0.0000    461.0103      2.7082
  2262.5000    103.9885      0.0000    456.9019      2.7160
  2262.7500    101.3957      0.0000    447.9203      2.7260
  2263.0000     99.7163      0.0000    438.8342      2.7415
  2263.2500     99.2601      0.0000    432.7216      2.7552
  2263.5000    100.4716      0.0000    429.7141      2.7569
  2263.7500    103.5513      0.0000    428.4222      2.7437
  2264.0000    107.5951      0.0000    427.4265      2.7236
  2264.2500    110.8087      0.0000    425.8266      2.7085
  2264.5000    112.1738      0.0000    423.4547      2.7051
  2264.7500    112.4693      0.0000    421.0281      2.7099
  2265.0000    113.0058      0.0000    419.6909      2.7140
  2265.2500    113.7203      0.0000    419.9607      2.7121
  2265.5000    113.2734      0.0000    421.1580      2.7057
  2265.7500    110.8831      0.0000    422.2007      2.6970
  2266.0000    107.3967      0.0000    422.9229      2.6830
  2266.2500    104.4851      0.0000    424.7192      2.6583
  2266.5000    103.1581      0.0000    430.1103      2.6235
  2266.7500    103.0809      0.0000    441.4830      2.5891
  2267.0000    103.0198      0.0000    459.8723      2.5715
  2267.2500    101.8849      0.0000    484.6821      2.5840
  2267.5000     99.5962      0.0000    513.5308      2.6287
  2267.7500     97.0349      0.0000    540.7164      2.6945
  2268.0000     95.1059      0.0000    556.5869      2.7626
  2268.2500     93.9034      0.0000    552.1602      2.8159
  2268.5000     92.8907      0.0000    526.9393      2.8442
  2268.7500     91.7559      0.0000    491.7937      2.8476
  2269.0000     90.8502      0.0000    462.7026      2.8357
  2269.2500     90.8268      0.0000    450.7086      2.8224
  2269.5000     92.0722      0.0000    456.5760      2.8189
  2269.7500     94.4454      0.0000    472.7787      2.8307
  2270.0000     97.3065      0.0000    488.7643      2.8579
  2270.2500     99.6367      0.0000    495.7237      2.8939
  2270.5000    100.2371      0.0000    490.1838      2.9259
  2270.7500     98.1379      0.0000    475.0174      2.9409
  2271.0000     93.1959      0.0000    456.0141      2.9374
  2271.2500     86.5786      0.0000    437.7043      2.9284
  2271.5000     80.5522      0.0000    424.1733      2.9305
  2271.7500     77.2373      0.0000    421.9016      2.9468
  2272.0000     77.1373      0.0000    437.5389      2.9650
  2272.2500     78.9460      0.0000    471.3059      2.9679
  2272.5000     80.8845      0.0000    513.5701      2.9459
  2272.7500     82.0033      0.0000    549.0387      2.9030
  2273.0000     82.1757      0.0000    565.6780      2.8523
  2273.2500     81.2784      0.0000    561.7403      2.8052
  2273.5000     78.9111      0.0000    545.4855      2.7637
  2273.7500     75.0658      0.0000    527.8044      2.7240
  2274.0000     70.8236      0.0000    514.3373      2.6857
  2274.2500     67.9240      0.0000    504.3483      2.6521
  2274.5000     67.4459      0.0000    495.9331      2.6242
  2274.7500     69.0880      0.0000    490.1993      2.6005
  2275.0000     71.7176      0.0000    489.5294      2.5820
  2275.2500     74.2242      0.0000    492.4854      2.5733
  2275.5000     75.9114      0.0000    492.4489      2.5764
  2275.7500     76.6398      0.0000    483.5102      2.5863
  2276.0000     76.6998      0.0000    467.6740      2.5938
  2276.2500     76.3505      0.0000    454.0881      2.5943
  2276.5000     75.6753      0.0000    451.0038      2.5909
  2276.7500     74.9597      0.0000    459.7950      2.5890
  2277.0000     74.7636      0.0000    476.0534      2.5882
  2277.2500     75.3179      0.0000    494.4676      2.5807
  2277.5000     76.1237      0.0000    512.0323      2.5581
  2277.7500     76.3867      0.0000    527.6155      2.5201
  2278.0000     75.7217      0.0000    538.9427      2.4764
  2278.2500     74.2601      0.0000    540.3195      2.4397
  2278.5000     72.1445      0.0000    525.4024      2.4146
  2278.7500     69.1417      0.0000    494.0238      2.3951
  2279.0000     65.0807      0.0000    454.9832      2.3711
  2279.2500     60.7112      0.0000    420.2567      2.3380
  2279.5000     57.6617      0.0000    396.8280      2.2997
  2279.7500     57.1912      0.0000    384.3125      2.2649
  2280.0000     59.0838      0.0000    378.4204      2.2409
  2280.2500     61.8720      0.0000    374.9829      2.2304
  2280.5000     63.9584      0.0000    371.7922      2.2307
  2280.7500     64.4966      0.0000    368.6032      2.2353
  2281.0000     63.5483      0.0000    366.0594      2.2380
  2281.2500     61.7852      0.0000    364.5637      2.2361
  2281.5000     60.0516      0.0000    363.9146      2.2298
  2281.7500     58.9744      0.0000    363.6865      2.2196
  2282.0000     58.7854      0.0000    363.6121      2.2071
  2282.2500     59.3411      0.0000    363.6254      2.1955
  2282.5000     60.2258      0.0000    363.7235      2.1894
  2282.7500     60.9590      0.0000    363.8637      2.1930
  2283.0000     61.2602      0.0000    363.9573      2.2110
  2283.2500     61.0950      0.0000    363.9550      2.2461
  2283.5000     60.4911      0.0000    363.9636      2.2932
  2283.7500     59.4968      0.0000    364.4304      2.3342
  2284.0000     58.3620      0.0000    366.5065      2.3380
  2284.2500     57.6272      0.0000    372.5469      2.2712
  2284.5000     57.9675      0.0000    385.9896      2.1208
  2284.7500     59.9563      0.0000    409.1122      1.9182
  2285.0000     63.7652      0.0000    439.1813      1.7365
  2285.2500     68.6954      0.0000    467.2470      1.6478
  2285.5000     73.0393      0.0000    482.8438      1.6789
  2285.7500     75.0477      0.0000    480.7066      1.8120
  2286.0000     74.4323      0.0000    463.0059      2.0110
  2286.2500     72.6540      0.0000    436.8307      2.2297
  2286.5000     71.5668      0.0000    410.7697      2.4078
  2286.7500     72.1168      0.0000    392.2352      2.4859
  2287.0000     74.3122      0.0000    386.0702      2.4358
  2287.2500     77.7441     -2.5000    394.7095      2.2796
  2287.5000     81.8046      0.0000    417.4734      2.0855
  2287.7500     85.7393      0.0000    447.5287      1.9289
  2288.0000     88.7506      0.0000    471.3460      1.8434
  2288.2500     90.2114      0.0000    476.0159      1.8129
  2288.5000     90.1111      0.0000    459.2492      1.8185
  2288.7500     89.3693      0.0000    430.6588      1.8716
  2289.0000     89.3375      0.0000    403.0182      1.9855
  2289.2500     90.6713      0.0000    383.6249      2.1352
  2289.5000     92.6717      0.0000    372.9489      2.2693
  2289.7500     93.7954      0.0000    368.1407      2.3527
  2290.0000     92.9430      0.0000    366.3004      2.3859
  2290.2500     90.4782      0.0000    365.6557      2.3903
  2290.5000     88.0499      0.0000    365.4141      2.3861
  2290.7500     87.1593      0.0000    365.3103      2.3807
  2291.0000     87.6205      0.0000    365.3572      2.3704
  2291.2500     87.5017      0.0000    366.0247      2.3497
  2291.5000     84.8241      0.0000    368.7424      2.3201
  2291.7500     79.3787      0.0000    376.4503      2.2894
  2292.0000     72.8404      0.0000    393.0155      2.2661
  2292.2500     67.3131      0.0000    420.6937      2.2544
  2292.5000     64.0098      0.0000    457.4804      2.2556
  2292.7500     63.0892      0.0000    497.9624      2.2701
