~Version Information
VERS.                      2.0: CWLS Log ASCII Standard - VERSION 2.0
WRAP.                       NO: One line per depth step
~Well Information Block
STRT.FT                 1.5000: 
STOP.FT              1895.2500: 
STEP.FT                 0.2500: 
NULL.                -999.2500: 
COMP.          Petrogulf Corporation: COMPANY
WELL.             State 16-32R: WELL
FLD.           Purgatorie River: FIELD
LOC.           1849' FNL & 1677' FEL: LOCATION
CNTY.               Las Animas: COUNTY
SRVC.                         : SERVICE COMPANY
DATE.          Thu May 20 08:40:19 2004: LOG DATE
UWI.           05 071 08033 00: UNIQUE WELL ID
STAT.                 Colorado: STATE
~Curve Information Block
DEPT.FT            0 000 00 00: Depth
GR.GAPI                       : Gamma Ray
CCL.                          : Casing Collar Locator
TT3.usec                      : CBL 3' Travel Time
AMP3.mV                       : CBL 3' Amplitude
~Parameter Information Block
~A  Depth        GR         CCL         TT3         AMP3    
# ...
   370.0000    117.7166      0.0000    247.8406     70.0300
   370.2500    117.0244      0.0000    247.8719     71.1059
   370.5000    114.7421      0.0000    247.8788     72.0396
   370.7500    112.4667      0.0000    247.8623     72.6208
   371.0000    111.9898      0.0000    247.8241     72.8771
   371.2500    113.8329      0.0000    247.7671     72.9058
   371.5000    116.5680      0.0000    247.7030     72.6999
   371.7500    117.9410      0.0000    247.6420     72.1615
   372.0000    116.9366      0.0000    247.5897     71.2581
   372.2500    114.5842      0.0000    247.5541     70.1570
   372.5000    112.6804      0.0000    247.5417     69.1702
   372.7500    111.9904      0.0000    247.5475     68.5258
   373.0000    111.9197      0.0000    247.5508     68.2294
   373.2500    111.7645      0.0000    247.5301     68.1527
   373.5000    111.8594      0.0000    247.4931     68.1594
   373.7500    113.1055      0.0000    247.4773     68.1403
   374.0000    115.3732      0.0000    247.5120     68.0800
   374.2500    116.7150      0.0000    247.5822     68.1281
   374.5000    114.5389      0.0000    247.6345     68.4828
   374.7500    107.7509      0.0000    247.6317     69.1971
   375.0000     97.7560      0.0000    247.5998     70.1780
   375.2500     87.3469      0.0000    247.6035     71.2686
   375.5000     78.7165      0.0000    247.6814     72.2161
   375.7500     72.3701      0.0000    247.8100     72.7732
   376.0000     67.5244      0.0000    247.9328     73.0071
   376.2500     63.3107      0.0000    248.0135     73.2868
   376.5000     59.7161      0.0000    248.0514     73.8842
   376.7500     57.6447      0.0000    248.0644     74.7865
   377.0000     58.1392      0.0000    248.0733     75.8188
   377.2500     61.2867      0.0000    248.0870     76.7781
   377.5000     65.7586      0.0000    248.0934     77.5000
   377.7500     69.6311      0.0000    248.0715     77.8580
   378.0000     71.8217      0.0000    248.0179     77.7560
   378.2500     72.5954      0.0000    247.9523     77.1848
   378.5000     72.7878      0.0000    247.8958     76.2619
   378.7500     73.1422      0.0000    247.8553     75.1926
   379.0000     74.4731      0.0000    247.8204     74.1555
   379.2500     77.5390      0.0000    247.7660     73.1898
   379.5000     82.1690      0.0000    247.6668     72.1572
   379.7500     87.0707      0.0000    247.5227     70.7684
   380.0000     91.0462      0.0000    247.3684     68.8129
   380.2500     94.0967      0.0000    247.2503     66.5203
   380.5000     96.9193      0.0000    247.1896     64.4569
   380.7500     99.5389      0.0000    247.1675     62.9466
   381.0000    100.9188      0.0000    247.1395     61.8218
   381.2500    100.0779      0.0000    247.0754     60.7783
   381.5000     97.3528      0.0000    246.9923     59.8129
   381.7500     94.3052      0.0000    246.9269     59.1766
   382.0000     92.6562      0.0000    246.8823     58.9419
   382.2500     93.5926      0.0000    246.8277     58.8884
   382.5000     97.5603      0.0000    246.7408     58.7870
   382.7500    103.7964      0.0000    246.6398     58.4967
   383.0000    110.1024      0.0000    246.5767     57.9216
   383.2500    114.0139      0.0000    246.6021     57.1163
   383.5000    114.5923      0.0000    246.7670     56.2101
   383.7500    112.8967      0.0000    247.2850     55.1641
   384.0000    110.7926      0.0000    248.9601     53.8956
   384.2500    109.4684      0.0000    253.4458     52.5050
   384.5000    108.9723      0.0000    261.8381     51.1725
   384.7500    108.9240      0.0000    272.1513     50.0508
   385.0000    109.3102      0.0000    280.1289     49.2959
   385.2500    110.2617      0.0000    283.0188     49.0442
   385.5000    111.4106      0.0000    280.2786     49.3703
   385.7500    112.0522      0.0000    272.6387     50.2293
   386.0000    111.7553      0.0000    263.7052     51.3330
   386.2500    110.3285      0.0000    259.5714     52.1202
   386.5000    107.6170      0.0000    263.4751     52.0377
   386.7500    103.8965      0.0000    272.3036     51.0096
   387.0000    100.2225      0.0000    280.1780     49.4515
   387.2500     97.8075      0.0000    284.3048     47.7101
   387.5000     96.9032      0.0000    285.6913     45.8404
   387.7500     96.5637      0.0000    286.0533     43.8710
   388.0000     95.7863      0.0000    286.2184     41.8023
   388.2500     94.8862      0.0000    286.4378     39.4310
   388.5000     95.3262      0.0000    286.7646     36.6331
   388.7500     97.9154      0.0000    287.1122     33.7593
   389.0000    101.6548      0.0000    287.3304     31.4197
   389.2500    104.7450      0.0000    287.3265     30.0554
   389.5000    106.3320      0.0000    287.1033     29.9648
   389.7500    106.8008      0.0000    286.7432     31.3248
   390.0000    106.6530      0.0000    286.3893     33.8263
   390.2500    105.6000      0.0000    286.1592     36.7017
   390.5000    102.8883      0.0000    286.0416     39.3283
   390.7500     98.2722      0.0000    285.7873     41.5700
   391.0000     92.5304      0.0000    284.5162     43.6908
   391.2500     87.1084      0.0000    280.4013     46.1253
   391.5000     83.3105      0.0000    272.1424     49.1081
   391.7500     81.6580      0.0000    261.6624     52.3501
   392.0000     81.7752      0.0000    253.1672     55.2524
   392.2500     82.8283      0.0000    248.7390     57.5858
   392.5000     84.1026      0.0000    247.2444     59.7005
   392.7500     85.1301      0.0000    246.9172     61.9247
   393.0000     85.4884      0.0000    246.8739     64.0964
   393.2500     85.0465      0.0000    246.8709     65.8275
   393.5000     84.4203      0.0000    246.8763     66.8669
   393.7500     84.4892      0.0000    246.9130     67.1381
   394.0000     85.3142      0.0000    247.0037     66.8016
   394.2500     86.0463      0.0000    247.1383     66.1813
   394.5000     86.0341      0.0000    247.3154     65.3776
   394.7500     85.5880      0.0000    247.7559     64.2320
   395.0000     85.5228      0.0000    249.8481     62.5968
   395.2500     86.2664      0.0000    258.1612     60.1892
   395.5000     87.5514      0.0000    279.5010     56.2653
   395.7500     88.8080      0.0000    311.6393     50.3389
   396.0000     89.7257      0.0000    334.9029     43.6093
   396.2500     90.3425      0.0000    333.0746     38.3542
   396.5000     90.6021      0.0000    315.8649     35.5608
   396.7500     90.2268      0.0000    301.8326     34.2531
   397.0000     89.2499      0.0000    296.2067     32.9515
   397.2500     88.1248     -2.0000    295.1174     31.0921
   397.5000     86.8760      0.0000    295.2964     29.0879
   397.7500     84.6645      0.0000    295.8033     27.5547
   398.0000     80.6413      0.0000    297.0353     26.8056
   398.2500     74.8652      0.0000    299.8618     26.8293
   398.5000     68.1973      0.0000    303.5909     27.5121
   398.7500     61.7676      0.0000    304.6665     28.7091
   399.0000     56.7414      0.0000    300.6580     30.1074
   399.2500     54.0746      0.0000    294.2831     31.7210
   399.5000     53.8736      0.0000    289.6858     34.1753
   399.7500     54.9595      0.0000    287.7313     37.6187
   400.0000     55.5350      0.0000    286.9474     41.3459
   400.2500     54.7265      0.0000    285.7051     44.6944
   400.5000     53.5080      0.0000    282.8029     47.2921
   400.7500     53.8846      0.0000    278.7532     48.7665
   401.0000     57.0364      0.0000    276.6784     48.9928
   401.2500     62.3186      0.0000    278.7190     48.4720
   401.5000     68.0524      0.0000    282.7176     47.9252
   401.7500     73.0074      0.0000    285.5402     47.6103
   402.0000     76.9412      0.0000    286.6314     47.4330
   402.2500     80.1611      0.0000    286.8912     47.3619
   402.5000     83.1781      0.0000    286.9421     47.3403
   402.7500     86.6628      0.0000    286.9600     47.1183
   403.0000     90.9626      0.0000    286.9678     46.4646
   403.2500     95.3356      0.0000    286.9625     45.4482
