~Version Information
VERS.                      2.0: CWLS Log ASCII Standard - VERSION 2.0
WRAP.                       NO: One line per depth step
~Well Information Block
STRT.FT               472.0000: 
STOP.FT              2430.5000: 
STEP.FT                 0.2500: 
NULL.                -999.2500: 
COMP.          Pioneer Natural Resources: COMPANY
WELL.          Flying Horse 12-11: WELL
FLD.           Purgatoire River: FIELD
LOC.           2428' FNL & 308' FWL: LOCATION
PROV.                 Colorado: PROVINCE
CNTY.               Las Animas: COUNTRY
SRVC.                Patterson: SERVICE COMPANY
DATE.          Sun May 29 11:58:35 2005: LOG DATE
UWI.           05 071 08378 00: UNIQUE WELL ID
~Curve Information Block
DEPT.FT            0 000 00 00: Depth
SN.Ohm-m                      : IEL Short Normal
SP.mV                         : IEL Spontaneous Potential
DIR.Ohm-m                     : IEL Induction Resistivity
GR.GAPI                       : Gamma Ray
~Parameter Information Block
~A  Depth        SN          SP         DIR          GR     
# ...
  1611.0000     11.0956    -82.0830      9.8224    116.6961
  1611.2500     11.5875    -81.8341     10.1532    111.4366
  1611.5000     12.4537    -81.6505     10.4981    102.6313
  1611.7500     13.4465    -81.5308     10.8674     98.4215
  1612.0000     14.1794    -81.4583     11.2733     97.6895
  1612.2500     14.5854    -81.4223     11.7275    101.0542
  1612.5000     14.7561    -81.4234     12.2390    109.1468
  1612.7500     14.8124    -81.4664     12.8090    114.5199
  1613.0000     14.9882    -81.5550     13.4237    120.5841
  1613.2500     15.4300    -81.6933     14.0515    123.1301
  1613.5000     16.0291    -81.8867     14.6508    124.6864
  1613.7500     16.5892    -82.1392     15.1889    123.8886
  1614.0000     16.9922    -82.4502     15.6592    119.5831
  1614.2500     17.3527    -82.8117     16.0845    115.2361
  1614.5000     18.0213    -83.2097     16.5028    108.9143
  1614.7500     19.1204    -83.6366     16.9505    106.1788
  1615.0000     20.2982    -84.1010     17.4536    104.8730
  1615.2500     21.2371    -84.6134     18.0284    105.1724
  1615.5000     22.0294    -85.1492     18.6828    105.7127
  1615.7500     22.9129    -85.6369     19.4162    105.4626
  1616.0000     24.0809    -85.9936     20.2152    103.6009
  1616.2500     25.5681    -86.1807     21.0530    101.2216
  1616.5000     27.0348    -86.2272     21.8928     96.1337
  1616.7500     28.0971    -86.2020     22.6889     92.2115
  1617.0000     28.8711    -86.1613     23.3777     86.6799
  1617.2500     29.7427    -86.1116     23.8652     83.6973
  1617.5000     30.8586    -86.0071     24.0313     80.2897
  1617.7500     32.0440    -85.7797     23.7707     78.3389
  1618.0000     32.9630    -85.3872     23.0563     75.1733
  1618.2500     33.2821    -84.8426     21.9693     72.8869
  1618.5000     32.6915    -84.1964     20.6627     70.1786
  1618.7500     30.9325    -83.4922     19.2911     69.7711
  1619.0000     28.0835    -82.7521     17.9630     72.4730
  1619.2500     24.6659    -81.9985     16.7316     76.6068
  1619.5000     21.2652    -81.2651     15.6098     85.4706
  1619.7500     18.2745    -80.5810     14.5901     92.3202
  1620.0000     15.9786    -79.9537     13.6620    102.4672
  1620.2500     14.4338    -79.3739     12.8196    108.3134
  1620.5000     13.3698    -78.8404     12.0610    114.7458
  1620.7500     12.5959    -78.3805     11.3854    117.4670
  1621.0000     12.2200    -78.0384     10.7925    120.1169
  1621.2500     12.2005    -77.8321     10.2850    121.5893
  1621.5000     12.1477    -77.7222      9.8674    123.8881
  1621.7500     11.8005    -77.6302      9.5425    125.3897
  1622.0000     11.2682    -77.4925      9.3064    127.2034
  1622.2500     10.7220    -77.2956      9.1482    127.9502
  1622.5000     10.2055    -77.0673      9.0521    128.2434
  1622.7500      9.7384    -76.8478      9.0023    127.8537
  1623.0000      9.4297    -76.6721      8.9872    126.1243
  1623.2500      9.4238    -76.5636      9.0010    123.8117
  1623.5000      9.7174    -76.5268      9.0407    117.9597
  1623.7500     10.1846    -76.5436      9.1000    112.6687
  1624.0000     10.7152    -76.5834      9.1655    104.3900
  1624.2500     11.1512    -76.6193      9.2209    100.0702
  1624.5000     11.3429    -76.6346      9.2562     97.2992
  1624.7500     11.3756    -76.6186      9.2737     98.2745
  1625.0000     11.4564    -76.5605      9.2839    103.1008
  1625.2500     11.5680    -76.4408      9.2942    107.4417
  1625.5000     11.4270    -76.2271      9.3011    113.5784
  1625.7500     10.8812    -75.8905      9.2910    116.6470
  1626.0000     10.1818    -75.4403      9.2478    119.4773
  1626.2500      9.6899    -74.9373      9.1608    120.4228
  1626.5000      9.5271    -74.4605      9.0274    120.6137
  1626.7500      9.5832    -74.0498      8.8510    119.6353
  1627.0000      9.6920    -73.6823      8.6380    116.0148
  1627.2500      9.6979    -73.3065      8.3960    112.6186
  1627.5000      9.4350    -72.8997      8.1346    108.4457
  1627.7500      8.9001    -72.4866      7.8661    107.7573
  1628.0000      8.3541    -72.0994      7.6057    110.3993
  1628.2500      8.0685    -71.7331      7.3679    113.4975
  1628.5000      8.1120    -71.3551      7.1624    117.4393
  1628.7500      8.3876    -70.9564      6.9912    118.7573
  1629.0000      8.6969    -70.5789      6.8493    119.5068
  1629.2500      8.7568    -70.2879      6.7277    120.2956
  1629.5000      8.3539    -70.1258      6.6175    123.0434
  1629.7500      7.6079    -70.0948      6.5124    125.6394
  1630.0000      6.9133    -70.1666      6.4104    129.5386
  1630.2500      6.5408    -70.2958      6.3127    131.9780
  1630.5000      6.4077    -70.4298      6.2216    136.3412
  1630.7500      6.2551    -70.5288      6.1386    140.1644
  1631.0000      6.0244    -70.5878      6.0631    146.2095
  1631.2500      5.9314    -70.6343      5.9941    149.0049
  1631.5000      6.1233    -70.6972      5.9314    149.8179
  1631.7500      6.5122    -70.7744      5.8766    148.5819
  1632.0000      6.9283    -70.8253      5.8320    146.2084
  1632.2500      7.2050    -70.7941      5.7999    145.1866
  1632.5000      7.2285    -70.6476      5.7813    144.4758
  1632.7500      7.0751    -70.4059      5.7770    143.8854
  1633.0000      6.9270    -70.1491      5.7881    141.9379
  1633.2500      6.8057    -69.9897      5.8174    140.2566
  1633.5000      6.6033    -70.0219      5.8684    138.8340
  1633.7500      6.2924    -70.2811      5.9435    139.1114
  1634.0000      5.9707    -70.7399      6.0428    139.9691
  1634.2500      5.8279    -71.3414      6.1648    139.4204
  1634.5000      6.1383    -72.0382      6.3067    136.0074
  1634.7500      7.1235    -72.8105      6.4662    132.7953
  1635.0000      8.6037    -73.6515      6.6413    128.6299
  1635.2500      9.9768    -74.5424      6.8301    126.9045
  1635.5000     10.7872    -75.4505      7.0302    125.5555
  1635.7500     11.1159    -76.3483      7.2397    124.9388
  1636.0000     11.3058    -77.2194      7.4583    123.8380
  1636.2500     11.5098    -78.0358      7.6882    123.0160
  1636.5000     11.5952    -78.7371      7.9349    122.2265
  1636.7500     11.3619    -79.2429      8.2045    122.4535
  1637.0000     10.8813    -79.4867      8.5013    124.3587
  1637.2500     10.6765    -79.4451      8.8249    126.4119
  1637.5000     11.2019    -79.1505      9.1688    129.3222
  1637.7500     12.1326    -78.6762      9.5212    130.2225
  1638.0000     12.7321    -78.0912      9.8667    129.0670
  1638.2500     12.6751    -77.4248     10.1869    126.7259
  1638.5000     12.0877    -76.6906     10.4619    122.0978
  1638.7500     11.2762    -75.9397     10.6722    119.2576
  1639.0000     10.6297    -75.2606     10.8039    116.5805
  1639.2500     10.5395    -74.7102     10.8544    115.9829
  1639.5000     11.2776    -74.2618     10.8391    116.3955
  1639.7500     12.7070    -73.8410     10.7910    117.2755
  1640.0000     14.1241    -73.4109     10.7527    119.4378
  1640.2500     14.8681    -73.0144     10.7606    121.4629
  1640.5000     15.0414    -72.7361     10.8306    125.0034
  1640.7500     15.1599    -72.6293     10.9538    127.1425
  1641.0000     15.3587    -72.6720     11.1058    128.9398
  1641.2500     15.4026    -72.7817     11.2630    129.0140
  1641.5000     15.2265    -72.8714     11.4145    128.5066
  1641.7500     15.0486    -72.9006     11.5640    128.7609
  1642.0000     15.0250    -72.8817     11.7221    130.7199
  1642.2500     15.0704    -72.8472     11.8994    132.5021
  1642.5000     15.0814    -72.8165     12.1023    134.3911
  1642.7500     15.1015    -72.7954     12.3325    134.8171
  1643.0000     15.1133    -72.7936     12.5878    134.8312
  1643.2500     15.0384    -72.8316     12.8641    134.8163
  1643.5000     14.9825    -72.9308     13.1591    134.4706
  1643.7500     15.1624    -73.1013     13.4757    133.4396
  1644.0000     15.6694    -73.3310     13.8243    130.0424
  1644.2500     16.3231    -73.5796     14.2201    126.7948
