~Version Information
VERS.                      2.0: CWLS Log ASCII Standard - VERSION 2.0
WRAP.                       NO: One line per depth step
~Well Information Block
STRT.FT               819.0000: 
STOP.FT              2497.0000: 
STEP.FT                 0.2500: 
NULL.                -999.2500: 
COMP.          Petrogulf Corporation: COMPANY
WELL.             State 16-21V: WELL
FLD.           Purgatorie River: FIELD
LOC.           1738' FWL & 332' FNL: LOCATION
PROV.                 Colorado: PROVINCE
CNTY.               Las Animas: COUNTRY
SRVC.          Patterson Wireline: SERVICE COMPANY
DATE.          Sun Jul 13 13:45:48 2003: LOG DATE
UWI.              05-071-07884: UNIQUE WELL ID 05 071 08829 00
~Curve Information Block
DEPT.FT            0 000 00 00: Depth
DCAL.in                       : CDL Caliper
RHOB.g/cc                     : CDL Bulk Density
RHOC.g/cc                     : CDL Density Correction
DPOR.pu                       : CDL Density Porosity
GR.GAPI                       : Gamma Ray
NPOR.pu                       : Neutron Porosity
~Parameter Information Block
~A  Depth       DCAL        RHOB        RHOC        DPOR         GR         NPOR    
# ...
  2259.0000      7.8806      2.5315      0.0782      7.1836     93.4333     27.5589
  2259.2500      7.8976      2.5319      0.0802      7.1556     95.4825     27.7603
  2259.5000      7.9014      2.5341      0.0856      7.0214     97.8330     27.9727
  2259.7500      7.8973      2.5357      0.0890      6.9291     98.8047     28.0724
  2260.0000      7.8932      2.5358      0.0887      6.9232     99.3117     28.1730
  2260.2500      7.8948      2.5330      0.0838      7.0909     99.0290     28.2169
  2260.5000      7.9024      2.5224      0.0726      7.7344     97.7562     28.3119
  2260.7500      7.9091      2.5097      0.0654      8.5035     96.4158     28.4525
  2261.0000      7.9127      2.4797      0.0580     10.3201     93.8737     28.8736
  2261.2500      7.9135      2.4510      0.0553     12.0628     92.0881     29.3179
  2261.5000      7.9098      2.3934      0.0526     15.5511     89.8705     30.1593
  2261.7500      7.9065      2.3465      0.0503     18.3956     88.7955     30.7340
  2262.0000      7.9107      2.2695      0.0471     23.0606     87.1556     31.4337
  2262.2500      7.9358      2.2199      0.0476     26.0683     85.4599     31.7376
  2262.5000      7.9846      2.1600      0.0562     29.6944     81.5430     31.9668
  2262.7500      8.0238      2.1360      0.0665     31.1516     78.3595     32.0207
  2263.0000      8.0274      2.1294      0.0833     31.5509     74.2465     32.0694
  2263.2500      7.9933      2.1443      0.0931     30.6455     72.9666     32.1424
  2263.5000      7.9489      2.1891      0.1042     27.9323     74.3280     32.3590
  2263.7500      7.9446      2.2275      0.1091     25.6084     77.3702     32.5452
  2264.0000      7.9795      2.2855      0.1109     22.0883     83.6736     32.7626
  2264.2500      8.0198      2.3188      0.1076     20.0736     87.6212     32.7998
  2264.5000      8.0599      2.3552      0.0974     17.8643     91.1806     32.6647
  2264.7500      8.0759      2.3707      0.0898     16.9246     91.8728     32.4791
  2265.0000      8.0400      2.3849      0.0814     16.0652     91.8925     32.1490
  2265.2500      7.9859      2.3915      0.0783     15.6664     92.2631     31.9434
  2265.5000      7.9618      2.4014      0.0765     15.0664     94.1901     31.6917
  2265.7500      7.9661      2.4092      0.0768     14.5918     96.2657     31.5369
  2266.0000      7.9715      2.4227      0.0791     13.7775     99.8957     31.2355
  2266.2500      7.9770      2.4319      0.0808     13.2204    102.2798     30.9630
  2266.5000      7.9834      2.4443      0.0800     12.4641    105.0687     30.5138
  2266.7500      7.9711      2.4513      0.0752     12.0401    105.8292     30.2618
  2267.0000      7.9516      2.4604      0.0642     11.4911    104.7375     30.0378
  2267.2500      7.9454      2.4663      0.0587     11.1316    102.8786     29.9896
  2267.5000      7.9591      2.4763      0.0615     10.5266     99.7831     30.0178
  2267.7500      7.9693      2.4837      0.0715     10.0765     98.0718     30.0740
  2268.0000      7.9508      2.4947      0.0929      9.4124     96.0574     30.1888
  2268.2500      7.9200      2.5007      0.1056      9.0510     94.9858     30.2660
  2268.5000      7.9008      2.5060      0.1142      8.7292     94.2987     30.2980
  2268.7500      7.8951      2.5070      0.1113      8.6694     94.9497     30.2095
  2269.0000      7.8954      2.5059      0.0985      8.7308     97.4143     29.9302
  2269.2500      7.8964      2.5049      0.0899      8.7937     99.0254     29.7376
  2269.5000      7.8997      2.5048      0.0837      8.8015     99.3975     29.6105
  2269.7500      7.9022      2.5061      0.0840      8.7185     98.0986     29.6574
  2270.0000      7.9041      2.5099      0.0858      8.4914     95.6669     29.7993
  2270.2500      7.9071      2.5127      0.0852      8.3227     95.0025     29.8287
  2270.5000      7.9128      2.5156      0.0798      8.1425     95.5251     29.6599
  2270.7500      7.9202      2.5161      0.0740      8.1128     95.5928     29.4196
  2271.0000      7.9209      2.5143      0.0649      8.2268     93.1970     28.9821
  2271.2500      7.9150      2.5115      0.0604      8.3967     90.0056     28.7093
  2271.5000      7.9109      2.5056      0.0586      8.7533     84.8663     28.4290
  2271.7500      7.9105      2.5009      0.0614      9.0393     82.5064     28.3883
  2272.0000      7.9087      2.4929      0.0700      9.5234     81.6843     28.6208
  2272.2500      7.9031      2.4871      0.0762      9.8745     82.8581     28.9521
  2272.5000      7.8968      2.4783      0.0820     10.4041     86.2222     29.5656
  2272.7500      7.8946      2.4733      0.0822     10.7113     88.7895     29.9525
  2273.0000      7.9069      2.4686      0.0790     10.9952     92.0184     30.3878
  2273.2500      7.9385      2.4682      0.0771     11.0155     93.3754     30.5540
  2273.5000      7.9743      2.4720      0.0779     10.7907     94.0653     30.6216
  2273.7500      7.9997      2.4761      0.0805     10.5397     93.7779     30.5775
  2274.0000      8.0024      2.4810      0.0835     10.2419     92.7574     30.4497
  2274.2500      7.9799      2.4805      0.0825     10.2711     92.0334     30.3493
  2274.5000      7.9535      2.4689      0.0754     10.9775     91.2920     30.2069
  2274.7500      7.9378      2.4508      0.0679     12.0725     91.1485     30.1597
  2275.0000      7.9370      2.4036      0.0552     14.9353     91.5512     30.2584
  2275.2500      7.9426      2.3565      0.0462     17.7865     92.0550     30.4650
  2275.5000      7.9442      2.2612      0.0318     23.5666     91.9905     30.9681
  2275.7500      7.9464      2.1822      0.0219     28.3535     90.3779     31.4159
  2276.0000      7.9583      2.0467      0.0088     36.5619     84.7592     32.2185
  2276.2500      7.9758      1.9509      0.0031     42.3703     79.6251     32.7797
  2276.5000      7.9875      1.8107      0.0013     50.8667     72.5985     33.5010
  2276.7500      7.9936      1.7265      0.0045     55.9715     69.5253     33.8359
  2277.0000      8.0001      1.6237      0.0130     62.1991     66.9116     34.1338
  2277.2500      8.0156      1.5750      0.0194     65.1524     65.3161     34.2500
  2277.5000      8.0513      1.5358      0.0306     67.5291     61.8206     34.3412
  2277.7500      8.0884      1.5333      0.0403     67.6772     59.0545     34.3118
  2278.0000      8.0764      1.5652      0.0590     65.7430     55.7760     34.0845
  2278.2500      8.0229      1.6093      0.0726     63.0745     54.9120     33.8657
  2278.5000      7.9848      1.7061      0.0894     57.2055     56.3317     33.5979
  2278.7500      7.9720      1.7881      0.0958     52.2345     59.3094     33.4685
  2279.0000      7.9757      1.9296      0.0978     43.6603     66.4145     33.1616
  2279.2500      7.9803      2.0300      0.0961     37.5746     72.0082     32.7686
  2279.5000      7.9666      2.1768      0.0929     28.6783     79.8182     31.8946
  2279.7500      7.9322      2.2643      0.0909     23.3747     84.0342     31.2258
  2280.0000      7.9018      2.3696      0.0855     16.9912     88.7513     30.3119
  2280.2500      7.8901      2.4199      0.0789     13.9480     90.8971     29.8527
  2280.5000      7.8890      2.4672      0.0667     11.0781     92.7828     29.4321
  2280.7500      7.8934      2.4843      0.0600     10.0426     93.4481     29.2944
  2281.0000      7.8997      2.4971      0.0553      9.2655     94.2919     29.1908
  2281.2500      7.9014      2.5017      0.0553      8.9892     95.0331     29.1373
  2281.5000      7.8968      2.5075      0.0563      8.6385     96.5825     29.0567
  2281.7500      7.8906      2.5117      0.0558      8.3802     97.9572     29.0200
  2282.0000      7.8879      2.5184      0.0537      7.9747    100.3270     29.0215
  2282.2500      7.8858      2.5223      0.0524      7.7395    101.6477     29.0494
  2282.5000      7.8794      2.5262      0.0524      7.5048    102.3894     29.0576
  2282.7500      7.8690      2.5274      0.0545      7.4290    102.0696     29.0000
