~Version Information
VERS.                      2.0: CWLS Log ASCII Standard - VERSION 2.0
WRAP.                       NO: One line per depth step
~Well Information Block
STRT.FT                -4.5000: 
STOP.FT              1680.2500: 
STEP.FT                 0.2500: 
NULL.                -999.2500: 
COMP.          Pioneer Natural Resources: COMPANY
WELL.            Salty 42-6 Tr: WELL
FLD.           Purgatorie River: FIELD
LOC.           2409' FNL & 599' FEL--: LOCATION
PROV.                       CO: PROVINCE
CNTY.               Las Animas: COUNTRY
SRVC.                         : SERVICE COMPANY
DATE.          Mon Dec 20 13:36:48 2004: LOG DATE
UWI.           071-08238      : UNIQUE WELL ID
~Curve Information Block
DEPT.FT            0 000 00 00: Depth
HVOLTA.V                      : Head Voltage Apparent
GR.GAPI                       : Gamma Ray
CCL.                          : Casing Collar Locator
TT3.usec                      : CBL 3' Travel Time
AMP3.mV                       : CBL 3' Amplitude
~Parameter Information Block
~A  Depth      HVOLTA        GR         CCL         TT3         AMP3    
# ...
  1199.5000     97.3460    104.8488      0.0000    749.2539      7.0214
  1199.7500     97.3974    111.9386      0.0000    747.5604      7.2121
  1200.0000     97.2326    123.1236      0.0000    744.8883      7.4323
  1200.2500     97.3293    135.7386      0.0000    741.8197      7.7171
  1200.5000     97.0917    145.9458      0.0000    739.1968      8.0740
  1200.7500     97.2636    152.0892      0.0000    737.4139      8.4703
  1201.0000     97.1370    156.5554      0.0000    736.2640      8.8438
  1201.2500     97.3699    163.3667      0.0000    735.6298      9.1203
  1201.5000     97.0211    173.7840      0.0000    735.9235      9.2294
  1201.7500     97.1334    184.6953      0.0000    737.5001      9.1338
  1202.0000     97.1548    191.3602      0.0000    739.7486      8.8619
  1202.2500     97.3257    191.3099      0.0000    741.0694      8.5017
  1202.5000     97.3282    185.8049      0.0000    740.1035      8.1477
  1202.7500     97.2768    178.4893      0.0000    737.2098      7.8538
  1203.0000     97.1741    172.9053      0.0000    734.5605      7.6290
  1203.2500     97.3485    170.2355      0.0000    734.3543      7.4620
  1203.5000     97.1919    168.6912      0.0000    736.8027      7.3437
  1203.7500     97.1908    165.4413      0.0000    739.9996      7.2711
  1204.0000     97.3628    159.5388      0.0000    741.6273      7.2367
  1204.2500     97.1167    152.9808      0.0000    740.5808      7.2235
  1204.5000     97.0928    148.9860      0.0000    737.3176      7.2140
  1204.7500     97.0892    149.1740      0.0000    733.2541      7.2007
  1205.0000     97.1060    152.1342      0.0000    730.0051      7.1817
  1205.2500     97.1299    154.7800      0.0000    728.7790      7.1516
  1205.5000     97.3342    155.2240      0.0000    729.8593      7.1056
  1205.7500     97.0724    154.0689      0.0000    732.4548      7.0495
  1206.0000     97.1609    152.9211      0.0000    735.4380      6.9998
  1206.2500     97.1441    152.2599      0.0000    738.3502      6.9753
  1206.5000     97.2122    151.1357      0.0000    741.3596      6.9900
  1206.7500     97.3795    148.4991      0.0000    744.4297      7.0480
  1207.0000     97.2361    144.0844      0.0000    747.0936      7.1340
  1207.2500     97.0796    138.0594      0.0000    748.9615      7.2123
  1207.5000     97.3424    130.7904      0.0000    750.0363      7.2499
  1207.7500     97.0450    123.4390      0.0000    750.5592      7.2476
  1208.0000     97.2158    118.1110      0.0000    750.7960      7.2440
  1208.2500     97.3353    116.4663      0.0000    750.9423      7.2783
  1208.5000     97.3663    118.0709      0.0000    751.0848      7.3515
  1208.7500     97.2397    120.7281      0.0000    751.2045      7.4260
  1209.0000     97.2397    122.6426      0.0000    751.2520      7.4614
  1209.2500     97.1513    123.6469      0.0000    751.2240      7.4445
  1209.5000     97.2565    124.0577      0.0000    751.1616      7.3891
  1209.7500     97.3867    123.3022      0.0000    751.0804      7.3125
  1210.0000     97.1609    120.7804      0.0000    750.9413      7.2215
  1210.2500     97.0247    117.9221      0.0000    750.7230      7.1221
  1210.5000     97.2194    118.0327      0.0000    750.4968      7.0373
  1210.7500     97.2265    123.1489      0.0000    750.3661      7.0016
  1211.0000     97.0892    131.4340      0.0000    750.3328      7.0336
  1211.2500     97.0928    138.4719      0.0000    750.2942      7.1164
  1211.5000     97.1991    140.8949      0.0000    750.1950      7.2081
  1211.7500     97.2815    138.3053      0.0000    750.1100      7.2735
  1212.0000     97.0307    132.4938      0.0000    750.1427      7.3046
  1212.2500     97.2708    125.9151      0.0000    750.2982      7.3150
  1212.5000     97.3663    120.7321      0.0000    750.4959      7.3239
  1212.7500     97.1812    118.4304      0.0000    750.6627      7.3455
  1213.0000     97.4177    119.7142      0.0000    750.7681      7.3825
  1213.2500     97.1131    124.2240      0.0000    750.7870      7.4242
  1213.5000     97.1991    130.1241      0.0000    750.6808      7.4551
  1213.7500     97.2911    134.5510      0.0000    750.4354      7.4653
  1214.0000     97.2504    135.2434      0.0000    750.0613      7.4518
  1214.2500     97.3221    131.9680      0.0000    749.4936      7.4156
  1214.5000     97.3735    126.4135      0.0000    748.4521      7.3598
  1214.7500     97.1584    121.1036      0.0000    746.5002      7.2891
  1215.0000     97.2290    118.3455      0.0000    743.4346      7.2086
  1215.2500     97.1645    119.4886      0.0000    739.8564      7.1290
  1215.5000     97.1060    124.3600      0.0000    737.4224      7.0732
  1215.7500     97.0856    130.9774      0.0000    738.4331      7.0711
  1216.0000     97.0760    136.1299      0.0000    744.6275      7.1334
  1216.2500     97.0546    137.2233      0.0000    755.2833      7.2297
  1216.5000     97.1884    134.0227      0.0000    765.7897      7.3009
  1216.7500     97.3699    128.2779      0.0000    769.2514      7.3013
  1217.0000     97.2158    121.8063      0.0000    761.7152      7.2292
  1217.2500     97.0521    115.7585      0.0000    746.4338      7.1169
  1217.5000     97.4141    111.6257      0.0000    731.6072      6.9990
  1217.7500     97.0760    111.7004      0.0000    723.0387      6.8921
  1218.0000     97.1884    117.5724      0.0000    719.7329      6.7949
  1218.2500     97.2433    128.3006      0.0000    716.9711      6.6982
  1218.5000     97.1919    140.6424      0.0000    712.2062      6.5966
  1218.7500     97.0760    151.5073      0.0000    706.7571      6.4979
  1219.0000     97.4009    159.9641      0.0000    702.8862      6.4242
  1219.2500     97.2565    166.4187      0.0000    701.3862      6.4039
  1219.5000     97.1406    170.3070      0.0000    702.2398      6.4548
  1219.7500     97.2565    169.8763      0.0000    705.8573      6.5686
  1220.0000     97.1370    164.5182      0.0000    712.4681      6.7114
  1220.2500     97.3795    156.1349      0.0000    721.0585      6.8446
  1220.5000     97.2051    147.4484      0.0000    729.5862      6.9519
  1220.7500     97.2422    139.6437      0.0000    735.6741      7.0465
  1221.0000     97.0104    132.3552      0.0000    736.5654      7.1500
  1221.2500     97.2529    125.2431      0.0000    729.6204      7.2646
  1221.5000     97.1299    118.6304      0.0000    715.0150      7.3658
  1221.7500     97.1060    113.0762      0.0000    698.6443      7.4216
  1222.0000     97.3378    109.3706      0.0000    690.0903      7.4162
  1222.2500     97.0486    108.6395      0.0000    694.8912      7.3600
  1222.5000     97.3531    111.3439      0.0000    709.0555      7.2775
  1222.7500     97.2397    116.2166      0.0000    722.7688      7.1887
  1223.0000     97.0760    121.0498      0.0000    729.0854      7.0999
  1223.2500     97.3556    124.5495      0.0000    728.5025      7.0100
  1223.5000     97.4619    126.8503      0.0000    726.5394      6.9258
  1223.7500     97.2361    128.4989      0.0000    728.1159      6.8669
  1224.0000     97.2982    129.7053      0.0000    733.8821      6.8502
  1224.2500     97.3938    130.4818      0.0000    741.0098      6.8744
  1224.5000     97.3496    130.9626      0.0000    746.5086      6.9227
  1224.7500     97.3628    131.4145      0.0000    749.3526      6.9753
  1225.0000     97.1645    131.9130      0.0000    750.1195      7.0140
  1225.2500     97.1919    132.0449      0.0000    749.7675      7.0259
  1225.5000     97.1884    131.2374      0.0000    748.9880      7.0142
  1225.7500     97.1502    129.3189      0.0000    748.1923      7.0015
  1226.0000     97.3317    126.4455      0.0000    747.6130      7.0106
  1226.2500     97.0546    122.6135      0.0000    747.3203      7.0419
  1226.5000     97.1227    117.7401      0.0000    747.1967      7.0733
  1226.7500     97.1441    112.2549      0.0000    746.9533      7.0831
  1227.0000     97.0689    107.2931      0.0000    746.1788      7.0703
  1227.2500     97.3185    104.1034      0.0000    744.5173      7.0505
