~Version Information
 VERS.                                  2.0 : CWLS LAS VERSION
 WRAP.                                   NO : WRAPING MODE
 SWARE .                 MController 2.5.0J : SOFTWARE VERSION
~Well Information
 WELL.                      Peregrine 12-20 : WELL
 COMP.    Pioneer Natural Resources USA Inc : COMPANY
 FLD.                      Purgatoire River : FIELD
 LOC.               SW/NW Sec 20 T34S R65W  : LOCATION
 DATE.                             07/14/05 : DATE(S) LOGGED
 SRVC.       BLANCO Geological Services LLC : SERVICE COMPANY
 STAT.                                   CO : STATE
 CNTY.                           Las Animas : COUNTY
 CTRY.                                  USA : COUNTRY
 API.                       05-071-08428-00 : API NUMBER
 STRT.FT                             226.00 : START DEPTH
 STOP.FT                            1645.00 : STOP DEPTH
 STEP.FT                               1.00 : DEPTH INCREMENT
 NULL.                                -9999 : NULL VALUE
~Curve information
 DEPTH.FT                                   :
 ROP.MIN/FT                                 :
 GAS.UNITS                                  :
~ASCII Log data
# ...
       826.0         0.23         10.7 
       827.0         0.23         10.8 
       828.0         0.20         10.8 
       829.0         0.30         10.8 
       830.0         0.23         10.5 
       831.0         0.23         10.7 
       832.0         0.20         12.2 
       833.0         0.20         16.6 
       834.0         0.15         23.9 
       835.0         0.23         39.2 
       836.0         1.90         74.2 
       837.0         0.33         18.0 
       838.0         0.30         14.9 
       839.0         0.27         12.5 
       840.0         0.32         12.0 
       841.0         0.30         11.2 
       842.0         0.27         10.8 
       843.0         0.13         10.5 
       844.0         0.20         10.3 
       845.0         0.17         10.1 
       846.0         0.20         10.7 
       847.0         0.17         10.9 
       848.0         0.37         11.0 
       849.0         0.20         10.9 
       850.0         0.17         10.7 
       851.0         0.37         11.1 
       852.0         0.33         10.7 
       853.0         0.20         10.7 
       854.0         0.18         10.3 
       855.0         0.13         10.6 
       856.0         0.13         10.2 
       857.0         0.13         10.1 
       858.0         0.17         10.1 
       859.0         0.13         10.6 
       860.0         0.17         10.4 
       861.0         0.17         10.6 
       862.0         0.20         10.7 
       863.0         0.20         10.8 
       864.0         0.23         11.5 
       865.0         0.33         21.1 
       866.0         3.72         53.5 
       867.0         0.37         13.5 
       868.0         0.20         12.6 
       869.0         0.28         11.5 
       870.0         0.30         11.2 
       871.0         0.23         10.9 
       872.0         0.27         10.7 
       873.0         0.23         10.4 
       874.0         0.27         10.8 
       875.0         0.30         10.4 
       876.0         0.20         10.7 
       877.0         0.23         10.4 
       878.0         0.20         10.6 
       879.0         0.27         10.6 
       880.0         0.17         10.4 
       881.0         0.27         10.3 
       882.0         0.20         10.1 
       883.0         0.18         10.8 
       884.0         0.20         10.7 
       885.0         0.17         10.6 
       886.0         0.23         10.7 
       887.0         0.23         10.6 
       888.0         0.23         10.6 
       889.0         0.27         10.7 
       890.0         0.20         10.2 
       891.0         0.20         10.3 
       892.0         0.20         11.1 
       893.0         0.17         13.9 
       894.0         0.17         18.9 
       895.0         0.27         34.3 
       896.0         2.42         54.9 
       897.0         0.23         10.7 
       898.0         0.17         11.0 
       899.0         0.17         10.9 
       900.0         0.23         10.9 
       901.0         0.20         10.3 
       902.0         0.27         10.9 
       903.0         0.25         11.1 
       904.0         0.20         11.1 
       905.0         0.20         11.0 
       906.0         0.23         11.7 
       907.0         0.20         11.9 
       908.0         0.23         11.5 
       909.0         0.23         12.0 
       910.0         0.20         11.7 
       911.0         0.17         10.9 
       912.0         0.13         10.8 
       913.0         0.20         10.9 
       914.0         0.20         11.1 
       915.0         0.23         10.9 
       916.0         0.23         10.5 
       917.0         0.20         10.5 
       918.0         0.23         10.0 
       919.0         0.13         10.3 
       920.0         0.18         10.4 
       921.0         0.17         10.5 
       922.0         0.20         11.4 
       923.0         0.20         15.8 
       924.0         0.23         26.7 
       925.0         0.20         41.7 
       926.0         1.88         70.3 
       927.0         0.20         13.4 
       928.0         0.23         11.5 
       929.0         0.23         10.7 
       930.0         0.20         10.1 
       931.0         0.17         10.3 
       932.0         0.17          9.8 
       933.0         0.30         10.4 
       934.0         0.30         10.1 
       935.0         0.23         10.1 
       936.0         0.17          9.9 
       937.0         0.27         10.2 
       938.0         0.23          9.5 
       939.0         0.17         10.4 
       940.0         0.22         10.6 
       941.0         0.20         10.7 
       942.0         0.23         10.5 
       943.0         0.17         10.1 
       944.0         0.20         10.3 
       945.0         0.20         10.3 
       946.0         0.23          9.7 
       947.0         0.23         10.0 
       948.0         0.23         10.0 
       949.0         0.23         10.1 
       950.0         0.23          9.8 
       951.0         0.23          9.8 
       952.0         0.20          9.9 
       953.0         0.20          9.9 
       954.0         0.18          9.8 
       955.0         0.23         10.4 
       956.0         2.23         30.6 
       957.0         0.23         12.1 
       958.0         0.42         10.8 
       959.0         0.33         10.2 
       960.0         0.27          9.9 
       961.0         0.23         10.3 
       962.0         0.27         11.7 
       963.0         0.13         12.0 
       964.0         0.23         13.0 
       965.0         0.33         14.1 
       966.0         0.20         13.7 
       967.0         0.27         13.2 
       968.0         0.17         11.6 
       969.0         0.17         11.3 
       970.0         0.10         10.7 
       971.0         0.13         10.6 
       972.0         0.28         10.6 
       973.0         0.23         10.5 
       974.0         0.20         10.4 
       975.0         0.17         10.5 
       976.0         0.20         10.1 
       977.0         0.20          9.9 
       978.0         0.17          9.1 
       979.0         0.17          9.6 
       980.0         0.23          9.0 
       981.0         0.20          9.6 
       982.0         0.23          9.7 
       983.0         0.20          9.9 
       984.0         0.23         10.3 
       985.0         0.23         13.8 
       986.0         2.93         74.0 
       987.0         0.37         10.0 
       988.0         0.33          9.9 
       989.0         0.27          9.7 
       990.0         0.23         10.3 
       991.0         0.27         10.6 
       992.0         0.17         10.3 
       993.0         0.23         10.3 
       994.0         0.17          9.7 
       995.0         0.20          9.7 
       996.0         0.27          9.5 
       997.0         0.20          9.6 
       998.0         0.23         10.0 
       999.0         0.23          9.6 
      1000.0         0.28          9.7 
      1001.0         0.23         10.2 
      1002.0         0.23         10.1 
      1003.0         0.20         10.7 
      1004.0         0.17         10.5 
      1005.0         0.20         11.0 
      1006.0         0.23         10.4 
      1007.0         0.20         10.1 
      1008.0         0.13          9.9 
      1009.0         0.17          9.2 
      1010.0         0.20          9.8 
      1011.0         0.20          9.5 
      1012.0         0.17          9.4 
      1013.0         0.17          9.8 
      1014.0         0.17          9.4 
      1015.0         0.20         10.2 
      1016.0         2.45         22.7 
      1017.0         0.33         10.4 
      1018.0         0.13         10.4 
      1019.0         0.30          9.8 
      1020.0         0.38         10.6 
      1021.0         0.23         10.7 
      1022.0         0.30         10.4 
      1023.0         0.23         10.8 
      1024.0         0.20         11.2 
      1025.0         0.20         10.5 
