~Version Information
VERS.                      2.0: CWLS Log ASCII Standard - VERSION 2.0
WRAP.                       NO: One line per depth step
~Well Information Block
STRT.FT               748.2500: 
STOP.FT              2498.5000: 
STEP.FT                 0.2500: 
NULL.                -999.2500: 
COMP.          Petrogulf Corporation: COMPANY
WELL.           Montoya 13-41V: WELL
FLD.           Purgatorie River: FIELD
LOC.           449' FNL & 891' FEL: LOCATION
CNTY.               Las Animas: COUNTY
SRVC.                         : SERVICE COMPANY
DATE.          Tue Aug 17 13:22:31 2004: LOG DATE
UWI.           05 071 08021 00: UNIQUE WELL ID
STAT.                 Colorado: STATE
~Curve Information Block
DEPT.FT            0 000 00 00: Depth
SP.mV                         : DIL Spontaneous Potential
RILD.Ohm-m                    : DIL Deep Resistivity
RILM.Ohm-m                    : DIL Medium Resistivity
RLL3.Ohm-m                    : DIL Shallow Resistivity
GR.GAPI                       : Gamma Ray
~Parameter Information Block
~A  Depth        SP         RILD        RILM        RLL3         GR     
# ...
  1896.2500     60.9954     40.9059     38.5244     37.6713     50.2822
  1896.5000     60.9452     41.4365     39.0819     39.4927     51.9492
  1896.7500     60.9218     42.0307     39.5205     41.2635     52.6530
  1897.0000     60.9340     42.6037     39.8350     42.9686     52.7557
  1897.2500     60.9906     43.0647     40.0412     44.6290     52.2742
  1897.5000     61.0989     43.3410     40.1702     46.2429     51.3774
  1897.7500     61.2633     43.3975     40.2579     47.7475     51.0010
  1898.0000     61.4839     43.2404     40.3367     49.0170     50.8042
  1898.2500     61.7559     42.9080     40.4275     49.8987     50.7865
  1898.5000     62.0683     42.4565     40.5375     50.2676     51.0622
  1898.7500     62.4050     41.9470     40.6584     50.0788     51.7569
  1899.0000     62.7464     41.4402     40.7684     49.4013     54.0486
  1899.2500     63.0717     40.9914     40.8348     48.4340     56.4768
  1899.5000     63.3631     40.6412     40.8182     47.4995     61.0663
  1899.7500     63.6086     40.4020     40.6784     46.9878     64.1961
  1900.0000     63.8042     40.2447     40.3821     47.2151     67.9075
  1900.2500     63.9538     40.0946     39.9104     48.2191     69.4651
  1900.5000     64.0670     39.8482     39.2655     49.6113     70.9340
  1900.7500     64.1552     39.4085     38.4723     50.6401     71.8971
  1901.0000     64.2280     38.7274     37.5755     50.5057     74.0460
  1901.2500     64.2907     37.8331     36.6314     48.7726     76.0730
  1901.5000     64.3433     36.8229     35.6984     45.6151     79.7642
  1901.7500     64.3819     35.8270     34.8289     41.7251     82.3683
  1902.0000     64.4003     34.9674     34.0645     37.9532     85.7122
  1902.2500     64.3930     34.3302     33.4332     34.9310     86.8606
  1902.5000     64.3566     33.9618     32.9509     32.8952     85.6947
  1902.7500     64.2906     33.8794     32.6222     31.7573     82.7596
  1903.0000     64.1973     34.0845     32.4435     31.3041     76.0804
  1903.2500     64.0816     34.5664     32.4045     31.3716     71.1121
  1903.5000     63.9505     35.2950     32.4909     31.9063     64.3823
  1903.7500     63.8119     36.2080     32.6858     32.9211     60.9145
  1904.0000     63.6751     37.2061     32.9716     34.4024     57.6381
  1904.2500     63.5499     38.1717     33.3311     36.2428     56.6547
  1904.5000     63.4461     39.0052     33.7472     38.2381     56.1983
  1904.7500     63.3721     39.6613     34.2031     40.1431     55.8836
  1905.0000     63.3343     40.1565     34.6808     41.7474     54.4685
  1905.2500     63.3357     40.5418     35.1612     42.9293     52.8204
  1905.5000     63.3753     40.8657     35.6236     43.6706     49.9665
  1905.7500     63.4486     41.1541     36.0465     44.0368     48.3546
  1906.0000     63.5482     41.4138     36.4088     44.1378     47.0013
  1906.2500     63.6653     41.6486     36.6912     44.0865     46.9249
  1906.5000     63.7913     41.8670     36.8770     43.9686     47.8509
  1906.7500     63.9189     42.0732     36.9533     43.8330     48.7788
  1907.0000     64.0424     42.2500     36.9107     43.6979     49.8367
  1907.2500     64.1573     42.3467     36.7443     43.5663     50.2212
  1907.5000     64.2592     42.2840     36.4541     43.4420     51.2454
  1907.7500     64.3433     41.9773     36.0454     43.3370     53.0811
  1908.0000     64.4034     41.3671     35.5294     43.2587     58.6077
  1908.2500     64.4331     40.4427     34.9240     43.1798     64.2497
  1908.5000     64.4264     39.2527     34.2529     43.0109     74.7684
  1908.7500     64.3801     37.8973     33.5452     42.6047     81.8527
  1909.0000     64.2940     36.5083     32.8333     41.8035     89.4446
  1909.2500     64.1719     35.2203     32.1506     40.5150     91.0417
  1909.5000     64.0209     34.1420     31.5283     38.7784     88.0227
  1909.7500     63.8507     33.3342     30.9928     36.7810     83.4963
  1910.0000     63.6720     32.8028     30.5629     34.8090     75.3868
  1910.2500     63.4955     32.5045     30.2487     33.1502     70.1661
  1910.5000     63.3305     32.3642     30.0502     32.0007     63.5288
  1910.7500     63.1840     32.2981     29.9581     31.4265     60.0462
  1911.0000     63.0598     32.2366     29.9555     31.3945     56.0994
  1911.2500     62.9585     32.1431     30.0202     31.8410     54.1788
  1911.5000     62.8776     32.0209     30.1284     32.7232     52.3514
  1911.7500     62.8124     31.9101     30.2588     34.0136     51.9579
  1912.0000     62.7568     31.8703     30.3955     35.6426     52.5761
  1912.2500     62.7044     31.9579     30.5317     37.4249     53.4869
  1912.5000     62.6496     32.2061     30.6699     39.0315     54.8522
  1912.7500     62.5880     32.6167     30.8217     40.0550     55.4312
  1913.0000     62.5172     33.1667     31.0058     40.1681     55.6109
  1913.2500     62.4367     33.8268     31.2445     39.2984     55.4287
  1913.5000     62.3474     34.5800     31.5605     37.7070     55.3797
  1913.7500     62.2516     35.4302     31.9738     35.9045     55.8950
  1914.0000     62.1524     36.3921     32.4986     34.4525     57.6745
  1914.2500     62.0538     37.4702     33.1413     33.7726     59.3817
  1914.5000     61.9607     38.6380     33.8980     34.0597     62.4502
  1914.7500     61.8793     39.8334     34.7541     35.3093     64.6372
  1915.0000     61.8167     40.9711     35.6831     37.3928     67.1361
  1915.2500     61.7807     41.9689     36.6469     40.1139     67.3387
  1915.5000     61.7785     42.7719     37.5985     43.2300     64.5604
  1915.7500     61.8156     43.3654     38.4841     46.4650     61.2417
  1916.0000     61.8951     43.7714     39.2481     49.5489     56.2952
  1916.2500     62.0174     44.0313     39.8373     52.2787     53.9470
  1916.5000     62.1811     44.1780     40.2060     54.5543     51.8403
  1916.7500     62.3832     44.2042     40.3203     56.3442     50.9475
  1917.0000     62.6202     44.0434     40.1625     57.5920     50.0895
  1917.2500     62.8883     43.5798     39.7337     58.1385     49.9386
  1917.5000     63.1832     42.6954     39.0543     57.7441     50.3752
  1917.7500     63.5000     41.3437     38.1616     56.2212     51.0126
  1918.0000     63.8328     39.6013     37.1043     53.5991     52.3645
  1918.2500     64.1753     37.6599     35.9361     50.1998     53.4697
  1918.5000     64.5212     35.7587     34.7096     46.5504     55.3205
  1918.7500     64.8655     34.1016     33.4716     43.1691     56.6983
  1919.0000     65.2042     32.8051     32.2609     40.3504     59.1495
  1919.2500     65.5341     31.8868     31.1084     38.0822     61.1341
  1919.5000     65.8520     31.2830     30.0376     36.1337     64.6821
  1919.7500     66.1536     30.8818     29.0660     34.2434     67.2306
  1920.0000     66.4335     30.5631     28.2063     32.2874     70.2087
  1920.2500     66.6853     30.2358     27.4673     30.3374     70.7378
  1920.5000     66.9029     29.8591     26.8537     28.5988     68.7623
  1920.7500     67.0824     29.4399     26.3663     27.2873     66.2064
  1921.0000     67.2238     29.0114     26.0013     26.5249     62.1623
  1921.2500     67.3317     28.6116     25.7502     26.3045     59.8791
  1921.5000     67.4157     28.2708     25.5990     26.5195     57.3582
  1921.7500     67.4886     28.0091     25.5286     27.0201     56.5446
  1922.0000     67.5648     27.8370     25.5156     27.6605     57.2873
  1922.2500     67.6574     27.7533     25.5340     28.3280     59.1165
  1922.5000     67.7763     27.7406     25.5593     28.9536     62.7990
  1922.7500     67.9262     27.7643     25.5712     29.5070     64.9361
  1923.0000     68.1061     27.7797     25.5579     29.9773     66.6484
  1923.2500     68.3094     27.7466     25.5168     30.3466     66.9312
  1923.5000     68.5249     27.6452     25.4532     30.5759     67.1099
  1923.7500     68.7378     27.4819     25.3769     30.6172     67.5647
  1924.0000     68.9312     27.2815     25.2972     30.4457     68.8595
