~Version Information
VERS.                      2.0: CWLS Log ASCII Standard - VERSION 2.0
WRAP.                       NO: One line per depth step
~Well Information Block
STRT.FT               840.0000: 
STOP.FT              2450.0000: 
STEP.FT                 0.1000: 
NULL.                -999.2500: 
COMP.          Petrogulf Corporation: COMPANY
WELL.             Leier 17-42V: WELL
FLD.           Purgatorie River: FIELD
LOC.           2309' FNL & 1062' FEL SENE 17 33S 67W: LOCATION
PROV.                 Colorado: PROVINCE
CNTY.               Las Animas: COUNTRY
SRVC.                Patterson: SERVICE COMPANY
DATE.          Thu Sep 22 09:35:36 2005: LOG DATE
UWI.           071 08409 : UNIQUE WELL ID
~Curve Information Block
DEPT.FT            0 000 00 00: Depth
DCAL.in                       : CDL Caliper
RHOB.g/cc                     : CDL Bulk Density
RHOC.g/cc                     : CDL Density Correction
DPOR.pu                       : CDL Density Porosity
GR.GAPI                       : Gamma Ray
NPOR.pu                       : Neutron Porosity
~Parameter Information Block
~A  Depth       DCAL        RHOB        RHOC        DPOR         GR         NPOR    
# ...
  2433.6000      7.8122      2.5430      0.0103      6.4876    101.5661   -999.2500
  2433.7000      7.8122      2.5255      0.0277      7.5472     99.0209   -999.2500
  2433.8000      7.7903      2.5241      0.0505      7.6325     97.6664   -999.2500
  2433.9000      7.7903      2.5277      0.0409      7.4132     94.5920   -999.2500
  2434.0000      7.7860      2.5282      0.0663      7.3793     91.2964   -999.2500
  2434.1000      7.7860      2.5324      0.0454      7.1254     91.8388   -999.2500
  2434.2000      7.7860      2.5494      0.0601      6.0947     96.8509   -999.2500
  2434.3000      7.8050      2.5655      0.0808      5.1192    101.2773   -999.2500
  2434.4000      7.8050      2.5661      0.0698      5.0841    100.2248   -999.2500
  2434.5000      7.7998      2.5600      0.0631      5.4538     94.2911   -999.2500
  2434.6000      7.7998      2.5538      0.0734      5.8276     88.2563   -999.2500
  2434.7000      7.7998      2.5504      0.0293      6.0393     85.7262   -999.2500
  2434.8000      7.8019      2.5567      0.0407      5.6522     87.2143   -999.2500
  2434.9000      7.8019      2.5615      0.0698      5.3655     90.8608   -999.2500
  2435.0000      7.8096      2.5482      0.0199      6.1714     94.6648   -999.2500
  2435.1000      7.8096      2.5231      0.0213      7.6897     98.3602   -999.2500
  2435.2000      7.8096      2.4979      0.0739      9.2180    101.2439   -999.2500
  2435.3000      7.8042      2.4769      0.0346     10.4907    103.1119   -999.2500
  2435.4000      7.8042      2.4654      0.0022     11.1894    103.9428   -999.2500
  2435.5000      7.8015      2.4683      0.0204     11.0123    103.1247   -999.2500
  2435.6000      7.8015      2.4864      0.0119      9.9132    100.8178   -999.2500
  2435.7000      7.8015      2.5151      0.0726      8.1758     99.3573   -999.2500
  2435.8000      7.7982      2.5504      0.0899      6.0377     98.6489   -999.2500
  2435.9000      7.7982      2.5927      0.1805      3.4733     97.7378   -999.2500
  2436.0000      7.7663      2.6271      0.2272      1.3853     97.7859   -999.2500
  2436.1000      7.7663      2.6335      0.1757      1.0012     97.7593   -999.2500
  2436.2000      7.7663      2.6192      0.1570      1.8694     95.7012   -999.2500
  2436.3000      7.7505      2.6097      0.1115      2.4422     92.5856   -999.2500
  2436.4000      7.7505      2.6196      0.0937      1.8454     88.1046   -999.2500
  2436.5000      7.7690      2.6451      0.1104      0.2983     77.2278   -999.2500
  2436.6000      7.7690      2.6717      0.0984     -1.3170     55.4791   -999.2500
  2436.7000      7.7690      2.6879      0.1336     -2.2969     28.2622   -999.2500
  2436.8000      7.7770      2.6911      0.1108     -2.4934      8.9990   -999.2500
  2436.9000      7.7770      2.6818      0.1109     -1.9277      1.6521   -999.2500
  2437.0000      7.7691      2.6579      0.1014     -0.4759      0.1671   -999.2500
  2437.1000      7.7691      2.6250      0.0684      1.5159      0.0089   -999.2500
  2437.2000      7.7691      2.5946      0.0436      3.3585      0.0000   -999.2500
  2437.3000      7.7511      2.5723      0.0484      4.7096   -999.2500   -999.2500
  2437.4000      7.7511      2.5639      0.0353      5.2152   -999.2500   -999.2500
  2437.5000      7.7634      2.5722      0.0512      4.7178   -999.2500   -999.2500
  2437.6000      7.7634      2.5884     -0.0238      3.7304   -999.2500   -999.2500
  2437.7000      7.7634      2.5980      0.0953      3.1488   -999.2500   -999.2500
  2437.8000      7.7980      2.5910      0.0287      3.5778   -999.2500   -999.2500
  2437.9000      7.7980      2.5846      0.0211      3.9621   -999.2500   -999.2500
  2438.0000      7.8034      2.5965      0.0569      3.2417   -999.2500   -999.2500
  2438.1000      7.8034      2.6068      0.0848      2.6207   -999.2500   -999.2500
  2438.2000      7.8034      2.5897      0.0432      3.6560   -999.2500   -999.2500
  2438.3000      7.8027      2.5602      0.0171      5.4405   -999.2500   -999.2500
  2438.4000      7.8027      2.5562      0.0055      5.6852   -999.2500   -999.2500
  2438.5000      7.8035      2.5868      0.0563      3.8300   -999.2500   -999.2500
  2438.6000      7.8035      2.6214      0.1247      1.7350   -999.2500   -999.2500
  2438.7000      7.8035      2.6205      0.1187      1.7894   -999.2500   -999.2500
  2438.8000      7.8037      2.5770      0.0775      4.4247   -999.2500   -999.2500
  2438.9000      7.8037      2.5246      0.0234      7.6011   -999.2500   -999.2500
  2439.0000      7.8034      2.4985     -0.0259      9.1814   -999.2500   -999.2500
  2439.1000      7.8034      2.4998      0.0377      9.1002   -999.2500   -999.2500
  2439.2000      7.8034      2.5051      0.0115      8.7846   -999.2500   -999.2500
  2439.3000      7.8012      2.4985      0.0528      9.1817   -999.2500   -999.2500
  2439.4000      7.8012      2.4813      0.0227     10.2225   -999.2500   -999.2500
  2439.5000      7.8007      2.4683     -0.0383     11.0129   -999.2500   -999.2500
  2439.6000      7.8007      2.4693      0.0287     10.9498   -999.2500   -999.2500
  2439.7000      7.8007      2.4733      0.0507     10.7105   -999.2500   -999.2500
  2439.8000      7.8065      2.4735      0.0161     10.6982   -999.2500   -999.2500
  2439.9000      7.8065      2.4802      0.0312     10.2889   -999.2500   -999.2500
  2440.0000      7.8030      2.4945      0.0459      9.4215   -999.2500   -999.2500
  2440.1000      7.8030      2.5039      0.0681      8.8518   -999.2500   -999.2500
  2440.2000      7.8030      2.4996      0.0802      9.1142   -999.2500   -999.2500
  2440.3000      7.7830      2.4806      0.0968     10.2642   -999.2500   -999.2500
  2440.4000      7.7830      2.4582      0.0197     11.6268   -999.2500   -999.2500
  2440.5000      7.7565      2.4485      0.0460     12.2116   -999.2500   -999.2500
  2440.6000      7.7565      2.4503      0.0918     12.1031   -999.2500   -999.2500
  2440.7000      7.7565      2.4581      0.0276     11.6326   -999.2500   -999.2500
  2440.8000      7.7536      2.4756      0.0676     10.5692   -999.2500   -999.2500
  2440.9000      7.7536      2.4981      0.0824      9.2072   -999.2500   -999.2500
  2441.0000      7.7782      2.5175      0.0860      8.0304   -999.2500   -999.2500
  2441.1000      7.7782      2.5357      0.1124      6.9300   -999.2500   -999.2500
  2441.2000      7.7782      2.5492      0.1528      6.1116   -999.2500   -999.2500
  2441.3000      7.7832      2.5469      0.1424      6.2505   -999.2500   -999.2500
  2441.4000      7.7832      2.5339      0.0986      7.0345   -999.2500   -999.2500
  2441.5000      7.7793      2.5290      0.1088      7.3309   -999.2500   -999.2500
  2441.6000      7.7793      2.5405      0.0994      6.6385   -999.2500   -999.2500
  2441.7000      7.7793      2.5628      0.1139      5.2857   -999.2500   -999.2500
  2441.8000      7.7696      2.5841      0.1545      3.9914   -999.2500   -999.2500
  2441.9000      7.7696      2.5946      0.1455      3.3553   -999.2500   -999.2500
  2442.0000      7.7623      2.5941      0.1219      3.3885   -999.2500   -999.2500
  2442.1000      7.7623      2.5871      0.1329      3.8148   -999.2500   -999.2500
  2442.2000      7.7623      2.5729      0.1201      4.6703   -999.2500   -999.2500
  2442.3000      7.7695      2.5506      0.0819      6.0217   -999.2500   -999.2500
  2442.4000      7.7695      2.5250      0.0708      7.5745   -999.2500   -999.2500
  2442.5000      7.7771      2.5037      0.0279      8.8692   -999.2500   -999.2500
  2442.6000      7.7771      2.4903      0.0609      9.6814   -999.2500   -999.2500
  2442.7000      7.7771      2.4831      0.0467     10.1175   -999.2500   -999.2500
  2442.8000      7.7723      2.4813      0.0616     10.2255   -999.2500   -999.2500
  2442.9000      7.7723      2.4808      0.0629     10.2530   -999.2500   -999.2500
  2443.0000      7.7610      2.4868      0.0347      9.8910   -999.2500   -999.2500
  2443.1000      7.7610      2.5095      0.0767      8.5174   -999.2500   -999.2500
