~Version Information
VERS.                      2.0: CWLS Log ASCII Standard - VERSION 2.0
WRAP.                       NO: One line per depth step
~Well Information Block
STRT.FT               650.0000: 
STOP.FT              1080.5000: 
STEP.FT                 0.1000: 
NULL.                -999.2500: 
COMP.          Pioneer Natural Resources: COMPANY
WELL.            Galileo 21-11: WELL
FLD.           Purgatoire River: FIELD
LOC.           407' FNL & 2394' FWL: LOCATION
PROV.                 Colorado: PROVINCE
CNTY.               Las Animas: COUNTRY
SRVC.                Patterson: SERVICE COMPANY
DATE.          Mon Apr 11 16:20:08 2005: LOG DATE
UWI.           05 071 08353 00: UNIQUE WELL ID
~Curve Information Block
DEPT.FT            0 000 00 00: Depth
DCAL.in                       : CDL Caliper
RHOB.g/cc                     : CDL Bulk Density
RHOC.g/cc                     : CDL Density Correction
DPOR.pu                       : CDL Density Porosity
GR.GAPI                       : Gamma Ray
NPOR.pu                       : Neutron Porosity
~Parameter Information Block
~A  Depth       DCAL        RHOB        RHOC        DPOR         GR         NPOR    
# ...
   678.8000     11.8714      2.5540      0.1323      5.8178    100.4622     18.1854
   678.9000     11.8714      2.5444      0.0871      6.4023     98.6676     17.3970
   679.0000     11.8564      2.5221      0.1024      7.7539     95.6430     16.6990
   679.1000     11.8564      2.4795      0.1028     10.3352     92.2986     15.9821
   679.2000     11.8564      2.4089      0.1152     14.6119     88.4615     15.3315
   679.3000     11.7398      2.3034      0.0954     21.0085     87.2787     15.0422
   679.4000     11.7398      2.1746      0.0153     28.8148     91.6284     15.2580
   679.5000     11.6979      2.0520     -0.0623     36.2443     99.5805     15.6276
   679.6000     11.6979      1.9618     -0.0654     41.7098    106.5443     15.9551
   679.7000     11.6979      1.9449     -0.0703     42.7356    111.8044     16.3262
   679.8000     11.5390      2.0492      0.0161     36.4113    119.6121     16.7788
   679.9000     11.5390      2.2524      0.2850     24.0964    131.1509     17.6556
   680.0000     11.3155      2.4567      0.4742     11.7139    141.9679     19.1528
   680.1000     11.3155      2.5901      0.5701      3.6301    148.3206     20.7152
   680.2000     11.3155      2.6531      0.6350     -0.1854    149.3639     21.9032
   680.3000     11.0735      2.6785      0.6223     -1.7288    147.1487     22.7337
   680.4000     11.0735      2.6943      0.5428     -2.6827    143.9113     22.9990
   680.5000     10.4432      2.7070      0.4825     -3.4559    140.6741     22.9673
   680.6000     10.4432      2.6989      0.4212     -2.9657    138.6891     23.2790
   680.7000     10.4432      2.6652      0.2091     -0.9229    134.5629     24.0481
   680.8000      8.3927      2.6397      0.1672      0.6238    126.5358     25.0140
   680.9000      8.3927      2.6408      0.1855      0.5578    120.1678     25.5115
   681.0000      8.1057      2.6442      0.2389      0.3511    119.8313     25.2630
   681.1000      8.1057      2.6350      0.1758      0.9082    123.3069     24.7369
   681.2000      8.1057      2.6308      0.1676      1.1644    124.7402     24.0570
   681.3000      8.1056      2.6316      0.2089      1.1161    120.7678     23.3534
   681.4000      8.1056      2.6152      0.1613      2.1086    113.8436     22.9946
   681.5000      8.1052      2.5872      0.0818      3.8074    109.2848     22.8915
   681.6000      8.1052      2.5707      0.1077      4.8048    109.2559     22.5957
   681.7000      8.1052      2.5668      0.1227      5.0397    109.4070     21.9722
   681.8000      8.1057      2.5584      0.0852      5.5500    105.9773     21.4305
   681.9000      8.1057      2.5392      0.0707      6.7128    103.4345     21.3060
   682.0000      8.1074      2.5294      0.0150      7.3084    107.3491     21.2265
   682.1000      8.1074      2.5465      0.0855      6.2734    113.6456     20.7344
   682.2000      8.1074      2.5755      0.1638      4.5160    114.4357     20.1151
   682.3000      8.1074      2.5963      0.1212      3.2543    109.2242     19.6446
   682.4000      8.1074      2.6070      0.1180      2.6035    103.1074     19.2976
   682.5000      8.1064      2.6074      0.1325      2.5807     98.1888     19.2768
   682.6000      8.1064      2.5994      0.0716      3.0667     93.5759     19.6157
   682.7000      8.1064      2.5893      0.0868      3.6784     89.2517     20.1819
   682.8000      8.1096      2.5774      0.0735      4.4001     87.2479     20.6831
   682.9000      8.1096      2.5620      0.0690      5.3353     88.2932     20.8008
   683.0000      8.1061      2.5419      0.0741      6.5490     88.8317     20.8156
   683.1000      8.1061      2.5210      0.0170      7.8172     86.9170     20.9362
   683.2000      8.1061      2.5113     -0.0000      8.4040     86.5607     20.8026
   683.3000      8.1052      2.5173      0.0391      8.0409     91.4330     20.5761
   683.4000      8.1052      2.5260      0.0245      7.5152     98.3007     20.9213
   683.5000      8.1026      2.5257      0.0280      7.5323     99.7421     21.7083
   683.6000      8.1026      2.5172      0.0461      8.0514     93.6872     22.2349
   683.7000      8.1026      2.5075      0.0342      8.6371     83.8212     22.1510
   683.8000      8.1037      2.5034      0.0365      8.8851     75.4678     21.5917
   683.9000      8.1037      2.5071      0.0285      8.6623     74.4384     21.0241
   684.0000      8.1028      2.5230      0.0439      7.6948     80.6245     20.9358
   684.1000      8.1028      2.5535      0.1089      5.8506     85.9017     21.1231
   684.2000      8.1028      2.5884      0.1012      3.7338     84.8995     20.9612
   684.3000      8.1037      2.6080      0.1663      2.5448     81.2578     20.4295
   684.4000      8.1037      2.5990      0.1378      3.0903     79.6563     20.1491
   684.5000      8.1024      2.5816      0.1094      4.1483     80.8032     20.3293
   684.6000      8.1024      2.5860      0.1452      3.8782     82.8958     20.5729
   684.7000      8.1024      2.6072      0.1311      2.5965     83.0617     20.6787
   684.8000      8.1031      2.6158      0.1491      2.0756     79.6762     20.9017
   684.9000      8.1031      2.5930      0.1356      3.4534     75.2206     21.2239
   685.0000      8.1012      2.5523      0.0909      5.9215     73.9344     21.3860
   685.1000      8.1012      2.5201      0.0918      7.8704     76.5826     21.4563
   685.2000      8.1012      2.4996      0.0714      9.1130     82.4789     21.3772
   685.3000      8.1004      2.4760      0.0545     10.5463     89.2281     20.9732
   685.4000      8.1004      2.4420      0.0539     12.6047     90.8858     20.6386
   685.5000      8.0993      2.4027      0.0368     14.9852     86.5205     20.6416
   685.6000      8.0993      2.3721      0.0072     16.8447     79.2664     20.5083
   685.7000      8.0993      2.3630      0.0325     17.3939     72.8159     19.8773
   685.8000      8.0925      2.3779      0.0577     16.4904     73.6359     19.1754
   685.9000      8.0925      2.4219      0.0704     13.8258     81.0073     19.0194
   686.0000      8.0520      2.4974      0.1537      9.2459     85.4260     19.8140
   686.1000      8.0520      2.5800      0.2646      4.2419     83.4888     21.3214
   686.2000      8.0520      2.6384      0.3232      0.7053     80.1659     22.4380
   686.3000      8.0345      2.6618      0.3370     -0.7164     80.0433     22.5373
   686.4000      8.0345      2.6562      0.3015     -0.3784     84.1302     21.8320
   686.5000      8.1270      2.6349      0.2602      0.9157     89.6957     20.9593
   686.6000      8.1270      2.6121      0.1792      2.2941     90.4227     20.5492
   686.7000      8.1270      2.5950      0.1883      3.3320     84.0010     20.4317
   686.8000      8.1594      2.5779      0.1408      4.3693     76.7755     20.0516
   686.9000      8.1594      2.5605      0.0896      5.4244     74.7309     19.4954
   687.0000      8.1636      2.5591      0.0664      5.5091     76.3574     19.4583
   687.1000      8.1636      2.5801      0.1203      4.2345     76.5349     20.0829
   687.2000      8.1636      2.6020      0.1677      2.9092     74.2601     20.5675
   687.3000      8.1634      2.6016      0.1770      2.9347     75.7105     20.0159
   687.4000      8.1634      2.5789      0.1665      4.3076     84.5082     18.7853
   687.5000      8.1634      2.5522      0.1200      5.9248     93.1655     18.1184
   687.6000      8.1634      2.5460      0.0630      6.3017     93.4134     18.4967
   687.7000      8.1634      2.5703      0.0636      4.8332     91.0537     19.4545
   687.8000      8.1634      2.6007      0.1450      2.9881     93.9563     20.3592
   687.9000      8.1634      2.6091      0.1212      2.4795     97.0655     20.6135
   688.0000      8.1638      2.5982      0.1125      3.1423     95.5265     20.2354
   688.1000      8.1638      2.5882      0.0934      3.7452     93.2192     19.8152
   688.2000      8.1638      2.5926      0.1161      3.4805     91.5357     19.7157
   688.3000      8.1639      2.6028      0.1318      2.8633     90.2470     19.9429
