~Version Information
VERS.                      2.0: CWLS Log ASCII Standard - VERSION 2.0
WRAP.                       NO: One line per depth step
~Well Information Block
STRT.FT               758.7500: 
STOP.FT              2420.7500: 
STEP.FT                 0.2500: 
NULL.                -999.2500: 
COMP.          Petrogulf Corporation: COMPANY
WELL.            Montoya 7-21V: WELL
FLD.           Purgatorie River: FIELD
LOC.           738' FSL & 2070' FWL: LOCATION
CNTY.               Las Animas: COUNTY
SRVC.                         : SERVICE COMPANY
DATE.          Fri Aug 20 07:13:07 2004: LOG DATE
UWI.           05 071 08018 00: UNIQUE WELL ID
STAT.                 Colorado: STATE
~Curve Information Block
DEPT.FT            0 000 00 00: Depth
SP.mV                         : DIL Spontaneous Potential
RILD.Ohm-m                    : DIL Deep Resistivity
RILM.Ohm-m                    : DIL Medium Resistivity
RLL3.Ohm-m                    : DIL Shallow Resistivity
GR.GAPI                       : Gamma Ray
~Parameter Information Block
~A  Depth        SP         RILD        RILM        RLL3         GR     
# ...
  1094.7500    -27.6984     22.1251     30.3737     59.5855    132.4394
  1095.0000    -28.0446     21.4944     28.9222     49.8600    139.4364
  1095.2500    -28.4725     20.8274     27.4557     40.5239    144.1158
  1095.5000    -28.9504     20.1670     26.0752     32.7108    150.9542
  1095.7500    -29.4204     19.5362     24.8346     26.9118    155.5621
  1096.0000    -29.8099     18.9423     23.7515     23.0682    161.9270
  1096.2500    -30.0521     18.3846     22.8209     20.8127    164.8883
  1096.5000    -30.1051     17.8622     22.0270     19.6986    166.4484
  1096.7500    -29.9641     17.3788     21.3516     19.3302    165.8374
  1097.0000    -29.6665     16.9468     20.7775     19.3961    163.5023
  1097.2500    -29.2808     16.5866     20.2909     19.6559    161.4568
  1097.5000    -28.8957     16.3211     19.8801     19.9259    158.3119
  1097.7500    -28.5988     16.1678     19.5346     20.0823    156.6326
  1098.0000    -28.4565     16.1296     19.2443     20.0722    155.2969
  1098.2500    -28.4949     16.1867     19.0004     19.9142    155.2386
  1098.5000    -28.6923     16.2925     18.7960     19.6808    156.4204
  1098.7500    -28.9894     16.3786     18.6272     19.4681    158.1264
  1099.0000    -29.3150     16.3734     18.4935     19.3669    161.7881
  1099.2500    -29.6165     16.2310     18.3956     19.4340    164.4656
  1099.5000    -29.8813     15.9541     18.3342     19.6712    168.1516
  1099.7500    -30.1346     15.5932     18.3072     20.0189    170.4404
  1100.0000    -30.4170     15.2245     18.3082     20.3763    173.9502
  1100.2500    -30.7605     14.9211     18.3269     20.6447    176.1301
  1100.5000    -31.1721     14.7334     18.3509     20.7646    178.2465
  1100.7500    -31.6381     14.6827     18.3688     20.7269    178.7567
  1101.0000    -32.1370     14.7616     18.3739     20.5647    179.3405
  1101.2500    -32.6507     14.9398     18.3663     20.3425    180.5753
  1101.5000    -33.1611     15.1727     18.3526     20.1450    184.3651
  1101.7500    -33.6403     15.4135     18.3434     20.0543    187.8077
  1102.0000    -34.0435     15.6268     18.3492     20.1153    192.9619
  1102.2500    -34.3128     15.7968     18.3775     20.3124    195.3956
  1102.5000    -34.3967     15.9265     18.4290     20.5781    196.0119
  1102.7500    -34.2712     16.0296     18.4984     20.8305    194.3119
  1103.0000    -33.9510     16.1195     18.5750     21.0114    190.6853
  1103.2500    -33.4820     16.2021     18.6457     21.0996    189.2374
  1103.5000    -32.9244     16.2753     18.6979     21.1023    189.3941
  1103.7500    -32.3322     16.3320     18.7224     21.0404    190.0182
  1104.0000    -31.7425     16.3654     18.7134     20.9436    189.4575
  1104.2500    -31.1780     16.3726     18.6699     20.8476    187.5964
  1104.5000    -30.6577     16.3554     18.5944     20.7869    183.2941
  1104.7500    -30.2073     16.3183     18.4923     20.7874    180.1803
  1105.0000    -29.8665     16.2659     18.3710     20.8642    176.1183
  1105.2500    -29.6819     16.2005     18.2403     21.0178    173.9473
  1105.5000    -29.6955     16.1240     18.1114     21.2209    171.1267
  1105.7500    -29.9237     16.0415     17.9963     21.4093    169.3713
  1106.0000    -30.3448     15.9652     17.9075     21.4980    167.3601
  1106.2500    -30.8946     15.9142     17.8574     21.4207    166.9007
  1106.5000    -31.4776     15.9108     17.8582     21.1659    167.5397
  1106.7500    -31.9900     15.9719     17.9214     20.7792    168.1398
  1107.0000    -32.3478     16.1027     18.0578     20.3380    167.8456
  1107.2500    -32.5092     16.2944     18.2772     19.9327    166.6882
  1107.5000    -32.4824     16.5286     18.5871     19.6718    164.7556
  1107.7500    -32.3237     16.7850     18.9909     19.7109    164.2412
  1108.0000    -32.1244     17.0482     19.4865     20.2799    164.5859
  1108.2500    -31.9880     17.3067     20.0641     21.6726    164.3086
  1108.5000    -32.0092     17.5476     20.7037     24.1647    160.5532
  1108.7500    -32.2529     17.7492     21.3744     27.8533    155.3115
  1109.0000    -32.7333     17.8832     22.0339     32.4715    144.8343
  1109.2500    -33.4054     17.9241     22.6321     37.2959    137.7475
  1109.5000    -34.1644     17.8647     23.1179     41.2683    129.7235
  1109.7500    -34.8616     17.7234     23.4490     43.3534    127.3828
  1110.0000    -35.3348     17.5396     23.6023     42.9837    129.8366
  1110.2500    -35.4516     17.3581     23.5799     40.3363    135.5653
  1110.5000    -35.1517     17.2124     23.4078     36.2531    148.2921
  1110.7500    -34.4683     17.1163     23.1279     31.8511    157.0640
  1111.0000    -33.5246     17.0637     22.7874     28.0700    166.2408
  1111.2500    -32.4914     17.0355     22.4291     25.4053    168.5374
  1111.5000    -31.5326     17.0108     22.0868     23.9040    167.6101
  1111.7500    -30.7585     16.9741     21.7831     23.3219    165.9074
  1112.0000    -30.2055     16.9202     21.5320     23.3086    163.8853
  1112.2500    -29.8500     16.8523     21.3424     23.5435    162.7742
  1112.5000    -29.6414     16.7809     21.2200     23.8130    159.9324
  1112.7500    -29.5282     16.7205     21.1710     24.0319    156.9265
  1113.0000    -29.4779     16.6904     21.2023     24.2120    152.2462
  1113.2500    -29.4700     16.7126     21.3220     24.4025    150.3266
  1113.5000    -29.4899     16.8097     21.5386     24.6439    150.4051
  1113.7500    -29.5192     16.9995     21.8598     24.9590    152.4077
  1114.0000    -29.5347     17.2916     22.2923     25.3704    158.0039
  1114.2500    -29.5158     17.6859     22.8406     25.9183    163.1088
  1114.5000    -29.4547     18.1746     23.5073     26.6583    171.3245
  1114.7500    -29.3661     18.7476     24.2940     27.6443    175.9776
  1115.0000    -29.2918     19.3970     25.2032     28.9027    180.3557
  1115.2500    -29.2961     20.1168     26.2416     30.4052    181.3979
  1115.5000    -29.4489     20.9000     27.4238     32.0534    180.3344
  1115.7500    -29.7996     21.7341     28.7766     33.6948    177.9597
  1116.0000    -30.3527     22.6005     30.3408     35.1800    172.4823
  1116.2500    -31.0558     23.4772     32.1693     36.4629    168.4250
  1116.5000    -31.8039     24.3427     34.3231     37.7184    163.3961
  1116.7500    -32.4684     25.1790     36.8592     39.4196    160.9385
  1117.0000    -32.9320     25.9757     39.8167     42.2913    156.8876
  1117.2500    -33.1229     26.7385     43.2013     47.0920    152.3710
  1117.5000    -33.0306     27.5002     46.9699     54.2954    141.1330
  1117.7500    -32.6983     28.3264     51.0242     63.8491    130.7616
  1118.0000    -32.2023     29.3084     55.2223     75.1800    112.5964
  1118.2500    -31.6260     30.5385     59.4049     87.4592    100.1503
  1118.5000    -31.0432     32.0779     63.4360     99.9697     83.3497
  1118.7500    -30.5084     33.9221     67.2402    112.3538     74.3651
  1119.0000    -30.0598     35.9745     70.8201    124.6163     64.5580
  1119.2500    -29.7236     38.0331     74.2552    136.8948     59.9461
  1119.5000    -29.5161     39.8129     77.6759    149.1284     54.5069
  1119.7500    -29.4513     41.0129     81.2282    160.8082     51.1567
  1120.0000    -29.5445     41.4175     85.0326    170.9712     46.1664
  1120.2500    -29.8085     40.9925     89.1438    178.4742     43.2565
  1120.5000    -30.2497     39.9055     93.5181    182.4032     40.5484
  1120.7500    -30.8567     38.4628     97.9951    182.3960     40.0645
  1121.0000    -31.5913     36.9954    102.3160    178.7499     40.8962
  1121.2500    -32.3943     35.7751    106.1794    172.3082     42.2904
  1121.5000    -33.1980     34.9734    109.3235    164.1837     46.0266
  1121.7500    -33.9497     34.6606    111.6170    155.4065     49.9644
  1122.0000    -34.6282     34.8116    113.0989    146.6592     57.6885
  1122.2500    -35.2441     35.3234    113.9396    138.2758     63.0371
  1122.5000    -35.8266     36.0431    114.3895    130.5111     69.1717
