~Version Information
VERS.                      2.0: CWLS Log ASCII Standard - VERSION 2.0
WRAP.                       NO: One line per depth step
~Well Information Block
STRT.FT                -8.0000: 
STOP.FT              2410.0000: 
STEP.FT                 0.2500: 
NULL.                -999.2500: 
COMP.          Petrogulf Corporation: COMPANY
WELL.            Torcom 17-33V: WELL
FLD.           Purgatorie River: FIELD
LOC.           1544' FSL & 1746' FEL--: LOCATION
PROV.                       CO: PROVINCE
CNTY.               Las Animas: COUNTRY
SRVC.          Patterson Wireline: SERVICE COMPANY
DATE.          Wed Dec 10 17:24:27 2003: LOG DATE
UWI.                          : UNIQUE WELL ID
~Curve Information Block
DEPT.FT            0 000 00 00: Depth
CCL.                          : Casing Collar Locator
TT3.usec                      : CBL 3' Travel Time
AMP3.mV                       : CBL 3' Amplitude
GR.GAPI                       : Gamma Ray
~Parameter Information Block
~A  Depth       CCL         TT3         AMP3         GR     
# ...
  1734.0000      0.0000    715.9683      1.0822     93.4586
  1734.2500      0.0000    708.6517      1.2050     93.2922
  1734.5000      0.0000    699.4671      1.3671     93.8590
  1734.7500      0.0000    689.0026      1.4962     95.1155
  1735.0000      0.0000    678.4036      1.5598     96.0256
  1735.2500      0.0000    669.4337      1.5650     95.7121
  1735.5000      0.0000    663.4178      1.5320     94.0389
  1735.7500      0.0000    660.3611      1.4695     91.1131
  1736.0000      0.0000    659.2814      1.3743     86.6724
  1736.2500      0.0000    659.1315      1.2533     80.2866
  1736.5000      0.0000    659.3016      1.1414     72.0553
  1736.7500      0.0000    659.5815      1.0904     62.7983
  1737.0000      0.0000    659.9163      1.1290     53.5646
  1737.2500      0.0000    660.2219      1.2362     45.1601
  1737.5000      0.0000    660.3342      1.3581     38.1878
  1737.7500      0.0000    660.1041      1.4507     33.2687
  1738.0000      0.0000    659.5533      1.5013     30.9637
  1738.2500      0.0000    658.9297      1.5180     31.3519
  1738.5000      0.0000    658.5614      1.5106     33.7479
  1738.7500      0.0000    658.6252      1.4807     37.0683
  1739.0000      0.0000    659.0606      1.4225     40.5801
  1739.2500      0.0000    659.6793      1.3279     44.1480
  1739.5000      0.0000    660.3120      1.2010     47.6542
  1739.7500      0.0000    660.8477      1.0733     50.4339
  1740.0000      0.0000    661.2180      0.9980     51.6714
  1740.2500      0.0000    661.4847      1.0179     51.3059
  1740.5000      0.0000    661.9912      1.1314     50.1587
  1740.7500      0.0000    663.3549      1.2899     49.0473
  1741.0000      0.0000    666.0714      1.4300     48.0475
  1741.2500      0.0000    669.7802      1.5096     46.7187
  1741.5000      0.0000    672.8693      1.5180     44.8523
  1741.7500      0.0000    673.3298      1.4641     42.8770
  1742.0000      0.0000    670.4742      1.3688     41.5548
  1742.2500      0.0000    665.6218      1.2668     41.2138
  1742.5000      0.0000    660.8719      1.1956     41.2738
  1742.7500      0.0000    657.5050      1.1675     40.7919
  1743.0000      0.0000    655.6578      1.1513     39.6821
  1743.2500      0.0000    655.0410      1.0954     39.1035
  1743.5000      0.0000    655.6329      0.9762     40.2493
  1743.7500      0.0000    657.9827      0.8269     42.8657
  1744.0000      0.0000    663.1854      0.7179     45.2796
  1744.2500      0.0000    672.2733      0.7101     45.8788
  1744.5000      0.0000    684.9449      0.8191     44.4463
  1744.7500      0.0000    698.7974      1.0108     42.1846
  1745.0000      0.0000    710.4631      1.2194     40.6386
  1745.2500      0.0000    718.1274      1.3792     40.5744
  1745.5000      0.0000    723.1389      1.4585     41.6570
  1745.7500      0.0000    729.0096      1.4797     42.8452
  1746.0000      0.0000    738.2835      1.5017     43.0316
  1746.2500      0.0000    749.9734      1.5719     41.7826
  1746.5000      0.0000    760.4189      1.6895     39.9219
  1746.7500      2.0000    766.7166      1.8108     39.2825
  1747.0000      2.0000    768.8260      1.8877     41.4941
  1747.2500      0.0000    769.0078      1.9076     46.7833
  1747.5000      0.0000    770.2331      1.9160     53.9435
  1747.7500      0.0000    774.5739      2.0023     61.4409
  1748.0000      0.0000    781.8521      2.2396     68.4400
  1748.2500      0.0000    789.4528      2.6156     74.7989
  1748.5000      0.0000    793.3741      3.0295     80.2558
  1748.7500      0.0000    790.2530      3.3698     83.8046
  1749.0000      0.0000    780.0699      3.5923     84.0366
  1749.2500      0.0000    767.0598      3.7181     80.2815
  1749.5000      0.0000    756.7374      3.7756     73.4003
  1749.7500      0.0000    752.2382      3.7725     65.2796
  1750.0000      0.0000    753.9707      3.7279     57.6364
  1750.2500      0.0000    760.8588      3.7072     51.4425
  1750.5000      0.0000    769.8179      3.7876     47.0995
  1750.7500      0.0000    775.2317      3.9749     44.5848
  1751.0000      0.0000    771.8730      4.1705     43.4080
  1751.2500      0.0000    759.0320      4.2444     42.7307
  1751.5000      0.0000    740.8981      4.1509     41.7537
  1751.7500      0.0000    723.5104      3.9792     40.1139
  1752.0000      0.0000    711.9693      3.8850     37.9313
  1752.2500      0.0000    709.5899      3.9547     35.5005
  1752.5000      0.0000    717.6334      4.1373     33.1193
  1752.7500      0.0000    734.0555      4.3287     31.2916
  1753.0000      0.0000    752.2137      4.5157     30.7611
  1753.2500      0.0000    763.2234      4.7958     32.0125
  1753.5000      0.0000    762.4838      5.2387     34.8545
  1753.7500      0.0000    753.9178      5.7691     38.8050
  1754.0000      0.0000    746.4391      6.2252     43.9534
  1754.2500      0.0000    746.4447      6.5086     51.3226
  1754.5000      0.0000    753.6062      6.6423     62.1464
  1754.7500      0.0000    762.2581      6.6943     76.4852
  1755.0000      0.0000    766.4856      6.6853     92.4589
  1755.2500      0.0000    765.2815      6.5736    107.0931
  1755.5000      0.0000    763.6802      6.3014    118.1559
  1755.7500      0.0000    768.7538      5.8429    125.1943
  1756.0000      0.0000    783.7294      5.2258    128.8748
  1756.2500      0.0000    804.6252      4.5286    129.7862
  1756.5000      0.0000    822.5203      3.8549    128.4268
  1756.7500      0.0000    831.1744      3.2852    126.0786
  1757.0000      0.0000    833.1461      2.8359    124.5696
  1757.2500      0.0000    836.4924      2.4668    124.6557
  1757.5000      0.0000    844.8808      2.1306    125.2734
  1757.7500      0.0000    853.2447      1.8092    124.9408
  1758.0000      0.0000    854.0104      1.5097    123.5513
  1758.2500      0.0000    845.0131      1.2552    122.3381
  1758.5000      0.0000    829.7622      1.0883    122.2621
  1758.7500      0.0000    812.3536      1.0548    122.9921
  1759.0000      0.0000    794.8917      1.1557    123.5853
  1759.2500      0.0000    778.7997      1.3267    123.5548
  1759.5000      0.0000    766.0031      1.4874    122.8259
  1759.7500      0.0000    758.1609      1.6117    121.2610
  1760.0000      0.0000    755.0724      1.7299    119.0056
  1760.2500      0.0000    753.5548      1.8681    116.9665
  1760.5000      0.0000    748.5564      2.0092    116.1135
  1760.7500      0.0000    737.0112      2.1140    116.3678
  1761.0000      0.0000    721.0749      2.1573    116.7474
  1761.2500      0.0000    706.7651      2.1368    116.5189
  1761.5000      0.0000    699.3431      2.0690    115.7727
  1761.7500      0.0000    700.2547      1.9839    115.1249
  1762.0000      0.0000    707.6625      1.9052    115.2956
  1762.2500      0.0000    718.4847      1.8304    116.7098
  1762.5000      0.0000    729.5513      1.7402    119.0443
  1762.7500      0.0000    737.6625      1.6319    121.3132
  1763.0000      0.0000    740.1589      1.5310    122.6414
  1763.2500      0.0000    736.7516      1.4671    122.6884
  1763.5000      0.0000    730.7979      1.4429    121.2400
  1763.7500      0.0000    727.8329      1.4269    118.0057
  1764.0000      0.0000    731.7617      1.3771    113.2795
  1764.2500      0.0000    741.3492      1.2795    108.4488
  1764.5000      0.0000    750.2717      1.1622    105.2705
  1764.7500      0.0000    752.0684      1.0613    104.5935
  1765.0000      0.0000    746.1045      0.9823    105.9224
  1765.2500      0.0000    737.8824      0.9100    108.1119
  1765.5000      0.0000    732.9744      0.8457    110.3170
  1765.7500      0.0000    731.7478      0.8144    112.4011
  1766.0000      0.0000    730.8171      0.8297    114.6329
  1766.2500      0.0000    728.6158      0.8681    117.0307
  1766.5000      0.0000    727.8087      0.8881    119.0601
  1766.7500      0.0000    731.9328      0.8700    120.0904
  1767.0000      0.0000    741.3313      0.8335    120.0274
  1767.2500      0.0000    753.6710      0.8148    119.3332
