~Version Information
VERS.                      2.0: CWLS Log ASCII Standard - VERSION 2.0
WRAP.                       NO: One line per depth step
~Well Information Block
STRT.FT               -12.2500: 
STOP.FT              2183.0000: 
STEP.FT                 0.2500: 
NULL.                -999.2500: 
COMP.          Petrogulf Corporation: COMPANY
WELL.            Montoya 6-14R: WELL
FLD.           Purgatorie River: FIELD
LOC.           867' FSL & 751' FWL: LOCATION
CNTY.               Las Animas: COUNTY
SRVC.                         : SERVICE COMPANY
DATE.          Mon Nov 22 13:07:31 2004: LOG DATE
UWI.           05-071-08242-00: UNIQUE WELL ID
STAT.                 Colorado: STATE
~Curve Information Block
DEPT.FT            0 000 00 00: Depth
TT3.usec                      : CBL 3' Travel Time
AMP3.mV                       : CBL 3' Amplitude
GR.GAPI                       : Gamma Ray
CCL.                          : Casing Collar Locator
~Parameter Information Block
~A  Depth       TT3         AMP3         GR         CCL     
   -12.2500   -999.2500   -999.2500   -999.2500   -999.2500
   -12.0000   -999.2500   -999.2500   -999.2500      0.0000
   -11.7500   -999.2500   -999.2500   -999.2500      0.0000
   -11.5000   -999.2500   -999.2500   -999.2500      0.0000
   -11.2500   -999.2500   -999.2500   -999.2500      0.0000
   -11.0000   -999.2500   -999.2500   -999.2500      0.0000
   -10.7500   -999.2500   -999.2500   -999.2500      0.0000
   -10.5000   -999.2500   -999.2500   -999.2500      0.0000
   -10.2500   -999.2500   -999.2500   -999.2500      0.0000
   -10.0000   -999.2500   -999.2500   -999.2500      0.0000
    -9.7500   -999.2500   -999.2500   -999.2500      0.0000
    -9.5000   -999.2500   -999.2500   -999.2500      0.0000
    -9.2500   -999.2500   -999.2500   -999.2500      0.0000
    -9.0000   -999.2500   -999.2500     70.6878      0.0000
    -8.7500   -999.2500   -999.2500     71.9828      0.0000
    -8.5000   -999.2500   -999.2500     72.5606      0.0000
    -8.2500   -999.2500   -999.2500     72.0766      0.0000
    -8.0000   -999.2500   -999.2500     70.8338      0.0000
    -7.7500   -999.2500   -999.2500     69.1288      0.0000
    -7.5000   -999.2500   -999.2500     67.2493      0.0000
    -7.2500   -999.2500   -999.2500     65.9430      0.0000
    -7.0000   -999.2500   -999.2500     66.1251      0.0000
    -6.7500   -999.2500   -999.2500     67.8584      0.0000
    -6.5000   -999.2500   -999.2500     69.9977      0.0000
    -6.2500   -999.2500   -999.2500     71.2189      0.0000
    -6.0000   -999.2500   -999.2500     71.3304      0.0000
    -5.7500   -999.2500   -999.2500     71.2786      0.0000
    -5.5000   -999.2500   -999.2500     71.9197      0.0000
    -5.2500   -999.2500   -999.2500     73.1334      0.0000
    -5.0000   -999.2500   -999.2500     74.1440      0.0000
    -4.7500   -999.2500   -999.2500     74.2890      0.0000
    -4.5000   -999.2500   -999.2500     73.3621      0.0000
    -4.2500   -999.2500   -999.2500     71.5479      4.5700
    -4.0000   -999.2500   -999.2500     69.1866     -5.0000
    -3.7500   -999.2500   -999.2500     66.4705     -5.0000
    -3.5000   -999.2500   -999.2500     63.2983     -5.0000
    -3.2500   -999.2500   -999.2500     59.5218      0.0000
    -3.0000   -999.2500   -999.2500     55.3076      5.0000
    -2.7500   -999.2500   -999.2500     51.1317     -5.0000
    -2.5000   1200.0000      0.6331     47.3729     -5.0000
    -2.2500   1200.0000      0.6325     44.0229      0.0000
    -2.0000   1200.0000      0.6187     40.9282      0.0000
    -1.7500   1200.0000      0.5966     38.3470      0.0000
    -1.5000   1200.0000      0.5743     37.0854      0.0000
    -1.2500   1200.0000      0.5583     37.8418      0.0000
    -1.0000   1200.0000      0.5515     40.4101      0.0000
    -0.7500   1200.0000      0.5534     43.7011      0.0000
    -0.5000   1200.0000      0.5608     46.5587      0.0000
    -0.2500   1200.0000      0.5687     48.4494      0.0000
     0.0000   1200.0000      0.5732     49.4903      0.0000
     0.2500   1200.0000      0.5730     50.1823      0.0000
     0.5000   1200.0000      0.5699     51.2076      0.0000
     0.7500   1200.0000      0.5673     53.1805      0.0000
     1.0000   1200.0000      0.5674     56.2626      0.0000
     1.2500   1200.0000      0.5707     59.9143      0.0000
     1.5000   1200.0000      0.5757     63.0228      0.0000
     1.7500   1200.0000      0.5805     64.5244      0.0000
     2.0000   1200.0000      0.5841     64.3308      0.0000
     2.2500   1200.0000      0.5864     63.7025      0.0000
     2.5000   1200.0000      0.5866     64.2804      0.0000
     2.7500   1200.0000      0.5829     66.6123      0.0000
     3.0000   1200.0000      0.5738     69.8580      0.0000
     3.2500   1200.0000      0.5607     72.7721      0.0000
     3.5000   1200.0000      0.5479     74.5585      0.0000
     3.7500   1200.0000      0.5400     74.9740      0.0000
     4.0000   1200.0000      0.5387     74.2469      0.0000
     4.2500   1200.0000      0.5423     72.9732      0.0000
     4.5000   1200.0000      0.5473     71.6112      0.0000
     4.7500   1200.0000      0.5519     69.9895      0.0000
     5.0000   1200.0000      0.5569     67.6580      0.0000
     5.2500   1200.0000      0.5646     64.8239      0.0000
     5.5000   1200.0000      0.5745     62.6058      0.0000
     5.7500   1200.0000      0.5827     62.0281      0.0000
     6.0000   1200.0000      0.5842     62.8624      0.0000
     6.2500   1200.0000      0.5785     63.8678      0.0000
     6.5000   1200.0000      0.5733     64.2255      0.0000
     6.7500   1200.0000      0.5808     64.3522      0.0000
     7.0000   1199.9528      0.6069     65.2110      0.0000
     7.2500   1199.6306      0.6498     67.1563      0.0000
     7.5000   1197.9745      0.7250     69.5290      0.0000
     7.7500   1191.3217      0.9614     71.1943      0.0000
     8.0000   1170.4225      1.8015     71.4769      0.0000
     8.2500   1119.0348      4.2630     70.6326      0.0000
     8.5000   1020.0239      9.9312     69.3327      0.0000
     8.7500    870.3469     20.1631     67.8141      0.0000
     9.0000    692.5635     34.6482     65.8300      0.0000
     9.2500    526.3930     50.7324     63.3421      0.0000
     9.5000    403.9787     64.7477     60.7998      0.0000
     9.7500    332.7906     74.3478     58.6182      0.0000
    10.0000    300.0688     79.5423     56.7895      0.0000
    10.2500    288.1842     81.7964     55.1746      0.0000
    10.5000    284.8034     82.6144     53.9193      0.0000
    10.7500    284.0889     82.8656     53.5167      0.0000
    11.0000    284.0124     82.8758     54.5808      0.0000
    11.2500    284.0449     82.7563     57.3704      0.0000
    11.5000    284.0761     82.6028     61.2801      0.0000
    11.7500    284.1014     82.4969     64.8970      0.0000
    12.0000    284.1267     82.4427     66.7547      0.0000
    12.2500    284.1508     82.4031     66.0201      0.0000
    12.5000    284.1674     82.4006     62.6144      0.0000
    12.7500    284.1706     82.5385     57.1523      0.0000
    13.0000    284.1605     82.8961     50.9760      0.0000
    13.2500    284.1447     83.4196     45.8948      0.0000
    13.5000    284.1338     83.9260     43.3633      0.0000
    13.7500    284.1340     84.2076     43.6839      0.0000
    14.0000    284.1419     84.1570     46.1683      0.0000
    14.2500    284.1474     83.8338     50.0243      0.0000
    14.5000    284.1432     83.4142     54.7285      0.0000
    14.7500    284.1331     83.0618     59.5416      0.0000
    15.0000    284.1294     82.8388     63.3485      0.0000
    15.2500    284.1395     82.7215     65.4754      0.0000
    15.5000    284.1595     82.6652     66.3702      0.0000
    15.7500    284.1798     82.6431     67.0548      0.0000
    16.0000    284.1926     82.6335     68.0036      0.0000
    16.2500    284.1936     82.5872     68.7830      0.0000
    16.5000    284.1783     82.4408     68.7211      0.0000
    16.7500    284.1432     82.1922     67.7697      0.0000
    17.0000    284.0895     81.9492     66.6270      0.0000
    17.2500    284.0256     81.8680     66.0148      0.0000
    17.5000    283.9637     82.0462     65.9041      0.0000
    17.7500    283.9140     82.4758     65.5851      0.0000
    18.0000    283.8826     83.0664     64.4945      0.0000
    18.2500    283.8728     83.6843     62.7987      0.0000
    18.5000    283.8881     84.1881     61.1953      0.0000
    18.7500    283.9281     84.4586     60.3853      0.0000
    19.0000    283.9841     84.4241     60.7912      0.0000
    19.2500    284.0395     84.0909     62.4169      0.0000
    19.5000    284.0762     83.5668     64.6112      0.0000
    19.7500    284.0816     83.0344     66.1329      0.0000
    20.0000    284.0571     82.6676     65.9097      0.0000
    20.2500    284.0207     82.5569     63.8693      0.0000
    20.5000    283.9970     82.6943     60.9532      0.0000
    20.7500    284.0002     82.9925     58.3719      0.0000
    21.0000    284.0252     83.3091     56.8002      0.0000
