~Version Information
 VERS.                                  2.0 : CWLS LAS VERSION
 WRAP.                                   NO : WRAPING MODE
 SWARE .                 MController 2.5.0J : SOFTWARE VERSION
~Well Information
 WELL.                         Sebring42-29 : WELL
 COMP.    Pioneer Natural Resources USA Inc : COMPANY
 FLD.                      Purgatoire River : FIELD
 LOC.                SE/NE Sec 29 T32S R67W : LOCATION
 DATE.                             08/12/05 : DATE(S) LOGGED
 SRVC.       BLANCO Geological Services LLC : SERVICE COMPANY
 STAT.                                   CO : STATE
 CNTY.                           Las Animas : COUNTY
 CTRY.                                  USA : COUNTRY
 API.                       05-071-08293-00 : API NUMBER
 STRT.FT                             750.00 : START DEPTH
 STOP.FT                            2880.00 : STOP DEPTH
 STEP.FT                               1.00 : DEPTH INCREMENT
 NULL.                                -9999 : NULL VALUE
~Curve information
 DEPTH.FT                                   :
 ROP.MIN/FT                                 :
 GAS.UNITS                                  :
~ASCII Log data
# ...
       950.0         0.40          3.4 
       951.0         0.37          3.5 
       952.0         0.33          3.5 
       953.0         0.33          3.4 
       954.0         0.33          3.5 
       955.0         0.35          3.4 
       956.0         0.37          3.4 
       957.0         0.50          3.5 
       958.0         0.20          3.3 
       959.0         0.37          3.4 
       960.0         0.40          3.3 
       961.0         0.30          3.3 
       962.0         0.30          3.3 
       963.0         0.37          3.3 
       964.0         0.28          3.3 
       965.0         0.37          3.5 
       966.0         0.37          3.4 
       967.0         0.40          3.4 
       968.0         0.30          3.4 
       969.0         0.30          3.4 
       970.0         0.37          3.4 
       971.0         0.33          3.2 
       972.0         0.27          3.3 
       973.0         0.30          3.8 
       974.0         0.30          3.5 
       975.0         0.35          3.6 
       976.0         0.23          3.5 
       977.0         0.37          3.5 
       978.0         0.27          3.6 
       979.0         0.27          3.6 
       980.0         0.30          4.0 
       981.0         0.40          3.8 
       982.0         0.33          3.6 
       983.0         0.37          3.5 
       984.0         0.43          3.7 
       985.0         0.42          3.3 
       986.0         0.43          3.5 
       987.0         0.37          3.6 
       988.0         0.40          3.7 
       989.0         0.27          3.6 
       990.0         0.43          3.8 
       991.0         0.17          3.7 
       992.0         0.27          3.8 
       993.0         0.33          3.7 
       994.0         0.10          3.6 
       995.0         0.42          3.8 
       996.0         0.30          3.7 
       997.0         0.30          3.6 
       998.0         0.37          3.5 
       999.0         0.27          3.5 
      1000.0         0.47          4.0 
      1001.0         0.20          3.5 
      1002.0         0.43          3.6 
      1003.0         0.27          3.8 
      1004.0         0.27          3.7 
      1005.0         0.27          3.6 
      1006.0         0.25          3.5 
      1007.0         0.27          3.7 
      1008.0         0.27          3.8 
      1009.0         0.30          3.6 
      1010.0         0.33          3.6 
      1011.0         0.27          3.6 
      1012.0         0.27          3.8 
      1013.0         0.30          4.0 
      1014.0         0.27          3.6 
      1015.0         0.37          3.8 
      1016.0         0.37          3.6 
      1017.0         0.38          3.7 
      1018.0         0.23          3.6 
      1019.0         0.33          4.0 
      1020.0         0.20          3.8 
      1021.0         0.33          3.8 
      1022.0         0.30          3.7 
      1023.0         0.33          4.2 
      1024.0         0.37         23.2 
      1025.0         0.27         25.2 
      1026.0         0.33         33.5 
      1027.0         0.33         67.6 
      1028.0         0.28         96.1 
      1029.0         0.27        120.8 
      1030.0         0.30        125.3 
      1031.0         0.23        100.8 
      1032.0         0.37         58.4 
      1033.0         0.37         23.1 
      1034.0         0.30          9.7 
      1035.0         0.50         36.8 
      1036.0         0.53         64.0 
      1037.0         0.45         67.1 
      1038.0         0.33         62.8 
      1039.0         0.43         48.3 
      1040.0         0.37         25.5 
      1041.0         0.30         12.3 
      1042.0         0.37          7.2 
      1043.0         0.33          5.5 
      1044.0         0.43          6.3 
      1045.0         0.40          9.0 
      1046.0         0.52          9.6 
      1047.0         0.40          8.4 
      1048.0         0.50          6.5 
      1049.0         0.43          5.3 
      1050.0         0.27          5.6 
      1051.0         7.67       1730.9 
      1052.0         0.38         12.5 
      1053.0         0.23          8.7 
      1054.0         0.17          8.1 
      1055.0         0.13          8.5 
      1056.0         0.10          8.4 
      1057.0         0.17          8.2 
      1058.0         0.23          8.4 
      1059.0         0.20          8.6 
      1060.0         0.23          8.7 
      1061.0         0.23          9.4 
      1062.0         0.23          9.5 
      1063.0         0.20          9.7 
      1064.0         0.17          9.8 
      1065.0         0.13         10.1 
      1066.0         0.10         10.5 
      1067.0         0.17         11.3 
      1068.0         0.17         11.3 
      1069.0         0.30         12.4 
      1070.0         0.32         13.9 
      1071.0         0.30         13.4 
      1072.0         0.27         12.8 
      1073.0         0.23         13.9 
      1074.0         0.13         17.0 
      1075.0         0.23         30.3 
      1076.0         0.27         49.0 
      1077.0         0.23         69.9 
      1078.0         0.27         95.0 
      1079.0         0.27        119.0 
      1080.0         0.23        138.9 
      1081.0         4.93       1271.0 
      1082.0         0.40          9.4 
      1083.0         0.37         11.9 
      1084.0         0.40         13.1 
      1085.0         0.53         14.1 
      1086.0         0.37         15.2 
      1087.0         0.32         17.1 
      1088.0         0.33         18.2 
      1089.0         0.23         17.8 
      1090.0         0.27         17.2 
      1091.0         0.23         17.7 
      1092.0         0.30         18.3 
      1093.0         0.27         19.8 
      1094.0         0.27         19.9 
      1095.0         0.27         20.7 
      1096.0         0.23         22.0 
      1097.0         0.10         23.0 
      1098.0         0.20         24.2 
      1099.0         0.20         26.2 
      1100.0         0.27         30.1 
      1101.0         0.32         31.0 
      1102.0         0.37         30.3 
      1103.0         0.27         23.0 
      1104.0         0.23         17.7 
      1105.0         0.23         20.4 
      1106.0         0.27         30.6 
      1107.0         0.23         42.9 
      1108.0         0.27         59.6 
      1109.0         0.27         76.9 
      1110.0         0.17         87.1 
      1111.0         6.47       1045.3 
      1112.0         0.50         16.7 
      1113.0         0.17         12.8 
      1114.0         0.33         12.7 
      1115.0         0.25         13.3 
      1116.0         0.23         14.5 
      1117.0         0.23         15.4 
      1118.0         0.20         15.4 
      1119.0         0.20         16.2 
      1120.0         0.20         16.8 
      1121.0         0.20         17.6 
      1122.0         0.33         19.3 
      1123.0         0.30         19.8 
      1124.0         0.17         18.1 
      1125.0         0.27         17.2 
      1126.0         0.20         16.5 
      1127.0         0.20         15.4 
      1128.0         0.20         15.3 
      1129.0         0.32         14.3 
      1130.0         0.27         13.7 
      1131.0         0.23         14.9 
      1132.0         0.23         17.8 
      1133.0         0.23         25.7 
      1134.0         0.17         32.6 
      1135.0         0.20         42.6 
      1136.0         0.20         53.8 
      1137.0         0.20         66.4 
      1138.0         0.20         78.5 
      1139.0         0.23         93.9 
      1140.0         0.20        108.1 
      1141.0         6.00       1183.7 
      1142.0         0.23         20.3 
      1143.0         0.43         17.3 
      1144.0         0.33         11.9 
      1145.0         0.07         10.4 
      1146.0         0.10         10.4 
      1147.0         0.23         10.7 
      1148.0         0.25         12.0 
      1149.0         0.23         14.2 
