~Version Information
VERS.                      2.0: CWLS Log ASCII Standard - VERSION 2.0
WRAP.                       NO: One line per depth step
~Well Information Block
STRT.FT               472.0000: 
STOP.FT              2428.5000: 
STEP.FT                 0.1000: 
NULL.                -999.2500: 
COMP.          Pioneer Natural Resources: COMPANY
WELL.          Flying Horse 12-11: WELL
FLD.           Purgatoire River: FIELD
LOC.           2428' FNL & 308' FWL: LOCATION
PROV.                 Colorado: PROVINCE
CNTY.               Las Animas: COUNTRY
SRVC.                Patterson: SERVICE COMPANY
DATE.          Mon May 30 06:06:20 2005: LOG DATE
UWI.           05 071 08378 00: UNIQUE WELL ID
~Curve Information Block
DEPT.FT            0 000 00 00: Depth
DCAL.in                       : CDL Caliper
RHOB.g/cc                     : CDL Bulk Density
RHOC.g/cc                     : CDL Density Correction
DPOR.pu                       : CDL Density Porosity
GR.GAPI                       : Gamma Ray
NPOR.pu                       : Neutron Porosity
~Parameter Information Block
~A  Depth       DCAL        RHOB        RHOC        DPOR         GR         NPOR    
   472.0000      8.2444      2.1191     -0.4613     32.1776     97.2404     18.7836
   472.1000      8.2444      2.1022     -0.5343     33.2013     89.1489     18.7307
   472.2000      8.2444      2.0818     -0.5580     34.4358     84.0557     18.6170
   472.3000      8.2472      2.0689     -0.5141     35.2186     83.2465     18.6002
   472.4000      8.2472      2.0591     -0.5654     35.8128     82.4088     18.6228
   472.5000      8.2490      2.0475     -0.5610     36.5170     79.7588     18.3899
   472.6000      8.2490      2.0347     -0.5448     37.2888     75.0378     18.2534
   472.7000      8.2490      2.0286     -0.5646     37.6625     69.8685     18.3544
   472.8000      8.2462      2.0297     -0.5462     37.5911     68.0740     18.6220
   472.9000      8.2462      2.0320     -0.5224     37.4558     69.5544     19.5265
   473.0000      8.2440      2.0380     -0.5366     37.0928     70.0509     20.6263
   473.1000      8.2440      2.0525     -0.5453     36.2136     67.4262     20.6071
   473.2000      8.2440      2.0704     -0.5378     35.1265     66.2330     19.4841
   473.3000      8.2445      2.0783     -0.5083     34.6467     70.9598     18.4023
   473.4000      8.2445      2.0670     -0.4967     35.3313     74.9670     17.9918
   473.5000      8.2464      2.0477     -0.5309     36.5005     71.1145     17.8681
   473.6000      8.2464      2.0420     -0.5621     36.8473     66.9779     17.8731
   473.7000      8.2464      2.0536     -0.5558     36.1426     69.5581     18.4350
   473.8000      8.2468      2.0607     -0.4736     35.7167     74.4806     19.2663
   473.9000      8.2468      2.0475     -0.4991     36.5161     78.0195     19.6825
   474.0000      8.2473      2.0237     -0.5505     37.9599     79.6583     19.6361
   474.1000      8.2473      2.0016     -0.5674     39.2951     77.1488     19.1417
   474.2000      8.2473      1.9909     -0.6244     39.9441     72.1503     18.4656
   474.3000      8.2478      2.0009     -0.5688     39.3377     69.1402     18.1007
   474.4000      8.2478      2.0247     -0.4980     37.8986     64.7389     18.2413
   474.5000      8.2477      2.0455     -0.5102     36.6338     57.4605     19.0263
   474.6000      8.2477      2.0578     -0.5191     35.8905     54.0688     19.8821
   474.7000      8.2477      2.0581     -0.4875     35.8722     56.4814     19.6453
   474.8000      8.2461      2.0445     -0.5456     36.6954     59.1586     18.8623
   474.9000      8.2461      2.0291     -0.5309     37.6298     58.9071     18.7615
   475.0000      8.2453      2.0257     -0.4715     37.8370     56.7158     18.9562
   475.1000      8.2453      2.0367     -0.4912     37.1690     56.1111     18.9307
   475.2000      8.2453      2.0488     -0.4523     36.4334     61.8371     19.2725
   475.3000      8.2505      2.0432     -0.4859     36.7782     71.2867     19.8809
   475.4000      8.2505      2.0260     -0.5638     37.8167     74.7636     19.8931
   475.5000      8.2458      2.0224     -0.5238     38.0370     71.1259     19.2822
   475.6000      8.2458      2.0402     -0.5115     36.9583     68.3413     18.8412
   475.7000      8.2458      2.0723     -0.4766     35.0108     67.0739     18.7301
   475.8000      8.2430      2.1115     -0.5081     32.6372     62.9991     18.2426
   475.9000      8.2430      2.1454     -0.4996     30.5803     58.2138     17.2922
   476.0000      8.2471      2.1489     -0.4507     30.3702     57.3887     16.8579
   476.1000      8.2471      2.1119     -0.4983     32.6123     60.2376     17.4451
   476.2000      8.2471      2.0657     -0.5703     35.4095     61.6859     18.4980
   476.3000      8.2431      2.0339     -0.4784     37.3409     58.3330     19.3182
   476.4000      8.2431      2.0192     -0.6253     38.2284     52.9955     19.4318
   476.5000      8.2454      2.0425     -0.6475     36.8157     49.0560     19.0824
   476.6000      8.2454      2.0932     -0.5195     33.7452     46.8002     19.2113
   476.7000      8.2454      2.1184     -0.4548     32.2193     46.9801     19.9742
   476.8000      8.2444      2.1064     -0.4994     32.9425     50.4821     20.5758
   476.9000      8.2444      2.0883     -0.4504     34.0424     55.3160     20.6032
   477.0000      8.2472      2.0821     -0.5264     34.4166     58.3993     20.2939
   477.1000      8.2472      2.0887     -0.5321     34.0181     58.7444     20.2690
   477.2000      8.2472      2.0980     -0.5179     33.4570     56.9371     20.6746
   477.3000      8.2466      2.1024     -0.5411     33.1891     55.1775     20.7684
   477.4000      8.2466      2.1026     -0.5630     33.1733     57.7124     20.2427
   477.5000      8.2503      2.0997     -0.5038     33.3505     65.6971     19.9071
   477.6000      8.2503      2.1005     -0.5358     33.3043     72.8671     20.2908
   477.7000      8.2503      2.1058     -0.4650     32.9792     73.6181     20.8300
   477.8000      8.2368      2.1088     -0.5055     32.7981     71.7301     20.6913
   477.9000      8.2368      2.1181     -0.5339     32.2344     72.2575     20.1979
   478.0000      8.2433      2.1256     -0.4771     31.7811     74.3892     19.8199
   478.1000      8.2433      2.1030     -0.5079     33.1509     75.9249     18.9645
   478.2000      8.2433      2.0707     -0.6330     35.1082     74.7809     17.9933
   478.3000      8.2451      2.0808     -0.5512     34.4998     72.4553     17.9115
   478.4000      8.2451      2.1274     -0.5023     31.6756     74.6107     18.3331
   478.5000      8.2438      2.1633     -0.5122     29.4994     81.5546     18.3500
   478.6000      8.2438      2.1751     -0.4788     28.7796     87.2658     17.8679
   478.7000      8.2438      2.1736     -0.4426     28.8756     86.5063     17.4919
   478.8000      8.2464      2.1610     -0.4621     29.6335     81.2645     17.7511
   478.9000      8.2464      2.1451     -0.5101     30.5991     78.3884     18.6119
   479.0000      8.2474      2.1411     -0.5189     30.8443     77.4549     19.1088
   479.1000      8.2474      2.1465     -0.4401     30.5169     70.5379     18.4449
   479.2000      8.2474      2.1391     -0.4738     30.9659     59.5382     17.1092
   479.3000      8.2487      2.1085     -0.5305     32.8159     55.0078     16.0702
   479.4000      8.2487      2.0734     -0.5490     34.9461     57.4302     15.8642
   479.5000      8.2472      2.0603     -0.5667     35.7412     59.0616     16.4807
   479.6000      8.2472      2.0700     -0.5197     35.1488     59.1230     17.2268
   479.7000      8.2472      2.0756     -0.5187     34.8147     61.4837     17.3753
   479.8000      8.2448      2.0642     -0.5663     35.5042     62.8271     17.2195
   479.9000      8.2448      2.0526     -0.5937     36.2041     59.8373     17.5211
   480.0000      8.2457      2.0561     -0.5514     35.9916     55.7090     17.8244
   480.1000      8.2457      2.0756     -0.5620     34.8111     53.5868     17.0020
   480.2000      8.2457      2.0991     -0.4684     33.3888     51.9595     15.7137
   480.3000      8.2446      2.1017     -0.5170     33.2282     49.0285     15.3168
   480.4000      8.2446      2.0840     -0.6065     34.3028     47.2501     15.7387
   480.5000      8.2448      2.0792     -0.5487     34.5949     49.8900     16.2307
   480.6000      8.2448      2.1026     -0.5569     33.1746     54.8387     16.6397
   480.7000      8.2448      2.1385     -0.5037     31.0010     56.3662     16.8487
   480.8000      8.2450      2.1647     -0.5179     29.4112     54.7932     16.6517
   480.9000      8.2450      2.1670     -0.4887     29.2721     55.3991     16.2718
   481.0000      8.2451      2.1426     -0.5199     30.7488     57.3945     15.7386
   481.1000      8.2451      2.1093     -0.5757     32.7697     57.6814     14.9072
   481.2000      8.2451      2.0873     -0.5238     34.1037     57.9295     14.2932
   481.3000      8.2427      2.0849     -0.5750     34.2494     58.2099     14.2850
   481.4000      8.2427      2.0987     -0.5498     33.4106     58.7378     14.6080
   481.5000      8.2451      2.1090     -0.5376     32.7868     62.1919     14.9955
