~Version Information
VERS.                      2.0: CWLS Log ASCII Standard - VERSION 2.0
WRAP.                       NO: One line per depth step
~Well Information Block
STRT.FT               510.0000: 
STOP.FT              1861.5000: 
STEP.FT                 0.1000: 
NULL.                -999.2500: 
COMP.          Pioneer Natural Resources: COMPANY
WELL.           Guajardo 24-16: WELL
FLD.           Purgatoire River: FIELD
LOC.           883' FSL & 2147' FWL: LOCATION
PROV.                 Colorado: PROVINCE
CNTY.               Las Animas: COUNTRY
SRVC.                Patterson: SERVICE COMPANY
DATE.          Mon Aug 08 09:13:01 2005: LOG DATE
UWI.           05 071 08377 00: UNIQUE WELL ID
~Curve Information Block
DEPT.FT            0 000 00 00: Depth
DCAL.in                       : CDL Caliper
RHOB.g/cc                     : CDL Bulk Density
RHOC.g/cc                     : CDL Density Correction
DPOR.pu                       : CDL Density Porosity
GR.GAPI                       : Gamma Ray
NPOR.pu                       : Neutron Porosity
~Parameter Information Block
~A  Depth       DCAL        RHOB        RHOC        DPOR         GR         NPOR    
# ...
   778.8000      8.1469      2.6012      0.0442      2.9576     64.6782     19.4980
   778.9000      8.1469      2.6223      0.0704      1.6797     66.7004     19.0181
   779.0000      8.1461      2.6303      0.1038      1.1954     68.5773     18.4485
   779.1000      8.1461      2.6261      0.0359      1.4473     70.3004     18.2338
   779.2000      8.1461      2.6309      0.0464      1.1546     71.5151     18.7048
   779.3000      8.1465      2.6367      0.0518      0.8078     69.7086     19.4582
   779.4000      8.1465      2.6203      0.0797      1.8021     65.6024     19.7797
   779.5000      8.1470      2.5861      0.0605      3.8703     63.9260     19.7225
   779.6000      8.1470      2.5560      0.0489      5.6942     65.4935     19.8437
   779.7000      8.1470      2.5355      0.0321      6.9417     66.3019     20.3320
   779.8000      8.1458      2.5238      0.0336      7.6481     65.5186     20.8665
   779.9000      8.1458      2.5271     -0.0010      7.4476     64.2786     21.1479
   780.0000      8.1398      2.5475     -0.0275      6.2122     62.4255     21.3250
   780.1000      8.1398      2.5754      0.0428      4.5221     59.7361     21.4130
   780.2000      8.1398      2.5973      0.0460      3.1925     56.5836     21.1523
   780.3000      8.1331      2.6191      0.0625      1.8734     56.3712     20.6567
   780.4000      8.1331      2.6428      0.1175      0.4340     61.4621     20.3135
   780.5000      8.1332      2.6445      0.1279      0.3304     66.0981     20.2334
   780.6000      8.1332      2.6180      0.0803      1.9406     65.5175     20.2743
   780.7000      8.1332      2.5957     -0.0162      3.2887     63.9599     20.3927
   780.8000      8.1330      2.6026      0.0140      2.8747     65.7045     20.7792
   780.9000      8.1330      2.6251      0.0071      1.5087     69.1210     21.3124
   781.0000      8.1327      2.6523     -0.0643     -0.1366     70.1725     21.6960
   781.1000      8.1327      2.7002     -0.0216     -3.0395     67.1122     21.8439
   781.2000      8.1327      2.7632      0.0965     -6.8605     61.4858     21.9435
   781.3000      8.1452      2.8017      0.1192     -9.1911     56.4594     22.1947
   781.4000      8.1452      2.8019      0.1028     -9.2084     53.4680     22.4112
   781.5000      8.1323      2.7787      0.0612     -7.8002     52.6613     22.2541
   781.6000      8.1323      2.7398      0.0659     -5.4454     54.0213     21.7595
   781.7000      8.1323      2.6908     -0.0138     -2.4731     54.3056     21.2327
   781.8000      8.1405      2.6408     -0.0252      0.5563     51.7678     20.8369
   781.9000      8.1405      2.5969     -0.0631      3.2179     49.5242     20.5353
   782.0000      8.1395      2.5719     -0.0408      4.7347     50.0661     20.4878
   782.1000      8.1395      2.5813     -0.0378      4.1622     52.4046     20.8683
   782.2000      8.1395      2.6197      0.0389      1.8340     52.6877     21.3514
   782.3000      8.1410      2.6570      0.0662     -0.4222     50.5091     21.4688
   782.4000      8.1410      2.6664      0.1094     -0.9968     49.6449     21.1946
   782.5000      8.1364      2.6531      0.0790     -0.1850     51.4366     20.7131
   782.6000      8.1364      2.6433      0.0319      0.4039     55.1128     20.0132
   782.7000      8.1364      2.6481      0.0501      0.1174     59.1130     19.2926
   782.8000      8.1463      2.6507      0.0124     -0.0454     60.9310     19.1159
   782.9000      8.1463      2.6316      0.0599      1.1130     59.0628     19.3610
   783.0000      8.1402      2.5905      0.0156      3.6081     55.1474     19.1969
   783.1000      8.1402      2.5486     -0.0115      6.1452     53.7248     18.4953
   783.2000      8.1402      2.5251     -0.0207      7.5693     57.7628     17.8877
   783.3000      8.1388      2.5187     -0.0176      7.9549     65.4386     17.6333
   783.4000      8.1388      2.5217      0.0072      7.7730     72.7833     17.5795
   783.5000      8.1474      2.5346     -0.0057      6.9957     77.6753     17.6389
   783.6000      8.1474      2.5514      0.0772      5.9780     81.2670     17.7643
   783.7000      8.1474      2.5529      0.0637      5.8843     85.0919     17.9668
   783.8000      8.1550      2.5374      0.0390      6.8240     89.2163     18.4254
   783.9000      8.1550      2.5253      0.0683      7.5573     95.9292     19.1533
   784.0000      8.1580      2.5271      0.0685      7.4512    104.8560     19.8886
   784.1000      8.1580      2.5288      0.0853      7.3451    111.6764     20.6115
   784.2000      8.1580      2.5196      0.0624      7.9033    116.7059     21.5550
   784.3000      8.1523      2.5226      0.0048      7.7239    122.3546     22.5416
   784.4000      8.1523      2.5535      0.1108      5.8455    128.7500     23.1871
   784.5000      8.1690      2.5775      0.1248      4.3958    134.1587     23.2687
   784.6000      8.1690      2.5638      0.1116      5.2212    138.1151     22.7996
   784.7000      8.1690      2.5307      0.0475      7.2281    140.0091     21.9856
   784.8000      8.1786      2.5128      0.0455      8.3169    140.3788     21.3003
   784.9000      8.1786      2.5238      0.0526      7.6483    140.4117     21.2116
   785.0000      8.1843      2.5517      0.0860      5.9553    138.8691     21.6253
   785.1000      8.1843      2.5694      0.0941      4.8840    137.1846     22.1527
   785.2000      8.1843      2.5606      0.0893      5.4194    138.4222     22.5641
   785.3000      8.1753      2.5380      0.0346      6.7852    142.1641     22.9092
   785.4000      8.1753      2.5239      0.0544      7.6404    144.4767     23.2819
   785.5000      8.1747      2.5220      0.0515      7.7590    141.4206     23.5262
   785.6000      8.1747      2.5221      0.0478      7.7533    135.4422     23.3079
   785.7000      8.1747      2.5186      0.0659      7.9664    132.9079     22.6446
   785.8000      8.1766      2.5162      0.0497      8.1117    134.2613     22.0897
   785.9000      8.1766      2.5164      0.0647      8.0948    134.7751     21.9760
   786.0000      8.1817      2.5058      0.0651      8.7386    132.1927     22.1885
   786.1000      8.1817      2.4856      0.0079      9.9658    126.9763     22.4957
   786.2000      8.1817      2.4839      0.0124     10.0695    122.6896     22.6812
   786.3000      8.1888      2.5054      0.0405      8.7657    123.2441     22.6618
   786.4000      8.1888      2.5265      0.0098      7.4878    129.9987     22.5433
   786.5000      8.1807      2.5321      0.0595      7.1430    140.4129     22.5383
   786.6000      8.1807      2.5193      0.0407      7.9226    147.5334     22.8680
   786.7000      8.1807      2.4974      0.0045      9.2464    147.0865     23.4509
   786.8000      8.1837      2.4829     -0.0036     10.1255    141.4028     23.7008
   786.9000      8.1837      2.4749      0.0077     10.6104    137.5583     23.1690
   787.0000      8.1819      2.4593      0.0469     11.5598    139.9780     22.3060
   787.1000      8.1819      2.4428     -0.0130     12.5581    145.5367     22.0702
   787.2000      8.1819      2.4529     -0.0207     11.9461    149.0428     22.5126
   787.3000      8.1803      2.4838      0.0666     10.0720    149.1821     22.6207
   787.4000      8.1803      2.5023      0.0358      8.9529    146.9469     22.3573
   787.5000      8.1751      2.4983      0.0229      9.1958    143.7152     22.4839
   787.6000      8.1751      2.4869      0.0189      9.8821    139.9816     22.8567
   787.7000      8.1751      2.4779      0.0315     10.4313    134.6507     22.9936
   787.8000      8.1799      2.4693      0.0165     10.9506    129.6237     23.0980
   787.9000      8.1799      2.4676      0.0181     11.0516    127.9985     23.3154
   788.0000      8.1701      2.4768      0.0195     10.4995    128.7199     23.3570
   788.1000      8.1701      2.4887      0.0458      9.7780    128.7118     23.2980
   788.2000      8.1701      2.5013      0.0284      9.0129    128.9338     23.2819
   788.3000      8.1704      2.5197      0.0711      7.8965    131.9369     23.2301
