~Version Information
 VERS.                                  2.0 : CWLS LAS VERSION
 WRAP.                                   NO : WRAPING MODE
 SWARE .                 MController 2.5.0J : SOFTWARE VERSION
~Well Information
 WELL.                       Montoya 12-41R : WELL
 COMP.                       Petrogulf Corp : COMPANY
 FLD.                      Purgatorie River : FIELD
 LOC.                NW/NW Sec 12 T33S R68W : LOCATION
 DATE.                             11/17/04 : DATE(S) LOGGED
 SRVC.       Blanco Geological Services LLC : SERVICE COMPANY
 STAT.                                   CO : STATE
 CNTY.                           Las Animas : COUNTY
 CTRY.                                  USA : COUNTRY
 API.                       05-071-08241-00 : API NUMBER
 STRT.FT                             536.00 : START DEPTH
 STOP.FT                            1530.00 : STOP DEPTH
 STEP.FT                               1.00 : DEPTH INCREMENT
 NULL.                                -9999 : NULL VALUE
~Curve information
 DEPTH.FT                                   :
 ROP.MIN/FT                                 :
 GAS.UNITS                                  :
~ASCII Log data
# ...
      1136.0         0.30          2.1 
      1137.0         0.28          1.5 
      1138.0         0.37          2.5 
      1139.0         0.37          4.6 
      1140.0         0.33          3.1 
      1141.0         0.30          2.2 
      1142.0         0.27          2.3 
      1143.0         0.23          1.7 
      1144.0         0.37          1.4 
      1145.0         0.30          1.0 
      1146.0         0.27          0.8 
      1147.0         0.27          1.3 
      1148.0         0.28          2.2 
      1149.0         0.27          2.1 
      1150.0         0.20          2.0 
      1151.0         0.23          1.3 
      1152.0         0.23          1.0 
      1153.0         0.27          0.5 
      1154.0         0.27          0.8 
      1155.0         0.30          1.5 
      1156.0         0.23          1.4 
      1157.0         0.17          2.0 
      1158.0         0.30          2.0 
      1159.0         0.27          1.2 
      1160.0         0.20          1.4 
      1161.0         0.32          1.8 
      1162.0         0.27          1.7 
      1163.0         0.23          1.5 
      1164.0         0.23          1.2 
      1165.0         0.23          1.3 
      1166.0         0.13          2.6 
      1167.0         0.43          2.6 
      1168.0         0.50          5.3 
      1169.0         0.47          4.2 
      1170.0         0.40          3.6 
      1171.0         0.30          2.8 
      1172.0         0.33          1.7 
      1173.0         0.38          1.4 
      1174.0         0.40          2.1 
      1175.0         0.37          1.9 
      1176.0         0.30          3.9 
      1177.0         0.30          4.1 
      1178.0         0.27          4.1 
      1179.0         0.30          3.5 
      1180.0         0.27          3.4 
      1181.0         0.17          3.3 
      1182.0         0.17          3.5 
      1183.0         0.27          3.6 
      1184.0         0.27          4.2 
      1185.0         0.35          4.7 
      1186.0         0.30          4.3 
      1187.0         0.37          4.0 
      1188.0         0.33          4.3 
      1189.0         0.27          4.7 
      1190.0         0.23          3.6 
      1191.0         0.27          3.6 
      1192.0         0.27          4.0 
      1193.0         0.30          5.1 
      1194.0         0.27          4.6 
      1195.0         0.27          3.8 
      1196.0         0.27          5.1 
      1197.0         0.27          5.9 
      1198.0         0.17          7.9 
      1199.0         0.37         10.9 
      1200.0         0.37          9.0 
      1201.0         0.33          6.5 
      1202.0         0.22          6.5 
      1203.0         0.30          4.4 
      1204.0         0.33          3.4 
      1205.0         0.30          3.7 
      1206.0         0.30          4.4 
      1207.0         0.30          4.3 
      1208.0         0.27          4.6 
      1209.0         0.27          3.6 
      1210.0         0.23          3.8 
      1211.0         0.27          3.5 
      1212.0         0.37          4.0 
      1213.0         0.27          3.9 
      1214.0         0.28          3.9 
      1215.0         0.27          3.6 
      1216.0         0.27          3.4 
      1217.0         0.27          3.8 
      1218.0         0.30          4.5 
      1219.0         0.27          3.9 
      1220.0         0.23          3.7 
      1221.0         0.23          3.6 
      1222.0         0.30          3.8 
      1223.0         0.27          3.9 
      1224.0         0.20          3.8 
      1225.0         0.23          3.3 
      1226.0         0.30          8.3 
      1227.0         0.23         13.2 
      1228.0         0.20         16.9 
      1229.0         0.28         14.5 
      1230.0         0.33          9.9 
      1231.0         0.33          6.6 
      1232.0         0.20          5.6 
      1233.0         0.30          5.0 
      1234.0         0.47          5.3 
      1235.0         0.27          5.0 
      1236.0         0.33          4.1 
      1237.0         0.33          3.0 
      1238.0         0.43          3.8 
      1239.0         0.22          3.6 
      1240.0         0.20          3.8 
      1241.0         0.23          3.8 
      1242.0         0.23          4.1 
      1243.0         0.23          4.2 
      1244.0         0.20          3.6 
      1245.0         0.20          3.0 
      1246.0         0.23          2.6 
      1247.0         0.20          3.2 
      1248.0         0.23          3.1 
      1249.0         0.27          3.4 
      1250.0         0.33          3.7 
      1251.0         0.30          3.3 
      1252.0         0.23          3.6 
      1253.0         0.25          3.9 
      1254.0         0.20          4.6 
      1255.0         0.20          3.7 
      1256.0         0.37          4.0 
      1257.0         0.37          5.1 
      1258.0         0.33          5.2 
      1259.0         0.32          5.7 
      1260.0         0.27          6.2 
      1261.0         0.27          5.8 
      1262.0         0.27          5.4 
      1263.0         0.27          4.4 
      1264.0         0.27          4.0 
      1265.0         0.30          4.1 
      1266.0         0.30          3.8 
      1267.0         0.33          4.3 
      1268.0         0.27          3.9 
      1269.0         0.27          3.8 
      1270.0         0.35          3.6 
      1271.0         0.30          4.0 
      1272.0         0.33          3.5 
      1273.0         0.33          2.9 
      1274.0         0.40          3.4 
      1275.0         0.37          4.0 
      1276.0         0.27          3.3 
      1277.0         0.27          4.4 
      1278.0         0.33          3.7 
      1279.0         0.30          3.1 
      1280.0         0.33          3.2 
      1281.0         0.35          3.9 
      1282.0         0.37          4.2 
      1283.0         0.27          4.0 
      1284.0         0.27          2.9 
      1285.0         0.27          2.8 
      1286.0         0.30          3.5 
      1287.0         0.23          3.9 
      1288.0         0.55          4.2 
      1289.0         0.40          6.1 
      1290.0         0.33          5.7 
      1291.0         0.40          5.8 
      1292.0         0.33          5.5 
      1293.0         0.27          5.0 
      1294.0         0.30          4.6 
      1295.0         0.27          4.5 
      1296.0         0.27          4.9 
      1297.0         0.27          5.2 
      1298.0         0.27          4.6 
      1299.0         0.28          3.4 
      1300.0         0.27          2.8 
      1301.0         0.27          3.5 
      1302.0         0.30          4.4 
      1303.0         0.27          4.3 
      1304.0         0.27          3.3 
      1305.0         0.20          3.2 
      1306.0         0.20          3.0 
      1307.0         0.23          3.8 
      1308.0         0.23          3.2 
      1309.0         0.23          3.2 
      1310.0         0.23          3.4 
      1311.0         0.17          3.4 
      1312.0         0.20          3.5 
      1313.0         0.25          4.5 
      1314.0         0.20         20.9 
      1315.0         0.33         48.2 
      1316.0         0.27          6.1 
      1317.0         0.43          5.9 
      1318.0         0.27          5.2 
      1319.0         0.23          4.9 
      1320.0         0.40          4.7 
      1321.0         0.37          3.8 
      1322.0         0.37          4.7 
      1323.0         0.35          4.5 
      1324.0         0.33          3.6 
      1325.0         0.40          2.5 
      1326.0         0.43          3.1 
      1327.0         0.37          3.0 
      1328.0         0.27          2.9 
      1329.0         0.23          3.1 
      1330.0         0.27          2.9 
      1331.0         0.27          2.9 
      1332.0         0.20          2.9 
      1333.0         0.20          3.4 
      1334.0         0.22          3.5 
      1335.0         0.13          2.9 
