~Version Information
VERS.                      2.0: CWLS Log ASCII Standard - VERSION 2.0
WRAP.                       NO: One line per depth step
~Well Information Block
STRT.FT               275.0000: 
STOP.FT               811.2000: 
STEP.FT                 0.1000: 
NULL.                -999.2500: 
COMP.          Pioneer Natural Resources: COMPANY
WELL.          Barrelman 41-27: WELL
FLD.           Purgatoire River: FIELD
LOC.           371' FNL & 493' FEL--: LOCATION
PROV.                 Colorado: PROVINCE
CNTY.               Las Animas: COUNTRY
SRVC.                Patterson: SERVICE COMPANY
DATE.          Fri May 20 11:50:01 2005: LOG DATE
UWI.           05 071 08334 00: UNIQUE WELL ID
~Curve Information Block
DEPT.FT            0 000 00 00: Depth
DCAL.in                       : CDL Caliper
RHOB.g/cc                     : CDL Bulk Density
RHOC.g/cc                     : CDL Density Correction
DPOR.pu                       : CDL Density Porosity
NPOR.pu                       : Neutron Porosity
GR.GAPI                       : Gamma Ray
~Parameter Information Block
~A  Depth       DCAL        RHOB        RHOC        DPOR        NPOR         GR     
# ...
   649.4000      8.2990      2.0538      0.0929     36.1315     33.7608     92.3434
   649.5000      8.4073      2.0595      0.1010     35.7880     33.5160     88.9851
   649.6000      8.4073      2.0772      0.1094     34.7133     33.3842     80.9739
   649.7000      8.4073      2.1086      0.0770     32.8092     33.1840     73.7506
   649.8000      8.4525      2.1581      0.0655     29.8117     32.9419     72.5239
   649.9000      8.4525      2.2230      0.1311     25.8785     32.4452     78.7346
   650.0000      8.3622      2.2908      0.1306     21.7723     31.5641     87.0492
   650.1000      8.3622      2.3508      0.1587     18.1344     30.7180     92.6935
   650.2000      8.3622      2.3979      0.1487     15.2776     30.1845     97.5534
   650.3000      8.1857      2.4350      0.1553     13.0275     29.9492    101.5366
   650.4000      8.1857      2.4694      0.1279     10.9477     29.8415    101.8096
   650.5000      8.0596      2.4953      0.1112      9.3756     29.8794    102.0779
   650.6000      8.0596      2.4973      0.1256      9.2520     30.4711    104.8684
   650.7000      8.0596      2.4835      0.0360     10.0905     31.3524    107.0056
   650.8000      8.0192      2.4760      0.0813     10.5476     31.7444    108.7492
   650.9000      8.0192      2.4693      0.0818     10.9494     31.4292    111.8341
   651.0000      8.0165      2.4493      0.0639     12.1665     30.9366    116.7514
   651.1000      8.0165      2.4224      0.0337     13.7957     30.6087    121.5178
   651.2000      8.0165      2.4000      0.0407     15.1522     30.4035    125.0640
   651.3000      8.0182      2.3814      0.0342     16.2775     30.4411    125.3839
   651.4000      8.0182      2.3653      0.0004     17.2553     30.6649    118.1799
   651.5000      8.0163      2.3548      0.0073     17.8906     30.9652    107.7131
   651.6000      8.0163      2.3475      0.0088     18.3335     31.2305    105.4443
   651.7000      8.0163      2.3384      0.0441     18.8878     31.0407    113.3188
   651.8000      8.0138      2.3336      0.0260     19.1758     30.5119    119.8308
   651.9000      8.0138      2.3497      0.0315     18.1973     30.3975    116.3048
   652.0000      8.0079      2.3881      0.1192     15.8748     30.5813    106.0709
   652.1000      8.0079      2.4286      0.0981     13.4209     30.2627     97.9545
   652.2000      8.0079      2.4516      0.1243     12.0215     29.5900     99.3710
   652.3000      7.9961      2.4510      0.1214     12.0585     29.0675    105.5657
   652.4000      7.9961      2.4418      0.0761     12.6171     28.6243    104.9069
   652.5000      7.9857      2.4408      0.0746     12.6796     28.1274     95.9390
   652.6000      7.9857      2.4405      0.0571     12.6987     27.6134     87.4442
   652.7000      7.9857      2.4303      0.0272     13.3124     27.0513     88.8093
   652.8000      7.9788      2.4204      0.0201     13.9142     26.5337     99.6103
   652.9000      7.9788      2.4235      0.0542     13.7279     26.1662    109.0696
   653.0000      7.9751      2.4404      0.0609     12.7046     25.9144    109.3395
   653.1000      7.9751      2.4741      0.0509     10.6635     25.6616    102.7836
   653.2000      7.9751      2.5207      0.1229      7.8394     25.1014     99.4135
   653.3000      7.9763      2.5569      0.1579      5.6403     24.6051    103.3013
   653.4000      7.9763      2.5687      0.1337      4.9298     24.6241    107.1643
   653.5000      7.9752      2.5664      0.1080      5.0660     24.4792    107.8073
   653.6000      7.9752      2.5663      0.0829      5.0734     23.9235    108.8852
   653.7000      7.9752      2.5737      0.0991      4.6260     23.3531    109.0354
   653.8000      7.9671      2.5828      0.1008      4.0719     22.4210    104.8617
   653.9000      7.9671      2.5862      0.1230      3.8683     21.1898     98.5128
   654.0000      7.9594      2.5820      0.1097      4.1186     20.7123     93.0591
   654.1000      7.9594      2.5769      0.0724      4.4328     21.3126     90.3185
   654.2000      7.9594      2.5752      0.0619      4.5312     22.0483     90.9840
   654.3000      7.9552      2.5765      0.0582      4.4566     22.1851     91.3655
   654.4000      7.9552      2.5854      0.0665      3.9122     22.0708     86.1408
   654.5000      7.9535      2.6008      0.0926      2.9791     22.2622     76.1034
   654.6000      7.9535      2.6095      0.0859      2.4549     22.4547     68.1515
   654.7000      7.9535      2.6038      0.0788      2.8007     22.1817     66.2754
   654.8000      7.9542      2.5913      0.0345      3.5550     21.6826     66.9451
   654.9000      7.9542      2.5867      0.0691      3.8342     21.1580     66.1534
   655.0000      7.9566      2.5898      0.0672      3.6511     20.7807     66.1219
   655.1000      7.9566      2.5864      0.0781      3.8522     20.9023     66.6555
   655.2000      7.9566      2.5687      0.0480      4.9264     21.5860     63.8098
   655.3000      7.9586      2.5446      0.0274      6.3893     22.4803     62.6521
   655.4000      7.9586      2.5328      0.0039      7.1052     22.9243     65.8114
   655.5000      7.9592      2.5483      0.0133      6.1656     22.7137     64.8628
   655.6000      7.9592      2.5862      0.0412      3.8666     22.3587     60.4379
   655.7000      7.9592      2.6174      0.0968      1.9770     22.1768     61.3459
   655.8000      7.9599      2.6156      0.0793      2.0868     22.1345     67.9840
   655.9000      7.9599      2.5933      0.0192      3.4336     22.1836     74.9944
   656.0000      7.9614      2.5797      0.0594      4.2630     22.3719     78.9178
   656.1000      7.9614      2.5819      0.0203      4.1279     22.6500     78.5572
   656.2000      7.9614      2.5933      0.0520      3.4384     22.6115     74.9722
   656.3000      7.9623      2.6061      0.0510      2.6591     22.0473     71.6699
   656.4000      7.9623      2.6142      0.0618      2.1714     21.4950     71.1892
   656.5000      7.9614      2.6093      0.0891      2.4697     21.3630     69.7426
   656.6000      7.9614      2.5923      0.0628      3.4974     21.7605     63.9269
   656.7000      7.9614      2.5791      0.0639      4.2969     22.6061     59.8747
   656.8000      7.9598      2.5872      0.0157      3.8050     23.3800     60.6746
   656.9000      7.9598      2.6210      0.0425      1.7575     23.6232     61.3553
   657.0000      7.9586      2.6526      0.1103     -0.1569     23.4268     59.8316
   657.1000      7.9586      2.6488      0.0974      0.0702     23.1178     58.5390
   657.2000      7.9586      2.6199      0.0404      1.8271     23.1163     58.2050
   657.3000      7.9585      2.5996      0.0545      3.0537     23.7507     57.6488
   657.4000      7.9585      2.6043      0.0169      2.7682     24.7079     58.2301
   657.5000      7.9584      2.6269      0.0306      1.3970     25.5839     62.5199
   657.6000      7.9584      2.6525      0.0458     -0.1510     26.2414     69.4291
   657.7000      7.9584      2.6774      0.0553     -1.6631     26.4365     74.5061
   657.8000      7.9570      2.7031      0.0586     -3.2170     26.2396     76.3359
   657.9000      7.9570      2.7191      0.0657     -4.1875     26.0996     76.4574
   658.0000      7.9559      2.7172      0.0547     -4.0751     26.1144     76.4687
   658.1000      7.9559      2.7062      0.0685     -3.4066     26.0857     76.4042
   658.2000      7.9559      2.7002      0.0145     -3.0424     25.9160     76.9984
   658.3000      7.9562      2.7008      0.0723     -3.0806     25.7346     81.0989
   658.4000      7.9562      2.6964      0.0415     -2.8119     25.2597     85.5943
   658.5000      7.9585      2.6834      0.0444     -2.0258     24.2541     83.8590
   658.6000      7.9585      2.6713      0.0156     -1.2894     23.0392     77.4103
   658.7000      7.9585      2.6681      0.0405     -1.0945     22.1265     72.3361
   658.8000      7.9607      2.6811     -0.0087     -1.8878     21.9096     71.7958
   658.9000      7.9607      2.7102      0.0555     -3.6498     22.0250     76.3137
