~Version Information
VERS.                      2.0: CWLS Log ASCII Standard - VERSION 2.0
WRAP.                       NO: One line per depth step
~Well Information Block
STRT.FT                -6.5000: 
STOP.FT              1719.0000: 
STEP.FT                 0.5000: 
NULL.                -999.2500: 
COMP.          Pioneer Natural Resources: COMPANY
WELL.             Tami J 23-18: WELL
FLD.           Purgatorie River: FIELD
LOC.           2250' FSL & 2400' FWL: LOCATION
PROV.                 Colorado: PROVINCE
CNTY.               Las Animas: COUNTRY
SRVC.          Patterson Wireline: SERVICE COMPANY
DATE.          Fri Dec 17 13:50:12 2004: LOG DATE
UWI.           05-071-08073-00: UNIQUE WELL ID
~Curve Information Block
DEPT.FT            0 000 00 00: Depth
CCL.                          : Casing Collar Locator
TT3.usec                      : CBL 3' Travel Time
AMP3.mV                       : CBL 3' Amplitude
GR.GAPI                       : Gamma Ray
~Parameter Information Block
~A  Depth       CCL         TT3         AMP3         GR     
# ...
   462.5000      0.0000    773.2012      7.0996     69.5798
   463.0000      0.0000    788.2573      7.3025     68.0785
   463.5000      0.0000    805.2579      7.4852     74.7584
   464.0000      0.0000    808.6966      7.6525     84.5239
   464.5000      0.0000    792.7612      7.7219     89.0962
   465.0000      0.0000    772.1159      7.5325     89.9750
   465.5000      0.0000    759.8293      6.9679    104.7927
   466.0000      0.0000    769.0935      6.3803    129.9173
   466.5000      0.0000    784.4141      6.1673    145.2317
   467.0000      0.0000    792.7243      6.2362    148.2862
   467.5000      0.0000    797.4556      6.3482    140.0080
   468.0000      0.0000    800.5016      6.3605    129.5863
   468.5000      0.0000    806.6163      6.3365    128.6629
   469.0000      0.0000    816.9564      6.3448    136.1816
   469.5000      0.0000    823.2086      6.2218    145.7965
   470.0000      0.0000    825.0281      5.9663    150.8721
   470.5000      0.0000    829.1553      5.8501    145.7352
   471.0000      0.0000    835.1597      5.9690    133.1228
   471.5000      0.0000    837.9438      6.1437    122.3835
   472.0000      0.0000    838.5941      6.2669    120.7247
   472.5000      0.0000    838.5930      6.2782    124.8631
   473.0000      0.0000    838.1242      6.2158    127.6110
   473.5000      0.0000    837.5087      6.1369    122.9021
   474.0000      0.0000    836.5751      6.0572    115.0986
   474.5000      0.0000    833.1803      5.9814    109.7311
   475.0000      0.0000    824.9752      5.7855    110.2912
   475.5000      0.0000    818.7257      5.5385    110.0682
   476.0000      0.0000    815.3520      5.4034    108.1229
   476.5000      0.0000    807.5331      5.4605    110.7287
   477.0000      0.0000    798.2579      5.6836    116.6094
   477.5000      0.0000    783.9722      5.9376    128.8993
   478.0000      0.0000    767.9069      6.1029    136.0815
   478.5000      0.0000    760.9415      6.2567    128.2728
   479.0000      0.0000    762.2924      6.5409    116.2303
   479.5000      0.0000    770.1578      6.8530    111.2508
   480.0000      0.0000    782.2132      7.0527    109.1811
   480.5000      0.0000    793.0629      7.1726    109.9755
   481.0000      0.0000    797.3152      7.2659    114.1148
   481.5000      0.0000    794.1527      7.3000    113.7310
   482.0000      0.0000    790.9059      7.3011    109.0405
   482.5000      0.0000    795.9481      7.1243    101.8991
   483.0000      0.0000    805.7936      6.8284     92.0529
   483.5000      0.0000    815.3672      6.6946     93.7443
   484.0000      0.0000    826.2883      6.6755    106.4976
   484.5000      0.0000    835.0237      6.6578    121.7703
   485.0000      0.0000    837.1274      6.5801    133.5810
   485.5000      0.0000    835.5851      6.3881    138.9756
   486.0000      0.0000    831.4762      6.1781    141.5461
   486.5000      0.0000    828.4861      6.0281    137.5918
   487.0000      0.0000    831.7455      5.8651    127.3046
   487.5000      0.0000    835.5645      5.7945    124.1902
   488.0000      0.0000    836.5982      5.8208    134.1909
   488.5000      0.0000    836.5823      5.8211    142.2829
   489.0000      0.0000    836.1303      5.8580    139.4203
   489.5000      0.0000    833.1418      6.0584    129.7309
   490.0000      0.0000    823.4341      6.4447    126.0166
   490.5000      0.0000    806.9247      6.8865    123.6587
   491.0000      0.0000    791.4503      7.1169    113.1575
   491.5000      0.0000    781.7740      7.1389    106.2847
   492.0000      0.0000    768.0554      7.0680    109.6070
   492.5000      0.0000    754.9031      6.9179    114.6384
   493.0000      0.0000    750.4276      6.6589    117.4477
   493.5000      0.0000    750.8111      6.4091    119.8334
   494.0000      0.0000    752.2630      6.4316    118.7052
   494.5000      0.0000    755.5766      6.6931    115.9667
   495.0000      0.0000    760.9434      7.0016    110.0340
   495.5000      0.0000    760.7552      7.2480    106.0699
   496.0000      0.0000    758.5598      7.3041    109.4109
   496.5000      0.0000    769.7188      7.1278    111.2953
   497.0000      0.0000    790.5073      6.8092    114.3099
   497.5000      0.0000    807.3479      6.4391    127.2682
   498.0000      0.0000    805.1313      6.0197    138.1293
   498.5000      0.0000    776.1904      5.6935    137.1647
   499.0000      0.0000    759.0693      5.5790    134.1582
   499.5000      0.0000    778.7428      5.3568    132.0065
   500.0000      0.0000    804.2263      5.1398    126.7089
   500.5000      0.0000    812.7172      5.0986    117.8730
   501.0000      0.0000    807.9404      5.2106    104.2079
   501.5000      0.0000    812.0106      5.4034     94.6916
   502.0000      0.0000    823.7950      5.4267     97.2245
   502.5000      0.0000    827.0756      5.4107    108.6424
   503.0000      0.0000    830.1923      5.6349    120.1493
   503.5000      0.0000    833.8028      6.0331    125.4026
   504.0000      0.0000    835.2686      6.4227    125.6261
   504.5000      0.0000    834.9014      6.6217    126.2982
   505.0000      0.0000    827.7126      6.6324    125.7389
   505.5000      0.0000    808.3171      6.5151    120.6700
   506.0000      0.0000    784.9296      6.4230    110.8313
   506.5000      0.0000    767.3519      6.5601    103.0829
   507.0000      0.0000    758.4384      6.7961    101.2414
   507.5000      0.0000    759.0842      6.9184    104.9876
   508.0000      0.0000    764.3325      6.8631    109.1693
   508.5000      0.0000    770.1851      6.7219    106.3422
   509.0000      0.0000    778.3893      6.7449     99.3629
   509.5000      0.0000    783.5262      6.9992     93.2088
   510.0000      0.0000    779.8068      7.1623     88.6848
   510.5000      0.0000    772.7421      7.0262     87.9909
   511.0000      0.0000    765.3577      6.8607     92.7870
   511.5000      0.0000    764.4571      6.8916     97.5228
   512.0000      0.0000    774.7698      6.8758     95.3985
   512.5000      0.0000    787.7671      6.6819     95.9747
   513.0000      0.0000    799.0250      6.6095    103.5981
   513.5000      0.0000    800.7836      6.7618    109.0187
   514.0000      0.0000    803.2395      6.9602    106.6395
   514.5000      0.0000    820.1406      7.0330    102.8931
   515.0000      0.0000    832.5403      6.8312    116.8258
   515.5000      0.0000    825.0085      6.4952    140.3382
   516.0000      0.0000    793.9323      6.2181    146.3764
   516.5000      0.0000    762.8733      6.0623    137.8539
   517.0000      0.0000    765.1784      5.9304    121.8520
   517.5000      0.0000    792.5311      5.6378    100.1184
   518.0000      0.0000    816.7158      5.3764     85.6961
   518.5000      0.0000    824.2352      5.3793     85.6415
   519.0000      0.0000    826.0844      5.5486     99.4414
   519.5000      0.0000    823.1296      5.5878    122.2499
   520.0000      0.0000    800.3113      5.5456    138.9073
   520.5000      0.0000    773.1288      5.6640    143.5051
   521.0000      0.0000    767.9887      5.8838    140.3238
   521.5000      0.0000    784.6298      5.9952    131.0100
   522.0000      0.0000    809.3514      5.9697    125.2545
   522.5000      0.0000    825.8710      5.9551    131.7373
   523.0000      0.0000    827.3584      6.0368    143.3590
   523.5000      0.0000    820.1060      6.0941    145.8778
   524.0000      0.0000    808.5925      5.9607    144.6477
   524.5000      0.0000    795.6554      5.8412    145.4762
   525.0000      0.0000    796.3640      5.9971    144.0698
   525.5000      0.0000    815.0891      6.2622    138.2021
   526.0000      0.0000    820.2717      6.3515    130.0962
   526.5000      0.0000    795.7960      6.3876    125.9815
   527.0000      0.0000    773.8649      6.4549    128.4539
   527.5000      0.0000    778.0241      6.3644    133.7995
   528.0000      0.0000    781.4821      6.3062    131.4558
   528.5000      0.0000    773.9531      6.4158    121.2111
   529.0000      0.0000    762.9808      6.4216    113.1218
