~Version Information
 VERS.                                  2.0 : CWLS LAS VERSION
 WRAP.                                   NO : WRAPING MODE
 SWARE .                 MController 2.5.0J : SOFTWARE VERSION
~Well Information
 WELL.                        MOO MOO 31-36 : WELL
 COMP.    PIONEER NATURAL RESOURCES USA INC : COMPANY
 FLD.                      PURGATOIRE RIVER : FIELD
 LOC.                NW/NE SEC 36 T32S R67W : LOCATION
 DATE.                             06/16/05 : DATE(S) LOGGED
 SRVC.       BLANCO GEOLOGICAL SERVICES LLC : SERVICE COMPANY
 STAT.                             COLORADO : STATE
 CNTY.                           LAS ANIMAS : COUNTY
 CTRY.                                  USA : COUNTRY
 API.                       05-071-08395-00 : API NUMBER
 STRT.FT                             303.00 : START DEPTH
 STOP.FT                            2275.00 : STOP DEPTH
 STEP.FT                               1.00 : DEPTH INCREMENT
 NULL.                                -9999 : NULL VALUE
~Curve information
 DEPTH.FT                                   :
 ROP.MIN/FT                                 :
 GAS.UNITS                                  :
~ASCII Log data
# ...
      2103.0         0.42        713.7 
      2104.0         0.40        648.2 
      2105.0         0.40        630.2 
      2106.0         0.33        607.0 
      2107.0         0.37        561.2 
      2108.0         0.37        530.5 
      2109.0         0.37        490.9 
      2110.0         0.33        468.0 
      2111.0         0.37        460.8 
      2112.0         0.42        440.0 
      2113.0         0.37        487.6 
      2114.0         0.40        472.2 
      2115.0         0.37        454.9 
      2116.0         0.33        440.0 
      2117.0         0.33        259.0 
      2118.0         0.30        248.7 
      2119.0         0.37        241.8 
      2120.0         0.27        240.9 
      2121.0         0.30        242.4 
      2122.0         0.17        243.5 
      2123.0         0.18        243.3 
      2124.0         0.23        242.9 
      2125.0         0.30        238.8 
      2126.0         3.28        997.6 
      2127.0         0.30       1363.7 
      2128.0         0.43       1409.2 
      2129.0         0.73        961.3 
      2130.0         1.00        762.7 
      2131.0         0.98        488.6 
      2132.0         1.37        557.9 
      2133.0         2.15        467.0 
      2134.0         2.27        267.8 
      2135.0         0.55        260.5 
      2136.0         0.50        249.2 
      2137.0         0.43        258.6 
      2138.0         0.27        269.6 
      2139.0         0.43        275.2 
      2140.0         0.50        275.7 
      2141.0         0.30        269.4 
      2142.0         0.33        260.8 
      2143.0         0.38        257.7 
      2144.0         0.37        259.7 
      2145.0         0.30        257.5 
      2146.0         0.30        250.7 
      2147.0         0.30        243.6 
      2148.0         0.30        240.2 
      2149.0         0.33        240.7 
      2150.0         0.30        240.6 
      2151.0         0.33        237.2 
      2152.0         0.40        234.6 
      2153.0         0.45        241.6 
      2154.0         0.53        263.8 
      2155.0         0.50        278.6 
      2156.0         3.82        984.2 
      2157.0         0.77       1161.5 
      2158.0         0.27       1065.7 
      2159.0         0.37       1069.0 
      2160.0         0.38       1060.4 
      2161.0         0.33        968.5 
      2162.0         0.23        867.8 
      2163.0         0.23        786.3 
      2164.0         0.20        722.2 
      2165.0         0.37        618.5 
      2166.0         0.33        492.2 
      2167.0         0.30        536.7 
      2168.0         0.30        515.7 
      2169.0         0.30        528.5 
      2170.0         0.33        523.3 
      2171.0         0.23        496.1 
      2172.0         0.25        544.9 
      2173.0         0.20        469.3 
      2174.0         0.23        450.0 
      2175.0         0.23        487.6 
      2176.0         0.13        468.6 
      2177.0         0.17        446.1 
      2178.0         0.23        440.0 
      2179.0         0.30        252.8 
      2180.0         0.30        238.6 
      2181.0         0.30        227.1 
      2182.0         0.27        219.9 
      2183.0         0.30        224.7 
      2184.0         0.37        237.0 
      2185.0         0.42        243.6 
      2186.0         3.55        477.7 
      2187.0         0.60       1200.5 
      2188.0         0.83       1063.4 
      2189.0         0.53       1026.4 
      2190.0         0.43        893.9 
      2191.0         0.40        737.2 
      2192.0         0.35        677.7 
      2193.0         0.37        634.8 
      2194.0         0.33        589.7 
      2195.0         0.37        552.1 
      2196.0         0.37        544.9 
      2197.0         0.37        505.9 
      2198.0         0.37        487.9 
      2199.0         0.30        452.9 
      2200.0         0.30        492.5 
      2201.0         0.30        467.3 
      2202.0         0.32        440.0 
      2203.0         0.30        440.0 
      2204.0         0.30        255.2 
      2205.0         0.33        253.0 
      2206.0         0.30        253.3 
      2207.0         0.30        252.3 
      2208.0         0.30        249.2 
      2209.0         0.33        247.8 
      2210.0         0.30        247.5 
      2211.0         0.30        246.3 
      2212.0         0.32        244.2 
      2213.0         0.30        242.9 
      2214.0         0.47        240.6 
      2215.0         0.37        239.0 
      2216.0         3.55        482.1 
      2217.0         0.73       1088.3 
      2218.0         1.00       1025.4 
      2219.0         0.78        736.9 
      2220.0         0.77        506.9 
      2221.0         0.93        481.1 
      2222.0         1.03        440.0 
      2223.0         1.08        233.7 
      2224.0         1.07        224.0 
      2225.0         1.00        222.5 
      2226.0         1.18        218.9 
      2227.0         1.63        210.1 
      2228.0         1.68        202.4 
      2229.0         1.20        203.4 
      2230.0         0.33        204.2 
      2231.0         0.40        204.4 
      2232.0         0.33        205.4 
      2233.0         0.38        211.6 
      2234.0         0.30        228.4 
      2235.0         0.30        241.8 
      2236.0         0.33        249.0 
      2237.0         0.50        249.7 
      2238.0         0.37        246.6 
      2239.0         0.33        243.8 
      2240.0         0.33        243.1 
      2241.0         0.30        240.8 
      2242.0         0.30        238.4 
      2243.0         0.38        231.6 
      2244.0         0.33        226.3 
      2245.0         0.33        223.8 
      2246.0         3.32        373.6 
      2247.0         0.43        903.7 
      2248.0         0.60       1132.1 
      2249.0         0.57        878.2 
      2250.0         0.53        842.2 
      2251.0         0.55        783.4 
      2252.0         0.43        697.0 
      2253.0         0.40        590.0 
      2254.0         0.47        518.0 
      2255.0         0.43        465.4 
      2256.0         0.47        493.8 
      2257.0         0.47        467.3 
      2258.0         0.58        440.0 
      2259.0         0.57        440.0 
      2260.0         0.57        240.9 
      2261.0         0.53        220.0 
      2262.0         0.57        207.0 
      2263.0         0.73        206.9 
      2264.0         0.58        207.7 
      2265.0         0.57        203.6 
      2266.0         0.63        199.2 
      2267.0         0.63        205.8 
      2268.0         0.70        218.4 
      2269.0         0.48        218.3 
      2270.0         0.50        227.6 
      2271.0         0.53        312.3 
      2272.0         0.53        442.5 
      2273.0         0.47        445.1 
      2274.0         0.60        388.9 
      2275.0         0.50        314.0 
