~Version Information
VERS.                      2.0: CWLS Log ASCII Standard - VERSION 2.0
WRAP.                       NO: One line per depth step
~Well Information Block
STRT.FT                -7.7500: 
STOP.FT               973.7500: 
STEP.FT                 0.2500: 
NULL.                -999.2500: 
COMP.          Pioneer Natural Resources: COMPANY
WELL.              Dylan 42-25: WELL
FLD.           Purgatorie River: FIELD
LOC.           2160' FNL & 855' FEL: LOCATION
PROV.                 Colorado: PROVINCE
CNTY.               Las Animas: COUNTRY
SRVC.          Patterson Wireline: SERVICE COMPANY
DATE.          Fri Apr 29 16:36:17 2005: LOG DATE
UWI.           05-071-08229-00: UNIQUE WELL ID
~Curve Information Block
DEPT.FT            0 000 00 00: Depth
CCL.                          : Casing Collar Locator
TT3.usec                      : CBL 3' Travel Time
AMP3.mV                       : CBL 3' Amplitude
GR.GAPI                       : Gamma Ray
~Parameter Information Block
~A  Depth       CCL         TT3         AMP3         GR     
# ...
   360.7500      0.0000    838.1274      5.3316    103.2231
   361.0000      0.0000    834.8214      5.2943    106.9456
   361.2500      0.0000    832.0196      5.2565    109.2359
   361.5000      0.0000    830.4608      5.2237    108.9901
   361.7500      0.0000    830.2069      5.2005    106.7901
   362.0000      0.0000    831.0766      5.1888    104.3706
   362.2500      0.0000    832.9735      5.1893    103.4113
   362.5000      0.0000    835.6067      5.2020    104.4167
   362.7500      0.0000    838.0934      5.2206    106.3948
   363.0000      0.0000    839.3817      5.2276    107.7931
   363.2500      0.0000    839.4697      5.2028    107.8650
   363.5000      0.0000    839.9750      5.1426    106.8187
   363.7500      0.0000    842.9752      5.0650    104.8577
   364.0000      0.0000    849.1436      4.9946    101.9007
   364.2500      0.0000    857.0989      4.9462     98.2956
   364.5000      0.0000    864.5199      4.9259     95.0156
   364.7500      0.0000    869.7841      4.9419     92.8644
   365.0000      0.0000    872.6515      5.0045     91.8944
   365.2500      0.0000    873.7977      5.1136     91.6950
   365.5000      0.0000    874.0907      5.2510     91.8075
   365.7500      0.0000    874.2499      5.3861     91.6934
   366.0000      0.0000    874.8534      5.4862     90.8215
   366.2500      0.0000    876.3052      5.5266     89.2907
   366.5000      0.0000    878.4896      5.4997     88.0426
   366.7500      0.0000    880.3366      5.4179     87.8251
   367.0000      0.0000    880.0066      5.3053     88.1471
   367.2500      0.0000    875.9560      5.1857     87.9019
   367.5000      0.0000    868.0709      5.0820     86.8316
   367.7500      0.0000    857.9581      5.0182     85.6861
   368.0000      0.0000    848.3441      5.0150     85.0611
   368.2500      0.0000    841.8317      5.0782     84.8047
   368.5000      0.0000    839.4429      5.1902     84.6097
   368.7500      0.0000    840.0124      5.3116     84.6906
   369.0000      0.0000    841.3058      5.4015     85.7644
   369.2500      0.0000    841.9476      5.4433     88.4452
   369.5000      0.0000    842.0220      5.4530     92.6760
   369.7500      0.0000    841.8236      5.4619     97.8023
   370.0000      0.0000    840.8514      5.4909    103.0610
   370.2500      0.0000    838.5620      5.5406    107.8038
   370.5000      0.0000    835.4880      5.6045    111.5892
   370.7500      0.0000    832.8930      5.6856    114.5026
   371.0000      0.0000    831.5450      5.7933    117.1069
   371.2500      0.0000    831.2523      5.9202    119.5915
   371.5000      0.0000    831.3964      6.0337    121.1602
   371.7500      0.0000    831.5870      6.0990    120.6893
   372.0000      0.0000    831.8746      6.1104    118.1454
   372.2500      0.0000    832.6237      6.0963    115.1940
   372.5000      0.0000    834.2399      6.0970    114.0681
   372.7500      0.0000    836.8600      6.1374    115.6795
   373.0000      0.0000    840.2365      6.2182    118.8657
   373.2500      0.0000    843.9011      6.3274    121.2639
   373.5000      0.0000    847.2079      6.4501    120.7603
   373.7500      0.0000    849.1282      6.5651    116.4632
   374.0000      0.0000    848.6653      6.6399    108.8153
   374.2500      0.0000    846.0891      6.6433     98.9716
   374.5000      0.0000    843.2542      6.5664     88.1960
   374.7500      0.0000    841.9772      6.4319     77.8347
   375.0000      0.0000    842.2509      6.2791     69.4128
   375.2500      0.0000    842.4513      6.1407     64.2177
   375.5000      0.0000    841.0817      6.0283     62.5683
   375.7500      0.0000    837.8076      5.9353     63.4541
   376.0000      0.0000    832.7001      5.8472     64.9733
   376.2500      0.0000    825.0491      5.7506     65.4452
   376.5000      0.0000    813.6623      5.6394     64.4729
   376.7500      0.0000    798.8000      5.5212     63.0167
   377.0000      0.0000    783.7057      5.4172     62.3607
   377.2500      0.0000    773.4504      5.3512     63.0243
   377.5000      0.0000    771.4896      5.3354     64.6776
   377.7500      0.0000    777.0427      5.3664     67.0103
   378.0000      0.0000    786.4031      5.4338     70.5193
   378.2500      0.0000    797.1312      5.5324     76.2890
   378.5000      0.0000    809.5623      5.6635     84.7607
   378.7500      0.0000    822.7210      5.8248     94.4679
   379.0000      0.0000    831.0573      6.0019    102.2596
   379.2500      0.0000    828.8913      6.1731    105.4741
   379.5000      0.0000    817.1319      6.3211    104.1230
   379.7500      0.0000    802.4446      6.4395    100.6099
   380.0000      0.0000    790.4900      6.5296     97.4054
   380.2500      0.0000    782.0553      6.5964     95.5544
   380.5000      0.0000    774.8663      6.6479     95.1984
   380.7500      0.0000    767.3816      6.6930     96.2274
   381.0000      0.0000    760.7709      6.7364     97.7845
   381.2500      0.0000    758.1868      6.7774     98.0893
   381.5000      0.0000    763.0234      6.8130     95.7633
   381.7500      0.0000    777.5594      6.8454     91.2366
   382.0000      0.0000    802.2934      6.8835     86.4241
   382.2500      0.0000    836.1463      6.9368     83.1437
   382.5000      0.0000    877.1479      7.0074     81.9613
   382.7500      0.0000    921.3674      7.0878     82.1666
   383.0000      0.0000    960.8740      7.1664     82.4540
   383.2500      0.0000    986.7337      7.2336     81.8273
   383.5000      0.0000    997.5531      7.2854     80.2461
   383.7500      0.0000   1002.5215      7.3248     78.4163
   384.0000      0.0000   1011.2038      7.3599     76.9297
   384.2500      0.0000   1020.7482      7.3951     75.8240
   384.5000      0.0000   1017.6056      7.4241     75.0166
   384.7500      0.0000    993.0090      7.4341     74.6792
   385.0000      0.0000    953.2986      7.4180     74.7747
   385.2500      0.0000    913.4755      7.3814     74.5849
   385.5000      0.0000    883.9135      7.3377     73.2452
   385.7500      0.0000    865.7396      7.2990     70.7675
   386.0000      0.0000    856.0140      7.2663     68.2215
   386.2500      0.0000    852.8067      7.2247     66.8442
   386.5000      0.0000    855.1088      7.1542     67.2062
   386.7500      0.0000    860.8835      7.0524     69.2114
   387.0000      0.0000    867.1348      6.9444     72.4394
   387.2500      0.0000    871.6292      6.8611     76.2355
   387.5000      0.0000    873.8503      6.8089     79.7390
   387.7500      0.0000    874.4644      6.7647     82.2574
   388.0000      0.0000    874.2949      6.6999     83.8903
   388.2500      0.0000    873.8251      6.6040     85.7450
   388.5000      0.0000    873.1851      6.4879     89.3169
   388.7500      0.0000    872.1790      6.3705     95.3900
   389.0000      0.0000    870.3010      6.2664    103.2645
   389.2500      0.0000    867.0082      6.1807    110.9349
   389.5000      0.0000    862.1712      6.1090    116.3609
   389.7500      0.0000    856.2050      6.0418    118.9752
   390.0000      0.0000    849.7936      5.9726    119.9230
   390.2500      0.0000    843.7819      5.9056    120.5889
   390.5000      0.0000    839.3652      5.8537    120.9341
   390.7500      0.0000    837.8988      5.8250    119.5257
   391.0000      0.0000    839.9438      5.8101    115.0805
   391.2500      0.0000    844.2323      5.7843    107.7822
   391.5000      0.0000    847.8312      5.7297     99.4365
   391.7500      0.0000    848.0308      5.6556     92.6724
   392.0000      0.0000    844.4916      5.5926     89.4422
   392.2500      0.0000    839.4100      5.5603     89.6548
   392.5000      0.0000    835.7717      5.5441     91.4398
   392.7500      0.0000    835.8466      5.5023     93.0894
   393.0000      0.0000    841.0610      5.3949     94.4567
   393.2500      0.0000    851.9995      5.2123     96.1773
   393.5000      0.0000    867.4857      4.9915     98.0723
   393.7500      0.0000    883.9955      4.8026     98.9300
   394.0000      0.0000    897.5557      4.6989     97.8227
