~Version Information
VERS.                      2.0: CWLS Log ASCII Standard - VERSION 2.0
WRAP.                       NO: One line per depth step
~Well Information Block
STRT.FT               521.6000: 
STOP.FT              1490.2000: 
STEP.FT                 0.1000: 
NULL.                -999.2500: 
COMP.          Petrogulf Corporation: COMPANY
WELL.          Robinson 15-11R: WELL
FLD.           Purgatorie River: FIELD
LOC.           324' FNL & 570' FWL: LOCATION
CNTY.               Las Animas: COUNTY
SRVC.                         : SERVICE COMPANY
DATE.          Sat Nov 06 22:43:15 2004: LOG DATE
UWI.           05 071 08029 00: UNIQUE WELL ID
STAT.                 Colorado: STATE
~Curve Information Block
DEPT.FT            0 000 00 00: Depth
DCAL.in                       : CDL Caliper
RHOB.g/cc                     : CDL Bulk Density
RHOC.g/cc                     : CDL Density Correction
DPOR.pu                       : CDL Density Porosity
GR.GAPI                       : Gamma Ray
NPOR.pu                       : Neutron Porosity
~Parameter Information Block
~A  Depth       DCAL        RHOB        RHOC        DPOR         GR         NPOR    
# ...
   732.8000      7.9422      2.6269      0.0619      1.3999    136.4910     32.5448
   732.9000      7.9422      2.6336      0.0342      0.9921    133.3805     32.5371
   733.0000      7.9647      2.6475      0.0944      0.1508    132.6208     32.7985
   733.1000      7.9647      2.6594      0.1067     -0.5704    136.6619     33.4690
   733.2000      7.9647      2.6717      0.0743     -1.3141    142.4001     34.1190
   733.3000      7.9275      2.6850      0.1308     -2.1239    146.4214     34.3571
   733.4000      7.9275      2.6858      0.1302     -2.1709    148.5222     34.4527
   733.5000      7.9202      2.6829      0.0085     -1.9911    148.3656     34.5412
   733.6000      7.9202      2.6977      0.0791     -2.8881    145.5268     34.4715
   733.7000      7.9202      2.7184      0.1649     -4.1431    141.9140     34.3956
   733.8000      7.9274      2.7264      0.1579     -4.6296    140.7817     34.4358
   733.9000      7.9274      2.7308      0.1005     -4.8948    141.8593     34.1431
   734.0000      7.8769      2.7439      0.1330     -5.6917    142.3888     33.3649
   734.1000      7.8769      2.7489      0.1470     -5.9920    140.9377     32.6951
   734.2000      7.8769      2.7213      0.1169     -4.3221    138.9593     32.4659
   734.3000      7.8734      2.6744      0.0784     -1.4799    137.3983     32.3788
   734.4000      7.8734      2.6401      0.0883      0.5974    137.6235     32.3147
   734.5000      7.8838      2.6248      0.1398      1.5266    140.4432     32.0831
   734.6000      7.8838      2.6203      0.1341      1.7978    142.3019     31.4001
   734.7000      7.8838      2.6231      0.1305      1.6280    143.1257     30.6900
   734.8000      7.8693      2.6239      0.1374      1.5792    146.0455     30.7424
   734.9000      7.8693      2.6126      0.1315      2.2660    149.8632     31.5850
   735.0000      7.8744      2.5942      0.0892      3.3813    150.2121     32.5041
   735.1000      7.8744      2.5783      0.0823      4.3440    147.6956     33.0463
   735.2000      7.8744      2.5616      0.1259      5.3553    148.4019     33.1244
   735.3000      7.8993      2.5377      0.1029      6.8087    151.9162     32.8879
   735.4000      7.8993      2.5115      0.1025      8.3946    153.0195     32.5682
   735.5000      7.8886      2.4958      0.0265      9.3477    151.0647     32.1885
   735.6000      7.8886      2.4939      0.0686      9.4577    149.7368     31.7522
   735.7000      7.8886      2.4901      0.0333      9.6920    150.9311     31.2453
   735.8000      7.8959      2.4755      0.0152     10.5781    151.6383     30.7411
   735.9000      7.8959      2.4608      0.0382     11.4660    150.3050     30.4633
   736.0000      7.9291      2.4593      0.0486     11.5603    148.3177     30.3086
   736.1000      7.9291      2.4782      0.0987     10.4135    144.2695     30.2410
   736.2000      7.9291      2.5165      0.1194      8.0937    138.2836     30.2965
   736.3000      7.8995      2.5568      0.1820      5.6479    134.2753     30.1288
   736.4000      7.8995      2.5797      0.1461      4.2609    135.9888     29.5450
   736.5000      7.8761      2.5899      0.1519      3.6436    142.1908     28.7885
   736.6000      7.8761      2.6007      0.1794      2.9858    147.1555     28.3409
   736.7000      7.8761      2.6120      0.1346      2.3024    150.2420     28.3126
   736.8000      7.8984      2.6196      0.1485      1.8430    153.3787     28.5872
   736.9000      7.8984      2.6220      0.1528      1.6953    152.4496     29.0714
   737.0000      7.9297      2.6169      0.1641      2.0068    150.1083     29.4876
   737.1000      7.9297      2.5987      0.1188      3.1080    153.2227     29.7896
   737.2000      7.9297      2.5687      0.1017      4.9287    159.9148     30.2353
   737.3000      7.9346      2.5445      0.0081      6.3926    164.5765     30.9834
   737.4000      7.9346      2.5425      0.0600      6.5137    163.0201     31.5153
   737.5000      7.9115      2.5580      0.0280      5.5731    156.9925     31.2163
   737.6000      7.9115      2.5795      0.0589      4.2724    153.3293     30.6506
   737.7000      7.9115      2.5934      0.0697      3.4319    154.2135     30.5718
   737.8000      7.9100      2.5946      0.0395      3.3551    158.3041     30.6327
   737.9000      7.9100      2.5967      0.0533      3.2316    162.7713     30.3377
   738.0000      7.9121      2.6056      0.0701      2.6916    161.7201     29.8000
   738.1000      7.9121      2.6097      0.0876      2.4400    155.7724     29.2260
   738.2000      7.9121      2.6013      0.0668      2.9520    150.1630     28.9722
   738.3000      7.9619      2.5942     -0.0002      3.3835    145.6267     29.2502
   738.4000      7.9619      2.6122      0.0332      2.2910    142.4301     29.8852
   738.5000      7.9773      2.6456      0.0856      0.2688    139.5559     30.7141
   738.6000      7.9773      2.6669      0.0501     -1.0217    132.7298     31.4367
   738.7000      7.9773      2.6732      0.1168     -1.4044    125.1331     31.7287
   738.8000      7.9339      2.6693      0.0882     -1.1710    122.3151     31.7557
   738.9000      7.9339      2.6660      0.0804     -0.9679    120.4753     31.8272
   739.0000      7.9204      2.6756      0.1018     -1.5490    117.5823     31.9744
   739.1000      7.9204      2.6961      0.0541     -2.7910    120.2949     32.0914
   739.2000      7.9204      2.7137      0.1455     -3.8604    127.1306     31.9300
   739.3000      7.8795      2.7068      0.1019     -3.4395    128.7609     31.5008
   739.4000      7.8795      2.6793      0.0564     -1.7780    125.7966     31.2994
   739.5000      7.8760      2.6552      0.0091     -0.3145    124.9020     31.3466
   739.6000      7.8760      2.6339      0.0454      0.9771    126.7971     31.1875
   739.7000      7.8760      2.6071     -0.0306      2.5984    127.8940     31.0222
   739.8000      7.9091      2.5840     -0.0160      4.0028    126.3553     31.0490
   739.9000      7.9091      2.5722     -0.0318      4.7145    123.7779     30.8379
   740.0000      7.9213      2.5758     -0.0421      4.4961    122.4088     30.2709
   740.1000      7.9213      2.5903      0.0823      3.6210    122.7689     29.7994
   740.2000      7.9213      2.5998      0.0734      3.0397    121.5309     29.8234
   740.3000      7.8842      2.6028      0.0573      2.8581    117.9215     30.0820
   740.4000      7.8842      2.6098      0.0685      2.4368    114.8585     29.8486
   740.5000      7.8914      2.6167      0.0656      2.0203    114.4299     28.9673
   740.6000      7.8914      2.6060      0.0810      2.6640    116.4746     28.0815
   740.7000      7.8914      2.5825      0.0732      4.0897    120.4583     27.5785
   740.8000      7.8884      2.5753      0.0536      4.5251    126.0030     27.2591
   740.9000      7.8884      2.5957      0.0625      3.2916    130.7246     27.0142
   741.0000      7.9165      2.6287      0.0994      1.2928    132.8240     27.0448
   741.1000      7.9165      2.6532      0.0910     -0.1946    130.9158     27.3285
   741.2000      7.9165      2.6581      0.0545     -0.4880    123.5386     27.4046
   741.3000      7.9033      2.6562      0.0609     -0.3774    118.4330     27.0883
   741.4000      7.9033      2.6644      0.0972     -0.8727    124.0038     26.8684
   741.5000      7.9018      2.6745      0.1324     -1.4823    133.5399     27.0687
   741.6000      7.9018      2.6680      0.1194     -1.0890    136.9483     27.2498
   741.7000      7.9018      2.6446      0.0833      0.3257    137.1212     27.0599
   741.8000      7.8917      2.6253      0.0538      1.4982    138.0638     27.0503
   741.9000      7.8917      2.6264      0.0254      1.4278    134.1378     27.6564
   742.0000      7.8737      2.6319      0.0896      1.0941    127.3616     28.3045
   742.1000      7.8737      2.6176      0.0969      1.9633    129.4191     28.3663
   742.2000      7.8737      2.5954      0.0794      3.3108    138.9336     28.1420
   742.3000      7.8905      2.5876      0.0624      3.7816    147.4262     28.1450
