~Version Information
VERS.                                  2.0 : CWLS LAS VERSION
WRAP.                                   NO : WRAPING MODE
SWARE .                 MController 2.5.0E : SOFTWARE VERSION
~Well Information
WELL.                         Warrior 32-1 : WELL
COMP.             Evergreen Operating Corp : COMPANY
FLD.                      Purgatorie River : FIELD
LOC.                SW/NE Sec 11 T33S R67W : LOCATION
DATE.                    10/02/04-10/03/04 : DATE(S) LOGGED
SRVC.       Blanco Geological Services LLC : SERVICE COMPANY
STAT.                                   CO : STATE
CNTY.                           Las Animas : COUNTY
CTRY.                                  USA : COUNTRY
API.                       05-071-08176-00 : API NUMBER
STRT.FT                             386.00 : START DEPTH
STOP.FT                            2265.00 : STOP DEPTH
STEP.FT                               1.00 : DEPTH INCREMENT
NULL.                                -9999 : NULL VALUE
~Curve information
DEPTH.FT                                   :
ROP.MIN/FT                                 :
GAS.UNITS                                  :
~ASCII Log data
# ...
     1828.00        0.433         36.3
     1829.00        0.300         44.2
     1830.00        0.500         56.8
     1831.00        0.233         58.3
     1832.00        0.300         54.5
     1833.00        0.267         51.3
     1834.00        0.400         54.8
     1835.00        0.350         55.5
     1836.00        0.267         52.1
     1837.00        0.233         47.1
     1838.00        0.233         44.4
     1839.00        0.233         43.3
     1840.00        0.267         44.6
     1841.00        0.233         45.1
     1842.00        0.367         45.8
     1843.00        0.233         46.3
     1844.00        0.367         45.0
     1845.00        0.167         44.9
     1846.00        0.167         44.8
     1847.00        0.417         43.0
     1848.00        0.333         41.9
     1849.00        0.333         40.6
     1850.00        0.433         39.0
     1851.00        0.433         37.9
     1852.00        0.467         36.8
     1853.00        0.267         37.7
     1854.00        0.533         39.4
     1855.00        0.750         43.6
     1856.00        2.967         31.9
     1857.00        0.100         35.1
     1858.00        0.233         24.4
     1859.00        0.350         34.6
     1860.00        0.167         34.6
     1861.00        0.200         43.2
     1862.00        0.267         58.1
     1863.00        0.267        102.2
     1864.00        0.100        169.6
     1865.00        0.267        225.8
     1866.00        0.267        259.6
     1867.00        0.283        296.5
     1868.00        0.167        296.5
     1869.00        0.267        302.3
     1870.00        0.267        277.5
     1871.00        0.267        262.3
     1872.00        0.267        191.1
     1873.00        0.267        169.4
     1874.00        0.267        140.7
     1875.00        0.233        100.9
     1876.00        0.500         99.6
     1877.00        0.400         86.9
     1878.00        0.417         84.1
     1879.00        0.533         92.2
     1880.00        0.367         96.1
     1881.00        0.433         96.4
     1882.00        0.500         90.6
     1883.00        0.433         81.0
     1884.00        0.467         76.0
     1885.00        0.467         73.5
     1886.00        0.483         70.1
     1887.00        0.433         65.3
     1888.00        0.400         68.1
     1889.00        0.433         68.5
     1890.00        0.400         70.6
     1891.00        0.533         74.4
     1892.00        0.817         81.1
     1893.00        0.600         85.9
     1894.00        0.767         90.2
     1895.00        0.333         86.1
     1896.00        0.300         77.6
     1897.00        0.300         69.3
     1898.00        0.333         63.0
     1899.00        0.467         30.3
     1900.00        0.417         20.7
     1901.00        0.400         17.2
     1902.00        0.333         18.1
     1903.00        0.167         18.1
     1904.00        0.267         21.1
     1905.00        0.267         26.3
     1906.00        3.917        339.3
     1907.00        1.033        136.4
     1908.00        0.950        106.7
     1909.00        0.333         96.0
     1910.00        0.267         89.4
     1911.00        0.333         86.4
     1912.00        0.367         77.1
     1913.00        0.400         68.9
     1914.00        0.500         61.9
     1915.00        0.483         59.3
     1916.00        0.467         57.4
     1917.00        0.533         57.4
     1918.00        0.567         61.4
     1919.00        0.433         63.8
     1920.00        0.633         66.5
     1921.00        0.917         67.9
     1922.00        0.333         63.6
     1923.00        0.233         61.4
     1924.00        0.200         61.6
     1925.00        0.333         60.6
     1926.00        0.400         61.5
     1927.00        0.400         65.9
     1928.00        0.367         77.6
     1929.00        0.467         79.4
     1930.00        0.483         80.6
     1931.00        0.533         41.6
     1932.00        0.400         22.2
     1933.00        0.433         18.7
     1934.00        0.433         19.8
     1935.00        0.500         28.8
     1936.00        3.683        293.1
     1937.00        0.333        140.9
     1938.00        0.450        134.2
     1939.00        0.467         89.6
     1940.00        0.467         80.9
     1941.00        0.500         64.8
     1942.00        0.467         68.3
     1943.00        0.400         70.4
     1944.00        0.533         73.7
     1945.00        0.850         64.6
     1946.00        0.933         57.5
     1947.00        0.967         67.5
     1948.00        0.700         72.4
     1949.00        0.517         71.9
     1950.00        0.367         73.1
     1951.00        0.267         75.5
     1952.00        0.267         79.9
     1953.00        0.267         73.3
     1954.00        0.333         68.5
     1955.00        0.300         59.3
     1956.00        0.300         41.9
     1957.00        0.300         23.1
     1958.00        0.333         20.6
     1959.00        0.317         20.3
     1960.00        0.200         20.0
     1961.00        0.100         20.0
     1962.00        0.100         20.4
     1963.00        0.133         20.4
     1964.00        0.133         21.9
     1965.00        0.267         28.1
     1966.00        3.683        284.4
     1967.00        0.400        166.4
     1968.00        0.400        118.3
     1969.00        0.467         95.6
     1970.00        0.367         67.5
     1971.00        0.267         66.8
     1972.00        0.250         67.1
     1973.00        0.433         85.5
     1974.00        0.533         90.5
     1975.00        0.600         92.0
     1976.00        0.567         80.5
     1977.00        0.367         71.9
     1978.00        0.233         72.7
     1979.00        0.267         77.4
     1980.00        0.250         79.2
     1981.00        0.233         80.9
     1982.00        0.133         82.8
     1983.00        0.300         84.4
     1984.00        0.400         88.9
     1985.00        0.400         85.2
     1986.00        0.200         85.0
     1987.00        0.267         84.0
     1988.00        0.333         81.5
     1989.00        0.500         80.9
     1990.00        0.717         81.4
     1991.00        0.700         84.3
     1992.00        0.500        102.2
     1993.00        0.500         99.2
     1994.00        0.667         82.7
     1995.00        0.633         28.3
     1996.00        5.367        259.9
     1997.00        0.400        126.4
     1998.00        0.533        100.6
     1999.00        0.467         83.0
     2000.00        0.417         80.7
     2001.00        0.367         84.8
     2002.00        0.333         87.4
     2003.00        0.300         88.3
     2004.00        0.233         89.6
     2005.00        0.267         85.7
     2006.00        0.167         85.2
     2007.00        0.100         85.2
     2008.00        0.133         85.7
     2009.00        0.100         85.7
     2010.00        0.133         83.3
     2011.00        0.133         83.3
     2012.00        0.267         82.5
     2013.00        0.367         96.5
     2014.00        0.450         94.2
     2015.00        0.467         90.3
     2016.00        0.433         86.4
     2017.00        0.500         82.9
     2018.00        0.500         89.5
     2019.00        0.467        110.8
     2020.00        0.533        108.9
     2021.00        0.517         98.3
     2022.00        0.600         45.8
     2023.00        0.500         28.9
     2024.00        0.567         26.5
     2025.00        0.567         27.7
     2026.00        4.833        391.1
     2027.00        0.600        148.2
     2028.00        0.633         89.0
     2029.00        0.567         75.5
     2030.00        0.533         76.7
     2031.00        0.550         82.7
     2032.00        0.533         88.4
     2033.00        0.500         87.9
