~Version Information
VERS.                      2.0: CWLS Log ASCII Standard - VERSION 2.0
WRAP.                       NO: One line per depth step
~Well Information Block
STRT.FT               647.0000: 
STOP.FT              1167.5000: 
STEP.FT                 0.2500: 
NULL.                -999.2500: 
COMP.          Pioneer Natural Resources: COMPANY
WELL.             Linda T 32-3: WELL
FLD.           Purgatoire River: FIELD
LOC.           1350' FNL & 2290' FEL: LOCATION
PROV.                 Colorado: PROVINCE
CNTY.               Las Animas: COUNTRY
SRVC.                Patterson: SERVICE COMPANY
DATE.          Sat Feb 05 06:41:02 2005: LOG DATE
UWI.           05 071 08215 00: UNIQUE WELL ID
~Curve Information Block
DEPT.FT            0 000 00 00: Depth
SN.Ohm-m                      : IEL Short Normal
SP.mV                         : IEL Spontaneous Potential
DIR.Ohm-m                     : IEL Induction Resistivity
GR.GAPI                       : Gamma Ray
~Parameter Information Block
~A  Depth        SN          SP         DIR          GR     
# ...
  1049.0000     17.4552     56.4679     16.2251     88.3625
  1049.2500     17.3156     56.5893     16.2121     89.1982
  1049.5000     17.1758     56.6904     16.1483     91.0657
  1049.7500     17.0516     56.7845     16.0487     92.8791
  1050.0000     16.9881     56.8912     15.9289     96.2446
  1050.2500     17.0118     57.0248     15.8073     98.6625
  1050.5000     17.0860     57.1941     15.7049    101.9277
  1050.7500     17.1459     57.4106     15.6357    103.4294
  1051.0000     17.1507     57.6904     15.5969    104.0853
  1051.2500     17.0963     58.0438     15.5681    103.3735
  1051.5000     17.0139     58.4597     15.5236    101.0684
  1051.7500     16.9441     58.9031     15.4493     99.3772
  1052.0000     16.8888     59.3337     15.3497     98.0881
  1052.2500     16.8322     59.7344     15.2424     98.7656
  1052.5000     16.8209     60.1213     15.1463    102.4380
  1052.7500     16.9400     60.5231     15.0737    106.1580
  1053.0000     17.1872     60.9516     15.0267    111.5337
  1053.2500     17.4493     61.3925     14.9947    113.4803
  1053.5000     17.6146     61.8195     14.9577    112.5709
  1053.7500     17.6525     62.2123     14.8954    109.8911
  1054.0000     17.5953     62.5609     14.7980    105.1288
  1054.2500     17.5018     62.8595     14.6708    102.8184
  1054.5000     17.4208     63.1051     14.5302    101.5657
  1054.7500     17.3390     63.3062     14.3942    101.8086
  1055.0000     17.1795     63.4856     14.2753    102.4739
  1055.2500     16.8840     63.6693     14.1771    102.7060
  1055.5000     16.4811     63.8678     14.0943    103.1696
  1055.7500     16.0616     64.0669     14.0168    104.1658
  1056.0000     15.7099     64.2338     13.9363    107.4066
  1056.2500     15.4672     64.3352     13.8547    110.6704
  1056.5000     15.3352     64.3581     13.7853    116.3361
  1056.7500     15.2950     64.3192     13.7456    119.8665
  1057.0000     15.3179     64.2504     13.7462    123.6997
  1057.2500     15.3728     64.1720     13.7873    125.0762
  1057.5000     15.4464     64.0762     13.8631    125.7066
  1057.7500     15.5534     63.9340     13.9691    125.3672
  1058.0000     15.7054     63.7213     14.1050    123.7066
  1058.2500     15.8867     63.4406     14.2713    121.9375
  1058.5000     16.0860     63.1235     14.4682    119.1772
  1058.7500     16.3403     62.8097     14.6973    117.8103
  1059.0000     16.7184     62.5199     14.9633    116.3875
  1059.2500     17.2396     62.2451     15.2729    115.2903
  1059.5000     17.8371     61.9628     15.6307    112.7537
  1059.7500     18.4264     61.6639     16.0339    110.6474
  1060.0000     18.9878     61.3642     16.4699    107.7339
  1060.2500     19.5674     61.0962     16.9168    106.3445
  1060.5000     20.1786     60.8942     17.3486    105.2114
  1060.7500     20.7349     60.7852     17.7434    104.9992
  1061.0000     21.1412     60.7872     18.0909    105.6560
  1061.2500     21.3890     60.9107     18.3937    107.1228
  1061.5000     21.5258     61.1520     18.6642    111.3859
  1061.7500     21.5890     61.4783     18.9159    115.3674
  1062.0000     21.5910     61.8236     19.1551    121.5047
  1062.2500     21.5418     62.1145     19.3783    124.4053
  1062.5000     21.4723     62.3126     19.5785    124.9186
  1062.7500     21.4329     62.4305     19.7560    122.2907
  1063.0000     21.4627     62.5046     19.9256    115.5591
  1063.2500     21.5647     62.5545     20.1139    111.2826
  1063.5000     21.7200     62.5724     20.3497    108.4289
  1063.7500     21.9170     62.5410     20.6545    109.4839
  1064.0000     22.1617     62.4543     21.0379    113.8345
  1064.2500     22.4740     62.3244     21.5013    116.6853
  1064.5000     22.8713     62.1741     22.0385    117.8963
  1064.7500     23.3523     62.0208     22.6285    115.9390
  1065.0000     23.8956     61.8614     23.2217    109.9292
  1065.2500     24.4538     61.6710     23.7403    105.3337
  1065.5000     24.9573     61.4214     24.1064     99.7144
  1065.7500     25.3496     61.1065     24.2835     97.2713
  1066.0000     25.6075     60.7512     24.2965     95.4113
  1066.2500     25.7274     60.3965     24.2100     95.3701
  1066.5000     25.7223     60.0762     24.0841     97.5253
  1066.7500     25.6348     59.8055     23.9421    100.4547
  1067.0000     25.5162     59.5795     23.7709    105.8951
  1067.2500     25.3655     59.3741     23.5453    108.9635
  1067.5000     25.1102     59.1519     23.2550    110.6743
  1067.7500     24.6967     58.8826     22.9137    109.3265
  1068.0000     24.1780     58.5660     22.5481    104.2884
  1068.2500     23.6676     58.2385     22.1811    100.2155
  1068.5000     23.2448     57.9532     21.8232     95.7533
  1068.7500     22.9139     57.7543     21.4751     95.0959
  1069.0000     22.6291     57.6641     21.1356     98.2912
  1069.2500     22.3567     57.6834     20.8069    102.6478
  1069.5000     22.0812     57.7920     20.4884    110.0227
  1069.7500     21.7591     57.9467     20.1682    113.6584
  1070.0000     21.3699     58.0886     19.8253    115.0236
  1070.2500     20.9964     58.1630     19.4503    113.1805
  1070.5000     20.7484     58.1422     19.0674    108.1551
  1070.7500     20.6645     58.0374     18.7332    104.7893
  1071.0000     20.7151     57.8938     18.5068    101.5299
  1071.2500     20.8267     57.7703     18.4122    100.8298
  1071.5000     20.9150     57.7144     18.4197    101.5667
  1071.7500     20.9334     57.7466     18.4588    102.8716
  1072.0000     20.8796     57.8637     18.4562    105.3844
  1072.2500     20.7619     58.0494     18.3766    106.9991
  1072.5000     20.5840     58.2775     18.2359    108.9541
  1072.7500     20.3483     58.5184     18.0807    110.1949
  1073.0000     20.0615     58.7552     17.9550    112.7205
  1073.2500     19.7477     58.9924     17.8830    114.9094
  1073.5000     19.4430     59.2415     17.8728    118.0910
  1073.7500     19.1695     59.4937     17.9255    119.4842
  1074.0000     18.9322     59.7125     18.0322    119.9441
  1074.2500     18.7248     59.8551     18.1602    119.2831
  1074.5000     18.5361     59.9056     18.2493    117.3554
  1074.7500     18.3834     59.8879     18.2396    115.6773
  1075.0000     18.3241     59.8483     18.1163    112.6952
  1075.2500     18.3981     59.8252     17.9284    110.3914
  1075.5000     18.5701     59.8299     17.7568    106.5608
  1075.7500     18.7616     59.8470     17.6642    103.9119
  1076.0000     18.9234     59.8452     17.6659     99.9772
  1076.2500     19.0534     59.7890     17.7318     97.2990
  1076.5000     19.1644     59.6540     17.8100     92.8820
  1076.7500     19.2586     59.4477     17.8516     89.5818
  1077.0000     19.3205     59.2221     17.8245     84.4243
  1077.2500     19.3293     59.0598     17.7168     81.4310
  1077.5000     19.2787     59.0366     17.5348     79.1364
  1077.7500     19.1745     59.1852     17.3006     79.8284
  1078.0000     19.0065     59.4798     17.0443     84.3048
  1078.2500     18.7421     59.8494     16.7948     88.8761
  1078.5000     18.3716     60.2128     16.5702     96.3259
  1078.7500     17.9311     60.5171     16.3761    100.7879
  1079.0000     17.4600     60.7549     16.2075    105.9665
  1079.2500     16.9833     60.9524     16.0520    108.4656
  1079.5000     16.5482     61.1404     15.8962    111.2285
  1079.7500     16.2224     61.3295     15.7324    112.4328
  1080.0000     16.0421     61.5052     15.5597    112.6571
  1080.2500     15.9820     61.6421     15.3797    111.4555
  1080.5000     15.9802     61.7280     15.1917    108.3219
  1080.7500     16.0001     61.7766     14.9990    106.4339
  1081.0000     16.0619     61.8160     14.8188    105.7411
  1081.2500     16.2005     61.8601     14.6853    107.1271
  1081.5000     16.3963     61.8892     14.6372    111.2686
  1081.7500     16.5742     61.8571     14.6979    114.4718
  1082.0000     16.6837     61.7193     14.8592    118.4894
  1082.2500     16.7501     61.4598     15.0806    120.1776
