~Version Information
VERS.                      2.0: CWLS Log ASCII Standard - VERSION 2.0
WRAP.                       NO: One line per depth step
~Well Information Block
STRT.FT               472.0000: 
STOP.FT              2641.5000: 
STEP.FT                 0.1000: 
NULL.                -999.2500: 
COMP.          Pioneer Natural Resources: COMPANY
WELL.              Wagner 13-9: WELL
FLD.           Purgatoire River: FIELD
LOC.           1819' FSL & 1111' FWL: LOCATION
PROV.                 Colorado: PROVINCE
CNTY.               Las Animas: COUNTRY
SRVC.                Patterson: SERVICE COMPANY
DATE.          Tue Apr 19 08:56:38 2005: LOG DATE
UWI.           05 071 08302 00: UNIQUE WELL ID
~Curve Information Block
DEPT.FT            0 000 00 00: Depth
DCAL.in                       : CDL Caliper
RHOB.g/cc                     : CDL Bulk Density
RHOC.g/cc                     : CDL Density Correction
DPOR.pu                       : CDL Density Porosity
GR.GAPI                       : Gamma Ray
NPOR.pu                       : Neutron Porosity
~Parameter Information Block
~A  Depth       DCAL        RHOB        RHOC        DPOR         GR         NPOR    
# ...
   760.0000      7.9613      2.5724      0.0369      4.7056    111.4152     28.1753
   760.1000      7.9613      2.5690      0.0090      4.9085    118.4831     27.7085
   760.2000      7.9613      2.5657      0.0052      5.1104    125.4874     27.4063
   760.3000      7.9605      2.5694      0.0132      4.8855    124.9110     27.1995
   760.4000      7.9605      2.5772      0.0031      4.4145    123.7122     26.6778
   760.5000      7.9601      2.5873      0.0438      3.7998    129.2989     25.9755
   760.6000      7.9601      2.5999      0.0385      3.0377    133.0436     25.9146
   760.7000      7.9601      2.6104      0.0445      2.3988    126.4847     26.5185
   760.8000      7.9610      2.6117      0.0362      2.3195    113.9758     27.0982
   760.9000      7.9610      2.5987      0.0527      3.1115    104.3478     27.1251
   761.0000      7.9619      2.5789     -0.0089      4.3094    103.3079     26.6180
   761.1000      7.9619      2.5688     -0.0180      4.9234    108.6365     26.2950
   761.2000      7.9619      2.5665      0.0405      5.0589    113.8439     26.4149
   761.3000      7.9616      2.5581      0.0000      5.5725    116.5527     26.6290
   761.4000      7.9616      2.5503      0.0081      6.0441    118.6916     27.1850
   761.5000      7.9607      2.5638     -0.0187      5.2272    124.1085     28.2910
   761.6000      7.9607      2.5927      0.0751      3.4746    133.8428     29.3073
   761.7000      7.9607      2.6091     -0.0064      2.4771    141.6490     29.6506
   761.8000      7.9585      2.6088      0.0264      2.4977    142.6637     29.5787
   761.9000      7.9585      2.6052     -0.0063      2.7177    139.4408     29.4374
   762.0000      7.9569      2.5989      0.0368      3.0975    136.0442     29.0666
   762.1000      7.9569      2.5800      0.0393      4.2452    134.4304     28.4990
   762.2000      7.9569      2.5517      0.0074      5.9553    132.2346     27.9469
   762.3000      7.9594      2.5275     -0.0348      7.4213    128.8987     27.4514
   762.4000      7.9594      2.5143     -0.0448      8.2257    130.3756     27.1199
   762.5000      7.9616      2.5154     -0.0007      8.1589    136.2620     27.0979
   762.6000      7.9616      2.5269      0.0310      7.4609    139.9853     27.2345
   762.7000      7.9616      2.5384      0.0096      6.7607    139.7521     27.4364
   762.8000      7.9624      2.5456      0.0181      6.3250    138.7469     27.9477
   762.9000      7.9624      2.5494      0.0121      6.0983    139.1182     28.7541
   763.0000      7.9632      2.5518      0.0295      5.9501    140.3554     29.4405
   763.1000      7.9632      2.5558      0.0346      5.7117    139.1838     29.8369
   763.2000      7.9632      2.5654      0.0499      5.1288    136.8271     29.9215
   763.3000      7.9634      2.5787      0.0706      4.3197    136.0202     29.6519
   763.4000      7.9634      2.5874      0.0728      3.7951    134.1057     29.2467
   763.5000      7.9647      2.5929      0.0279      3.4586    130.3128     29.0469
   763.6000      7.9647      2.5961      0.0526      3.2687    128.2172     28.9135
   763.7000      7.9647      2.5866      0.0635      3.8397    129.3230     28.2613
   763.8000      7.9665      2.5743     -0.0191      4.5879    131.3848     27.4042
   763.9000      7.9665      2.5803      0.0289      4.2237    132.2012     27.4019
   764.0000      7.9649      2.6017      0.0245      2.9301    133.0723     28.0326
   764.1000      7.9649      2.6212      0.0420      1.7460    134.2459     28.0476
   764.2000      7.9649      2.6203      0.0959      1.7980    134.7889     27.1763
   764.3000      7.9624      2.5988      0.0243      3.1012    136.2515     26.3714
   764.4000      7.9624      2.5776      0.0193      4.3868    136.9542     26.5550
   764.5000      7.9612      2.5602      0.0371      5.4425    132.9741     27.4720
   764.6000      7.9612      2.5380      0.0116      6.7856    127.2303     28.1364
   764.7000      7.9612      2.5200     -0.0204      7.8814    124.3590     28.3301
   764.8000      7.9613      2.5171      0.0011      8.0567    122.3160     28.5215
   764.9000      7.9613      2.5246     -0.0185      7.5975    117.0623     28.7747
   765.0000      7.9622      2.5377      0.0067      6.8080    112.4496     28.8948
   765.1000      7.9622      2.5617      0.0237      5.3500    114.3542     29.1242
   765.2000      7.9622      2.5995      0.0425      3.0620    120.2767     29.2220
   765.3000      7.9629      2.6369      0.1047      0.7960    122.8921     28.7340
   765.4000      7.9629      2.6544      0.0737     -0.2659    119.0232     28.1441
   765.5000      7.9630      2.6513      0.0814     -0.0806    113.1880     27.8670
   765.6000      7.9630      2.6411      0.0535      0.5373    109.8429     27.6404
   765.7000      7.9630      2.6303      0.0350      1.1922    111.3475     27.3852
   765.8000      7.9627      2.6165      0.0356      2.0292    116.9716     27.3638
   765.9000      7.9627      2.6005      0.0663      2.9998    123.1731     27.5074
   766.0000      7.9624      2.5849      0.0338      3.9462    128.4198     27.3503
   766.1000      7.9624      2.5713      0.0440      4.7725    130.0709     26.7417
   766.2000      7.9624      2.5599      0.0306      5.4636    127.7746     26.2014
   766.3000      7.9621      2.5454      0.0386      6.3369    125.9454     26.2027
   766.4000      7.9621      2.5304     -0.0038      7.2472    124.9504     26.6686
   766.5000      7.9622      2.5324      0.0107      7.1259    123.2779     27.4284
   766.6000      7.9622      2.5559      0.0441      5.7000    123.1237     28.0257
   766.7000      7.9622      2.5844      0.0554      3.9748    124.7893     28.0332
   766.8000      7.9624      2.6034      0.0585      2.8241    127.6750     27.7859
   766.9000      7.9624      2.6091      0.0574      2.4760    133.3850     27.8242
   767.0000      7.9621      2.5996      0.0843      3.0516    136.1708     28.1051
   767.1000      7.9621      2.5812      0.0524      4.1669    131.2933     28.2291
   767.2000      7.9621      2.5729      0.0018      4.6729    126.7967     28.1312
   767.3000      7.9620      2.5805      0.0484      4.2117    128.9101     28.5106
   767.4000      7.9620      2.5886      0.0260      3.7235    134.0323     29.6903
   767.5000      7.9614      2.5921      0.0262      3.5075    137.2693     30.7355
   767.6000      7.9614      2.5979      0.0498      3.1597    134.9534     30.9560
   767.7000      7.9614      2.5998      0.0486      3.0395    127.0909     30.6648
   767.8000      7.9608      2.5915      0.0240      3.5442    117.0878     30.3035
   767.9000      7.9608      2.5777      0.0391      4.3823    109.7469     29.7000
   768.0000      7.9609      2.5638      0.0114      5.2219    108.9892     28.9072
   768.1000      7.9609      2.5579      0.0463      5.5805    110.9110     28.4705
   768.2000      7.9609      2.5723     -0.0181      4.7075    110.3151     28.4599
   768.3000      7.9603      2.5998      0.0700      3.0408    108.1600     28.7004
   768.4000      7.9603      2.6124      0.0558      2.2789    108.7680     28.7212
   768.5000      7.9609      2.6018      0.0280      2.9190    112.1440     28.3214
   768.6000      7.9609      2.5799      0.0438      4.2465    113.4405     28.2063
   768.7000      7.9609      2.5600      0.0355      5.4564    111.7754     28.5709
   768.8000      7.9643      2.5541      0.0014      5.8111    110.1564     28.8322
   768.9000      7.9643      2.5600      0.0144      5.4564    110.5313     28.7009
   769.0000      7.9673      2.5652      0.0408      5.1413    112.6841     28.4129
   769.1000      7.9673      2.5653      0.0227      5.1320    115.2212     28.4383
   769.2000      7.9673      2.5599      0.0115      5.4623    117.9975     28.7066
   769.3000      7.9648      2.5467      0.0191      6.2590    120.0478     28.4088
   769.4000      7.9648      2.5371     -0.0165      6.8398    118.5568     27.2934
   769.5000      7.9613      2.5521      0.0349      5.9317    112.1891     26.3630
