~Version Information
VERS.                      2.0: CWLS Log ASCII Standard - VERSION 2.0
WRAP.                       NO: One line per depth step
~Well Information Block
STRT.FT                -7.7500: 
STOP.FT              1532.2500: 
STEP.FT                 0.2500: 
NULL.                -999.2500: 
COMP.          Pioneer Natural Resources: COMPANY
WELL.          Big Cat Federal 44-1: WELL
FLD.           Purgatorie River: FIELD
LOC.           197' FSL & 973' FEL--: LOCATION
CNTY.               Las Animas: COUNTY
SRVC.          Patterson Wireline: SERVICE COMPANY
DATE.          Fri Apr 28 12:21:06 2006: LOG DATE
UWI.           05 071 08042 00: UNIQUE WELL ID
STAT.                       CO: STATE
~Curve Information Block
DEPT.FT            0 000 00 00: Depth
CCL.                          : Casing Collar Locator
TT3.usec                      : CBL 3' Travel Time
AMP3.mV                       : CBL 3' Amplitude
GR.GAPI                       : Gamma Ray
~Parameter Information Block
~A  Depth       CCL         TT3         AMP3         GR     
# ...
   896.7500      0.0000    792.4606      9.1102     52.8437
   897.0000      0.0000    797.8236      9.2394     50.0973
   897.2500      0.0000    800.7945      9.4879     48.2093
   897.5000      0.0000    802.1284      9.7919     48.2778
   897.7500      0.0000    802.6683     10.0915     50.3432
   898.0000      0.0000    802.9900     10.3645     53.8843
   898.2500      0.0000    803.2991     10.6305     59.1091
   898.5000      0.0000    803.3061     10.9235     67.4940
   898.7500      0.0000    801.8263     11.2679     81.0987
   899.0000      0.0000    795.9747     11.6733    101.2605
   899.2500      0.0000    780.1350     12.1392    127.0745
   899.5000      0.0000    746.2465     12.6552    154.3718
   899.7500      0.0000    687.8519     13.2000    176.7457
   900.0000      0.0000    607.3037     13.7382    188.9352
   900.2500      0.0000    519.2202     14.2202    190.0472
   900.5000      0.0000    443.6236     14.5962    183.5286
   900.7500      0.0000    393.4166     14.8417    174.1481
   901.0000      0.0000    368.2993     14.9713    165.2992
   901.2500      0.0000    359.2298     15.0251    158.4467
   901.5000      0.0000    356.5278     15.0423    153.4880
   901.7500      0.0000    354.5913     15.0453    148.9662
   902.0000      0.0000    352.0589     15.0461    142.7595
   902.2500      0.0000    349.6122     15.0610    133.6697
   902.5000      0.0000    347.9191     15.1160    122.5891
   902.7500      0.0000    346.9599     15.2347    111.8741
   903.0000      0.0000    346.4072     15.4172    103.6203
   903.2500      0.0000    346.0402     15.6286     98.7460
   903.5000      0.0000    345.8303     15.8100     97.2392
   903.7500      0.0000    345.8154     15.9072     98.3996
   904.0000      0.0000    345.9812     15.8984    100.7783
   904.2500      0.0000    346.2694     15.8006    102.7719
   904.5000      0.0000    346.7296     15.6471    103.8845
   904.7500      0.0000    347.9433     15.4590    105.3289
   905.0000      0.0000    351.6630     15.2415    109.1549
   905.2500      0.0000    361.2722     15.0022    116.7880
   905.5000      0.0000    380.6577     14.7568    128.2359
   905.7500      0.0000    410.6587     14.5187    142.1874
   906.0000      0.0000    446.6166     14.2896    156.3570
   906.2500      0.0000    482.5551     14.0622    167.8412
   906.5000      0.0000    518.6719     13.8301    174.0775
   906.7500      0.0000    560.3372     13.5983    174.4123
   907.0000      0.0000    607.7207     13.3906    170.9726
   907.2500      0.0000    650.8156     13.2428    167.4128
   907.5000      0.0000    676.1099     13.1831    165.9115
   907.7500      0.0000    674.2387     13.2131    165.1985
   908.0000      0.0000    642.1534     13.3051    162.0622
   908.2500      0.0000    584.9912     13.4166    154.8896
   908.5000      0.0000    518.5065     13.5140    145.2262
   908.7500      0.0000    465.5128     13.5841    135.9409
   909.0000      0.0000    445.8852     13.6253    128.5319
   909.2500      0.0000    467.6733     13.6341    122.3919
   909.5000      0.0000    523.7850     13.6052    116.1278
   909.7500      0.0000    594.8583     13.5488    109.2630
   910.0000      0.0000    658.8044     13.5001    102.5650
   910.2500      0.0000    702.4278     13.5033     96.8534
   910.5000      0.0000    725.6629     13.5748     92.1567
   910.7500      0.0000    736.0564     13.6792     88.4283
   911.0000      0.0000    741.0376     13.7483     86.5129
   911.2500      0.0000    744.4469     13.7336     87.6335
   911.5000      0.0000    746.8033     13.6422     91.9410
   911.7500      0.0000    746.9617     13.5234     97.9680
   912.0000      0.0000    744.2068     13.4238    103.5467
   912.2500      0.0000    739.3588     13.3609    106.9951
   912.5000      0.0000    733.6978     13.3314    107.5675
   912.7500      0.0000    727.1533     13.3288    105.3726
   913.0000      0.0000    718.4907     13.3476    101.2953
   913.2500      0.0000    708.1196     13.3757     96.8689
   913.5000      0.0000    700.3824     13.3938     93.8556
   913.7500      0.0000    700.8495     13.3864     93.7068
   914.0000      0.0000    709.2538     13.3521     97.1625
   914.2500      0.0000    716.8496     13.3010    104.0707
   914.5000      0.0000    714.3834     13.2424    113.3860
   914.7500      0.0000    702.7023     13.1772    123.5020
   915.0000      0.0000    692.3906     13.1002    133.0388
   915.2500      0.0000    692.4367     13.0072    141.6141
   915.5000      0.0000    702.0214     12.9008    149.6604
   915.7500      0.0000    713.9005     12.7882    157.3411
   916.0000      0.0000    722.4481     12.6779    163.6983
   916.2500      0.0000    726.7358     12.5815    166.8672
   916.5000      0.0000    728.3820     12.5158    165.4088
   916.7500      0.0000    728.9597     12.4937    159.9382
   917.0000      0.0000    729.2374     12.5109    153.4454
   917.2500      0.0000    729.4555     12.5455    149.5234
   917.5000      0.0000    729.6321     12.5728    150.1149
   917.7500      0.0000    729.6880     12.5762    154.8719
   918.0000      0.0000    729.2776     12.5478    161.9953
   918.2500      0.0000    727.2186     12.4886    169.2272
   918.5000      0.0000    720.6785     12.4120    174.7183
   918.7500      0.0000    705.3625     12.3385    177.8647
   919.0000      0.0000    678.8301     12.2841    179.3933
   919.2500      0.0000    646.2258     12.2519    180.3481
   919.5000      0.0000    621.6660     12.2335    180.8758
   919.7500      0.0000    619.2319     12.2156    180.0376
   920.0000      0.0000    640.3672     12.1907    176.7046
   920.2500      0.0000    672.1954     12.1613    170.3862
   920.5000      0.0000    698.6769     12.1365    161.0954
   920.7500      0.0000    710.7742     12.1268    148.9424
   921.0000      0.0000    706.9611     12.1436    134.5864
   921.2500      0.0000    689.5290     12.1974    119.9279
   921.5000      0.0000    663.8293     12.2887    107.5032
   921.7500      0.0000    639.1492     12.4024     98.8211
   922.0000      0.0000    626.4913     12.5128     93.6681
   922.2500      0.0000    632.8431     12.5969     91.2030
   922.5000      0.0000    656.2241     12.6435     91.0498
   922.7500      0.0000    686.4754     12.6564     92.7357
   923.0000      0.0000    712.1444     12.6506     94.7609
   923.2500      0.0000    727.3316     12.6451     95.3724
   923.5000      0.0000    732.8752     12.6583     94.4192
   923.7500      0.0000    732.9010     12.7085     93.7949
   924.0000      0.0000    731.1760     12.8088     95.8158
   924.2500      0.0000    729.4562     12.9518    101.3583
   924.5000      0.0000    727.4619     13.0996    109.2769
   924.7500      0.0000    723.2652     13.1969    117.0451
   925.0000      0.0000    714.3671     13.2039    122.2111
   925.2500      0.0000    700.1951     13.1183    124.0765
   925.5000      0.0000    684.7085     12.9699    124.2607
   925.7500      0.0000    674.9814     12.7954    125.4318
   926.0000      0.0000    675.2685     12.6152    129.3376
   926.2500      0.0000    683.1725     12.4292    135.7556
   926.5000      0.0000    692.9048     12.2359    142.8178
   926.7500      0.0000    701.0673     12.0557    148.2611
   927.0000      0.0000    707.9128     11.9272    150.7729
   927.2500      0.0000    714.4161     11.8744    150.4782
   927.5000      0.0000    719.9501     11.8853    148.3286
   927.7500      0.0000    722.4326     11.9263    145.1884
   928.0000      0.0000    719.1508     11.9733    141.4621
   928.2500      0.0000    707.8271     12.0267    137.1438
   928.5000      0.0000    689.4526     12.0974    131.8160
   928.7500      0.0000    671.1638     12.1797    124.8511
   929.0000      0.0000    663.5060     12.2431    116.1248
   929.2500      0.0000    671.5952     12.2535    106.5632
   929.5000      0.0000    689.7273     12.2052     97.8634
   929.7500      0.0000    706.1838     12.1202     91.5919
   930.0000      0.0000    711.6028     12.0070     88.3230
