~Version Information
 VERS.                                  2.0 : CWLS LAS VERSION
 WRAP.                                   NO : WRAPING MODE
 SWARE .                 MController 2.5.0I : SOFTWARE VERSION
~Well Information
 WELL.                           J&P 12-33v : WELL
 COMP.             Petrogulf Operating Corp : COMPANY
 FLD.                      Purgatorie River : FIELD
 LOC.                NW/SE Sec 12 T33S R68W : LOCATION
 DATE.                              8/27/04 : DATE(S) LOGGED
 SRVC.       Blanco Geological services LLC : SERVICE COMPANY
 STAT.                                   CO : STATE
 CNTY.                           Las Animas : COUNTY
 CTRY.                                  USA : COUNTRY
 API.                       05-071-08091-00 : API NUMBER
 STRT.FT                             770.00 : START DEPTH
 STOP.FT                            2580.00 : STOP DEPTH
 STEP.FT                               1.00 : DEPTH INCREMENT
 NULL.                                -9999 : NULL VALUE
~Curve information
 DEPTH.FT                                   :
 ROP.MIN/FT                                 :
 GAS.UNITS                                  :
~ASCII Log data
# ...
      1170.0          0.3          2.6 
      1171.0          0.3          2.7 
      1172.0          0.6          1.8 
      1173.0          0.5          1.2 
      1174.0          0.4          1.2 
      1175.0          0.1          1.3 
      1176.0          0.2          1.5 
      1177.0          0.2          1.5 
      1178.0          0.2          1.5 
      1179.0          0.2          1.2 
      1180.0          0.2          1.3 
      1181.0          0.2          1.3 
      1182.0          0.2          1.2 
      1183.0          0.2          1.4 
      1184.0          0.2          1.5 
      1185.0          0.2          1.7 
      1186.0          0.2          1.5 
      1187.0          0.2          1.4 
      1188.0          0.2          1.7 
      1189.0          0.2          1.6 
      1190.0          0.2          1.6 
      1191.0          0.2          1.5 
      1192.0          0.2          1.5 
      1193.0          0.1          1.9 
      1194.0          0.1          2.1 
      1195.0          0.1          2.3 
      1196.0          0.1          2.3 
      1197.0          0.1          2.6 
      1198.0          2.9         13.5 
      1199.0          0.2          4.2 
      1200.0          0.2          3.8 
      1201.0          0.2          4.9 
      1202.0          0.3          5.2 
      1203.0          0.3          3.6 
      1204.0          0.3          2.0 
      1205.0          0.2          1.7 
      1206.0          0.3          2.0 
      1207.0          0.2          2.3 
      1208.0          0.2          2.4 
      1209.0          0.2          2.5 
      1210.0          0.2          2.2 
      1211.0          0.2          2.2 
      1212.0          0.2          2.2 
      1213.0          0.2          1.6 
      1214.0          0.2          1.8 
      1215.0          0.2          1.7 
      1216.0          0.2          1.7 
      1217.0          0.2          1.7 
      1218.0          0.2          1.7 
      1219.0          0.2          1.8 
      1220.0          0.2          1.6 
      1221.0          0.2          1.6 
      1222.0          0.2          1.8 
      1223.0          0.2          1.8 
      1224.0          0.2          1.8 
      1225.0          0.2          1.9 
      1226.0          0.2          1.8 
      1227.0          0.2          1.9 
      1228.0          3.0         13.5 
      1229.0          0.4          3.5 
      1230.0          0.4          2.8 
      1231.0          0.3          2.0 
      1232.0          0.3          1.0 
      1233.0          0.2          1.0 
      1234.0          0.1          1.1 
      1235.0          0.1          1.2 
      1236.0          0.1          1.4 
      1237.0          0.1          1.6 
      1238.0          0.2          1.9 
      1239.0          0.2          1.9 
      1240.0          0.2          2.2 
      1241.0          0.2          2.2 
      1242.0          0.2          2.3 
      1243.0          0.3          2.0 
      1244.0          0.2          1.9 
      1245.0          0.1          1.8 
      1246.0          0.2          1.8 
      1247.0          0.2          1.7 
      1248.0          0.2          1.8 
      1249.0          0.3          1.7 
      1250.0          0.1          1.7 
      1251.0          0.1          1.8 
      1252.0          0.2          2.0 
      1253.0          0.1          2.1 
      1254.0          0.1          1.9 
      1255.0          0.1          2.1 
      1256.0          0.1          2.3 
      1257.0          0.2          2.2 
      1258.0          3.4         12.9 
      1259.0          0.6          3.2 
      1260.0          0.4          2.5 
      1261.0          0.3          1.5 
      1262.0          0.4          1.3 
      1263.0          0.4          1.6 
      1264.0          0.3          1.9 
      1265.0          0.2          2.1 
      1266.0          0.2          2.1 
      1267.0          0.2          1.3 
      1268.0          0.2          1.1 
      1269.0          0.2          1.0 
      1270.0          0.1          1.1 
      1271.0          0.2          1.0 
      1272.0          0.1          1.2 
      1273.0          0.1          1.3 
      1274.0          0.1          1.7 
      1275.0          0.1          1.8 
      1276.0          0.2          2.0 
      1277.0          0.2          2.2 
      1278.0          0.1          2.0 
      1279.0          0.2          2.1 
      1280.0          0.2          1.9 
      1281.0          0.2          1.7 
      1282.0          0.2          1.7 
      1283.0          0.2          1.6 
      1284.0          0.2          1.9 
      1285.0          0.1          2.6 
      1286.0          0.1          2.4 
      1287.0          0.1          2.7 
      1288.0          3.2         15.5 
      1289.0          0.3          4.3 
      1290.0          0.3          3.6 
      1291.0          0.2          3.5 
      1292.0          0.2          2.9 
      1293.0          0.1          3.5 
      1294.0          0.2          4.2 
      1295.0          0.2          4.1 
      1296.0          0.3          3.3 
      1297.0          0.3          3.4 
      1298.0          0.3          3.4 
      1299.0          0.3          3.4 
      1300.0          0.2          3.0 
      1301.0          0.3          2.6 
      1302.0          0.2          2.0 
      1303.0          0.2          1.8 
      1304.0          0.2          1.7 
      1305.0          0.2          1.4 
      1306.0          0.2          1.7 
      1307.0          0.2          1.7 
      1308.0          0.2          1.8 
      1309.0          0.2          1.8 
      1310.0          0.2          1.7 
      1311.0          0.2          1.8 
      1312.0          0.2          1.6 
      1313.0          0.2          1.6 
      1314.0          0.2          1.6 
      1315.0          0.2          1.9 
      1316.0          0.3          1.9 
      1317.0          0.2          2.0 
      1318.0          4.0         15.3 
      1319.0          0.4          2.7 
      1320.0          0.3          1.5 
      1321.0          0.2          1.2 
      1322.0          0.2          1.1 
      1323.0          0.3          1.2 
      1324.0          0.3          1.3 
      1325.0          0.3          1.6 
      1326.0          0.3          1.8 
      1327.0          0.3          1.6 
      1328.0          0.3          1.9 
      1329.0          0.3          1.7 
      1330.0          0.3          1.8 
      1331.0          0.3          2.3 
      1332.0          0.3          2.4 
      1333.0          0.3          2.4 
      1334.0          0.3          2.5 
      1335.0          0.3          2.5 
      1336.0          0.2          2.5 
      1337.0          0.2          3.3 
      1338.0          0.2          3.9 
      1339.0          0.2          4.6 
      1340.0          0.2          4.7 
      1341.0          0.2          4.7 
      1342.0          0.2          4.5 
      1343.0          0.2          4.2 
      1344.0          0.3          4.5 
      1345.0          0.2          4.5 
      1346.0          0.2          4.4 
      1347.0          0.3          3.4 
      1348.0          3.9         44.0 
      1349.0          0.4          4.1 
      1350.0          0.3          3.0 
      1351.0          0.3          3.3 
      1352.0          0.5          3.1 
      1353.0          0.4          2.3 
      1354.0          0.3          1.9 
      1355.0          0.2          1.7 
      1356.0          0.2          2.0 
      1357.0          0.2          2.2 
      1358.0          0.3          2.4 
      1359.0          0.2          2.3 
      1360.0          0.2          2.3 
      1361.0          0.3          2.5 
      1362.0          0.2          2.5 
      1363.0          0.2          2.5 
      1364.0          0.2          2.4 
      1365.0          0.2          2.4 
      1366.0          0.2          2.6 
      1367.0          0.2          2.6 
      1368.0          0.2          2.9 
      1369.0          0.2          2.5 
