~Version Information
 VERS.                                  2.0 : CWLS LAS VERSION
 WRAP.                                   NO : WRAPING MODE
 SWARE .                 MController 2.5.0N : SOFTWARE VERSION
~Well Information
 WELL.                   Blackjack 32-11 Tr : WELL
 COMP.  Pioneer Natural Resources USA, Inc. : COMPANY
 FLD.                      Purgatoire River : FIELD
 LOC.               SW/NE Sec 11 T32S  R66W : LOCATION
 DATE.                             08/14/05 : DATE(S) LOGGED
 SRVC.       BLANCO Geological Services LLC : SERVICE COMPANY
 STAT.                                   CO : STATE
 CNTY.                           Las Animas : COUNTY
 CTRY.                                  USA : COUNTRY
 API.                       05-071-08310-00 : API NUMBER
 STRT.FT                             521.00 : START DEPTH
 STOP.FT                            1862.00 : STOP DEPTH
 STEP.FT                               1.00 : DEPTH INCREMENT
 NULL.                                -9999 : NULL VALUE
~Curve information
 DEPTH.FT                                   :
 ROP.MIN/FT                                 :
 GAS.UNITS                                  :
~ASCII Log data
# ...
      1321.0         0.37        110.0 
      1322.0         0.27        129.9 
      1323.0         0.27        132.8 
      1324.0         0.20        131.6 
      1325.0         0.33        129.3 
      1326.0         0.20        118.3 
      1327.0         0.17        109.1 
      1328.0         0.20        101.3 
      1329.0         0.23         92.4 
      1330.0         0.23         84.8 
      1331.0         0.32         82.0 
      1332.0         0.17         78.0 
      1333.0         0.23         73.8 
      1334.0         0.20         69.7 
      1335.0         0.13         67.8 
      1336.0         0.33         65.3 
      1337.0         0.20         61.3 
      1338.0         0.17         58.6 
      1339.0         0.27         59.0 
      1340.0         0.20         62.5 
      1341.0         0.40         63.3 
      1342.0         0.23         60.5 
      1343.0         0.20         58.6 
      1344.0         0.20         57.0 
      1345.0         0.42         54.5 
      1346.0         1.27         50.7 
      1347.0         0.30         66.0 
      1348.0         0.30         88.7 
      1349.0         0.33        104.1 
      1350.0         0.23        110.7 
      1351.0         0.27        113.0 
      1352.0         0.27        112.8 
      1353.0         0.28        106.4 
      1354.0         0.30         94.6 
      1355.0         0.27         83.7 
      1356.0         0.27         76.0 
      1357.0         0.27         72.7 
      1358.0         0.27         70.8 
      1359.0         0.20         67.1 
      1360.0         0.27         65.9 
      1361.0         0.27         60.8 
      1362.0         0.23         57.2 
      1363.0         0.17         55.1 
      1364.0         0.23         52.9 
      1365.0         0.32         50.3 
      1366.0         0.20         48.9 
      1367.0         0.20         47.4 
      1368.0         0.20         46.4 
      1369.0         0.20         47.2 
      1370.0         0.23         46.2 
      1371.0         0.20         45.8 
      1372.0         0.23         48.6 
      1373.0         0.17         46.6 
      1374.0         0.20         44.8 
      1375.0         0.23         43.7 
      1376.0         1.75         46.7 
      1377.0         0.37         66.8 
      1378.0         0.37         79.8 
      1379.0         0.40         99.6 
      1380.0         0.40        100.1 
      1381.0         0.20         98.0 
      1382.0         0.13         94.5 
      1383.0         0.27         88.0 
      1384.0         0.30         77.5 
      1385.0         0.30         69.1 
      1386.0         0.25         65.7 
      1387.0         0.23         66.4 
      1388.0         0.27         67.4 
      1389.0         0.23         65.7 
      1390.0         0.27         61.6 
      1391.0         0.23         59.5 
      1392.0         0.27         56.0 
      1393.0         0.20         53.1 
      1394.0         0.20         50.8 
      1395.0         0.20         49.2 
      1396.0         0.20         48.1 
      1397.0         0.17         46.6 
      1398.0         0.23         45.8 
      1399.0         0.17         45.5 
      1400.0         0.20         44.7 
      1401.0         0.22         43.1 
      1402.0         0.30         44.6 
      1403.0         0.20         43.2 
      1404.0         0.20         44.4 
      1405.0         0.23         46.1 
      1406.0         2.35        124.8 
      1407.0         0.23        137.2 
      1408.0         0.40        142.4 
      1409.0         0.23        137.9 
      1410.0         0.27        133.1 
      1411.0         0.27        130.9 
      1412.0         0.23        129.3 
      1413.0         0.27        124.0 
      1414.0         0.27        115.6 
      1415.0         0.27        109.5 
      1416.0         0.27        103.4 
      1417.0         0.30         98.5 
      1418.0         0.23         94.4 
      1419.0         0.25         90.8 
      1420.0         0.23         88.2 
      1421.0         0.23         84.2 
      1422.0         0.17         80.4 
      1423.0         0.37         77.1 
      1424.0         0.33         71.9 
      1425.0         0.27         68.7 
      1426.0         0.17         67.2 
      1427.0         0.20         66.6 
      1428.0         0.20         65.9 
      1429.0         0.23         65.9 
      1430.0         0.20         63.9 
      1431.0         0.23         63.4 
      1432.0         0.20         68.3 
      1433.0         0.25         70.3 
      1434.0         0.20         63.7 
      1435.0         0.20         60.8 
      1436.0         1.87         66.6 
      1437.0         0.33         83.8 
      1438.0         0.33        107.8 
      1439.0         0.38        134.3 
      1440.0         0.23        144.5 
      1441.0         0.30        151.3 
      1442.0         0.37        150.2 
      1443.0         0.20        139.5 
      1444.0         0.30        133.6 
      1445.0         0.23        117.4 
      1446.0         0.27        108.9 
      1447.0         0.20        102.0 
      1448.0         0.20        100.2 
      1449.0         0.23         96.6 
      1450.0         0.17         93.9 
      1451.0         0.20         92.6 
      1452.0         0.20         92.1 
      1453.0         0.22         89.9 
      1454.0         0.23         85.2 
      1455.0         0.20         81.2 
      1456.0         0.20         80.9 
      1457.0         0.17         75.1 
      1458.0         0.13         72.4 
      1459.0         0.17         69.1 
      1460.0         0.13         68.2 
      1461.0         0.13         69.5 
      1462.0         0.13         68.8 
      1463.0         0.13         65.4 
      1464.0         0.17         63.7 
      1465.0         0.20         55.0 
      1466.0         9.78       2736.8 
      1467.0         0.27       1809.7 
      1468.0         0.23       1250.9 
      1469.0         0.23        886.1 
      1470.0         0.20        706.6 
      1471.0         0.20        609.9 
      1472.0         0.27        547.0 
      1473.0         0.22        493.9 
      1474.0         0.17        467.8 
      1475.0         0.20        443.9 
      1476.0         0.17        440.0 
      1477.0         0.17        440.0 
      1478.0         0.13         85.0 
      1479.0         0.20         83.7 
      1480.0         0.30         84.8 
      1481.0         0.23         87.8 
      1482.0         0.27         84.6 
      1483.0         0.27         82.2 
      1484.0         0.23         79.7 
      1485.0         0.17         75.4 
      1486.0         0.17         73.9 
      1487.0         0.23         73.4 
      1488.0         0.17         71.3 
      1489.0         0.35         67.0 
      1490.0         0.10         68.1 
      1491.0         0.17         69.2 
      1492.0         0.23         65.4 
      1493.0         0.23         62.2 
      1494.0         0.30         60.8 
      1495.0         0.17         60.9 
      1496.0         2.45         90.2 
      1497.0         0.50        161.0 
      1498.0         0.43        206.4 
      1499.0         0.30        233.3 
      1500.0         0.33        245.2 
      1501.0         0.23        246.7 
      1502.0         0.60        240.7 
      1503.0         0.30        174.0 
      1504.0         0.22        131.0 
      1505.0         0.13        119.3 
      1506.0         0.20         99.8 
      1507.0         0.23         89.1 
      1508.0         0.13         78.1 
      1509.0         0.27         77.2 
      1510.0         0.20         72.7 
      1511.0         0.30         77.0 
      1512.0         0.23         80.3 
      1513.0         0.23         81.2 
      1514.0         0.23         83.1 
      1515.0         0.17         87.2 
      1516.0         0.13         88.5 
      1517.0         0.13         89.5 
      1518.0         0.20         90.6 
      1519.0         0.23         90.2 
      1520.0         0.35         94.6 
