~Version Information
VERS.                      2.0: CWLS Log ASCII Standard - VERSION 2.0
WRAP.                       NO: One line per depth step
~Well Information Block
STRT.FT               390.0000: 
STOP.FT               902.2000: 
STEP.FT                 0.1000: 
NULL.                -999.2500: 
COMP.          Pioneer Natural Resources: COMPANY
WELL.              Venom 32-22: WELL
FLD.           Purgatoire River: FIELD
LOC.           2307' FNL & 2024' FEL----: LOCATION
PROV.                 Colorado: PROVINCE
CNTY.               Las Animas: COUNTRY
SRVC.                Patterson: SERVICE COMPANY
DATE.          Wed May 11 08:31:39 2005: LOG DATE
UWI.           05 071 08361 00: UNIQUE WELL ID
~Curve Information Block
DEPT.FT            0 000 00 00: Depth
DCAL.in                       : CDL Caliper
RHOB.g/cc                     : CDL Bulk Density
RHOC.g/cc                     : CDL Density Correction
DPOR.pu                       : CDL Density Porosity
NPOR.pu                       : Neutron Porosity
GR.GAPI                       : Gamma Ray
~Parameter Information Block
~A  Depth       DCAL        RHOB        RHOC        DPOR        NPOR         GR     
# ...
   649.2000      7.9663      2.5804      0.0270      4.2158     20.4410     82.7313
   649.3000      7.9643      2.5864      0.0374      3.8544     20.0746     84.4335
   649.4000      7.9643      2.5997      0.0718      3.0473     17.3323     81.2832
   649.5000      7.9621      2.6068      0.0600      2.6165     15.0821     76.8100
   649.6000      7.9621      2.6112      0.0585      2.3540     15.6395     71.4091
   649.7000      7.9621      2.6165      0.0776      2.0301     18.1625     67.6187
   649.8000      7.9623      2.6154      0.0373      2.0986     19.7078     69.1378
   649.9000      7.9623      2.6062      0.0740      2.6516     18.7752     75.6108
   650.0000      7.9702      2.5951      0.0230      3.3246     17.6655     80.8847
   650.1000      7.9702      2.5813      0.0458      4.1631     18.5581     81.1091
   650.2000      7.9702      2.5594      0.0363      5.4890     20.1932     81.6570
   650.3000      7.9791      2.5340      0.0446      7.0287     19.6352     85.9993
   650.4000      7.9791      2.5198     -0.0242      7.8914     17.6439     91.5734
   650.5000      7.9801      2.5178      0.0705      8.0125     17.8047     98.3373
   650.6000      7.9801      2.5086      0.0333      8.5702     19.6033    106.3645
   650.7000      7.9801      2.4940     -0.0107      9.4574     19.1605    111.4820
   650.8000      7.9821      2.4909      0.0564      9.6412     16.9589    112.7124
   650.9000      7.9821      2.4941      0.0154      9.4483     17.0648    116.3923
   651.0000      7.9826      2.4996      0.0308      9.1129     21.1445    122.3181
   651.1000      7.9826      2.5181      0.0493      7.9917     26.8423    122.9951
   651.2000      7.9826      2.5431      0.1057      6.4781     29.0019    122.0891
   651.3000      7.9764      2.5453      0.0929      6.3430     27.4565    127.3579
   651.4000      7.9764      2.5066      0.0781      8.6912     27.4478    136.7811
   651.5000      7.9662      2.4407     -0.0103     12.6833     30.5605    144.9840
   651.6000      7.9662      2.3815     -0.0520     16.2715     33.5797    147.0642
   651.7000      7.9662      2.3431     -0.0068     18.5985     33.7517    145.5764
   651.8000      7.9574      2.3090     -0.0115     20.6643     32.1516    143.0405
   651.9000      7.9574      2.2713     -0.0374     22.9517     31.1210    134.7102
   652.0000      7.9548      2.2447     -0.0570     24.5664     29.8411    122.7173
   652.1000      7.9548      2.2426     -0.0065     24.6884     26.8195    115.1220
   652.2000      7.9548      2.2647      0.0223     23.3526     24.4891    116.5511
   652.3000      7.9660      2.3048      0.0743     20.9206     25.4730    125.8860
   652.4000      7.9660      2.3592      0.0759     17.6250     27.0319    137.1523
   652.5000      7.9922      2.4183      0.1646     14.0440     24.2938    146.6059
   652.6000      7.9922      2.4674      0.1389     11.0691     19.2001    149.9381
   652.7000      7.9922      2.5059      0.1049      8.7336     17.6023    144.9229
   652.8000      8.0103      2.5383      0.1282      6.7688     20.3468    135.9990
   652.9000      8.0103      2.5629      0.0850      5.2760     23.8842    127.5923
   653.0000      8.0097      2.5783      0.1030      4.3437     24.1453    120.3121
   653.1000      8.0097      2.5800      0.0879      4.2430     22.0983    114.8982
   653.2000      8.0097      2.5674      0.0983      5.0051     22.4801    115.7457
   653.3000      7.9967      2.5466      0.0618      6.2676     26.1474    122.1424
   653.4000      7.9967      2.5286      0.0386      7.3565     27.9641    126.5226
   653.5000      7.9868      2.5284      0.0272      7.3672     24.4791    125.0098
   653.6000      7.9868      2.5447      0.0419      6.3813     19.9798    123.3961
   653.7000      7.9868      2.5545      0.0629      5.7850     19.2441    125.4975
   653.8000      7.9864      2.5425      0.0708      6.5141     21.2653    126.9720
   653.9000      7.9864      2.5241      0.0078      7.6317     21.5677    126.5915
   654.0000      7.9888      2.5287      0.0014      7.3491     18.6320    127.0262
   654.1000      7.9888      2.5506      0.0474      6.0259     16.1364    126.8077
   654.2000      7.9888      2.5543      0.0884      5.7970     17.0533    123.0906
   654.3000      7.9897      2.5399      0.0541      6.6707     21.1010    119.4131
   654.4000      7.9897      2.5412      0.0119      6.5949     25.1423    120.7541
   654.5000      7.9873      2.5639      0.0927      5.2184     25.8890    125.9971
   654.6000      7.9873      2.5776      0.0794      4.3896     24.4776    133.2710
   654.7000      7.9873      2.5622      0.1012      5.3200     24.0743    141.8965
   654.8000      7.9782      2.5251      0.0467      7.5694     25.0930    145.9321
   654.9000      7.9782      2.4973      0.0077      9.2524     24.9652    141.2823
   655.0000      7.9620      2.4998      0.0555      9.1036     21.6192    129.9096
   655.1000      7.9620      2.5167      0.0734      8.0807     18.0432    118.3933
   655.2000      7.9620      2.5321      0.0591      7.1478     18.0128    116.0948
   655.3000      7.9472      2.5498      0.0852      6.0730     20.5297    118.6771
   655.4000      7.9472      2.5710      0.0891      4.7879     21.3124    114.2640
   655.5000      7.9398      2.5852      0.0755      3.9274     18.4670    109.4974
   655.6000      7.9398      2.5803      0.1197      4.2243     15.8541    113.3378
   655.7000      7.9398      2.5615      0.0555      5.3654     16.6335    119.7159
   655.8000      7.9387      2.5478      0.0637      6.1919     19.4602    121.1236
   655.9000      7.9387      2.5479      0.0530      6.1881     21.0960    117.5211
   656.0000      7.9466      2.5572      0.0680      5.6257     21.0918    111.0804
   656.1000      7.9466      2.5685      0.0837      4.9408     20.9222    104.4807
   656.2000      7.9466      2.5827      0.0372      4.0808     20.2408    101.4734
   656.3000      7.9609      2.6000      0.0802      3.0288     19.9287    100.8983
   656.4000      7.9609      2.6034      0.0895      2.8233     21.3840     98.0766
   656.5000      7.9712      2.5865      0.0660      3.8471     21.4474     95.3650
   656.6000      7.9712      2.5686      0.0134      4.9359     17.9293     94.2338
   656.7000      7.9712      2.5638      0.0064      5.2263     14.9539     90.5344
   656.8000      7.9741      2.5669      0.0246      5.0376     15.6415     84.8782
   656.9000      7.9741      2.5651      0.0582      5.1463     19.2537     80.1298
   657.0000      7.9691      2.5567      0.0490      5.6571     22.3349     73.8513
   657.1000      7.9691      2.5615      0.0268      5.3612     22.2837     68.1096
   657.2000      7.9691      2.5938      0.0885      3.4036     20.1340     69.0835
   657.3000      7.9605      2.6371      0.1281      0.7794     18.0496     73.8229
   657.4000      7.9605      2.6647      0.1274     -0.8902     17.5446     76.2267
   657.5000      7.9554      2.6622      0.1454     -0.7421     16.7150     74.4655
   657.6000      7.9554      2.6328      0.0940      1.0426     13.5706     70.0643
   657.7000      7.9554      2.5913      0.0873      3.5566     11.9225     68.8337
   657.8000      7.9590      2.5548      0.0321      5.7718     14.5915     73.7141
   657.9000      7.9590      2.5337      0.0492      7.0494     19.5687     78.4642
   658.0000      7.9653      2.5263      0.0277      7.4991     21.4081     77.7974
   658.1000      7.9653      2.5323      0.0099      7.1348     18.5768     74.0627
   658.2000      7.9653      2.5616     -0.0262      5.3587     15.4336     72.0319
   658.3000      7.9702      2.6030      0.1051      2.8473     14.7522     72.1631
   658.4000      7.9702      2.6247      0.0849      1.5334     14.4934     73.1813
   658.5000      7.9744      2.6246      0.0500      1.5416     13.1103     76.8036
   658.6000      7.9744      2.6220      0.0741      1.6986     12.5639     78.4178
   658.7000      7.9744      2.6239      0.0615      1.5793     14.0243     73.3238
