~Version Information
VERS.                      2.0: CWLS Log ASCII Standard - VERSION 2.0
WRAP.                       NO: One line per depth step
~Well Information Block
STRT.FT                -7.0000: 
STOP.FT              2730.2500: 
STEP.FT                 0.2500: 
NULL.                -999.2500: 
COMP.          Pioneer Natural Resources: COMPANY
WELL.             Squeal 11-26: WELL
FLD.           Purgatorie River: FIELD
LOC.           1186' FNL & 152' FWL--: LOCATION
PROV.                       CO: PROVINCE
CNTY.               Las Animas: COUNTRY
SRVC.          Patterson Wireline: SERVICE COMPANY
DATE.          Tue Jul 26 11:59:46 2005: LOG DATE
UWI.           05 071 08404 00: UNIQUE WELL ID
~Curve Information Block
DEPT.FT            0 000 00 00: Depth
CCL.                          : Casing Collar Locator
TT3.usec                      : CBL 3' Travel Time
AMP3.mV                       : CBL 3' Amplitude
GR.GAPI                       : Gamma Ray
~Parameter Information Block
~A  Depth       CCL         TT3         AMP3         GR     
# ...
  1634.5000      0.0000    724.7240      3.3501    153.5487
  1634.7500      0.0000    719.1115      3.3641    154.6881
  1635.0000      0.0000    711.2162      3.3901    153.5278
  1635.2500      0.0000    702.3937      3.4147    150.4840
  1635.5000      0.0000    694.5523      3.4284    146.3378
  1635.7500      0.0000    688.9852      3.4271    141.5796
  1636.0000      0.0000    685.7686      3.4110    136.5413
  1636.2500      0.0000    684.1868      3.3830    131.8826
  1636.5000      0.0000    683.4745      3.3492    128.6503
  1636.7500      0.0000    683.1746      3.3174    127.7628
  1637.0000      0.0000    683.0860      3.2964    129.3840
  1637.2500      0.0000    683.1101      3.2954    132.7206
  1637.5000      0.0000    683.1823      3.3215    136.3861
  1637.7500      0.0000    683.2664      3.3737    139.1415
  1638.0000      0.0000    683.2946      3.4411    140.4674
  1638.2500      0.0000    683.0020      3.5089    140.4305
  1638.5000      0.0000    681.7343      3.5637    139.1487
  1638.7500      0.0000    678.4542      3.5968    136.8217
  1639.0000      0.0000    672.2825      3.6066    134.3532
  1639.2500      0.0000    663.5577      3.6013    133.2801
  1639.5000      0.0000    654.5451      3.5948    134.4933
  1639.7500      0.0000    648.6940      3.5963    137.0896
  1640.0000      0.0000    648.6390      3.6050    138.7972
  1640.2500      0.0000    654.5651      3.6130    137.5822
  1640.5000      0.0000    664.3646      3.6117    132.9167
  1640.7500      0.0000    675.4293      3.5965    125.8453
  1641.0000      0.0000    686.3784      3.5670    118.1783
  1641.2500      0.0000    697.1704      3.5222    111.5928
  1641.5000      0.0000    708.0387      3.4590    107.0723
  1641.7500      0.0000    718.9032      3.3796    104.6381
  1642.0000      0.0000    729.6708      3.2981    103.4026
  1642.2500      0.0000    740.5362      3.2371    102.2302
  1642.5000      0.0000    751.7341      3.2134    100.7126
  1642.7500      0.0000    763.3221      3.2258     99.4121
  1643.0000      0.0000    775.3203      3.2588     98.8939
  1643.2500      0.0000    787.1279      3.2961     98.6307
  1643.5000      0.0000    795.5966      3.3307     97.1481
  1643.7500      0.0000    795.1444      3.3643     93.3736
  1644.0000      0.0000    783.0385      3.4050     87.8270
  1644.2500      0.0000    764.1721      3.4672     82.3968
  1644.5000      0.0000    747.1229      3.5637     79.0028
  1644.7500      0.0000    735.5883      3.6925     78.7200
  1645.0000      0.0000    726.5889      3.8301     82.0145
  1645.2500      0.0000    716.3468      3.9431     89.1407
  1645.5000      0.0000    704.8166      4.0052     99.8395
  1645.7500      0.0000    694.5052      4.0071    112.7639
  1646.0000      0.0000    687.3214      3.9571    125.4734
  1646.2500      0.0000    683.4963      3.8746    135.4570
  1646.5000      0.0000    682.6334      3.7839    141.7733
  1646.7500      0.0000    685.2139      3.7164    145.6488
  1647.0000      0.0000    693.0910      3.7179    149.0530
  1647.2500      0.0000    708.2018      3.8458    152.7941
  1647.5000      0.0000    730.1450      4.1502    156.2200
  1647.7500      0.0000    755.2087      4.6541    158.1122
  1648.0000      0.0000    778.6765      5.3527    157.2473
  1648.2500      0.0000    798.2590      6.2373    152.6700
  1648.5000      0.0000    815.5396      7.3204    144.4089
  1648.7500      0.0000    834.9529      8.6301    134.1893
  1649.0000      0.0000    860.8250     10.1607    125.0003
  1649.2500      0.0000    892.7473     11.8119    119.3799
  1649.5000      0.0000    922.9779     13.3791    117.9167
  1649.7500      0.0000    940.4662     14.6167    119.4955
  1650.0000      0.0000    939.6517     15.3224    122.6348
  1650.2500      0.0000    925.5671     15.3810    126.1267
  1650.5000      0.0000    908.9626     14.7746    128.7870
  1650.7500      0.0000    895.3882     13.5974    129.6802
  1651.0000      0.0000    880.7327     12.0538    129.0119
  1651.2500      0.0000    858.7222     10.4041    128.1075
  1651.5000      0.0000    829.4293      8.8798    127.9929
  1651.7500      0.0000    798.0406      7.6273    128.2196
  1652.0000      0.0000    769.2116      6.6987    127.3092
  1652.2500      0.0000    745.7737      6.0580    124.1372
  1652.5000      0.0000    729.7997      5.6036    118.8325
  1652.7500      0.0000    721.3650      5.2276    112.7062
  1653.0000      0.0000    717.4155      4.8883    107.4949
  1653.2500      0.0000    713.8138      4.6194    104.4420
  1653.5000      0.0000    708.5585      4.4670    103.8502
  1653.7500      2.0000    702.6315      4.4324    105.2910
  1654.0000     -2.0000    697.9383      4.4749    107.9727
  1654.2500      0.0000    694.5316      4.5509    110.9407
  1654.5000      0.0000    690.3162      4.6408    113.3014
  1654.7500      0.0000    683.9184      4.7492    114.5498
  1655.0000      0.0000    677.2383      4.8885    114.7706
  1655.2500      0.0000    673.9850      5.0597    114.6286
  1655.5000      0.0000    675.8892      5.2394    114.9367
  1655.7500      0.0000    681.4760      5.3837    115.7123
  1656.0000      0.0000    688.3187      5.4540    115.7585
  1656.2500      0.0000    695.0549      5.4457    113.7812
  1656.5000      0.0000    700.9311      5.3880    109.8587
  1656.7500      0.0000    704.7439      5.3165    105.2868
  1657.0000      0.0000    705.4712      5.2494    101.2259
  1657.2500      0.0000    703.6993      5.1874     98.0702
  1657.5000      0.0000    701.3925      5.1311     96.0031
  1657.7500      0.0000    700.0612      5.1023     95.6288
  1658.0000      0.0000    699.7778      5.1480     97.7578
  1658.2500      0.0000    699.9558      5.3159    102.5182
  1658.5000      0.0000    700.2073      5.6183    108.7953
  1658.7500      0.0000    700.3135      6.0262    114.6964
  1659.0000      0.0000    700.1617      6.5034    118.6074
  1659.2500      0.0000    699.7888      7.0395    119.9422
  1659.5000      0.0000    698.8988      7.6338    119.2472
  1659.7500      0.0000    696.7514      8.2482    117.8532
  1660.0000      0.0000    693.5035      8.7910    117.2297
  1660.2500      0.0000    691.3169      9.1535    118.1644
  1660.5000      0.0000    692.7752      9.2555    120.2878
  1660.7500      0.0000    697.8111      9.0637    122.5713
  1661.0000      0.0000    703.0822      8.6028    124.3748
  1661.2500      0.0000    704.9443      7.9634    125.7267
  1661.5000      0.0000    702.5821      7.2733    126.7348
  1661.7500      0.0000    697.8770      6.6310    127.1793
  1662.0000      0.0000    692.6557      6.0608    126.5713
  1662.2500      0.0000    686.4994      5.5396    124.2691
  1662.5000      0.0000    676.6585      5.0598    119.8062
  1662.7500      0.0000    660.0236      4.6516    113.4324
  1663.0000      0.0000    636.7245      4.3499    106.1799
  1663.2500      0.0000    612.8738      4.1611     99.1117
  1663.5000      0.0000    597.9259      4.0671     92.5487
  1663.7500      0.0000    597.0341      4.0443     86.2560
  1664.0000      0.0000    606.6335      4.0718     80.2962
  1664.2500      0.0000    618.5916      4.1276     75.2447
  1664.5000      0.0000    627.3175      4.1877     71.5417
  1664.7500      0.0000    632.1747      4.2307     69.2842
  1665.0000      0.0000    635.3243      4.2425     68.8748
  1665.2500      0.0000    639.2500      4.2217     71.1892
  1665.5000      0.0000    645.5767      4.1791     76.5629
  1665.7500      0.0000    654.4572      4.1309     83.9244
  1666.0000      0.0000    664.4231      4.0879     91.2784
  1666.2500      0.0000    673.3351      4.0514     96.7600
  1666.5000      0.0000    679.9130      4.0173     99.0706
  1666.7500      0.0000    684.5116      3.9856     97.6112
  1667.0000      0.0000    688.5294      3.9649     93.0039
  1667.2500      0.0000    693.1276      3.9659     87.1892
  1667.5000      0.0000    698.2172      3.9876     82.3199
  1667.7500      0.0000    702.5811      4.0133     79.4742
