~Version Information
VERS.                      2.0: CWLS Log ASCII Standard - VERSION 2.0
WRAP.                       NO: One line per depth step
~Well Information Block
STRT.FT               260.0000: 
STOP.FT              1199.2000: 
STEP.FT                 0.1000: 
NULL.                -999.2500: 
COMP.          Evergreen Operating Corporation: COMPANY
WELL.             Justin 32-10: WELL
FLD.           Purgatorie River: FIELD
LOC.           2994' FNL & 1449' FEL: LOCATION
PROV.                 Colorado: PROVINCE
CNTY.               Las Animas: COUNTRY
SRVC.                         : SERVICE COMPANY
DATE.          Mon Aug 30 07:14:35 2004: LOG DATE
UWI.           05 071 08053 00: UNIQUE WELL ID
~Curve Information Block
DEPT.FT            0 000 00 00: Depth
LTEN.lb                       : Surface Line Tension
DCAL.in                       : CDL Caliper
RHOB.g/cc                     : CDL Bulk Density
RHOC.g/cc                     : CDL Density Correction
DPOR.pu                       : CDL Density Porosity
GR.GAPI                       : Gamma Ray
NPOR.pu                       : Neutron Porosity
~Parameter Information Block
~A  Depth       LTEN        DCAL        RHOB        RHOC        DPOR         GR         NPOR    
# ...
   318.8000    751.4294      8.2382      2.2452      0.3130     24.5331    123.5103     29.7623
   318.9000    751.4294      8.2382      2.2419      0.1850     24.7318    126.1488     30.0723
   319.0000    766.6406      8.2267      2.2488      0.1720     24.3148    125.5808     30.1466
   319.1000    766.6406      8.2267      2.2607      0.1000     23.5950    123.5147     30.1528
   319.2000    766.6406      8.2267      2.2697      0.0921     23.0515    125.5771     30.5020
   319.3000    738.2552      8.2293      2.2761      0.1041     22.6612    132.4518     30.8656
   319.4000    738.2552      8.2293      2.2790      0.1108     22.4828    137.6625     30.5565
   319.5000    698.0703      8.2118      2.2834      0.1167     22.2205    138.5315     29.8192
   319.6000    698.0703      8.2118      2.3005      0.1038     21.1843    137.5652     29.4168
   319.7000    698.0703      8.2118      2.3346      0.0859     19.1164    135.6824     29.4566
   319.8000    751.4427      8.2111      2.3744      0.1189     16.7052    132.1130     29.5387
   319.9000    751.4427      8.2111      2.3985      0.1510     15.2452    128.5562     29.6508
   320.0000    744.3871      8.2198      2.4015      0.1083     15.0625    127.2787     30.1326
   320.1000    744.3871      8.2198      2.4049      0.0684     14.8572    126.5938     30.7601
   320.2000    744.3871      8.2198      2.4212      0.0873     13.8679    124.3325     30.8357
   320.3000    748.6650      8.2087      2.4372      0.0689     12.8968    123.9997     30.3906
   320.4000    748.6650      8.2087      2.4443      0.0638     12.4681    128.6147     30.0347
   320.5000    701.9499      8.2305      2.4533      0.0123     11.9230    132.0749     29.9031
   320.6000    701.9499      8.2305      2.4781      0.0258     10.4190    126.8593     29.7571
   320.7000    701.9499      8.2305      2.5125      0.0672      8.3351    116.6435     29.5749
   320.8000    700.0737      8.2438      2.5309      0.0834      7.2163    111.8011     29.5209
   320.9000    700.0737      8.2438      2.5184      0.0473      7.9769    114.6773     29.7079
   321.0000    724.8464      8.2258      2.4908      0.0358      9.6508    119.9874     30.1044
   321.1000    724.8464      8.2258      2.4787      0.0266     10.3791    123.0925     30.4894
   321.2000    724.8464      8.2258      2.4936      0.0329      9.4787    123.9678     30.7805
   321.3000    718.8453      8.2244      2.5158      0.0494      8.1309    125.2519     31.0597
   321.4000    718.8453      8.2244      2.5225      0.0441      7.7279    126.3265     31.1291
   321.5000    742.2621      8.2210      2.5131      0.0260      8.2963    128.3200     30.8636
   321.6000    742.2621      8.2210      2.4994      0.0246      9.1265    136.2662     30.6066
   321.7000    742.2621      8.2210      2.4861      0.0054      9.9309    142.8086     30.4427
   321.8000    765.6595      8.2054      2.4741     -0.0179     10.6585    137.3307     30.1583
   321.9000    765.6595      8.2054      2.4674      0.0086     11.0669    127.7039     30.1195
   322.0000    769.1285      8.2217      2.4679      0.0128     11.0340    127.0116     30.6079
   322.1000    769.1285      8.2217      2.4692      0.0327     10.9558    137.6805     31.0790
   322.2000    769.1285      8.2217      2.4614      0.0719     11.4300    153.8000     30.9249
   322.3000    781.9993      8.2245      2.4467      0.0471     12.3241    165.7303     30.3692
   322.4000    781.9993      8.2245      2.4370      0.0443     12.9061    166.3423     30.0416
   322.5000    749.8969      8.2290      2.4388      0.0412     12.8028    159.2583     29.8422
   322.6000    749.8969      8.2290      2.4553      0.0560     11.8016    154.9379     29.3263
   322.7000    749.8969      8.2290      2.4884      0.0502      9.7965    157.0412     28.8469
   322.8000    742.5681      8.2283      2.5278      0.1072      7.4085    160.9265     29.0532
   322.9000    742.5681      8.2283      2.5556      0.1399      5.7235    161.3137     29.5902
   323.0000    733.9799      8.2340      2.5642      0.1275      5.2002    155.5195     29.7558
   323.1000    733.9799      8.2340      2.5617      0.1364      5.3486    143.9352     29.5340
   323.2000    733.9799      8.2340      2.5579      0.1129      5.5796    132.8446     29.2494
   323.3000    756.8373      8.2278      2.5525      0.1784      5.9103    128.8250     29.1531
   323.4000    756.8373      8.2278      2.5481      0.0869      6.1743    130.4712     29.2025
   323.5000    771.9160      8.2125      2.5571      0.0826      5.6302    133.4883     29.2437
   323.6000    771.9160      8.2125      2.5817      0.0534      4.1410    135.5721     29.1722
   323.7000    771.9160      8.2125      2.6188      0.0380      1.8897    136.1183     28.9653
   323.8000    754.7971      8.2268      2.6683      0.1009     -1.1078    132.7410     28.8591
   323.9000    754.7971      8.2268      2.7196      0.1082     -4.2200    124.6142     29.0385
   324.0000    796.6880      8.2258      2.7479      0.0978     -5.9326    115.1006     29.1971
   324.1000    796.6880      8.2258      2.7322      0.0817     -4.9795    109.2837     28.9389
   324.2000    796.6880      8.2258      2.6935     -0.0440     -2.6360    109.6742     28.4546
   324.3000    803.4422      8.2173      2.6790     -0.0764     -1.7568    113.2533     28.3594
   324.4000    803.4422      8.2173      2.6972     -0.0244     -2.8607    117.0048     28.6864
   324.5000    745.1256      8.2139      2.7211     -0.0320     -4.3098    120.2910     28.7290
   324.6000    745.1256      8.2139      2.7287      0.0445     -4.7713    122.2322     28.2625
   324.7000    745.1256      8.2139      2.7118      0.0613     -3.7478    123.9054     27.7725
   324.8000    754.5220      8.2080      2.6788      0.0856     -1.7443    126.0220     27.6184
   324.9000    754.5220      8.2080      2.6432      0.0585      0.4114    129.1174     27.6585
   325.0000    764.4774      8.2244      2.6096      0.1068      2.4490    134.0053     27.5563
   325.1000    764.4774      8.2244      2.5752      0.0569      4.5345    138.7654     27.2980
   325.2000    764.4774      8.2244      2.5440      0.0570      6.4261    138.1172     27.2148
   325.3000    757.5610      8.2127      2.5263      0.0048      7.4943    130.3529     27.4034
   325.4000    757.5610      8.2127      2.5256      0.0234      7.5368    123.6709     27.5489
   325.5000    741.2420      8.2290      2.5276      0.0505      7.4162    125.7951     27.4979
   325.6000    741.2420      8.2290      2.5218      0.0014      7.7668    132.7399     27.6407
   325.7000    741.2420      8.2290      2.5190      0.0058      7.9372    138.5561     28.3043
   325.8000    730.2493      8.2295      2.5283      0.0485      7.3743    144.6156     28.9802
   325.9000    730.2493      8.2295      2.5396      0.0610      6.6897    150.0776     28.9277
   326.0000    780.5458      8.2278      2.5371      0.0393      6.8423    150.3583     28.4906
   326.1000    780.5458      8.2278      2.5222      0.0235      7.7456    144.8329     28.4162
   326.2000    780.5458      8.2278      2.5102      0.0156      8.4749    137.2382     28.5807
   326.3000    749.2283      8.2243      2.5105      0.0232      8.4549    133.4148     28.8538
   326.4000    749.2283      8.2243      2.5245      0.0313      7.6039    136.2035     29.6815
   326.5000    790.5109      8.2018      2.5438      0.0836      6.4351    140.4742     30.7929
   326.6000    790.5109      8.2018      2.5531      0.0847      5.8755    140.1331     31.3536
   326.7000    790.5109      8.2018      2.5466      0.0684      6.2679    137.4556     31.1866
   326.8000    735.3129      8.2103      2.5330      0.0634      7.0890    137.6236     30.5922
   326.9000    735.3129      8.2103      2.5294      0.0288      7.3097    138.2439     30.0802
   327.0000    762.5679      8.2170      2.5440      0.0775      6.4247    135.7166     29.9436
   327.1000    762.5679      8.2170      2.5625      0.0903      5.3018    132.9429     29.8404
