~Version Information
 VERS.                                  2.0 : CWLS LAS VERSION
 WRAP.                                   NO : WRAPING MODE
 SWARE .                 MController 2.5.0I : SOFTWARE VERSION
~Well Information
 WELL.                      Anderson 18-43v : WELL
 COMP.                       Petrogulf Corp : COMPANY
 FLD.                      Purgatorie River : FIELD
 LOC.                NE/SE Sec 18 T33S R67W : LOCATION
 DATE.                              9/01/04 : DATE(S) LOGGED
 SRVC.       Blanco geological services LLC : SERVICE COMPANY
 STAT.                                   CO : STATE
 CNTY.                           Las Animas : COUNTY
 CTRY.                                  USA : COUNTRY
 API.                       05-071-08156-00 : API NUMBER
 STRT.FT                             158.00 : START DEPTH
 STOP.FT                            2300.00 : STOP DEPTH
 STEP.FT                               1.00 : DEPTH INCREMENT
 NULL.                                -9999 : NULL VALUE
~Curve information
 DEPTH.FT                                   :
 ROP.MIN/FT                                 :
 GAS.UNITS                                  :
~ASCII Log data
# ...
       958.0          1.3          5.8 
       959.0          0.3          5.9 
       960.0          0.3          5.8 
       961.0          0.2          5.5 
       962.0          0.2          5.6 
       963.0          0.2          5.6 
       964.0          0.1          5.6 
       965.0          0.1          5.4 
       966.0          0.1          5.4 
       967.0          0.2          5.5 
       968.0          0.2          5.1 
       969.0          0.2          4.9 
       970.0          0.2          4.6 
       971.0          0.2          4.6 
       972.0          0.2          4.4 
       973.0          0.2          4.2 
       974.0          0.2          4.2 
       975.0          0.2          4.5 
       976.0          0.2          4.3 
       977.0          0.3          4.4 
       978.0          0.2          4.5 
       979.0          0.2          4.7 
       980.0          0.2          4.8 
       981.0          0.2          4.8 
       982.0          0.2          4.6 
       983.0          0.2          4.4 
       984.0          0.2          4.4 
       985.0          0.2          4.1 
       986.0          0.2          4.3 
       987.0          0.2          4.0 
       988.0          2.0          5.0 
       989.0          0.3          4.3 
       990.0          0.3          4.3 
       991.0          0.2          4.4 
       992.0          0.2          4.6 
       993.0          0.2          4.1 
       994.0          0.2          4.3 
       995.0          0.2          4.4 
       996.0          0.2          4.2 
       997.0          0.2          4.2 
       998.0          0.2          4.1 
       999.0          0.2          4.2 
      1000.0          0.2          4.4 
      1001.0          0.2          4.4 
      1002.0          0.2          4.2 
      1003.0          0.2          4.3 
      1004.0          0.2          4.4 
      1005.0          0.1          4.4 
      1006.0          0.1          4.3 
      1007.0          0.1          4.2 
      1008.0          0.1          4.3 
      1009.0          0.2          4.4 
      1010.0          0.2          4.2 
      1011.0          0.2          4.1 
      1012.0          0.2          4.3 
      1013.0          0.2          4.5 
      1014.0          0.2          4.4 
      1015.0          0.2          4.4 
      1016.0          0.3          4.4 
      1017.0          0.1          4.2 
      1018.0          2.2          4.0 
      1019.0          0.4          3.4 
      1020.0          0.2          3.4 
      1021.0          0.3          3.1 
      1022.0          0.3          3.1 
      1023.0          0.2          3.3 
      1024.0          0.2          3.3 
      1025.0          0.2          3.1 
      1026.0          0.2          2.6 
      1027.0          0.2          2.8 
      1028.0          0.2          2.8 
      1029.0          0.2          2.8 
      1030.0          0.2          2.6 
      1031.0          0.2          2.6 
      1032.0          0.2          2.8 
      1033.0          0.2          2.7 
      1034.0          0.2          2.9 
      1035.0          0.2          2.9 
      1036.0          0.2          3.2 
      1037.0          0.2          3.1 
      1038.0          0.2          3.1 
      1039.0          0.2          3.0 
      1040.0          0.2          3.2 
      1041.0          0.3          2.8 
      1042.0          0.2          2.8 
      1043.0          0.2          2.9 
      1044.0          0.2          2.7 
      1045.0          0.2          2.7 
      1046.0          0.2          2.7 
      1047.0          0.1          2.6 
      1048.0          2.0          3.0 
      1049.0          0.4          2.4 
      1050.0          0.4          2.2 
      1051.0          0.3          2.1 
      1052.0          0.1          2.0 
      1053.0          0.1          1.8 
      1054.0          0.1          1.7 
      1055.0          0.2          1.8 
      1056.0          0.1          1.7 
      1057.0          0.1          1.9 
      1058.0          0.2          1.8 
      1059.0          0.1          2.0 
      1060.0          0.2          2.0 
      1061.0          0.2          2.2 
      1062.0          0.2          2.4 
      1063.0          0.2          2.5 
      1064.0          0.2          2.5 
      1065.0          0.2          2.8 
      1066.0          0.2          2.6 
      1067.0          0.1          2.5 
      1068.0          0.2          2.5 
      1069.0          0.1          2.6 
      1070.0          0.2          2.5 
      1071.0          0.2          2.5 
      1072.0          0.2          2.5 
      1073.0          0.1          2.5 
      1074.0          0.1          2.6 
      1075.0          0.1          2.5 
      1076.0          0.2          2.4 
      1077.0          0.2          2.5 
      1078.0          0.2          2.7 
      1079.0          0.1          2.9 
      1080.0          1.2          3.2 
      1081.0          0.4          3.5 
      1082.0          0.3          3.1 
      1083.0          0.3          2.2 
      1084.0          0.3          1.5 
      1085.0          0.3          1.3 
      1086.0          0.4          1.5 
      1087.0          0.3          1.4 
      1088.0          0.3          1.6 
      1089.0          0.3          1.6 
      1090.0          0.3          1.6 
      1091.0          0.3          1.4 
      1092.0          0.3          1.4 
      1093.0          0.3          1.4 
      1094.0          0.2          1.5 
      1095.0          0.3          1.6 
      1096.0          0.3          1.8 
      1097.0          0.2          1.8 
      1098.0          0.2          2.0 
      1099.0          0.3          2.1 
      1100.0          0.2          2.1 
      1101.0          0.2          2.1 
      1102.0          0.3          2.3 
      1103.0          0.2          1.7 
      1104.0          0.2          1.9 
      1105.0          0.2          1.9 
      1106.0          0.2          2.2 
      1107.0          0.2          2.3 
      1108.0          0.2          2.2 
      1109.0          0.2          2.5 
      1110.0          2.0          2.7 
      1111.0          0.6          2.2 
      1112.0          0.3          2.0 
      1113.0          0.3          1.4 
      1114.0          0.3          1.5 
      1115.0          0.3          1.4 
      1116.0          0.2          1.7 
      1117.0          0.2          1.2 
      1118.0          0.2          1.3 
      1119.0          0.4          1.2 
      1120.0          0.3          1.1 
      1121.0          0.4          1.1 
      1122.0          0.3          1.2 
      1123.0          0.4          1.3 
      1124.0          0.3          1.6 
      1125.0          0.3          1.6 
      1126.0          0.2          1.4 
      1127.0          0.2          1.7 
      1128.0          0.2          1.8 
      1129.0          0.2          2.0 
      1130.0          0.2          1.6 
      1131.0          0.1          1.4 
      1132.0          0.2          1.4 
      1133.0          0.2          1.4 
      1134.0          0.2          1.5 
      1135.0          0.2          1.5 
      1136.0          0.1          1.6 
      1137.0          0.1          1.4 
      1138.0          0.1          1.3 
      1139.0          0.1          1.3 
      1140.0          1.8          1.5 
      1141.0          0.4          1.4 
      1142.0          0.5          1.2 
      1143.0          0.4          1.3 
      1144.0          0.4          1.4 
      1145.0          0.2          1.0 
      1146.0          0.2          1.2 
      1147.0          0.4          1.4 
      1148.0          0.3          1.4 
      1149.0          0.4          1.2 
      1150.0          0.3          1.3 
      1151.0          0.2          1.2 
      1152.0          0.2          1.3 
      1153.0          0.2          1.3 
      1154.0          0.2          1.3 
      1155.0          0.2          1.2 
      1156.0          0.1          0.8 
      1157.0          0.2          0.7 
