~Version Information
VERS.                      2.0: CWLS Log ASCII Standard - VERSION 2.0
WRAP.                       NO: One line per depth step
~Well Information Block
STRT.FT               806.0000: 
STOP.FT              1812.2000: 
STEP.FT                 0.1000: 
NULL.                -999.2500: 
COMP.          Pioneer Natural Resources: COMPANY
WELL.            Hill 33-22 Tr: WELL
FLD.           Purgatoire River: FIELD
LOC.           1573' FSL & 1585' FEL: LOCATION
PROV.                 Colorado: PROVINCE
CNTY.               Las Animas: COUNTRY
SRVC.                Patterson: SERVICE COMPANY
DATE.          Thu Apr 14 12:25:33 2005: LOG DATE
UWI.           05 071 08316 00: UNIQUE WELL ID
~Curve Information Block
DEPT.FT            0 000 00 00: Depth
DCAL.in                       : CDL Caliper
RHOB.g/cc                     : CDL Bulk Density
RHOC.g/cc                     : CDL Density Correction
DPOR.pu                       : CDL Density Porosity
GR.GAPI                       : Gamma Ray
NPOR.pu                       : Neutron Porosity
~Parameter Information Block
~A  Depth       DCAL        RHOB        RHOC        DPOR         GR         NPOR    
# ...
  1727.6000      7.9357      2.6218      0.0007      1.7079     97.5975     23.9913
  1727.7000      7.9357      2.6349      0.0649      0.9178    100.6839     23.6061
  1727.8000      7.9272      2.6543      0.0542     -0.2606    100.8033     23.5330
  1727.9000      7.9272      2.6658      0.0897     -0.9574     98.8123     23.9420
  1728.0000      7.8761      2.6452      0.0812      0.2888     96.7557     24.1539
  1728.1000      7.8761      2.5917      0.0861      3.5316     97.6185     24.2756
  1728.2000      7.8761      2.5430      0.0039      6.4874    106.3112     24.9667
  1728.3000      7.8693      2.5331     -0.0004      7.0864    121.0145     25.9740
  1728.4000      7.8693      2.5498      0.0247      6.0714    132.7049     26.6519
  1728.5000      7.8868      2.5706      0.0192      4.8096    138.7276     26.9890
  1728.6000      7.8868      2.5922      0.0503      3.5001    140.9941     27.5999
  1728.7000      7.8868      2.6020      0.1013      2.9072    138.3543     28.4313
  1728.8000      7.9077      2.5860      0.0936      3.8795    131.9100     28.4662
  1728.9000      7.9077      2.5636      0.0660      5.2369    126.5158     27.7400
  1729.0000      7.9705      2.5650      0.0589      5.1543    128.5085     26.9835
  1729.1000      7.9705      2.5799      0.1476      4.2487    137.7637     26.7761
  1729.2000      7.9705      2.5737      0.1175      4.6219    144.3070     27.1769
  1729.3000      7.9771      2.5471      0.0768      6.2384    141.9379     27.0816
  1729.4000      7.9771      2.5269      0.0596      7.4602    136.7752     26.2734
  1729.5000      7.9718      2.5277      0.0550      7.4137    133.4294     25.9814
  1729.6000      7.9718      2.5462      0.0430      6.2879    129.4889     26.8856
  1729.7000      7.9718      2.5693      0.0795      4.8892    123.8751     28.5072
  1729.8000      7.9951      2.5842      0.1140      3.9905    119.0737     29.7552
  1729.9000      7.9951      2.5974      0.0853      3.1861    117.4143     30.0028
  1730.0000      7.9868      2.6181      0.1257      1.9330    117.3434     29.7622
  1730.1000      7.9868      2.6342      0.1017      0.9551    118.1363     29.5756
  1730.2000      7.9868      2.6361      0.1456      0.8397    119.2171     29.4817
  1730.3000      8.0162      2.6326      0.1244      1.0528    116.8776     29.3334
  1730.4000      8.0162      2.6309      0.0900      1.1565    111.0306     28.8112
  1730.5000      7.9972      2.6318      0.0222      1.1019    107.3727     27.8933
  1730.6000      7.9972      2.6351      0.1057      0.9039    107.5542     27.0919
  1730.7000      7.9972      2.6302      0.0760      1.2024    106.8711     26.5255
  1730.8000      7.9119      2.6105      0.0472      2.3937    105.3649     25.9290
  1730.9000      7.9119      2.5791      0.0371      4.2956    108.5983     25.3866
  1731.0000      7.9003      2.5399      0.0263      6.6756    113.6231     24.7786
  1731.1000      7.9003      2.5069     -0.0333      8.6731    112.0329     23.9387
  1731.2000      7.9003      2.4999     -0.0190      9.0950    103.2969     23.2962
  1731.3000      7.9065      2.5231     -0.0170      7.6928     95.0053     23.4496
  1731.4000      7.9065      2.5629      0.0392      5.2761     94.4873     24.1743
  1731.5000      7.9191      2.5957      0.0601      3.2912    100.7607     24.4086
  1731.6000      7.9191      2.6119      0.0157      2.3075    104.8137     23.5859
  1731.7000      7.9191      2.6262      0.0877      1.4437    101.6352     22.6353
  1731.8000      7.9234      2.6416      0.0916      0.5071     94.3533     22.6063
  1731.9000      7.9234      2.6372      0.1074      0.7735     88.7769     23.3670
  1732.0000      7.9264      2.6064      0.0224      2.6433     89.0982     23.9492
  1732.1000      7.9264      2.5803      0.0140      4.2243     93.2948     24.2867
  1732.2000      7.9264      2.5844      0.0126      3.9730     97.0898     25.2322
  1732.3000      7.9285      2.6089      0.0646      2.4938    101.2615     26.4804
  1732.4000      7.9285      2.6298      0.0233      1.2243    107.6648     27.2453
  1732.5000      7.9244      2.6344      0.0438      0.9452    113.5779     27.5628
  1732.6000      7.9244      2.6244      0.0647      1.5514    116.9084     27.3829
  1732.7000      7.9244      2.6104      0.0207      2.3970    119.5510     26.4704
  1732.8000      7.9217      2.5987      0.0480      3.1089    119.5445     25.4520
  1732.9000      7.9217      2.5797      0.0476      4.2599    117.0356     25.0368
  1733.0000      7.9165      2.5493      0.0216      6.1038    118.9454     25.0108
  1733.1000      7.9165      2.5247      0.0166      7.5915    125.6994     25.5652
  1733.2000      7.9165      2.5225      0.0088      7.7265    130.2373     26.7939
  1733.3000      7.9183      2.5419     -0.0136      6.5501    129.3618     27.6923
  1733.4000      7.9183      2.5731      0.0113      4.6606    125.7821     27.8445
  1733.5000      7.9293      2.6013      0.0376      2.9486    123.1440     27.3006
  1733.6000      7.9293      2.6127      0.0327      2.2609    122.7029     26.0832
  1733.7000      7.9293      2.6087      0.0356      2.5060    122.4886     25.3860
  1733.8000      7.9497      2.5940      0.0443      3.3963    121.9326     26.3441
  1733.9000      7.9497      2.5668      0.0430      5.0410    121.2058     27.8834
  1734.0000      7.9428      2.5345      0.0013      7.0027    119.0110     28.0148
  1734.1000      7.9428      2.5186     -0.0504      7.9619    119.1257     26.7155
  1734.2000      7.9428      2.5391     -0.0389      6.7229    124.1183     25.2712
  1734.3000      7.9378      2.5955      0.0123      3.3021    128.0189     24.7997
  1734.4000      7.9378      2.6564      0.1240     -0.3887    130.7373     25.4359
  1734.5000      7.9298      2.6787      0.0788     -1.7421    136.7397     26.2926
  1734.6000      7.9298      2.6562      0.1399     -0.3742    141.0231     27.0973
  1734.7000      7.9298      2.6183      0.0753      1.9197    138.1416     27.9329
  1734.8000      7.9204      2.5933      0.0820      3.4336    130.0367     28.2577
  1734.9000      7.9204      2.5872      0.0594      3.8085    123.7483     27.7542
  1735.0000      7.9164      2.5901      0.0596      3.6285    124.3832     26.7641
  1735.1000      7.9164      2.5908      0.0576      3.5875    128.4314     25.7288
  1735.2000      7.9164      2.5910      0.0502      3.5753    129.1297     25.1493
  1735.3000      7.9223      2.6020      0.0600      2.9108    125.3959     25.4421
  1735.4000      7.9223      2.6158      0.0868      2.0756    122.7862     26.6662
  1735.5000      7.9295      2.6104      0.0900      2.4022    125.3924     28.0960
  1735.6000      7.9295      2.5821      0.1158      4.1163    130.5200     28.2968
  1735.7000      7.9295      2.5511      0.0368      5.9930    135.9871     26.8589
  1735.8000      7.9581      2.5397      0.0544      6.6838    140.8908     25.4795
  1735.9000      7.9581      2.5477      0.0698      6.1995    142.7410     25.7094
  1736.0000      7.9518      2.5545      0.0859      5.7880    140.4425     27.0447
  1736.1000      7.9518      2.5449      0.0136      6.3727    136.0107     27.9726
  1736.2000      7.9518      2.5275      0.0102      7.4259    131.3149     27.9017
  1736.3000      7.9413      2.5158      0.0224      8.1348    127.1991     27.0585
  1736.4000      7.9413      2.5145     -0.0184      8.2111    125.1360     26.0696
  1736.5000      7.9442      2.5295      0.0037      7.3014    126.4183     25.3598
  1736.6000      7.9442      2.5552      0.1174      5.7426    131.7037     24.9584
  1736.7000      7.9442      2.5641      0.1419      5.2076    138.2237     25.6012
  1736.8000      7.9338      2.5481      0.0543      6.1756    142.8378     27.1605
  1736.9000      7.9338      2.5396      0.0480      6.6934    144.6534     28.0814
  1737.0000      7.9872      2.5598      0.0721      5.4645    143.5770     28.0194
  1737.1000      7.9872      2.5946      0.1456      3.3582    141.9659     27.9474
