~Version Information
VERS.                      2.0: CWLS Log ASCII Standard - VERSION 2.0
WRAP.                       NO: One line per depth step
~Well Information Block
STRT.FT                -6.0000: 
STOP.FT              2490.5000: 
STEP.FT                 0.2500: 
NULL.                -999.2500: 
COMP.          Pioneer Natural Resources: COMPANY
WELL.          Aztec Federal 41-15: WELL
FLD.           Purgatorie River: FIELD
LOC.           706' FNL & 1253' FEL--: LOCATION
CNTY.               Las Animas: COUNTY
SRVC.          Superior Well Services: SERVICE COMPANY
DATE.          Wed May 28 14-18-16 2008: LOG DATE
UWI.           05 071 08342 00: UNIQUE WELL ID
STAT.                       CO: STATE
~Curve Information Block
DEPT.FT            0 000 00 00: Depth
GR.GAPI                       : Gamma Ray
CCL.                          : Casing Collar Locator
AMP3FT.mV                     : AMP3FT Amplitude
TT3FT.usec                    : 3FT Travel Time
AMP5FT.mV                     : AMP5FT Amplitude
~Parameter Information Block
~A  Depth        GR         CCL        AMP3FT      TT3FT       AMP5FT   
# ...
   330.0000     89.7779      0.0000     71.0115    286.6140     69.8001
   330.2500     94.3580      0.0000     70.8902    286.5891     69.7970
   330.5000     98.3279      0.0000     70.7874    286.5176     69.7507
   330.7500    100.1557      0.0000     70.7037    286.4239     69.6568
   331.0000     99.9069      0.0000     70.6281    286.3298     69.5206
   331.2500     98.7838      0.0000     70.5469    286.2561     69.3634
   331.5000     97.8729      0.0000     70.4538    286.2262     69.2206
   331.7500     97.2380      0.0000     70.3506    286.2605     69.1192
   332.0000     96.1080      0.0000     70.2400    286.3578     69.0583
   332.2500     93.7555      0.0000     70.1199    286.4838     69.0152
   332.5000     90.0538      0.0000     69.9870    286.5872     68.9664
   332.7500     85.3191      0.0000     69.8416    286.6339     68.8969
   333.0000     80.0837      0.0000     69.6876    286.6244     68.8028
   333.2500     75.2968      0.0000     69.5297    286.5814     68.6938
   333.5000     72.2929      0.0000     69.3735    286.5292     68.5892
   333.7500     71.9299      0.0000     69.2260    286.4870     68.5067
   334.0000     73.7921      0.0000     69.0956    286.4747     68.4583
   334.2500     76.5538      0.0000     68.9891    286.5103     68.4556
   334.5000     78.9635      0.0000     68.9066    286.5946     68.5064
   334.7500     80.3302      0.0000     68.8389    286.7004     68.6017
   335.0000     80.5461      0.0000     68.7732    286.7867     68.7169
   335.2500     80.1734      0.0000     68.7012    286.8283     68.8291
   335.5000     80.2838      0.0000     68.6156    286.8283     68.9274
   335.7500     81.6149      0.0000     68.4978    286.8053     69.0063
   336.0000     83.8728      0.0000     68.3216    286.7751     69.0638
   336.2500     86.2556      0.0000     68.0803    286.7469     69.1086
   336.5000     88.5368      0.0000     67.8079    286.7318     69.1579
   336.7500     91.0685      0.0000     67.5651    286.7475     69.2155
   337.0000     93.7691      0.0000     67.4066    286.8100     69.2629
   337.2500     95.7224      0.0000     67.3639    286.9145     69.2839
   337.5000     95.9276      0.0000     67.4422    287.0267     69.2947
   337.7500     94.1298      0.0000     67.6180    287.1016     69.3396
   338.0000     90.8895      0.0000     67.8448    287.1133     69.4548
   338.2500     87.1172      0.0000     68.0738    287.0686     69.6389
   338.5000     83.7269      0.0000     68.2647    286.9950     69.8507
   338.7500     81.5754      0.0000     68.3764    286.9227     70.0393
   339.0000     81.1179      0.0000     68.3681    286.8784     70.1845
   339.2500     81.7656      0.0000     68.2228    286.8862     70.3071
   339.5000     82.0506      0.0000     67.9641    286.9640     70.4314
   339.7500     80.9429      0.0000     67.6488    287.1069     70.5422
   340.0000     78.8051      0.0000     67.3512    287.2766     70.5937
   340.2500     76.7929      0.0000     67.1468    287.4157     70.5592
   340.5000     75.6077      0.0000     67.0853    287.4833     70.4596
   340.7500     75.0951      0.0000     67.1636    287.4752     70.3413
   341.0000     74.8107      0.0000     67.3297    287.4141     70.2427
   341.2500     74.6862      0.0000     67.5184    287.3264     70.1811
   341.5000     75.1510      0.0000     67.6823    287.2318     70.1562
   341.7500     76.7099      0.0000     67.7937    287.1482     70.1560
   342.0000     79.4499      0.0000     67.8298    287.1007     70.1603
   342.2500     82.8748      0.0000     67.7671    287.1150     70.1430
   342.5000     86.1928      0.0000     67.5966    287.1958     70.0809
   342.7500     88.8094      0.0000     67.3445    287.3138     69.9768
   343.0000     90.6036      0.0000     67.0706    287.4210     69.8696
   343.2500     91.8267      0.0000     66.8364    287.4829     69.8079
   343.5000     92.7770      0.0000     66.6739    287.4932     69.8111
   343.7500     93.5666      0.0000     66.5843    287.4646     69.8652
   344.0000     94.2015      0.0000     66.5584    287.4132     69.9511
   344.2500     94.6916      0.0000     66.5859    287.3552     70.0675
   344.5000     94.7048      0.0000     66.6485    287.3119     70.2211
   344.7500     93.3317      0.0000     66.7192    287.3099     70.4020
   345.0000     89.9282      0.0000     66.7788    287.3637     70.5736
   345.2500     85.1728      0.0000     66.8286    287.4570     70.6839
   345.5000     80.6709      0.0000     66.8807    287.5495     70.6827
   345.7500     77.6774      0.0000     66.9438    287.6054     70.5444
   346.0000     76.6998      0.0000     67.0135    287.6121     70.2962
   346.2500     77.7578      0.0000     67.0576    287.5762     70.0242
   346.5000     80.2575      0.0000     67.0124    287.5102     69.8239
   346.7500     82.9777      0.0000     66.8285    287.4266     69.7242
   347.0000     84.8685      0.0000     66.5405    287.3402     69.6660
   347.2500     85.7962      0.0000     66.2694    287.2734     69.5642
   347.5000     86.2855      0.0000     66.1310    287.2528     69.3885
   347.7500     86.7760      0.0000     66.1471    287.2896     69.1846
   348.0000     87.3404      0.0000     66.2568    287.3614     69.0317
   348.2500     87.8880      0.0000     66.3942    287.4218     68.9851
   348.5000     88.3309      0.0000     66.5330    287.4355     69.0548
   348.7500     88.5450      0.0000     66.6673    287.3981     69.2258
   349.0000     88.3037      0.0000     66.7797    287.3287     69.4806
   349.2500     87.4242      0.0000     66.8329    287.2499     69.7901
   349.5000     86.0026      0.0000     66.7894    287.1799     70.0974
   349.7500     84.2996      0.0000     66.6492    287.1375     70.3339
   350.0000     82.3728      0.0000     66.4783    287.1424     70.4584
   350.2500     80.0143      0.0000     66.3836    287.1982     70.4668
   350.5000     77.1006      0.0000     66.4389    287.2762     70.3741
   350.7500     73.7636      0.0000     66.6324    287.3278     70.2180
   351.0000     70.1743      0.0000     66.8971    287.3179     70.0832
   351.2500     66.4158      0.0000     67.1783    287.2444     70.0760
   351.5000     62.6734      0.0000     67.4628    287.1279     70.2397
   351.7500     59.3825      0.0000     67.7580    286.9920     70.5089
   352.0000     57.0623      0.0000     68.0679    286.8553     70.7706
   352.2500     55.8296      0.0000     68.3875    286.7358     70.9540
   352.5000     55.0542      0.0000     68.7080    286.6555     71.0526
   352.7500     53.7920      0.0000     69.0218    286.6349     71.0916
   353.0000     51.7708      0.0000     69.3253    286.6755     71.1039
   353.2500     49.7666      0.0000     69.6198    286.7478     71.1300
   353.5000     48.8114      0.0000     69.9077    286.8046     71.2137
   353.7500     49.1245      0.0000     70.1886    286.8116     71.3778
   354.0000     49.9129      0.0000     70.4590    286.7631     71.6031
   354.2500     50.1437      0.0000     70.7158    286.6735     71.8394
   354.5000     49.4666      0.0000     70.9584    286.5651     72.0411
   354.7500     48.4632      0.0000     71.1872    286.4644     72.1936
   355.0000     48.0984      0.0000     71.4024    286.4031     72.2973
   355.2500     48.8951      0.0000     71.6041    286.4069     72.3131
   355.5000     50.5390      0.0000     71.7922    286.4771     72.1069
   355.7500     52.1198      0.0000     71.9649    286.5816     71.4391
   356.0000     52.6702      0.0000     72.1024    286.6751     70.0823
   356.2500     51.7048      0.0000     72.1220    286.7401     68.0085
   356.5000     49.6700      0.0000     71.8211    286.8210     65.4047
   356.7500     47.8758      0.0000     70.8659    287.0325     62.4614
   357.0000     47.5436      0.0000     68.9571    287.5349     59.3261
   357.2500     48.6841      0.0000     66.1262    288.4748     56.3619
   357.5000     50.1047      0.0000     62.8334    289.8982     54.1605
   357.7500     50.5417      0.0000     59.6650    291.6516     53.0862
