~Version Information
 VERS.                                  2.0 : CWLS LAS VERSION
 WRAP.                                   NO : WRAPING MODE
 SWARE .                 MController 2.5.0J : SOFTWARE VERSION
~Well Information
 WELL.                        Montoya 6-14R : WELL
 COMP.                       Petrogulf Corp : COMPANY
 FLD.                      Purgatoire River : FIELD
 LOC.                 SW/SW Sec 6 T33S R67W : LOCATION
 DATE.                             11/13/04 : DATE(S) LOGGED
 SRVC.       Blanco Geological Services LLC : SERVICE COMPANY
 STAT.                                   CO : STATE
 CNTY.                           Las Animas : COUNTY
 CTRY.                                  USA : COUNTRY
 API.                       05-071-08242-00 : API NUMBER
 STRT.FT                             484.00 : START DEPTH
 STOP.FT                            2180.00 : STOP DEPTH
 STEP.FT                               1.00 : DEPTH INCREMENT
 NULL.                                -9999 : NULL VALUE
~Curve information
 DEPTH.FT                                   :
 ROP.MIN/FT                                 :
 GAS.UNITS                                  :
~ASCII Log data
# ...
      1084.0         0.13        141.5 
      1085.0         0.10        145.7 
      1086.0         0.10        147.0 
      1087.0         0.10        144.5 
      1088.0         0.10        133.1 
      1089.0         0.10        133.1 
      1090.0         0.13        130.2 
      1091.0         0.20        103.2 
      1092.0         0.20         91.7 
      1093.0         0.20         56.3 
      1094.0         0.17         48.8 
      1095.0         0.17         33.0 
      1096.0         0.20         28.1 
      1097.0         0.17         24.2 
      1098.0         0.13         19.2 
      1099.0         0.17         17.0 
      1100.0         0.17         13.2 
      1101.0         0.20         12.4 
      1102.0         0.17         11.5 
      1103.0         0.20         10.9 
      1104.0         0.22          9.8 
      1105.0         0.20         10.4 
      1106.0         0.27          9.6 
      1107.0         0.10          9.9 
      1108.0         0.20         10.0 
      1109.0         0.17         12.1 
      1110.0         0.17         15.9 
      1111.0         0.27         35.4 
      1112.0         0.27         66.1 
      1113.0         0.18         85.7 
      1114.0         0.20        119.1 
      1115.0         0.17        135.5 
      1116.0         0.23        140.7 
      1117.0         0.20        139.4 
      1118.0         0.17        129.7 
      1119.0         0.13        123.9 
      1120.0         0.23        120.1 
      1121.0         0.17         95.9 
      1122.0         0.20         91.8 
      1123.0         0.20         74.7 
      1124.0         0.20         72.6 
      1125.0         0.17         58.6 
      1126.0         0.17         46.6 
      1127.0         0.17         44.9 
      1128.0         0.13         32.1 
      1129.0         0.13         24.7 
      1130.0         0.17         23.9 
      1131.0         0.22         17.5 
      1132.0         0.20         16.9 
      1133.0         0.17         12.9 
      1134.0         0.23         12.4 
      1135.0         0.33         11.1 
      1136.0         0.30         49.0 
      1137.0         0.67         67.8 
      1138.0         0.30        106.6 
      1139.0         0.27        218.2 
      1140.0         0.58       1623.5 
      1141.0         0.43       1625.4 
      1142.0         0.40       1447.5 
      1143.0         0.20        881.2 
      1144.0         0.20        709.1 
      1145.0         0.20        670.5 
      1146.0         0.20        563.5 
      1147.0         0.23        454.6 
      1148.0         0.27        440.0 
      1149.0         0.30        100.8 
      1150.0         0.17         72.4 
      1151.0         0.17         53.5 
      1152.0         0.20         38.3 
      1153.0         0.22         34.4 
      1154.0         0.17         25.4 
      1155.0         0.23         16.3 
      1156.0         0.23         14.3 
      1157.0         0.17         12.9 
      1158.0         0.17         11.4 
      1159.0         0.17         11.1 
      1160.0         0.20         11.2 
      1161.0         0.20         11.4 
      1162.0         0.23         10.5 
      1163.0         0.17         10.5 
      1164.0         0.23          9.9 
      1165.0         0.20         50.9 
      1166.0         0.27         45.4 
      1167.0         0.27         45.2 
      1168.0         0.20         40.6 
      1169.0         0.23         34.3 
      1170.0         0.37         25.8 
      1171.0         0.40         15.1 
      1172.0         0.30         13.9 
      1173.0         0.37         11.9 
      1174.0         0.35         12.5 
      1175.0         0.33         17.5 
      1176.0         0.43         24.3 
      1177.0         0.33         28.0 
      1178.0         0.13         30.6 
      1179.0         0.20         32.4 
      1180.0         0.20         35.9 
      1181.0         0.27         35.6 
      1182.0         0.23         32.1 
      1183.0         0.27         29.3 
      1184.0         0.23         25.3 
      1185.0         0.27         21.5 
      1186.0         0.20         17.3 
      1187.0         0.25         13.2 
      1188.0         0.20         12.7 
      1189.0         0.20         11.7 
      1190.0         0.20         11.6 
      1191.0         0.20         11.4 
      1192.0         0.17         10.8 
      1193.0         0.20         10.9 
      1194.0         0.23         11.1 
      1195.0         0.27         11.1 
      1196.0         0.37         13.1 
      1197.0         0.57         35.4 
      1198.0         0.40        105.3 
      1199.0         0.33        160.4 
      1200.0         0.27        161.4 
      1201.0         0.23        144.2 
      1202.0         0.23        125.9 
      1203.0         0.23         94.3 
      1204.0         0.25         62.2 
      1205.0         0.27         36.6 
      1206.0         0.33         33.0 
      1207.0         0.23         18.9 
      1208.0         0.30         17.2 
      1209.0         0.37         12.7 
      1210.0         0.20         10.9 
      1211.0         0.20         10.7 
      1212.0         0.20         10.5 
      1213.0         0.23         10.9 
      1214.0         0.20         10.6 
      1215.0         0.23         10.4 
      1216.0         0.20         10.9 
      1217.0         0.23         10.5 
      1218.0         0.22         11.0 
      1219.0         0.17         11.4 
      1220.0         0.23         10.4 
      1221.0         0.20         10.4 
      1222.0         0.27         10.8 
      1223.0         0.17         10.7 
      1224.0         0.13         11.1 
      1225.0         0.23         28.8 
      1226.0         0.13         28.8 
      1227.0         0.37         83.3 
      1228.0         0.37        141.1 
      1229.0         0.33        138.6 
      1230.0         0.40        116.5 
      1231.0         0.43         79.7 
      1232.0         0.33         42.5 
      1233.0         0.32         29.7 
      1234.0         0.27         18.7 
      1235.0         0.20         13.6 
      1236.0         0.30         12.0 
      1237.0         0.27         11.2 
      1238.0         0.27         10.3 
      1239.0         0.27         10.8 
      1240.0         0.23         10.9 
      1241.0         0.27         10.7 
      1242.0         0.27         10.7 
      1243.0         0.27         10.8 
      1244.0         0.30         11.3 
      1245.0         0.32         10.8 
      1246.0         0.33         10.6 
      1247.0         0.30         11.9 
      1248.0         0.30         12.0 
      1249.0         0.33         11.3 
      1250.0         0.30         11.5 
      1251.0         0.33         11.4 
      1252.0         0.33         11.3 
      1253.0         0.33         11.7 
      1254.0         0.30         11.5 
      1255.0         0.27         26.0 
      1256.0         0.52         36.7 
      1257.0         0.37         84.7 
      1258.0         0.30        119.8 
      1259.0         0.25        102.9 
      1260.0         0.53         93.1 
      1261.0         0.33         53.9 
      1262.0         0.30         37.2 
      1263.0         0.30         26.5 
      1264.0         0.23         18.8 
      1265.0         0.13         14.8 
      1266.0         0.23         14.3 
      1267.0         0.23         12.1 
      1268.0         0.20         11.8 
      1269.0         0.30         11.2 
      1270.0         0.20         11.7 
      1271.0         0.20         11.8 
      1272.0         0.22         11.7 
      1273.0         0.20         12.4 
      1274.0         0.20         12.1 
      1275.0         0.17         12.2 
      1276.0         0.17         12.4 
      1277.0         0.17         12.3 
      1278.0         0.17         12.8 
      1279.0         0.23         12.1 
      1280.0         0.23         12.8 
      1281.0         0.17         12.5 
      1282.0         0.17         12.0 
      1283.0         0.23         12.2 
