~Version Information
VERS.                      2.0: CWLS Log ASCII Standard - VERSION 2.0
WRAP.                       NO: One line per depth step
~Well Information Block
STRT.FT                 0.0000: 
STOP.FT              2234.2500: 
STEP.FT                 0.2500: 
NULL.                -999.2500: 
COMP.          Pioner Natural Resources: COMPANY
WELL.          Casablanca 11-28 Tr: WELL
FLD.           Purgatoire River: FIELD
LOC.           422' FNL & 215' FWL--: LOCATION
PROV.                 Colorado: PROVINCE
CNTY.               Las Animas: COUNTRY
SRVC.                         : SERVICE COMPANY
DATE.          Fri Mar 11 13:02:46 2005: LOG DATE
UWI.           005 071 08314  : UNIQUE WELL ID
~Curve Information Block
DEPT.FT            0 000 00 00: Depth
CCL.                          : Casing Collar Locator
TT3.usec                      : CBL 3' Travel Time
AMP3.mV                       : CBL 3' Amplitude
AMP5.mV                       : CBL 5' Amplitude
GR.GAPI                       : Gamma Ray
~Parameter Information Block
~A  Depth       CCL         TT3         AMP3        AMP5         GR     
     0.0000   -999.2500   -999.2500   -999.2500   -999.2500   -999.2500
     0.2500   -999.2500   -999.2500   -999.2500   -999.2500   -999.2500
     0.5000   -999.2500   -999.2500   -999.2500   -999.2500   -999.2500
     0.7500   -999.2500   -999.2500   -999.2500   -999.2500   -999.2500
     1.0000   -999.2500   -999.2500   -999.2500   -999.2500   -999.2500
     1.2500   -999.2500   -999.2500   -999.2500   -999.2500   -999.2500
     1.5000   -999.2500   -999.2500   -999.2500   -999.2500   -999.2500
     1.7500   -999.2500   -999.2500   -999.2500   -999.2500   -999.2500
     2.0000   -999.2500   -999.2500   -999.2500   -999.2500   -999.2500
     2.2500   -999.2500   -999.2500   -999.2500   -999.2500   -999.2500
     2.5000   -999.2500   -999.2500   -999.2500   -999.2500     91.2589
     2.7500   -999.2500   -999.2500   -999.2500   -999.2500     91.2517
     3.0000   -999.2500   -999.2500   -999.2500   -999.2500     90.9459
     3.2500   -999.2500   -999.2500   -999.2500   -999.2500     90.6896
     3.5000   -999.2500   -999.2500   -999.2500   -999.2500     90.2606
     3.7500   -999.2500   -999.2500   -999.2500   -999.2500     89.2207
     4.0000   -999.2500   -999.2500   -999.2500   -999.2500     87.5210
     4.2500   -999.2500   -999.2500   -999.2500   -999.2500     85.6884
     4.5000   -999.2500   -999.2500   -999.2500   -999.2500     84.2634
     4.7500   -999.2500   -999.2500   -999.2500     -1.0927     83.0232
     5.0000   -999.2500   -999.2500   -999.2500     -1.3539     80.9098
     5.2500   -999.2500   -999.2500   -999.2500     -1.6150     76.8734
     5.5000   -999.2500   -999.2500   -999.2500     -1.0057     70.8159
     5.7500   -999.2500   -999.2500   -999.2500     -0.6575     63.6218
     6.0000   -999.2500   -999.2500   -999.2500     -1.5280     56.2565
     6.2500   -999.2500   -999.2500   -999.2500     -1.2668     49.0519
     6.5000   -999.2500   -999.2500   -999.2500     -1.0057     42.1145
     6.7500   -999.2500   -999.2500   -999.2500     -1.0057     36.3057
     7.0000   -999.2500   -999.2500   -999.2500     -1.4409     33.2513
     7.2500   -999.2500   -999.2500   -999.2500     -1.2668     34.0684
     7.5000   -999.2500   -999.2500   -999.2500     -1.1798     38.3953
     7.7500   -999.2500    798.0000      3.7719     -1.1798     44.8408
     8.0000   -999.2500    798.0000      3.8143     -1.0927     51.8903
     8.2500   -999.2500    798.0000      3.8274     -1.1798     58.2293
     8.5000   -999.2500    798.0000      3.8245     -0.8316     62.9310
     8.7500   -999.2500    798.0000      3.8187     -1.1798     65.8766
     9.0000   -999.2500    798.0000      3.8156     -0.9187     67.6639
     9.2500   -999.2500    798.0000      3.8125     -1.0927     68.8583
     9.5000   -999.2500    798.0000      3.8068     -1.1798     69.5957
     9.7500   -999.2500    798.0000      3.8026     -1.5280     69.7495
    10.0000   -999.2500    798.0000      3.8048     -0.9187     68.9651
    10.2500      0.0000    798.0000      3.8110     -0.9187     66.7270
    10.5000      0.0000    798.0000      3.8145     -0.9187     63.0389
    10.7500      0.0000    798.0000      3.8141     -1.0927     59.1351
    11.0000      0.0000    798.0000      3.8150     -1.2668     57.1217
    11.2500      0.0000    798.0000      3.8182     -1.3539     58.5299
    11.5000     -5.0000    798.0000      3.8141     -1.1798     62.9421
    11.7500      0.0000    798.0000      3.7928     -0.9187     68.0585
    12.0000      0.0000    798.0000      3.7582     -1.1798     71.5180
    12.2500      0.0000    798.0000      3.7286     -1.2668     72.8286
    12.5000      0.0000    798.0000      3.7226     -1.1798     73.3704
    12.7500      0.0000    798.0000      3.7442     -1.1798     74.7419
    13.0000      0.0000    798.0000      3.7816     -1.0057     77.3568
    13.2500      0.0000    798.0000      3.8183     -0.9187     80.1967
    13.5000      0.0000    798.0000      3.8431     -1.0927     81.4791
    13.7500      0.0000    798.0000      3.8529     -1.0057     79.8938
    14.0000      0.0000    798.0000      3.8506     -1.2668     75.6898
    14.2500      0.0000    798.0000      3.8419     -1.5280     70.6777
    14.5000      0.0000    798.0000      3.8323     -1.1798     67.0427
    14.7500      0.0000    798.0000      3.8233     -1.0927     65.8677
    15.0000      0.0000    798.0000      3.8127     -1.0927     66.5297
    15.2500      0.0000    798.0000      3.8000     -1.0057     67.4171
    15.5000      0.0000    797.9988      3.7899     -1.0057     67.2226
    15.7500      0.0000    797.9610      3.7897     -1.3539     65.6950
    16.0000      0.0000    797.7215      3.8066     -1.1798     63.3906
    16.2500      0.0000    796.5430      3.8554     -1.5280     60.9720
    16.5000      0.0000    791.9859      4.0055     -1.4409     58.8630
    16.7500      5.0000    778.1402      4.4836     -1.3539     57.3683
    17.0000      0.0000    745.1038      5.8205     -1.3539     56.7995
    17.2500      0.0000    683.2020      8.8747     -2.0503     57.3890
    17.5000      0.0000    592.0821     14.4668     -1.5280     59.0911
    17.7500      0.0000    486.6147     22.6757     -1.1798     61.3244
    18.0000      0.0000    390.4741     32.4179      1.1705     62.9513
    18.2500      0.0000    321.2857     41.8262     -0.8316     63.0487
    18.5000      0.0000    281.8517     49.0837     20.0596     62.0696
    18.7500      0.0000    264.0287     53.0568     32.1590     61.8227
    19.0000      0.0000    257.7927     53.5685      7.4378     63.7913
    19.2500      0.0000    256.5898     51.3442     28.0678     67.4869
    19.5000      0.0000    257.7541     47.5685     49.3942     70.6024
    19.7500      0.0000    261.0568     43.2788     29.6347     70.7834
    20.0000      0.0000    267.3803     39.0448     25.2823     67.4361
    20.2500      0.0000    278.0015     35.0578     22.7580     62.1851
    20.5000      0.0000    294.8187     31.3668     16.4036     57.6420
    20.7500      0.0000    321.5973     28.0017     18.8409     55.6141
    21.0000      0.0000    364.4487     24.9665     13.0088     56.2895
    21.2500      0.0000    428.2709     22.2064     11.0938     58.8175
    21.5000      0.0000    509.6555     19.6429     10.7456     62.4321
    21.7500      0.0000    593.9379     17.2587     10.6585     66.9090
    22.0000      0.0000    662.8871     15.1457      8.4824     71.9933
    22.2500      0.0000    706.8955     13.4510      7.1767     76.6409
    22.5000      0.0000    729.1626     12.2624      5.0876     79.1636
    22.7500      0.0000    739.5865     11.5400      5.0876     78.3492
    23.0000      0.0000    746.8278     11.1481      3.1725     74.5743
    23.2500      0.0000    754.8884     10.9399      3.0855     69.7960
    23.5000      0.0000    763.8192     10.8184      3.5207     66.2951
    23.7500      0.0000    772.0546     10.7417      4.3912     65.2355
    24.0000      0.0000    778.5327     10.6959      4.7394     66.2253
    24.2500      0.0000    783.4060     10.6752      5.0005     67.9171
    24.5000      0.0000    787.2822     10.6803      4.3912     68.8597
    24.7500      0.0000    790.3242     10.7162      4.0430     68.3145
    25.0000      0.0000    792.2466     10.7777      2.9114     66.8869
    25.2500      0.0000    792.9391     10.8402      3.0855     66.3946
    25.5000      0.0000    792.6901     10.8729      3.0855     68.6351
    25.7500      0.0000    791.7812     10.8600      3.3466     73.8240
    26.0000      0.0000    790.2349     10.8072      2.9114     79.9584
    26.2500      0.0000    788.1299     10.7331      2.9114     83.9161
    26.5000      0.0000    785.9006     10.6578      3.9559     83.7433
    26.7500      0.0000    784.1069     10.5933      3.1725     79.9823
    27.0000      0.0000    783.0298     10.5396      3.7819     74.6896
    27.2500      0.0000    782.5862     10.4913      3.4337     69.6146
    27.5000      0.0000    782.5132     10.4499      2.8243     65.6580
    27.7500      0.0000    782.5389     10.4256      3.6948     63.4781
