~Version Information
VERS.                      2.0: CWLS Log ASCII Standard - VERSION 2.0
WRAP.                       NO: One line per depth step
~Well Information Block
STRT.FT                -3.7500: 
STOP.FT               930.7500: 
STEP.FT                 0.2500: 
NULL.                -999.2500: 
COMP.          Pioneer Natural Resources: COMPANY
WELL.                Pug 33-19: WELL
FLD.           Purgatorie River: FIELD
LOC.           1381' FSL & 2140' FEL--: LOCATION
PROV.                       CO: PROVINCE
CNTY.               Las Animas: COUNTRY
SRVC.                         : SERVICE COMPANY
DATE.          Mon Dec 20 15:44:45 2004: LOG DATE
UWI.                          : UNIQUE WELL ID
~Curve Information Block
DEPT.FT            0 000 00 00: Depth
GR.GAPI                       : Gamma Ray
CCL.                          : Casing Collar Locator
TT3.usec                      : CBL 3' Travel Time
AMP3.mV                       : CBL 3' Amplitude
~Parameter Information Block
~A  Depth        GR         CCL         TT3         AMP3    
# ...
   297.7500     91.3934      0.0000    766.8616      9.0989
   298.0000     89.8909      0.0000    765.5480      9.1630
   298.2500     90.3520      0.0000    762.6699      9.1999
   298.5000     91.9613      0.0000    757.4872      9.2033
   298.7500     94.1145      0.0000    750.0788      9.1496
   299.0000     96.2482      0.0000    741.7484      9.0208
   299.2500     97.5265      0.0000    734.3976      8.8224
   299.5000     97.0044      0.0000    729.3406      8.5746
   299.7500     94.2509      0.0000    726.8224      8.2957
   300.0000     89.9613      0.0000    726.6339      7.9962
   300.2500     85.9880      0.0000    728.8954      7.6765
   300.5000     84.3402      0.0000    734.0176      7.3282
   300.7500     85.6102      0.0000    741.8699      6.9516
   301.0000     88.2909      0.0000    751.1144      6.5784
   301.2500     89.7728      0.0000    759.5616      6.2565
   301.5000     88.1275      0.0000    765.1821      6.0038
   301.7500     83.3330      0.0000    766.8499      5.8011
   302.0000     77.1827      0.0000    764.4780      5.6334
   302.2500     71.9951      0.0000    759.0959      5.5084
   302.5000     69.2614      0.0000    753.0720      5.4276
   302.7500     69.3204     -2.0000    750.0344      5.3674
   303.0000     71.7452     -2.0000    753.5365      5.2958
   303.2500     75.6156      0.0000    764.2524      5.1939
   303.5000     79.7760      0.0000    777.8891      5.0714
   303.7500     83.4310      0.0000    787.1055      4.9764
   304.0000     86.5166      0.0000    787.1754      4.9772
   304.2500     89.3292      0.0000    779.9721      5.1075
   304.5000     91.9112      0.0000    771.8273      5.3247
   304.7500     94.0415      0.0000    767.7368      5.5435
   305.0000     95.7470      0.0000    768.1441      5.7142
   305.2500     97.5522      0.0000    770.7559      5.8542
   305.5000    100.1745      0.0000    774.0591      6.0081
   305.7500    104.0746      0.0000    778.4083      6.2002
   306.0000    109.1036      0.0000    784.3866      6.4285
   306.2500    114.3481      0.0000    791.2668      6.6866
   306.5000    118.4089      0.0000    797.3133      6.9804
   306.7500    120.1507      0.0000    801.1226      7.3248
   307.0000    119.4757      0.0000    802.2110      7.7327
   307.2500    117.4821      0.0000    800.5632      8.2087
   307.5000    115.6838      0.0000    796.2366      8.7563
   307.7500    114.9122      0.0000    789.7009      9.3854
   308.0000    115.0308      0.0000    782.2673     10.1039
   308.2500    115.5959      0.0000    775.6679     10.8900
   308.5000    116.4267      0.0000    771.0599     11.6759
   308.7500    117.4998      0.0000    768.5257     12.3678
   309.0000    118.6800      0.0000    767.4404     12.8903
   309.2500    119.7746      0.0000    767.1025     13.2208
   309.5000    120.7663      0.0000    767.0532     13.3961
   309.7500    121.8856      0.0000    767.0760     13.4904
   310.0000    123.3877      0.0000    767.1019     13.5729
   310.2500    125.1562      0.0000    767.1339     13.6660
   310.5000    126.4914      0.0000    767.1965     13.7401
   310.7500    126.3921      0.0000    767.2999     13.7526
   311.0000    124.1570      0.0000    767.4190     13.6894
   311.2500    119.8071      0.0000    767.5032     13.5665
   311.5000    113.9837      0.0000    767.5119     13.4009
   311.7500    107.7112      0.0000    767.4443     13.1914
   312.0000    102.4065      0.0000    767.3376     12.9233
   312.2500     99.4856      0.0000    767.2376     12.5858
   312.5000     99.1530      0.0000    767.1719     12.1912
   312.7500     99.7445      0.0000    767.1411     11.7811
   313.0000     98.9318      0.0000    767.1295     11.4056
   313.2500     95.6167      0.0000    767.1240     11.0919
   313.5000     90.5155      0.0000    767.1334     10.8405
   313.7500     85.2736      0.0000    767.1948     10.6465
   314.0000     81.2560      0.0000    767.3470     10.5118
   314.2500     78.7080      0.0000    767.5767     10.4335
   314.5000     76.7314      0.0000    767.7933     10.3911
   314.7500     74.2905      0.0000    767.8856     10.3566
   315.0000     71.4138      0.0000    767.8196     10.3144
   315.2500     69.2965      0.0000    767.6730     10.2677
   315.5000     69.1527      0.0000    767.5634     10.2261
   315.7500     71.1409      0.0000    767.5565     10.1957
   316.0000     74.5307      0.0000    767.6377     10.1820
   316.2500     78.7071      0.0000    767.7394     10.1935
   316.5000     83.6156      0.0000    767.7492     10.2328
   316.7500     89.2731      0.0000    767.4400     10.2883
   317.0000     95.3288      0.0000    766.3581     10.3407
   317.2500    101.2520      0.0000    763.8795     10.3842
   317.5000    106.6189      0.0000    759.7003     10.4411
   317.7500    111.1386      0.0000    754.5304     10.5533
   318.0000    114.6448      0.0000    749.9952     10.7535
   318.2500    117.0882      0.0000    747.2394     11.0376
   318.5000    118.4242      0.0000    745.7059     11.3640
   318.7500    118.8393      0.0000    744.0082     11.6802
   319.0000    119.2441      0.0000    742.0197     11.9526
   319.2500    120.9091      0.0000    741.1875     12.1724
   319.5000    124.1856      0.0000    742.4960     12.3375
   319.7500    127.8437      0.0000    744.8752     12.4389
   320.0000    129.8008      0.0000    746.0930     12.4676
   320.2500    128.6214      0.0000    744.7590     12.4262
   320.5000    124.6803      0.0000    741.1606     12.3242
   320.7500    119.8374      0.0000    736.7502     12.1730
   321.0000    115.8161      0.0000    733.3912     11.9958
   321.2500    113.1994      0.0000    732.7434     11.8295
   321.5000    112.0063      0.0000    735.5579     11.6991
   321.7500    112.3993      0.0000    740.9910     11.5923
   322.0000    114.4538      0.0000    746.6285     11.4718
   322.2500    117.7904      0.0000    749.9025     11.3229
   322.5000    121.6844      0.0000    750.1668     11.1822
   322.7500    125.1712      0.0000    749.2468     11.1142
   323.0000    127.0681      0.0000    749.4110     11.1566
   323.2500    126.5484      0.0000    750.8741     11.2850
   323.5000    124.0686      0.0000    751.8652     11.4265
   323.7500    121.3962      0.0000    751.1187     11.5156
   324.0000    120.2444      0.0000    749.5005     11.5441
   324.2500    120.8417      0.0000    748.8243     11.5561
   324.5000    122.0065      0.0000    749.8084     11.5891
   324.7500    122.5123      0.0000    751.8818     11.6343
   325.0000    121.9929      0.0000    754.3781     11.6595
   325.2500    120.5314      0.0000    756.8779     11.6581
   325.5000    118.0906      0.0000    758.7050     11.6596
   325.7500    114.7602      0.0000    759.2181     11.6967
   326.0000    111.3360      0.0000    758.7793     11.7695
   326.2500    109.3963      0.0000    758.7145     11.8377
   326.5000    110.6247      0.0000    759.9926     11.8456
   326.7500    115.6049      0.0000    762.2979     11.7587
   327.0000    122.9919      0.0000    764.5615     11.5823
   327.2500    129.9987      0.0000    766.0300     11.3502
   327.5000    133.9410      0.0000    766.5914     11.0944
   327.7500    133.7059      0.0000    766.3510     10.8298
   328.0000    130.2814      0.0000    765.1302     10.5633
   328.2500    125.9196      0.0000    762.3607     10.3120
   328.5000    122.3569      0.0000    757.5342     10.1030
   328.7500    119.6365      0.0000    751.0678      9.9574
   329.0000    116.5032      0.0000    744.7484      9.8818
   329.2500    111.7589      0.0000    740.8892      9.8709
   329.5000    105.4987      0.0000    740.7670      9.9069
   329.7500     99.4385      0.0000    743.9598      9.9545
   330.0000     95.9261      0.0000    749.0555      9.9750
   330.2500     96.3369      0.0000    754.5673      9.9537
   330.5000    100.2392      0.0000    759.2650      9.9099
   330.7500    105.6132      0.0000    762.3071      9.8741
   331.0000    109.4934      0.0000    763.3790      9.8573
