~Version Information
VERS.                      2.0: CWLS Log ASCII Standard - VERSION 2.0
WRAP.                       NO: One line per depth step
~Well Information Block
STRT.FT               665.0000: 
STOP.FT              1972.0000: 
STEP.FT                 0.2500: 
NULL.                -999.2500: 
COMP.          Petrogulf Corporation: COMPANY
WELL.          Great Plains 22-21V: WELL
FLD.           Purgatorie River: FIELD
LOC.           63' FNL & 1895' FWL: LOCATION
PROV.                 Colorado: PROVINCE
CNTY.               Las Animas: COUNTRY
SRVC.                Patterson: SERVICE COMPANY
DATE.          Thu Sep 01 07:36:33 2005: LOG DATE
UWI.                          : UNIQUE WELL ID
~Curve Information Block
DEPT.FT            0 000 00 00: Depth
SP.mV                         : DIL Spontaneous Potential
RILD.Ohm-m                    : DIL Deep Resistivity
RILM.Ohm-m                    : DIL Medium Resistivity
RLL3.Ohm-m                    : DIL Shallow Resistivity
GR.GAPI                       : Gamma Ray
~Parameter Information Block
~A  Depth        SP         RILD        RILM        RLL3         GR     
# ...
  1085.0000   2000.0000      8.5983      7.8332   2000.0000    115.6608
  1085.2500   2000.0000      8.8992      8.1441   2000.0000    102.3032
  1085.5000   2000.0000      9.1149      8.5425   2000.0000    119.0135
  1085.7500   2000.0000      9.3951      9.0498   2000.0000    108.1454
  1086.0000   2000.0000      9.4847      9.6135   2000.0000    105.3659
  1086.2500   2000.0000      9.6831     10.2120   2000.0000    114.9224
  1086.5000   2000.0000      9.8333     10.7461   2000.0000    108.0025
  1086.7500   2000.0000      9.8733     11.1905   2000.0000     90.5799
  1087.0000   2000.0000      9.6143     11.6502   2000.0000    105.3609
  1087.2500   2000.0000      9.4579     11.8923   2000.0000     99.6518
  1087.5000   2000.0000      9.3239     11.5533   2000.0000    106.5184
  1087.7500   2000.0000      9.0752     11.1957   2000.0000    114.7043
  1088.0000   2000.0000      8.7660     10.4610   2000.0000    131.1930
  1088.2500   2000.0000      8.5246      9.6655   2000.0000    123.0509
  1088.5000   2000.0000      8.5593      8.8295   2000.0000    124.6672
  1088.7500   2000.0000      8.5320      7.8976   2000.0000    130.7705
  1089.0000   2000.0000      8.5255      7.3189   2000.0000    126.2557
  1089.2500   2000.0000      8.5308      6.9992   2000.0000    140.0139
  1089.5000   2000.0000      8.6943      6.7485   2000.0000    141.0487
  1089.7500   2000.0000      8.8016      6.7821   2000.0000    131.2243
  1090.0000   2000.0000      8.9112      6.9655   2000.0000    137.8106
  1090.2500   2000.0000      8.8697      7.2346   2000.0000    132.2123
  1090.5000   2000.0000      8.9236      7.8786   2000.0000    125.2967
  1090.7500   2000.0000      8.9498      8.8958   2000.0000     94.0435
  1091.0000   2000.0000      9.2497      9.8546   2000.0000     76.9724
  1091.2500   2000.0000      9.3213     10.5038   2000.0000     70.4217
  1091.5000   2000.0000      9.7500     11.4494   2000.0000     68.5763
  1091.7500   2000.0000     10.3354     12.3156   2000.0000     58.4492
  1092.0000   2000.0000     11.0168     13.0587   2000.0000     68.5797
  1092.2500   2000.0000     11.8878     13.1773   2000.0000     67.7618
  1092.5000   2000.0000     12.8946     13.6961   2000.0000     73.4486
  1092.7500   2000.0000     14.1558     14.6466   2000.0000     93.8357
  1093.0000   2000.0000     15.5742     15.7427   2000.0000     89.9797
  1093.2500   2000.0000     16.6996     16.1038   2000.0000     96.1544
  1093.5000   2000.0000     17.7591     17.0470   2000.0000    125.5288
  1093.7500   2000.0000     17.6981     17.7860   2000.0000    110.3516
  1094.0000   2000.0000     18.0709     19.2572   2000.0000    107.1796
  1094.2500   2000.0000     17.8076     19.5080   2000.0000    105.4224
  1094.5000   2000.0000     18.5056     20.0220   2000.0000     86.5474
  1094.7500   2000.0000     19.0765     19.4205   2000.0000     96.0916
  1095.0000   2000.0000     18.5186     19.5760   2000.0000     85.1314
  1095.2500   2000.0000     18.2260     19.7310   2000.0000     83.3418
  1095.5000   2000.0000     18.1384     20.5410   2000.0000     87.1260
  1095.7500   2000.0000     19.2568     21.1565   2000.0000     80.6552
  1096.0000   2000.0000     20.3062     21.9360   2000.0000     80.7760
  1096.2500   2000.0000     20.9597     23.0671   2000.0000     80.5171
  1096.5000   2000.0000     21.1037     23.7746   2000.0000     91.6845
  1096.7500   2000.0000     20.9457     23.9085   2000.0000     99.5208
  1097.0000   2000.0000     21.4982     24.4726   2000.0000     89.4249
  1097.2500   2000.0000     21.6650     24.5612   2000.0000     97.0271
  1097.5000   2000.0000     21.4810     25.3826   2000.0000     89.1773
  1097.7500   2000.0000     20.5288     24.6090   2000.0000     81.1768
  1098.0000   2000.0000     20.5438     24.1208   2000.0000     67.5673
  1098.2500   2000.0000     19.8698     23.0888   2000.0000     64.0818
  1098.5000   2000.0000     18.4694     21.6364   2000.0000     84.0802
  1098.7500   2000.0000     18.0367     20.2708   2000.0000     83.0318
  1099.0000   2000.0000     16.6956     19.5110   2000.0000     90.1632
  1099.2500   2000.0000     16.0178     19.3165   2000.0000     94.1665
  1099.5000   2000.0000     15.2937     17.5875   2000.0000    114.7458
  1099.7500   2000.0000     14.0558     16.1614   2000.0000    103.6200
  1100.0000   2000.0000     13.6867     15.0871   2000.0000     96.1433
  1100.2500   2000.0000     13.1191     14.0320   2000.0000     94.5871
  1100.5000   2000.0000     12.3718     12.8384   2000.0000    112.8390
  1100.7500   2000.0000     12.0690     11.3926   2000.0000    129.4401
  1101.0000   2000.0000     12.3003     10.3117   2000.0000    132.7406
  1101.2500   2000.0000     12.1887      9.6713   2000.0000    120.8864
  1101.5000   2000.0000     12.4858      9.3458   2000.0000    120.9663
  1101.7500   2000.0000     13.1978      9.4185   2000.0000    121.9764
  1102.0000   2000.0000     13.4571      9.9514   2000.0000    137.3750
  1102.2500   2000.0000     13.6630     10.6640   2000.0000    110.4816
  1102.5000   2000.0000     13.8720     11.6590   2000.0000    108.8203
  1102.7500   2000.0000     14.1402     13.0690   2000.0000     84.6417
  1103.0000   2000.0000     14.1776     13.9233   2000.0000     60.3802
  1103.2500   2000.0000     14.4056     14.8980   2000.0000     71.6207
  1103.5000   2000.0000     15.0412     16.4954   2000.0000     62.2587
  1103.7500   2000.0000     16.1727     17.4253   2000.0000     59.5637
  1104.0000   2000.0000     17.4547     18.4175   2000.0000     61.1562
  1104.2500   2000.0000     19.2381     20.3761   2000.0000     70.2357
  1104.5000   2000.0000     20.9723     22.3081   2000.0000     67.5729
  1104.7500   2000.0000     22.2253     23.6561   2000.0000     53.3737
  1105.0000   2000.0000     24.6171     26.1233   2000.0000     59.7787
  1105.2500   2000.0000     25.8793     27.2447   2000.0000     59.7892
  1105.5000   2000.0000     28.2203     27.6923   2000.0000     54.3213
  1105.7500   2000.0000     28.4933     28.9901   2000.0000     55.5509
  1106.0000   2000.0000     28.4210     30.7266   2000.0000     58.7699
  1106.2500   2000.0000     25.7583     30.0012   2000.0000     60.8617
  1106.5000   2000.0000     24.6276     29.9509   2000.0000     75.1101
  1106.7500   2000.0000     23.2463     29.6591   2000.0000     66.9344
  1107.0000   2000.0000     21.2386     28.6889   2000.0000     63.7420
  1107.2500   2000.0000     19.5825     26.7690   2000.0000     64.7544
  1107.5000   2000.0000     17.2450     24.2174   2000.0000     65.9830
  1107.7500   2000.0000     15.5856     21.4608   2000.0000     68.6428
  1108.0000   2000.0000     14.4387     18.5049   2000.0000     63.9906
  1108.2500   2000.0000     13.5489     16.0576   2000.0000     54.5796
  1108.5000   2000.0000     13.0375     13.8506   2000.0000     91.3564
  1108.7500   2000.0000     12.5808     11.6890   2000.0000    109.3336
  1109.0000   2000.0000     12.3307     10.4757   2000.0000    125.8105
  1109.2500   2000.0000     11.7943      9.6620   2000.0000    140.8385
  1109.5000   2000.0000     10.7602      9.4712   2000.0000    144.8225
  1109.7500   2000.0000     10.0483      9.5647   2000.0000    126.0954
  1110.0000   2000.0000      9.5373      9.9667   2000.0000     96.2430
  1110.2500   2000.0000      9.0614      9.6315   2000.0000    103.9512
  1110.5000   2000.0000      8.5155      9.0184   2000.0000    116.7484
  1110.7500   2000.0000      8.0280      8.3227   2000.0000    128.2049
  1111.0000   2000.0000      7.7723      7.6328   2000.0000    139.3082
  1111.2500   2000.0000      7.5488      7.1732   2000.0000    142.1946
  1111.5000   2000.0000      7.6042      6.8509   2000.0000    143.2004
  1111.7500   2000.0000      7.5377      6.6908   2000.0000    143.0652
  1112.0000   2000.0000      7.7586      6.6995   2000.0000    141.7244
  1112.2500   2000.0000      7.8370      6.7191   2000.0000    152.8183
  1112.5000   2000.0000      7.7133      6.7882   2000.0000    141.5895
  1112.7500   2000.0000      7.7540      6.7382   2000.0000    133.6187
