~Version Information
VERS.                      2.0: CWLS Log ASCII Standard - VERSION 2.0
WRAP.                       NO: One line per depth step
~Well Information Block
STRT.FT               390.0000: 
STOP.FT              2768.7000: 
STEP.FT                 0.1000: 
NULL.                -999.2500: 
COMP.          Pioneer Natural Resources: COMPANY
WELL.              Lynch 43-30: WELL
FLD.           Purgatoire River: FIELD
LOC.           1438' FSL & 429' FEL: LOCATION
PROV.                 Colorado: PROVINCE
CNTY.               Las Animas: COUNTRY
SRVC.                Patterson: SERVICE COMPANY
DATE.          Wed Oct 27 08:22:00 2004: LOG DATE
UWI.           05 071 08170 00: UNIQUE WELL ID
~Curve Information Block
DEPT.FT            0 000 00 00: Depth
DCAL.in                       : CDL Caliper
DPOR.pu                       : CDL Density Porosity
NPOR.pu                       : Neutron Porosity
RHOB.g/cc                     : CDL Bulk Density
RHOC.g/cc                     : CDL Density Correction
GR.GAPI                       : Gamma Ray
~Parameter Information Block
~A  Depth       DCAL        DPOR        NPOR        RHOB        RHOC         GR     
# ...
  1647.6000      8.2029     17.8916     29.6750      2.3548      0.0846    138.3924
  1647.7000      8.2029     18.5717     29.3656      2.3436      0.0343    130.2714
  1647.8000      8.1402     17.3407     28.9153      2.3639      0.0751    130.7090
  1647.9000      8.1402     15.6250     29.1802      2.3922      0.1087    132.0389
  1648.0000      8.1915     15.4926     30.3855      2.3944      0.0962    128.5115
  1648.1000      8.1915     18.0472     31.8480      2.3522      0.0888    123.9451
  1648.2000      8.1915     22.7554     32.9979      2.2745      0.0851    120.4821
  1648.3000      8.2552     28.5140     34.0332      2.1795      0.0694    114.1854
  1648.4000      8.2552     34.9235     35.0183      2.0738      0.0356    106.7935
  1648.5000      8.2415     42.1149     35.7215      1.9551      0.0002    102.0999
  1648.6000      8.2415     49.8532     36.1890      1.8274     -0.0768     99.0295
  1648.7000      8.2415     57.3805     36.2772      1.7032     -0.1512     95.4046
  1648.8000      8.1838     64.3137     35.5429      1.5888     -0.1418     89.4843
  1648.9000      8.1838     70.5399     34.3632      1.4861     -0.1849     81.5316
  1649.0000      8.2104     75.0322     34.0042      1.4120     -0.1667     73.0688
  1649.1000      8.2104     76.5705     34.7667      1.3866     -0.1044     66.2078
  1649.2000      8.2104     75.6225     35.4877      1.4022      0.0191     63.0262
  1649.3000      8.2335     74.0283     35.5124      1.4285      0.0277     64.7706
  1649.4000      8.2335     72.7749     35.4452      1.4492      0.0403     69.0567
  1649.5000      8.2421     71.6362     35.4038      1.4680      0.0346     70.7583
  1649.6000      8.2421     70.4394     34.9508      1.4878      0.0644     70.3707
  1649.7000      8.2421     69.4384     34.6113      1.5043      0.0557     70.8118
  1649.8000      8.1513     68.6675     34.9457      1.5170      0.0469     71.4951
  1649.9000      8.1513     68.0653     35.6029      1.5269      0.0416     73.2635
  1650.0000      8.0963     67.8600     35.7255      1.5303      0.0530     77.2267
  1650.1000      8.0963     67.7552     34.9764      1.5320      0.0014     81.0926
  1650.2000      8.0963     66.5717     34.2921      1.5516     -0.0182     85.0137
  1650.3000      8.1053     63.9367     34.6810      1.5950      0.0357     90.9077
  1650.4000      8.1053     60.7569     35.2803      1.6475      0.0527     96.3148
  1650.5000      8.1188     57.5674     34.6988      1.7001      0.0839     97.2645
  1650.6000      8.1188     54.0436     33.4732      1.7583      0.0551     95.1409
  1650.7000      8.1188     49.9349     32.7704      1.8261      0.1107     94.0271
  1650.8000      8.1129     45.5445     32.6704      1.8985      0.1309     92.7938
  1650.9000      8.1129     41.1687     32.5959      1.9707      0.1767     89.5328
  1651.0000      8.0990     37.1981     32.5538      2.0362      0.1760     89.6085
  1651.1000      8.0990     34.5726     33.0297      2.0796      0.1708     95.4103
  1651.2000      8.0990     33.7430     33.6592      2.0932      0.1012     99.6262
  1651.3000      8.0993     33.5633     33.5939      2.0962      0.0629    100.0928
  1651.4000      8.0993     32.8810     32.8682      2.1075      0.0810    101.1671
  1651.5000      8.1030     32.1268     32.3790      2.1199      0.0685    103.7272
  1651.6000      8.1030     32.0755     32.7090      2.1208      0.0636    105.9550
  1651.7000      8.1030     32.5426     33.3322      2.1130      0.0404    107.8876
  1651.8000      8.1131     32.9793     33.3993      2.1058      0.0468    109.0123
  1651.9000      8.1131     33.1736     33.1542      2.1026      0.0255    107.3053
  1652.0000      8.1077     33.1918     33.2162      2.1023      0.0096    103.5792
  1652.1000      8.1077     33.7579     33.7438      2.0930      0.0027    100.5144
  1652.2000      8.1077     36.0640     34.7169      2.0549      0.0474    100.9102
  1652.3000      8.1446     40.0461     35.5346      1.9892     -0.0161    104.2712
  1652.4000      8.1446     44.1458     35.5564      1.9216     -0.0315    106.0738
  1652.5000      8.1422     47.6168     35.2868      1.8643     -0.0275    102.2944
  1652.6000      8.1422     51.1815     35.6817      1.8055     -0.0193     93.8179
  1652.7000      8.1422     55.4151     36.3970      1.7357     -0.0288     84.2317
  1652.8000      8.1750     59.8646     36.6123      1.6622     -0.0789     75.1145
  1652.9000      8.1750     64.5839     36.4161      1.5844     -0.0607     66.6457
  1653.0000      8.1822     71.2152     36.4907      1.4749     -0.0592     59.3535
  1653.1000      8.1822     79.9406     37.0962      1.3310     -0.1098     51.8685
  1653.2000      8.1822     87.4148     37.4901      1.2077     -0.1529     45.0930
  1653.3000      8.2368     90.6419     37.1012      1.1544     -0.1086     41.7547
  1653.4000      8.2368     90.6624     36.7465      1.1541      0.0181     40.9555
  1653.5000      8.5346     90.3642     37.1414      1.1590      0.0235     41.8290
  1653.6000      8.5346     90.9658     37.7238      1.1491      0.0415     43.1439
  1653.7000      8.5346     92.0636     37.8967      1.1310      0.0061     41.8998
  1653.8000      8.8823     93.0201     37.6927      1.1152      0.0134     39.0059
  1653.9000      8.8823     93.5066     37.2872      1.1071     -0.0033     38.0019
  1654.0000      9.7844     93.3772     36.8629      1.1093      0.0106     38.4849
  1654.1000      9.7844     92.4826     36.5524      1.1240     -0.0011     38.6302
  1654.2000      9.7844     90.5735     36.3274      1.1555      0.0261     39.3189
  1654.3000     10.0400     87.5934     36.0006      1.2047      0.0657     42.4622
  1654.4000     10.0400     83.7195     35.6031      1.2686      0.0655     48.9932
  1654.5000      8.8469     78.9108     35.1552      1.3480      0.0826     57.2791
  1654.6000      8.8469     72.8886     34.6943      1.4473      0.1279     65.7486
  1654.7000      8.8469     65.7781     34.3230      1.5647      0.1715     72.1837
  1654.8000      8.4059     58.7690     33.8563      1.6803      0.2370     74.4027
  1654.9000      8.4059     53.0608     33.0177      1.7745      0.2426     76.7138
  1655.0000      8.3897     47.9983     31.9089      1.8580      0.2375     85.8505
  1655.1000      8.3897     42.3996     31.3938      1.9504      0.2520     97.7939
  1655.2000      8.3897     37.2847     32.2122      2.0348      0.3039    103.1598
  1655.3000      8.4137     34.1002     33.5807      2.0873      0.2149    101.5836
  1655.4000      8.4137     31.2936     34.0177      2.1337      0.1625    100.2009
  1655.5000      8.3520     26.8797     33.3925      2.2065      0.1815    106.1368
  1655.6000      8.3520     22.4404     32.8597      2.2797      0.2378    117.3790
  1655.7000      8.3520     20.9049     32.8980      2.3051      0.2021    127.4368
  1655.8000      8.3731     21.9137     33.1204      2.2884      0.0842    134.3621
  1655.9000      8.3731     22.8518     33.3677      2.2729      0.1134    136.4065
  1656.0000      8.5345     22.8319     33.5740      2.2733      0.1237    133.3263
  1656.1000      8.5345     23.1099     33.7482      2.2687      0.1689    128.5298
  1656.2000      8.5345     24.7442     34.0338      2.2417      0.1164    125.7969
  1656.3000      8.5322     27.1770     34.1907      2.2016      0.1040    127.2040
  1656.4000      8.5322     29.6686     34.1778      2.1605      0.1088    129.1042
  1656.5000      8.2832     32.4004     34.3529      2.1154      0.1002    125.7802
  1656.6000      8.2832     35.5485     34.4523      2.0634      0.0278    119.2844
  1656.7000      8.2832     38.3710     34.3224      2.0169      0.0058    114.8029
  1656.8000      8.2184     39.7740     34.7425      1.9937      0.0060    112.5914
  1656.9000      8.2184     39.4952     35.3323      1.9983      0.0210    112.9705
  1657.0000      8.2117     37.9371     34.7917      2.0240      0.0063    116.8422
  1657.1000      8.2117     35.1637     33.4071      2.0698      0.0277    121.5902
