~Version Information
VERS.                      2.0: CWLS Log ASCII Standard - VERSION 2.0
WRAP.                       NO: One line per depth step
~Well Information Block
STRT.FT               419.7500: 
STOP.FT              1170.0000: 
STEP.FT                 0.2500: 
NULL.                -999.2500: 
COMP.          Evergreen Operating Corporation: COMPANY
WELL.             Bernice 21-3: WELL
FLD.           Purgatoire River: FIELD
LOC.           201' FNL & 2575' FWL: LOCATION
PROV.                 Colorado: PROVINCE
CNTY.               Las Animas: COUNTRY
SRVC.                Patterson: SERVICE COMPANY
DATE.          Mon Jan 26 13:04:04 2004: LOG DATE
UWI.           05 071 07912   : UNIQUE WELL ID
~Curve Information Block
DEPT.FT            0 000 00 00: Depth
SN.Ohm-m                      : IEL Short Normal
SP.mV                         : IEL Spontaneous Potential
DIR.Ohm-m                     : IEL Induction Resistivity
GR.GAPI                       : Gamma Ray
~Parameter Information Block
~A  Depth        SN          SP         DIR          GR     
# ...
   587.2500   2000.0000   2000.0000     15.0477    141.4316
   587.5000   2000.0000   2000.0000     15.1885    131.7213
   587.7500   2000.0000   2000.0000     15.3540    123.6299
   588.0000   2000.0000   2000.0000     15.5395    110.4049
   588.2500   2000.0000   2000.0000     15.7265    102.0776
   588.5000   2000.0000   2000.0000     15.8820     92.6870
   588.7500   2000.0000   2000.0000     15.9715     89.4244
   589.0000   2000.0000   2000.0000     15.9852     88.8485
   589.2500   2000.0000   2000.0000     15.9508     90.3035
   589.5000   2000.0000   2000.0000     15.9134     93.2056
   589.7500   2000.0000   2000.0000     15.8936     94.9086
   590.0000   2000.0000   2000.0000     15.8620     96.8511
   590.2500   2000.0000   2000.0000     15.7502     97.8794
   590.5000   2000.0000   2000.0000     15.4898     99.3323
   590.7500   2000.0000   2000.0000     15.0498    100.3243
   591.0000   2000.0000   2000.0000     14.4491    101.8221
   591.2500   2000.0000   2000.0000     13.7432    102.8450
   591.5000   2000.0000   2000.0000     13.0020    104.7477
   591.7500   2000.0000   2000.0000     12.2928    106.6104
   592.0000   2000.0000   2000.0000     11.6697    110.7680
   592.2500   2000.0000   2000.0000     11.1680    114.4023
   592.5000   2000.0000   2000.0000     10.7992    120.4790
   592.7500   2000.0000   2000.0000     10.5501    124.4684
   593.0000   2000.0000   2000.0000     10.3874    129.7153
   593.2500   2000.0000   2000.0000     10.2683    132.3912
   593.5000   2000.0000   2000.0000     10.1536    134.7487
   593.7500   2000.0000   2000.0000     10.0194    135.2880
   594.0000   2000.0000   2000.0000      9.8626    135.1973
   594.2500   2000.0000   2000.0000      9.6990    134.7543
   594.5000   2000.0000   2000.0000      9.5544    133.1040
   594.7500   2000.0000   2000.0000      9.4518    131.0804
   595.0000   2000.0000   2000.0000      9.3997    127.2600
   595.2500   2000.0000   2000.0000      9.3893    125.0530
   595.5000   2000.0000   2000.0000      9.3994    123.3720
   595.7500   2000.0000   2000.0000      9.4062    123.3979
   596.0000   2000.0000   2000.0000      9.3919    124.6225
   596.2500   2000.0000   2000.0000      9.3480    125.8465
   596.5000   2000.0000   2000.0000      9.2760    127.6555
   596.7500   2000.0000   2000.0000      9.1833    128.5690
   597.0000   2000.0000   2000.0000      9.0791    129.6496
   597.2500   2000.0000   2000.0000      8.9709    130.6601
   597.5000   2000.0000   2000.0000      8.8627    133.2872
   597.7500   2000.0000   2000.0000      8.7554    135.5912
   598.0000   2000.0000   2000.0000      8.6474    138.6480
   598.2500   2000.0000   2000.0000      8.5360    139.7215
   598.5000   2000.0000   2000.0000      8.4181    139.5706
   598.7500   2000.0000   2000.0000      8.2918    138.6839
   599.0000   2000.0000   2000.0000      8.1573    137.2291
   599.2500   2000.0000   2000.0000      8.0172    136.6267
   599.5000   2000.0000   2000.0000      7.8758    136.4638
   599.7500   2000.0000   2000.0000      7.7377    136.7046
   600.0000   2000.0000   2000.0000      7.6072    136.9988
   600.2500   2000.0000   2000.0000      7.4896    136.6337
   600.5000   2000.0000   2000.0000      7.3911    134.5551
   600.7500   2000.0000   2000.0000      7.3167    132.2581
   601.0000   2000.0000   2000.0000      7.2683    128.6240
   601.2500   2000.0000   2000.0000      7.2467    126.8359
   601.5000   2000.0000   2000.0000      7.2562    125.4582
   601.7500   2000.0000   2000.0000      7.3048    124.9721
   602.0000   2000.0000   2000.0000      7.3976    123.7829
   602.2500   2000.0000   2000.0000      7.5307    122.2597
   602.5000   2000.0000   2000.0000      7.6923    118.9949
   602.7500   2000.0000   2000.0000      7.8706    116.8135
   603.0000   2000.0000   2000.0000      8.0622    115.2245
   603.2500   2000.0000   2000.0000      8.2714    115.9853
   603.5000   2000.0000   2000.0000      8.5053    119.4995
   603.7500   2000.0000   2000.0000      8.7685    122.2937
   604.0000   2000.0000   2000.0000      9.0622    124.7167
   604.2500   2000.0000   2000.0000      9.3851    124.1525
   604.5000   2000.0000   2000.0000      9.7333    119.7697
   604.7500   2000.0000   2000.0000     10.1011    115.1188
   605.0000   2000.0000   2000.0000     10.4852    107.3483
   605.2500   2000.0000   2000.0000     10.8942    102.7687
   605.5000   2000.0000   2000.0000     11.3588     98.3479
   605.7500   2000.0000   2000.0000     11.9312     97.4756
   606.0000   2000.0000   2000.0000     12.6680     99.0120
   606.2500   2000.0000   2000.0000     13.6011    101.1688
   606.5000   2000.0000   2000.0000     14.7120    103.9179
   606.7500   2000.0000   2000.0000     15.9269    103.9893
   607.0000   2000.0000   2000.0000     17.1428     99.9417
   607.2500   2000.0000   2000.0000     18.2704     94.7143
   607.5000   2000.0000   2000.0000     19.2628     85.1565
   607.7500   2000.0000   2000.0000     20.1153     79.0353
   608.0000   2000.0000   2000.0000     20.8521     71.6418
   608.2500   2000.0000   2000.0000     21.5119     68.0859
   608.5000   2000.0000   2000.0000     22.1239     64.6675
   608.7500   2000.0000   2000.0000     22.6715     63.5504
   609.0000   2000.0000   2000.0000     23.0704     63.2267
   609.2500   2000.0000   2000.0000     23.1886     63.4672
   609.5000   2000.0000   2000.0000     22.9123     63.6712
   609.7500   2000.0000   2000.0000     22.2102     63.5444
   610.0000   2000.0000   2000.0000     21.1443     63.6995
   610.2500   2000.0000   2000.0000     19.8373     64.8968
   610.5000   2000.0000   2000.0000     18.4378     69.6672
   610.7500   2000.0000   2000.0000     17.0976     75.0353
   611.0000   2000.0000   2000.0000     15.9385     85.3911
   611.2500   2000.0000   2000.0000     15.0164     92.6838
   611.5000   2000.0000   2000.0000     14.3067    102.1894
   611.7500   2000.0000   2000.0000     13.7277    106.8954
   612.0000   2000.0000   2000.0000     13.1930    111.5358
   612.2500   2000.0000   2000.0000     12.6629    113.4174
   612.5000   2000.0000   2000.0000     12.1583    115.0353
   612.7500   2000.0000   2000.0000     11.7301    115.5514
   613.0000   2000.0000   2000.0000     11.4166    115.9369
   613.2500   2000.0000   2000.0000     11.2215    116.2387
   613.5000   2000.0000   2000.0000     11.1155    117.0508
   613.7500   2000.0000   2000.0000     11.0527    117.6985
   614.0000   2000.0000   2000.0000     10.9914    118.1074
   614.2500   2000.0000   2000.0000     10.9088    117.6210
   614.5000   2000.0000   2000.0000     10.8021    115.9428
   614.7500   2000.0000   2000.0000     10.6802    114.8471
   615.0000   2000.0000   2000.0000     10.5522    114.4554
   615.2500   2000.0000   2000.0000     10.4224    115.2638
   615.5000   2000.0000   2000.0000     10.2948    117.5356
   615.7500   2000.0000   2000.0000     10.1829    119.3022
   616.0000   2000.0000   2000.0000     10.1118    121.9715
   616.2500   2000.0000   2000.0000     10.1021    123.7106
   616.5000   2000.0000   2000.0000     10.1487    126.0280
   616.7500   2000.0000   2000.0000     10.2118    127.2713
   617.0000   2000.0000   2000.0000     10.2353    128.9668
   617.2500   2000.0000   2000.0000     10.1808    130.2278
   617.5000   2000.0000   2000.0000     10.0480    132.0076
   617.7500   2000.0000   2000.0000      9.8659    132.4575
   618.0000   2000.0000   2000.0000      9.6703    131.1816
   618.2500   2000.0000   2000.0000      9.4917    129.2729
   618.5000   2000.0000   2000.0000      9.3530    126.1268
   618.7500   2000.0000   2000.0000      9.2701    124.4398
   619.0000   2000.0000   2000.0000      9.2481    122.8009
   619.2500   2000.0000   2000.0000      9.2776    122.3792
   619.5000   2000.0000   2000.0000      9.3355    123.2611
   619.7500   2000.0000   2000.0000      9.3937    125.1305
   620.0000   2000.0000   2000.0000      9.4288    129.4412
   620.2500   2000.0000   2000.0000      9.4316    132.4812
   620.5000   2000.0000   2000.0000      9.4079    135.6159
