~Version Information
 VERS.                                  2.0 : CWLS LAS VERSION
 WRAP.                                   NO : WRAPING MODE
 SWARE .                 MController 2.5.0E : SOFTWARE VERSION
~Well Information
 WELL.                          Enzo 43-8TR : WELL
 COMP.        Pioneer Natural Resources Inc : COMPANY
 FLD.                      Purgatorie River : FIELD
 LOC.                 NE/SE Sec 8 T32S R66W : LOCATION
 DATE.                             10/29/04 : DATE(S) LOGGED
 SRVC.       Blanco Geological Services LLC : SERVICE COMPANY
 STAT.                                   CO : STATE
 CNTY.                           Las Animas : COUNTY
 CTRY.                                  USA : COUNTRY
 API.                       05-071-08213-00 : API NUMBER
 STRT.FT                             562.00 : START DEPTH
 STOP.FT                            2170.00 : STOP DEPTH
 STEP.FT                               1.00 : DEPTH INCREMENT
 NULL.                                -9999 : NULL VALUE
~Curve information
 DEPTH.FT                                   :
 ROP.MIN/FT                                 :
 GAS.UNITS                                  :
~ASCII Log data
# ...
      762.00        0.167          6.6 
      763.00        0.167          7.2 
      764.00        0.167          6.5 
      765.00        0.167          7.1 
      766.00        0.233          7.2 
      767.00        0.233          7.5 
      768.00        0.200          6.9 
      769.00        0.133          6.8 
      770.00        0.167          7.1 
      771.00        0.183          7.2 
      772.00        0.133          7.5 
      773.00        0.167          7.6 
      774.00        0.167          6.9 
      775.00        0.167          7.4 
      776.00        2.650          7.8 
      777.00        0.333          7.9 
      778.00        0.233          7.4 
      779.00        0.233          7.5 
      780.00        0.167          7.3 
      781.00        0.200          7.4 
      782.00        0.200          7.6 
      783.00        0.233          7.6 
      784.00        0.200          7.2 
      785.00        0.167          7.6 
      786.00        0.167          7.7 
      787.00        0.200          7.6 
      788.00        0.200          7.5 
      789.00        0.233          7.4 
      790.00        0.167          7.5 
      791.00        0.200          7.4 
      792.00        0.133          7.2 
      793.00        0.183          7.2 
      794.00        0.167          7.1 
      795.00        0.167          7.3 
      796.00        0.167          7.6 
      797.00        0.167          7.5 
      798.00        0.233          7.7 
      799.00        0.167          7.3 
      800.00        0.233          7.8 
      801.00        0.200          7.6 
      802.00        0.200          7.5 
      803.00        0.233          7.1 
      804.00        0.233          7.9 
      805.00        0.200          7.6 
      806.00        2.817          2.4 
      807.00        0.333          1.5 
      808.00        0.367          1.2 
      809.00        0.300          1.5 
      810.00        0.300          1.7 
      811.00        0.183          1.3 
      812.00        0.167          1.8 
      813.00        0.167          1.8 
      814.00        0.233          1.5 
      815.00        0.233          1.4 
      816.00        0.167          1.7 
      817.00        0.167          1.8 
      818.00        0.167          1.2 
      819.00        0.167          1.5 
      820.00        0.167          1.6 
      821.00        0.200          1.4 
      822.00        0.167          1.7 
      823.00        0.300          1.7 
      824.00        0.200          1.8 
      825.00        0.167          1.1 
      826.00        0.200          1.6 
      827.00        0.200          1.7 
      828.00        0.250          1.6 
      829.00        0.167          1.2 
      830.00        0.167          0.9 
      831.00        0.167          1.5 
      832.00        0.167          1.5 
      833.00        0.200          1.5 
      834.00        0.167          1.5 
      835.00        0.167          0.9 
      836.00        2.883          4.6 
      837.00        0.433          5.1 
      838.00        0.300          4.2 
      839.00        0.300          1.9 
      840.00        0.233          0.6 
      841.00        0.167         -0.1 
      842.00        0.167         -0.7 
      843.00        0.167         -0.8 
      844.00        0.167         -1.3 
      845.00        0.133         -1.1 
      846.00        0.167         -1.0 
      847.00        0.167         -1.1 
      848.00        0.183         -0.7 
      849.00        0.167         -0.5 
      850.00        0.233         -1.2 
      851.00        0.233         -0.5 
      852.00        0.167         -0.7 
      853.00        0.233         -0.4 
      854.00        0.233          1.9 
      855.00        0.233          2.3 
      856.00        0.233          2.5 
      857.00        0.167          2.6 
      858.00        0.267          2.8 
      859.00        0.267          2.9 
      860.00        0.200          2.1 
      861.00        0.167          2.5 
      862.00        0.167          2.5 
      863.00        0.167          2.9 
      864.00        0.167          2.6 
      865.00        0.150          2.6 
      866.00        3.683          2.9 
      867.00        0.200          2.0 
      868.00        0.233          2.4 
      869.00        0.200          2.4 
      870.00        0.200          2.5 
      871.00        0.167          2.3 
      872.00        0.200          3.0 
      873.00        0.267          3.0 
      874.00        0.267          3.0 
      875.00        0.233          2.5 
      876.00        0.267          3.1 
      877.00        0.267          3.2 
      878.00        0.200          3.2 
      879.00        0.250          4.9 
      880.00        0.267         13.9 
      881.00        0.267         26.2 
      882.00        0.167         33.6 
      883.00        0.200         37.5 
      884.00        0.167         39.1 
      885.00        0.167         38.2 
      886.00        0.167         32.9 
      887.00        0.133         26.4 
      888.00        0.200         21.3 
      889.00        0.333         17.5 
      890.00        0.333         11.8 
      891.00        0.367         10.0 
      892.00        0.267          8.7 
      893.00        0.233          7.9 
      894.00        0.283          7.9 
      895.00        0.233          9.0 
      896.00        2.950         27.0 
      897.00        0.300         14.6 
      898.00        0.467         15.4 
      899.00        0.300         14.8 
      900.00        0.133         14.6 
      901.00        0.167         14.2 
      902.00        0.133         12.2 
      903.00        0.167         12.5 
      904.00        0.133         11.6 
      905.00        0.100         10.9 
      906.00        0.100         10.8 
      907.00        0.133         10.5 
      908.00        0.100          9.2 
      909.00        0.133          9.7 
      910.00        0.100         10.1 
      911.00        0.167          9.9 
      912.00        0.133          9.4 
      913.00        0.167          9.8 
      914.00        0.233         10.3 
      915.00        0.250         10.6 
      916.00        0.167          9.7 
      917.00        0.133          8.7 
      918.00        0.167          8.6 
      919.00        0.200          7.6 
      920.00        0.200          6.0 
      921.00        0.167          5.8 
      922.00        0.500          5.6 
      923.00        0.367          5.3 
      924.00        0.300          5.7 
      925.00        0.233          5.9 
      926.00        2.917         22.0 
      927.00        0.433          7.0 
      928.00        2.350          7.4 
      929.00        0.367          7.7 
      930.00        0.333          7.6 
      931.00        0.433          8.3 
      932.00        0.300          6.9 
      933.00        0.417          7.1 
      934.00        0.333          7.0 
      935.00        0.333          5.2 
      936.00        0.233          4.7 
      937.00        0.300          5.4 
      938.00        0.367          6.9 
      939.00        0.267          7.9 
      940.00        0.567         10.9 
      941.00        0.233          8.1 
      942.00        0.167          7.1 
      943.00        0.167          6.7 
      944.00        0.133          6.5 
      945.00        0.100          5.7 
      946.00        0.250          5.3 
      947.00        0.133          4.3 
      948.00        0.133          5.2 
      949.00        0.200          4.9 
      950.00        0.267          5.6 
      951.00        0.200          5.2 
      952.00        0.133          6.4 
      953.00        0.200          7.1 
      954.00        0.367          7.1 
      955.00        0.433          7.2 
      956.00        4.183         15.3 
      957.00        0.217          9.8 
      958.00        0.133          7.5 
      959.00        0.333          7.4 
      960.00        0.300          6.2 
      961.00        0.233          7.3 
