~Version Information
VERS.                      2.0: CWLS Log ASCII Standard - VERSION 2.0
WRAP.                       NO: One line per depth step
~Well Information Block
STRT.FT                -7.5000: 
STOP.FT              2226.0000: 
STEP.FT                 0.2500: 
NULL.                -999.2500: 
COMP.          Pioneer Natural Resources: COMPANY
WELL.              Tonto 42-23: WELL
FLD.           Purgatorie River: FIELD
LOC.           2217' FNL & 423' FEL----: LOCATION
PROV.                       CO: PROVINCE
CNTY.               Las Animas: COUNTRY
SRVC.          Patterson Wireline: SERVICE COMPANY
DATE.          Fri Apr 22 11:40:07 2005: LOG DATE
UWI.           05 071 08335 00: UNIQUE WELL ID
~Curve Information Block
DEPT.FT            0 000 00 00: Depth
CCL.                          : Casing Collar Locator
TT3.usec                      : CBL 3' Travel Time
AMP3.mV                       : CBL 3' Amplitude
GR.GAPI                       : Gamma Ray
~Parameter Information Block
~A  Depth       CCL         TT3         AMP3         GR     
# ...
  1466.5000      0.0000    719.1039      7.2017    130.1264
  1466.7500      0.0000    719.0191      7.3030    133.1953
  1467.0000      0.0000    718.9413      7.3725    136.1225
  1467.2500      0.0000    718.9014      7.4473    138.4561
  1467.5000      0.0000    718.9435      7.5187    139.3901
  1467.7500      0.0000    719.0889      7.5343    138.3754
  1468.0000      0.0000    719.3208      7.4705    135.6019
  1468.2500      0.0000    719.5649      7.3672    132.1813
  1468.5000      0.0000    719.7065      7.2845    129.7883
  1468.7500      0.0000    719.6602      7.2476    129.6211
  1469.0000      0.0000    719.4359      7.2393    131.4878
  1469.2500      0.0000    719.1368      7.2256    133.8970
  1469.5000      0.0000    718.9171      7.1848    135.1246
  1469.7500      0.0000    718.9270      7.1255    134.6690
  1470.0000      0.0000    719.2235      7.0821    133.9760
  1470.2500      0.0000    719.6929      7.0824    135.2769
  1470.5000      0.0000    720.1128      7.1185    139.2991
  1470.7500      0.0000    720.3317      7.1580    144.3229
  1471.0000      0.0000    720.3647      7.1839    147.6731
  1471.2500      0.0000    720.3243      7.2107    147.9000
  1471.5000      0.0000    720.3179      7.2660    145.2404
  1471.7500      0.0000    720.4028      7.3683    140.4319
  1472.0000      0.0000    720.5648      7.5164    134.0215
  1472.2500      0.0000    720.7144      7.6839    126.9504
  1472.5000      0.0000    720.7483      7.8222    120.8120
  1472.7500      0.0000    720.6469      7.8840    116.9562
  1473.0000      0.0000    720.5115      7.8627    115.9382
  1473.2500      0.0000    720.4885      7.8028    118.0468
  1473.5000      0.0000    720.6502      7.7501    123.4184
  1473.7500      0.0000    720.9581      7.6996    131.0548
  1474.0000      0.0000    721.3400      7.6098    138.4152
  1474.2500      0.0000    721.7648      7.4542    142.8109
  1474.5000      0.0000    722.2238      7.2392    143.4556
  1474.7500      0.0000    722.6882      6.9965    142.1329
  1475.0000      0.0000    723.1819      6.7842    141.7456
  1475.2500      0.0000    723.9884      6.6763    144.0017
  1475.5000      0.0000    725.8452      6.7147    148.1863
  1475.7500      0.0000    729.8167      6.8684    151.9433
  1476.0000      0.0000    736.4130      7.0436    153.2711
  1476.2500      0.0000    744.2869      7.1402    151.9910
  1476.5000      0.0000    750.2312      7.1106    149.3863
  1476.7500      0.0000    751.7115      6.9802    146.6613
  1477.0000      0.0000    749.6509      6.8170    144.1503
  1477.2500      0.0000    747.6241      6.6721    141.9337
  1477.5000      0.0000    747.9577      6.5434    140.4814
  1477.7500      0.0000    749.8365      6.3977    140.2002
  1478.0000      0.0000    751.8272      6.2193    140.7943
  1478.2500      0.0000    754.7902      6.0214    141.6644
  1478.5000      0.0000    760.8066      5.8255    142.6983
  1478.7500      0.0000    769.9319      5.6564    144.2005
  1479.0000      0.0000    779.5629      5.5439    146.2917
  1479.2500      0.0000    786.9214      5.5003    148.7384
  1479.5000      0.0000    791.1248      5.5107    151.0920
  1479.7500      0.0000    792.9371      5.5610    152.8597
  1480.0000      0.0000    793.5061      5.6494    153.8983
  1480.2500      0.0000    793.6445      5.7536    154.6593
  1480.5000      0.0000    793.7526      5.8115    155.7250
  1480.7500      0.0000    793.9261      5.7635    157.1697
  1481.0000      0.0000    794.0682      5.6140    158.4980
  1481.2500      0.0000    794.0261      5.4492    158.9388
  1481.5000      0.0000    793.6816      5.3907    157.6173
  1481.7500      0.0000    792.9344      5.5127    153.9622
  1482.0000      0.0000    791.7187      5.7915    148.4151
  1482.2500      0.0000    790.2692      6.1236    142.4040
  1482.5000      0.0000    789.2784      6.3880    137.3007
  1482.7500      0.0000    789.2406      6.5104    133.6639
  1483.0000      0.0000    789.4867      6.5063    131.4205
  1483.2500      0.0000    788.6314      6.4638    130.1330
  1483.5000      0.0000    786.3181      6.4673    128.7542
  1483.7500      0.0000    783.6199      6.5337    125.6981
  1484.0000      0.0000    781.4498      6.6285    119.8792
  1484.2500      0.0000    779.8672      6.7312    111.7083
  1484.5000      0.0000    779.4258      6.8675    102.9125
  1484.7500      0.0000    781.6854      7.0810     95.5851
  1485.0000      0.0000    787.1442      7.3759     91.4631
  1485.2500      0.0000    793.2345      7.6853     91.6801
  1485.5000      0.0000    795.6634      7.8981     96.5013
  1485.7500      0.0000    792.2255      7.9247    104.7351
  1486.0000      0.0000    784.9084      7.7587    113.4309
  1486.2500      0.0000    777.9514      7.4964    119.0242
  1486.5000      0.0000    774.1042      7.2841    119.6353
  1486.7500      0.0000    772.9066      7.2188    116.1930
  1487.0000      0.0000    772.1194      7.2903    111.0871
  1487.2500      0.0000    770.2968      7.4146    106.1292
  1487.5000      0.0000    767.8506      7.5099    101.7865
  1487.7500      0.0000    766.0029      7.5437     97.6678
  1488.0000      0.0000    765.3149      7.5345     93.4090
  1488.2500      0.0000    765.4201      7.5228     89.3527
  1488.5000      0.0000    765.7675      7.5347     86.5637
  1488.7500      0.0000    766.2584      7.5647     86.2558
  1489.0000      0.0000    767.2945      7.5889     89.1200
  1489.2500      0.0000    769.3998      7.5871     94.8063
  1489.5000      0.0000    772.6773      7.5514    101.7082
  1489.7500      0.0000    776.4387      7.4813    107.5845
  1490.0000      0.0000    779.5685      7.3823    110.9610
  1490.2500      0.0000    781.5028      7.2698    112.0601
  1490.5000      0.0000    782.5894      7.1676    112.1522
  1490.7500      0.0000    783.0612      7.0918    112.0736
  1491.0000      0.0000    781.8318      7.0222    111.6295
  1491.2500      0.0000    776.9396      6.8957    110.2629
  1491.5000      0.0000    767.7739      6.6505    107.8756
  1491.7500      0.0000    756.9869      6.2869    104.9548
  1492.0000      0.0000    749.3702      5.8606    102.1078
  1492.2500      0.0000    747.9304      5.4305     99.4317
  1492.5000      0.0000    751.2971      5.0519     96.2485
  1492.7500      0.0000    755.5254      4.7902     91.7373
  1493.0000      0.0000    758.0849      4.6829     86.1399
  1493.2500      0.0000    759.8979      4.7007     81.1622
  1493.5000      0.0000    763.8200      4.7840     78.7659
  1493.7500     -2.0000    771.1328      4.9015     79.5096
  1494.0000      0.0000    779.7279      5.0663     82.0630
  1494.2500      0.0000    786.0971      5.3308     84.1941
  1494.5000      0.0000    788.5970      5.7534     84.3340
  1494.7500      0.0000    788.4162      6.3095     82.7681
  1495.0000      0.0000    787.6953      6.8401     81.6947
  1495.2500      0.0000    786.9888      7.1576     83.7776
  1495.5000      0.0000    785.0437      7.2106     90.1381
  1495.7500      0.0000    781.3848      7.1025     99.6194
  1496.0000      0.0000    778.0696      6.9645    110.0125
  1496.2500      0.0000    777.9071      6.8507    119.9173
  1496.5000      0.0000    781.7039      6.7430    129.3979
  1496.7500      0.0000    787.8725      6.6149    138.8924
  1497.0000      0.0000    793.8197      6.4749    147.7324
  1497.2500      0.0000    797.3513      6.3599    154.0626
  1497.5000      0.0000    797.6854      6.3030    156.3711
  1497.7500      0.0000    795.6000      6.3109    155.1152
  1498.0000      0.0000    792.3267      6.3636    152.7662
  1498.2500      0.0000    788.3323      6.4238    151.9726
  1498.5000      0.0000    783.4203      6.4491    153.3559
  1498.7500      0.0000    778.0025      6.4062    155.0816
  1499.0000      0.0000    773.8249      6.2905    154.4363
  1499.2500      0.0000    772.9065      6.1346    149.5860
  1499.5000      0.0000    775.6528      5.9892    140.1160
  1499.7500      0.0000    780.5712      5.8866    126.7753
