~Version Information
VERS.                      2.0: CWLS Log ASCII Standard - VERSION 2.0
WRAP.                       NO: One line per depth step
~Well Information Block
STRT.FT               823.7000: 
STOP.FT              2444.0000: 
STEP.FT                 0.1000: 
NULL.                -999.2500: 
COMP.          Petrogulf Corporation: COMPANY
WELL.            Kraft 17-23 V: WELL
FLD.           Purgatorie River: FIELD
LOC.           1500' FSL & 1773' FWL: LOCATION
CNTY.               Las Animas: COUNTY
SRVC.                         : SERVICE COMPANY
DATE.          Thu Nov 20 07:09:00 2003: LOG DATE
UWI.                          : UNIQUE WELL ID
STAT.                 Colorado: STATE
~Curve Information Block
DEPT.FT            0 000 00 00: Depth
DCAL.in                       : CDL Caliper
RHOB.g/cc                     : CDL Bulk Density
RHOC.g/cc                     : CDL Density Correction
DPOR.pu                       : CDL Density Porosity
GR.GAPI                       : Gamma Ray
NPOR.pu                       : Neutron Porosity
~Parameter Information Block
~A  Depth       DCAL        RHOB        RHOC        DPOR         GR         NPOR    
# ...
  2321.3000      7.9679      2.4762      0.0028     10.5355     66.9844     22.9581
  2321.4000      7.9679      2.4462      0.0171     12.3515     56.9788     22.9473
  2321.5000      7.9410      2.4298      0.0095     13.3484     51.6140     23.0122
  2321.6000      7.9410      2.4195      0.0185     13.9691     52.9588     23.2731
  2321.7000      7.9410      2.4189     -0.0079     14.0051     52.1321     23.6101
  2321.8000      7.9221      2.4337      0.0190     13.1098     47.4406     23.8412
  2321.9000      7.9221      2.4531      0.0389     11.9316     47.2394     24.0023
  2322.0000      7.9222      2.4643      0.0479     11.2519     54.0908     24.0271
  2322.1000      7.9222      2.4635      0.0894     11.3002     59.4867     23.8449
  2322.2000      7.9222      2.4596      0.0321     11.5386     58.1434     23.6747
  2322.3000      7.9146      2.4693      0.0060     10.9504     52.3420     23.6532
  2322.4000      7.9146      2.4926      0.0481      9.5366     47.3090     23.6445
  2322.5000      7.8953      2.5115      0.1219      8.3928     46.9379     23.4226
  2322.6000      7.8953      2.5178      0.0528      8.0149     50.4746     22.8646
  2322.7000      7.8953      2.5175      0.0991      8.0292     56.3271     22.3316
  2322.8000      7.8861      2.5106      0.0592      8.4464     61.8090     22.1873
  2322.9000      7.8861      2.4953      0.0813      9.3743     62.0016     22.2331
  2323.0000      7.9300      2.4743      0.0323     10.6505     55.4974     22.2570
  2323.1000      7.9300      2.4592      0.0410     11.5621     47.6106     21.9998
  2323.2000      7.9300      2.4634      0.0049     11.3113     44.9547     21.5023
  2323.3000      7.9620      2.4752      0.0959     10.5922     49.9579     21.5126
  2323.4000      7.9620      2.4729      0.0676     10.7349     56.0012     22.3181
  2323.5000      7.9646      2.4727     -0.0000     10.7485     54.7644     23.3701
  2323.6000      7.9646      2.5076      0.0217      8.6297     51.0289     24.0796
  2323.7000      7.9646      2.5515      0.1634      5.9714     51.7466     24.0859
  2323.8000      7.9967      2.5469      0.0959      6.2465     55.8505     23.5787
  2323.9000      7.9967      2.5009      0.0428      9.0386     60.0030     23.1050
  2324.0000      8.0238      2.4642      0.0145     11.2620     63.3356     22.8058
  2324.1000      8.0238      2.4589      0.0144     11.5789     64.4615     22.3513
  2324.2000      8.0238      2.4730     -0.0191     10.7284     58.1294     21.6272
  2324.3000      8.0244      2.4880      0.0250      9.8170     47.0816     21.0926
  2324.4000      8.0244      2.4944      0.0422      9.4273     41.7794     21.1805
  2324.5000      8.0104      2.4931      0.0505      9.5065     45.0602     21.6206
  2324.6000      8.0104      2.4863      0.0485      9.9213     51.3016     21.7550
  2324.7000      8.0104      2.4791      0.0037     10.3583     55.5419     21.6002
  2324.8000      7.9415      2.4773      0.0735     10.4659     55.4278     21.4492
  2324.9000      7.9415      2.4786      0.0471     10.3852     52.4816     21.3448
  2325.0000      7.8694      2.4849     -0.0033     10.0059     54.1527     21.4581
  2325.1000      7.8694      2.4935      0.0758      9.4852     62.1401     21.7053
  2325.2000      7.8694      2.4858      0.0709      9.9490     67.7664     21.7615
  2325.3000      7.9099      2.4612      0.0479     11.4452     65.9184     21.3690
  2325.4000      7.9099      2.4457     -0.0712     12.3796     60.8951     20.9077
  2325.5000      7.9725      2.4496      0.0357     12.1452     55.5575     21.0786
  2325.6000      7.9725      2.4533      0.0457     11.9204     50.4205     21.6587
  2325.7000      7.9725      2.4583     -0.0188     11.6158     49.0950     22.0696
  2325.8000      7.9846      2.4812      0.0513     10.2307     51.7041     22.2690
  2325.9000      7.9846      2.5063      0.0759      8.7119     53.2240     22.3833
  2326.0000      7.9784      2.5101      0.1045      8.4789     51.6620     22.1922
  2326.1000      7.9784      2.4986      0.0136      9.1782     51.3388     21.7084
  2326.2000      7.9784      2.4960      0.0518      9.3317     55.4897     21.4750
  2326.3000      7.9678      2.5037      0.0334      8.8639     61.0249     21.7820
  2326.4000      7.9678      2.4932      0.0849      9.5044     62.3125     22.2427
  2326.5000      7.9413      2.4605      0.0112     11.4867     58.9083     22.3874
  2326.6000      7.9413      2.4456     -0.0243     12.3851     54.7167     22.4474
  2326.7000      7.9413      2.4611      0.0122     11.4463     51.0785     22.8618
  2326.8000      7.9266      2.4756      0.0493     10.5707     47.9647     23.3256
  2326.9000      7.9266      2.4833     -0.0028     10.1042     47.3586     23.1750
  2327.0000      7.9716      2.4986      0.0984      9.1754     50.1184     22.4505
  2327.1000      7.9716      2.5051      0.1036      8.7820     55.7865     21.7602
  2327.2000      7.9716      2.4913      0.0653      9.6196     62.6792     21.2937
  2327.3000      8.0491      2.4876      0.0115      9.8426     64.0785     20.9954
  2327.4000      8.0491      2.5156      0.0868      8.1483     58.5274     21.1311
  2327.5000      8.1173      2.5483      0.0778      6.1661     54.5018     21.6759
  2327.6000      8.1173      2.5525      0.0903      5.9120     55.9982     22.0992
  2327.7000      8.1173      2.5268      0.0694      7.4638     60.5846     22.2114
  2327.8000      8.1120      2.4991      0.0653      9.1455     65.4724     22.2841
  2327.9000      8.1120      2.4977     -0.0167      9.2315     67.2125     22.2835
  2328.0000      8.0597      2.5123      0.0563      8.3463     66.0974     22.0587
  2328.1000      8.0597      2.5093      0.0817      8.5296     66.8100     22.1428
  2328.2000      8.0597      2.4845      0.0501     10.0303     70.5422     22.9018
  2328.3000      8.0403      2.4574     -0.0240     11.6752     72.3497     23.7582
  2328.4000      8.0403      2.4424      0.0070     12.5841     68.1961     24.2031
  2328.5000      8.0766      2.4487     -0.0307     12.2003     61.7908     24.3061
  2328.6000      8.0766      2.4801      0.0503     10.2988     56.2387     24.2590
  2328.7000      8.0766      2.5195      0.0467      7.9099     50.5524     24.0750
  2328.8000      8.1153      2.5412      0.0397      6.5921     47.2085     23.6237
  2328.9000      8.1153      2.5321      0.0891      7.1430     50.0392     23.0225
  2329.0000      8.0897      2.5015      0.0630      9.0026     56.4994     22.6335
  2329.1000      8.0897      2.4846      0.0280     10.0214     61.6753     22.5256
  2329.2000      8.0897      2.5032      0.0427      8.8973     65.5938     22.3984
  2329.3000      8.0261      2.5292      0.1167      7.3192     67.2347     22.2381
  2329.4000      8.0261      2.5245      0.0892      7.6054     60.7404     22.4028
  2329.5000      7.9940      2.4905      0.0593      9.6646     49.3632     22.9179
  2329.6000      7.9940      2.4558      0.0237     11.7712     45.4693     23.2648
  2329.7000      7.9940      2.4440     -0.0159     12.4860     51.5605     23.0262
  2329.8000      8.0010      2.4608      0.0191     11.4639     58.7397     22.5385
  2329.9000      8.0010      2.4841      0.0986     10.0553     61.3962     22.3340
  2330.0000      8.0013      2.4865      0.0629      9.9102     61.0369     22.3678
  2330.1000      8.0013      2.4759      0.0484     10.5534     61.0745     22.2426
  2330.2000      8.0013      2.4840      0.0045     10.0578     60.3617     21.8837
  2330.3000      7.9932      2.5165      0.1296      8.0909     56.3740     21.3594
  2330.4000      7.9932      2.5375      0.1698      6.8203     51.1792     20.6422
  2330.5000      7.9939      2.5209      0.1371      7.8261     46.7212     20.0140
  2330.6000      7.9939      2.4947      0.0219      9.4127     42.2823     19.8861
  2330.7000      7.9939      2.5021      0.0548      8.9616     40.5698     20.2730
  2330.8000      8.0002      2.5364      0.0940      6.8844     43.3885     20.8375
