~Version Information
VERS.                      2.0: CWLS Log ASCII Standard - VERSION 2.0
WRAP.                       NO: One line per depth step
~Well Information Block
STRT.FT               770.0000: 
STOP.FT              1997.7000: 
STEP.FT                 0.1000: 
NULL.                -999.2500: 
COMP.          Pioneer Natural Resources: COMPANY
WELL.          Titan Federal 34-17: WELL
FLD.           Purgatoire River: FIELD
LOC.           321' FSL & 1911' FEL--: LOCATION
STAT.                 Colorado: State
CNTY.               Las Animas: COUNTY
CTRY. USA : Country
SECT. 17 : Section
TOWN. 32S : Township
RANG. 65W : Range
SRVC.                Patterson: SERVICE COMPANY
DATE.          Thu Oct 06 15:09:27 2005: LOG DATE
API.           05 071 08272 00: UNIQUE WELL ID
~Curve Information Block
DEPT.FT            0 000 00 00: Depth
DCAL.in                       : CDL Caliper
RHOB.g/cc                     : CDL Bulk Density
RHOC.g/cc                     : CDL Density Correction
DPOR.pu                       : CDL Density Porosity
NPOR.pu                       : Neutron Porosity
GR.GAPI                       : Gamma Ray
~Parameter Information Block
~A  Depth       DCAL        RHOB        RHOC        DPOR        NPOR         GR     
# ...
   933.2000      8.0710      2.5020      0.0548      8.9668     27.3775    124.5878
   933.3000      8.0710      2.5065      0.0614      8.6964     26.5040    132.2132
   933.4000      8.0710      2.5076      0.0148      8.6305     25.4474    139.4038
   933.5000      8.0685      2.5076      0.0214      8.6276     24.7895    141.5732
   933.6000      8.0685      2.5019      0.0684      8.9737     24.7617    140.8812
   933.7000      8.0685      2.4842     -0.0198     10.0474     25.0132    140.5982
   933.8000      8.0671      2.4686     -0.0048     10.9942     25.2420    141.0296
   933.9000      8.0671      2.4697      0.0125     10.9282     25.3380    145.0421
   934.0000      8.0675      2.4857     -0.0053      9.9594     24.9699    151.9022
   934.1000      8.0675      2.5098      0.0450      8.4985     24.1391    155.0525
   934.2000      8.0675      2.5345      0.0759      7.0019     23.4348    153.1779
   934.3000      8.0679      2.5489      0.0948      6.1300     23.0127    148.9058
   934.4000      8.0679      2.5488      0.0462      6.1353     22.4989    145.1831
   934.5000      8.0678      2.5434      0.0295      6.4582     21.8179    144.5252
   934.6000      8.0678      2.5390      0.0473      6.7268     21.0634    145.0891
   934.7000      8.0678      2.5312      0.0694      7.1999     20.4541    143.0712
   934.8000      8.0676      2.5183      0.0607      7.9813     20.4411    135.4442
   934.9000      8.0676      2.5105      0.0198      8.4550     21.1087    123.8268
   935.0000      8.0673      2.5169      0.0252      8.0674     22.1066    114.8754
   935.1000      8.0673      2.5293      0.0382      7.3158     23.0018    114.1928
   935.2000      8.0673      2.5389      0.0060      6.7334     23.4836    120.4795
   935.3000      8.0681      2.5457      0.0378      6.3228     23.6659    124.5825
   935.4000      8.0681      2.5451      0.0461      6.3570     23.9551    121.9306
   935.5000      8.0677      2.5361      0.0248      6.9004     24.2380    117.9619
   935.6000      8.0677      2.5340      0.0349      7.0305     24.1485    115.5387
   935.7000      8.0677      2.5517      0.0089      5.9591     23.6305    112.8508
   935.8000      8.0653      2.5741      0.0616      4.6029     22.8638    112.5287
   935.9000      8.0653      2.5778      0.0396      4.3740     22.4249    115.0644
   936.0000      8.0641      2.5627      0.0357      5.2902     22.6316    112.8956
   936.1000      8.0641      2.5344      0.0668      7.0036     22.8057    108.1362
   936.2000      8.0641      2.4987     -0.0265      9.1690     22.4291    108.5862
   936.3000      8.0644      2.4741     -0.0191     10.6599     21.7109    111.8800
   936.4000      8.0644      2.4694      0.0081     10.9484     21.3251    113.3087
   936.5000      8.0636      2.4726     -0.0167     10.7524     21.9399    114.0822
   936.6000      8.0636      2.4743     -0.0094     10.6455     22.9341    117.4478
   936.7000      8.0636      2.4729     -0.0008     10.7332     23.1214    122.7656
   936.8000      8.0626      2.4718     -0.0094     10.8026     22.8548    127.2467
   936.9000      8.0626      2.4748      0.0120     10.6159     23.1273    130.3827
   937.0000      8.0612      2.4791     -0.0357     10.3572     23.6322    132.6479
   937.1000      8.0612      2.4821     -0.0334     10.1757     23.6515    131.4337
   937.2000      8.0612      2.4835     -0.0169     10.0933     23.4633    124.7732
   937.3000      8.0594      2.4863     -0.0450      9.9240     23.7044    117.1190
   937.4000      8.0594      2.4950     -0.0177      9.3947     24.4569    113.0395
   937.5000      8.0604      2.5013      0.0070      9.0095     25.3703    111.6423
   937.6000      8.0604      2.4961      0.0010      9.3280     25.9574    111.3656
   937.7000      8.0604      2.4857     -0.0082      9.9556     25.9804    112.0493
   937.8000      8.0624      2.4844     -0.0017     10.0343     25.6075    111.7815
   937.9000      8.0624      2.5009     -0.0067      9.0338     25.1579    107.7863
   938.0000      8.0648      2.5264      0.0130      7.4907     24.7940    105.2796
   938.1000      8.0648      2.5451      0.0217      6.3582     24.2915    110.5586
   938.2000      8.0648      2.5563      0.0458      5.6818     23.5369    118.0791
   938.3000      8.0684      2.5656      0.0594      5.1164     23.2127    119.9120
   938.4000      8.0684      2.5726      0.0759      4.6908     23.6453    118.6451
   938.5000      8.0700      2.5780      0.0247      4.3661     24.0171    118.2346
   938.6000      8.0700      2.5878      0.0553      3.7683     24.0000    118.5352
   938.7000      8.0700      2.6023      0.0699      2.8882     23.9795    121.7411
   938.8000      8.0691      2.6113      0.0775      2.3465     24.1431    125.5979
   938.9000      8.0691      2.6088      0.0436      2.4965     24.5105    125.2423
   939.0000      8.0681      2.6004      0.0774      3.0090     24.9998    121.5174
   939.1000      8.0681      2.5942      0.0438      3.3849     25.3990    118.4082
   939.2000      8.0681      2.5932      0.0567      3.4420     25.5249    118.7984
   939.3000      8.0672      2.5908      0.0498      3.5859     25.6964    120.4409
   939.4000      8.0672      2.5869      0.0397      3.8234     26.2007    119.7044
   939.5000      8.0671      2.5906      0.0761      3.6024     26.7285    116.5873
   939.6000      8.0671      2.6005      0.0913      3.0009     27.0192    112.3722
   939.7000      8.0671      2.6068      0.0953      2.6204     26.8783    108.9092
   939.8000      8.0672      2.6033      0.0956      2.8284     26.5248    107.6126
   939.9000      8.0672      2.5911      0.0359      3.5683     26.4941    107.8771
   940.0000      8.0683      2.5749      0.0414      4.5513     26.6470    109.0794
   940.1000      8.0683      2.5580      0.0074      5.5743     26.3556    109.3391
   940.2000      8.0683      2.5435     -0.0526      6.4522     25.8387    109.1988
   940.3000      8.0697      2.5364     -0.0484      6.8832     25.8098    113.4717
   940.4000      8.0697      2.5405     -0.0427      6.6335     25.9885    120.7512
   940.5000      8.0687      2.5469      0.0579      6.2506     25.9951    125.8327
   940.6000      8.0687      2.5398      0.0569      6.6770     26.3577    128.5496
   940.7000      8.0687      2.5269     -0.0067      7.4607     27.1309    130.5308
   940.8000      8.0672      2.5196      0.0447      7.9016     27.5721    128.3629
   940.9000      8.0672      2.5101      0.0378      8.4763     27.5598    120.4321
   941.0000      8.0663      2.5013     -0.0145      9.0150     27.7144    113.0025
   941.1000      8.0663      2.5077      0.0117      8.6224     28.3241    110.0551
   941.2000      8.0663      2.5282      0.0075      7.3803     29.1747    110.5335
   941.3000      8.0659      2.5532      0.0520      5.8664     29.8653    112.3425
   941.4000      8.0659      2.5760      0.0604      4.4823     30.1395    115.9753
   941.5000      8.0679      2.5926      0.0502      3.4789     30.1724    120.9314
   941.6000      8.0679      2.5958      0.1136      3.2821     30.2460    123.4595
   941.7000      8.0679      2.5804      0.0676      4.2182     30.2801    123.8659
   941.8000      8.0697      2.5572      0.0695      5.6224     29.8818    126.2848
   941.9000      8.0697      2.5370      0.0976      6.8457     29.1018    131.0679
   942.0000      8.0684      2.5168      0.0680      8.0709     28.2808    134.5348
   942.1000      8.0684      2.4950      0.0436      9.3930     27.6844    134.6243
   942.2000      8.0684      2.4735      0.0437     10.6964     27.6422    132.2618
   942.3000      8.0673      2.4552      0.0142     11.8057     27.9391    132.4578
   942.4000      8.0673      2.4499     -0.0188     12.1272     27.9785    138.2486
   942.5000      8.0688      2.4682     -0.0103     11.0184     27.7077    143.7685
   942.6000      8.0688      2.5083      0.0097      8.5904     27.3106    143.6663
   942.7000      8.0688      2.5536      0.0463      5.8451     26.9554    140.4151
