~Version Information
VERS.                      2.0: CWLS Log ASCII Standard - VERSION 2.0
WRAP.                       NO: One line per depth step
~Well Information Block
STRT.FT               563.6000: 
STOP.FT              2133.0000: 
STEP.FT                 0.1000: 
NULL.                -999.2500: 
COMP.          Petrogulf Corporation: COMPANY
WELL.             State 16-43V: WELL
FLD.           Purgatorie River: FIELD
LOC.           2437' FSL & 734' FEL: LOCATION
CNTY.               Las Animas: COUNTY
SRVC.                         : SERVICE COMPANY
DATE.          Mon Dec 06 06:01:26 2004: LOG DATE
UWI.           05 071 08015 00: UNIQUE WELL ID
STAT.                 Colorado: STATE
~Curve Information Block
DEPT.FT            0 000 00 00: Depth
DCAL.in                       : CDL Caliper
RHOB.g/cc                     : CDL Bulk Density
RHOC.g/cc                     : CDL Density Correction
DPOR.pu                       : CDL Density Porosity
GR.GAPI                       : Gamma Ray
NPOR.pu                       : Neutron Porosity
~Parameter Information Block
~A  Depth       DCAL        RHOB        RHOC        DPOR         GR         NPOR    
# ...
  1091.6000      7.9376      2.6418      0.0946      0.4947     83.8764     20.1849
  1091.7000      7.9376      2.6527      0.0456     -0.1650     79.6460     20.5733
  1091.8000      7.9569      2.6390      0.1235      0.6673     73.2255     21.1485
  1091.9000      7.9569      2.6028      0.0919      2.8623     72.2191     21.4869
  1092.0000      7.9389      2.5670      0.0567      5.0279     75.3022     21.2755
  1092.1000      7.9389      2.5509      0.0137      6.0035     78.5141     20.8135
  1092.2000      7.9389      2.5576      0.0473      5.6006     79.6853     20.3649
  1092.3000      7.8979      2.5924      0.0496      3.4893     77.7695     19.9985
  1092.4000      7.8979      2.6526      0.1884     -0.1563     73.4132     19.9183
  1092.5000      7.8838      2.7135      0.2040     -3.8507     70.4537     20.1778
  1092.6000      7.8838      2.7514      0.2678     -6.1481     71.5561     20.4622
  1092.7000      7.8838      2.7606      0.1830     -6.7015     75.1028     20.3870
  1092.8000      7.9000      2.7492      0.1941     -6.0097     77.3719     19.7800
  1092.9000      7.9000      2.7189      0.1452     -4.1728     77.0584     18.6947
  1093.0000      7.8667      2.6731      0.1082     -1.3992     76.9766     17.5032
  1093.1000      7.8667      2.6333      0.0000      1.0101     77.6686     16.7798
  1093.2000      7.8667      2.6200     -0.0005      1.8161     77.1381     16.7743
  1093.3000      7.8695      2.6208      0.0387      1.7714     77.0948     17.0780
  1093.4000      7.8695      2.6123      0.0451      2.2852     79.3676     17.2092
  1093.5000      7.9397      2.5962     -0.0158      3.2627     82.1669     17.2586
  1093.6000      7.9397      2.5841      0.0153      3.9925     82.9337     17.5212
  1093.7000      7.9397      2.5825     -0.0312      4.0928     80.5503     17.8920
  1093.8000      8.0033      2.5949      0.0292      3.3401     78.8651     18.0183
  1093.9000      8.0033      2.6103      0.0480      2.4089     81.3195     17.9027
  1094.0000      8.0491      2.6108      0.0516      2.3760     85.8792     17.8421
  1094.1000      8.0491      2.5899      0.0349      3.6453     89.4210     18.0067
  1094.2000      8.0491      2.5619     -0.0119      5.3369     89.6370     18.3035
  1094.3000      8.0299      2.5523      0.0286      5.9194     87.0781     18.5146
  1094.4000      8.0299      2.5586      0.0390      5.5376     85.5415     18.4520
  1094.5000      7.9979      2.5604      0.0246      5.4333     86.6782     18.1166
  1094.6000      7.9979      2.5484      0.0381      6.1568     88.9728     17.9117
  1094.7000      7.9979      2.5257      0.0026      7.5352     90.9463     18.1528
  1094.8000      7.9998      2.5087     -0.0311      8.5666     92.4563     18.6130
  1094.9000      7.9998      2.5116      0.0160      8.3863     92.8351     18.8207
  1095.0000      7.9828      2.5247      0.0432      7.5909     92.7993     18.7463
  1095.1000      7.9828      2.5408     -0.0040      6.6211     94.1698     18.6463
  1095.2000      7.9828      2.5617      0.0551      5.3523     93.8814     18.6009
  1095.3000      7.9624      2.5685      0.1034      4.9414     89.6100     18.7371
  1095.4000      7.9624      2.5469      0.0437      6.2510     84.0212     18.8966
  1095.5000      7.9417      2.5210      0.0006      7.8197     80.2238     18.7648
  1095.6000      7.9417      2.5164      0.0028      8.0973     77.6540     18.5956
  1095.7000      7.9417      2.5288      0.0219      7.3440     77.4550     18.7103
  1095.8000      7.9327      2.5438      0.0317      6.4390     81.7638     19.1255
  1095.9000      7.9327      2.5494      0.0490      6.0972     85.2907     19.6605
  1096.0000      7.9781      2.5421      0.0056      6.5413     83.1428     19.7784
  1096.1000      7.9781      2.5322      0.0312      7.1378     78.9268     19.5129
  1096.2000      7.9781      2.5299     -0.0269      7.2794     77.5503     19.4507
  1096.3000      8.0213      2.5361      0.0245      6.9045     78.5624     19.5698
  1096.4000      8.0213      2.5380      0.0427      6.7869     78.9404     19.5831
  1096.5000      8.0704      2.5289      0.0286      7.3378     77.8569     19.4906
  1096.6000      8.0704      2.5196     -0.0367      7.9060     74.8378     19.4841
  1096.7000      8.0704      2.5123      0.0029      8.3465     70.0430     19.6280
  1096.8000      8.0255      2.5026     -0.0728      8.9342     67.0225     19.6285
  1096.9000      8.0255      2.5018     -0.0159      8.9790     67.0492     19.3075
  1097.0000      8.0271      2.5173      0.0110      8.0434     69.1341     19.0736
  1097.1000      8.0271      2.5368      0.0546      6.8609     73.9825     19.2704
  1097.2000      8.0271      2.5492      0.0567      6.1088     78.7195     19.5630
  1097.3000      8.0588      2.5621     -0.0087      5.3289     79.0717     19.6687
  1097.4000      8.0588      2.5802      0.0476      4.2283     76.1851     19.7793
  1097.5000      8.0559      2.5832      0.0806      4.0482     74.0657     19.8560
  1097.6000      8.0559      2.5666      0.0052      5.0545     74.5051     19.6733
  1097.7000      8.0559      2.5586     -0.0289      5.5379     75.8747     19.3473
  1097.8000      8.0640      2.5634      0.0473      5.2456     78.3366     19.1495
  1097.9000      8.0640      2.5573      0.0447      5.6181     84.9910     19.3734
  1098.0000      8.0284      2.5399      0.0300      6.6755     92.4634     19.9360
  1098.1000      8.0284      2.5293     -0.0235      7.3142     93.9365     20.3119
  1098.2000      8.0284      2.5308      0.0293      7.2250     90.1007     20.2773
  1098.3000      7.9996      2.5355      0.0322      6.9393     86.6123     19.9199
  1098.4000      7.9996      2.5390     -0.0032      6.7300     85.5667     19.4488
  1098.5000      8.0164      2.5416      0.0377      6.5682     84.9043     19.2171
  1098.6000      8.0164      2.5416     -0.0158      6.5677     82.8309     19.1638
  1098.7000      8.0164      2.5391      0.0142      6.7242     80.7963     18.9172
  1098.8000      7.9983      2.5277      0.0517      7.4100     80.3698     18.6579
  1098.9000      7.9983      2.5069     -0.0018      8.6732     80.6870     18.7023
  1099.0000      8.0047      2.4973     -0.0575      9.2568     80.8849     18.9054
  1099.1000      8.0047      2.5107      0.0175      8.4439     80.9816     19.0683
  1099.2000      8.0047      2.5333      0.0059      7.0714     79.7704     19.2152
  1099.3000      7.9956      2.5470      0.0900      6.2403     78.2800     19.4014
  1099.4000      7.9956      2.5456      0.0195      6.3268     79.3848     19.5916
  1099.5000      7.9871      2.5367      0.0629      6.8648     80.7463     19.5643
  1099.6000      7.9871      2.5295     -0.0014      7.3017     80.2783     19.3032
  1099.7000      7.9871      2.5316     -0.0028      7.1751     81.5124     19.2582
  1099.8000      7.9992      2.5386      0.1000      6.7505     84.1665     19.6444
  1099.9000      7.9992      2.5400      0.0312      6.6667     83.4348     19.9861
  1100.0000      7.9723      2.5388      0.0551      6.7370     81.5923     19.8152
  1100.1000      7.9723      2.5391      0.0801      6.7209     83.2927     19.2602
  1100.2000      7.9723      2.5431      0.0600      6.4812     85.1916     18.7474
  1100.3000      7.9686      2.5472      0.0655      6.2319     83.8846     18.5450
  1100.4000      7.9686      2.5356      0.0734      6.9339     83.4873     18.6787
  1100.5000      7.9572      2.5110     -0.0015      8.4238     86.6666     18.9807
  1100.6000      7.9572      2.5088     -0.0426      8.5575     88.9029     19.1986
  1100.7000      7.9572      2.5423      0.0797      6.5277     87.6175     19.3264
  1100.8000      7.9566      2.5792      0.0958      4.2911     86.7229     19.5150
  1100.9000      7.9566      2.5961      0.1019      3.2677     88.5690     19.7439
  1101.0000      7.9461      2.5965      0.0643      3.2452     91.0462     19.9253
  1101.1000      7.9461      2.5851      0.1141      3.9327     91.3101     19.9061
