~Version Information
VERS.                      2.0: CWLS Log ASCII Standard - VERSION 2.0
WRAP.                       NO: One line per depth step
~Well Information Block
STRT.FT                 0.0000: 
STOP.FT              2234.2500: 
STEP.FT                 0.2500: 
NULL.                -999.2500: 
COMP.          Pioner Natural Resources: COMPANY
WELL.          Casablanca 11-28 Tr: WELL
FLD.           Purgatoire River: FIELD
LOC.           422' FNL & 215' FWL--: LOCATION
PROV.                 Colorado: PROVINCE
CNTY.               Las Animas: COUNTRY
SRVC.                         : SERVICE COMPANY
DATE.          Fri Mar 11 13:02:46 2005: LOG DATE
UWI.           005 071 08314  : UNIQUE WELL ID
~Curve Information Block
DEPT.FT            0 000 00 00: Depth
CCL.                          : Casing Collar Locator
TT3.usec                      : CBL 3' Travel Time
AMP3.mV                       : CBL 3' Amplitude
AMP5.mV                       : CBL 5' Amplitude
GR.GAPI                       : Gamma Ray
~Parameter Information Block
~A  Depth       CCL         TT3         AMP3        AMP5         GR     
# ...
  1624.0000      0.0000    702.4489      4.6516     -0.7446    138.7144
  1624.2500      0.0000    719.0238      4.5727     -0.5705    132.8896
  1624.5000      0.0000    729.8159      4.4627     -0.6575    124.5731
  1624.7500      0.0000    736.4905      4.3349     -0.2223    115.2386
  1625.0000      0.0000    740.5959      4.2101     -0.8316    107.3088
  1625.2500      0.0000    742.5938      4.1111      0.1259    102.6820
  1625.5000      0.0000    742.6464      4.0563     -0.5705    101.6140
  1625.7500      0.0000    741.4517      4.0535     -0.6575    103.2544
  1626.0000      0.0000    740.5705      4.0944     -0.7446    106.6655
  1626.2500      0.0000    741.7257      4.1549     -1.0057    110.9872
  1626.5000      0.0000    745.4061      4.2059     -1.6150    115.2080
  1626.7500      0.0000    750.0287      4.2287     -0.9187    118.6644
  1627.0000      0.0000    752.2136      4.2234     -1.4409    121.8631
  1627.2500      0.0000    748.5636      4.2062     -1.3539    126.0939
  1627.5000      0.0000    738.9731      4.1948     -1.2668    131.7123
  1627.7500      0.0000    728.3262      4.1928     -1.1798    137.2738
  1628.0000      0.0000    722.8438      4.1939     -1.2668    140.9392
  1628.2500      0.0000    723.7670      4.2004     -1.3539    142.2900
  1628.5000      0.0000    725.7547      4.2303     -1.2668    142.0916
  1628.7500      0.0000    721.8569      4.2986     -1.6150    140.8522
  1629.0000      0.0000    709.3825      4.3956     -1.4409    138.5694
  1629.2500      0.0000    691.2289      4.4934     -1.3539    135.6634
  1629.5000      0.0000    672.7632      4.5702     -0.6575    133.2513
  1629.7500      0.0000    658.0523      4.6238     -0.5705    132.3743
  1630.0000      0.0000    648.5320      4.6646     -1.0927    133.3778
  1630.2500      0.0000    643.7226      4.6970     -0.9187    135.8294
  1630.5000      0.0000    642.1796      4.7113     -1.0927    138.6266
  1630.7500      0.0000    642.5343      4.6946     -1.2668    140.5749
  1631.0000      0.0000    644.8615      4.6553      1.2575    141.4356
  1631.2500      0.0000    650.9521      4.6277     -0.9187    142.2482
  1631.5000      0.0000    662.7391      4.6438     -0.0482    144.1223
  1631.7500      0.0000    680.5574      4.6980     -0.1352    146.7363
  1632.0000      0.0000    702.5333      4.7517     -0.4834    148.3622
  1632.2500      0.0000    724.9949      4.7776     -0.2223    147.3158
  1632.5000      0.0000    744.1642      4.7878     -0.3093    143.1699
  1632.7500      0.0000    758.3353      4.8099     -0.5705    136.8408
  1633.0000      0.0000    768.0563      4.8520     -0.8316    130.0755
  1633.2500     -5.0000    774.1969      4.9019     -0.1352    124.7315
  1633.5000      0.0000    776.6469      4.9471     -0.1352    121.9052
  1633.7500      0.0000    774.9006      4.9848     -0.0482    121.6727
  1634.0000      0.0000    769.3259      5.0202     -0.3964    123.8546
  1634.2500      0.0000    761.9218      5.0592     -0.3093    128.6515
  1634.5000      0.0000    755.7205      5.0923     -0.5705    136.0472
  1634.7500      0.0000    752.6392      5.0902     -0.2223    144.7174
  1635.0000      0.0000    751.9908      5.0314      0.1259    151.9803
  1635.2500      0.0000    751.6137      4.9292     -0.5705    155.0299
  1635.5000      0.0000    750.0155      4.8190     -1.3539    152.4559
  1635.7500      0.0000    747.2292      4.7239      0.6482    145.0288
  1636.0000      0.0000    744.4491      4.6465     -0.8316    135.3567
  1636.2500      0.0000    743.1817      4.5821     -1.4409    126.6938
  1636.5000      0.0000    744.1273      4.5267     -0.4834    121.4750
  1636.7500      0.0000    746.5922      4.4777     -0.8316    120.2060
  1637.0000      0.0000    749.1714      4.4385     -0.4834    121.4214
  1637.2500      0.0000    750.9270      4.4202     -0.8316    122.8615
  1637.5000      0.0000    751.7729      4.4312     -1.1798    123.0092
  1637.7500      0.0000    752.0622      4.4657     -1.1798    121.9915
  1638.0000      0.0000    752.0938      4.5084     -0.5705    121.3457
  1638.2500      0.0000    751.8868      4.5492     -0.5705    122.7978
  1638.5000      0.0000    751.0402      4.5884     -1.0927    127.0005
  1638.7500      0.0000    748.4808      4.6289     -1.1798    133.4064
  1639.0000      0.0000    742.4025      4.6656     -1.1798    141.0690
  1639.2500      0.0000    731.0823      4.6866     -0.7446    148.9634
  1639.5000      0.0000    714.6022      4.6821     -1.1798    155.5233
  1639.7500      0.0000    695.8766      4.6536     -1.2668    158.7272
  1640.0000      0.0000    679.3331      4.6135     -1.3539    157.3112
  1640.2500      0.0000    668.2621      4.5790     -0.6575    151.7621
  1640.5000      0.0000    663.6348      4.5656     -0.5705    143.8193
  1640.7500      0.0000    665.1498      4.5798     -0.8316    135.1154
  1641.0000      0.0000    672.4102      4.6125     -0.7446    126.4866
  1641.2500      0.0000    684.6027      4.6429     -1.1798    118.5285
  1641.5000      0.0000    699.6514      4.6530     -0.7446    112.4111
  1641.7500      0.0000    714.6618      4.6417     -0.8316    109.5520
  1642.0000      0.0000    727.4428      4.6224     -1.0057    110.1412
  1642.2500      0.0000    737.2372      4.6078     -1.0927    112.3121
  1642.5000      0.0000    744.1406      4.6000     -0.7446    113.3914
  1642.7500      0.0000    748.4945      4.5945     -1.0927    112.1962
  1643.0000      0.0000    750.8358      4.5912     -1.0057    109.9219
  1643.2500      0.0000    751.8405      4.5966     -0.8316    108.8548
  1643.5000      0.0000    751.9268      4.6149     -0.6575    110.4783
  1643.7500      0.0000    751.0580      4.6385     -0.7446    114.6576
  1644.0000      0.0000    749.3922      4.6528     -0.4834    119.9850
  1644.2500      0.0000    748.2607      4.6499     -0.7446    124.5830
  1644.5000      0.0000    749.5948      4.6344     -0.9187    126.9100
  1644.7500      0.0000    753.5046      4.6168     -1.0057    126.3313
  1645.0000      0.0000    757.1990      4.6054     -0.8316    123.2817
  1645.2500      0.0000    757.3492      4.6042     -0.4834    119.0931
  1645.5000      0.0000    752.8945      4.6140     -0.8316    115.5298
  1645.7500      0.0000    745.3511      4.6331     -0.3964    113.8599
  1646.0000      0.0000    737.8920      4.6582     -0.3964    113.7922
  1646.2500      0.0000    734.5219      4.6867     -0.2223    113.5207
  1646.5000      0.0000    738.1678      4.7170     -1.0927    111.4078
  1646.7500      0.0000    748.0818      4.7448     -0.8316    107.7330
  1647.0000      0.0000    759.6664      4.7619     -0.7446    104.7002
  1647.2500      0.0000    767.6340      4.7588     -0.6575    104.7729
  1647.5000      0.0000    769.4648      4.7308     -0.8316    108.7384
  1647.7500      0.0000    766.1540      4.6843     -2.0503    115.0545
  1648.0000      0.0000    759.9467      4.6366     -0.9187    121.0059
  1648.2500      0.0000    750.8336      4.6057     -1.0057    124.5501
  1648.5000      0.0000    734.8793      4.5974     -1.4409    125.2091
  1648.7500      0.0000    707.2064      4.6017     -0.7446    123.8514
  1649.0000      0.0000    669.1444      4.6028     -0.7446    122.1410
  1649.2500      0.0000    632.9250      4.5919     -1.0927    121.6787
  1649.5000      0.0000    616.0521      4.5715     -1.0927    122.6770
  1649.7500      0.0000    627.8432      4.5495     -0.7446    123.4654
  1650.0000      0.0000    661.7485      4.5325     -1.1798    122.0465
  1650.2500      0.0000    701.7603      4.5243     -1.4409    118.4832
  1650.5000      0.0000    734.8099      4.5300     -1.0057    115.3329
  1650.7500      0.0000    755.9789      4.5558     -0.9187    115.3156
  1651.0000      0.0000    764.7886      4.6000     -1.0927    118.6242
  1651.2500      0.0000    761.0812      4.6485     -0.8316    122.8746
  1651.5000      0.0000    745.9755      4.6849     -0.8316    125.6113
  1651.7500      0.0000    724.8068      4.7062     -0.8316    126.2645
