~Version Information
VERS.                      2.0: CWLS Log ASCII Standard - VERSION 2.0
WRAP.                       NO: One line per depth step
~Well Information Block
STRT.FT               860.0000: 
STOP.FT              2733.7000: 
STEP.FT                 0.1000: 
NULL.                -999.2500: 
COMP.          Pioneer Natural Resources: COMPANY
WELL.          Beacon 11-18 Tr: WELL
FLD.           Purgatoire River: FIELD
LOC.           409' FNL & 203' FWL: LOCATION
PROV.                 Colorado: PROVINCE
CNTY.               Las Animas: COUNTRY
SRVC.                Patterson: SERVICE COMPANY
DATE.          Mon Jan 17 07:36:09 2005: LOG DATE
UWI.           05 071 08251 00: UNIQUE WELL ID
~Curve Information Block
DEPT.FT            0 000 00 00: Depth
DCAL.in                       : CDL Caliper
RHOB.g/cc                     : CDL Bulk Density
RHOC.g/cc                     : CDL Density Correction
DPOR.pu                       : CDL Density Porosity
NPOR.pu                       : Neutron Porosity
GR.GAPI                       : Gamma Ray
~Parameter Information Block
~A  Depth       DCAL        RHOB        RHOC        DPOR        NPOR         GR     
# ...
  2338.4000      7.9923      2.6181      0.1129      1.9332     21.9072    119.3181
  2338.5000      7.9921      2.6187      0.0906      1.8983     21.6460    118.3532
  2338.6000      7.9921      2.6154      0.0638      2.0983     21.7908    112.5135
  2338.7000      7.9921      2.6161      0.1069      2.0554     21.9428    106.0160
  2338.8000      7.9905      2.6175      0.0363      1.9722     21.7176    102.9082
  2338.9000      7.9905      2.6225      0.0853      1.6671     21.4217    102.0117
  2339.0000      7.9849      2.6300      0.0880      1.2109     21.4386    101.8267
  2339.1000      7.9849      2.6381      0.0657      0.7196     21.4528    103.5674
  2339.2000      7.9849      2.6514      0.1093     -0.0867     21.3080    105.8424
  2339.3000      7.9793      2.6613      0.1540     -0.6843     21.3962    106.5558
  2339.4000      7.9793      2.6530      0.1396     -0.1839     21.8252    105.3136
  2339.5000      7.9821      2.6338      0.1145      0.9828     22.3834    101.4516
  2339.6000      7.9821      2.6202      0.1237      1.8056     22.5383     95.2071
  2339.7000      7.9821      2.6184      0.1105      1.9165     21.8164     91.3432
  2339.8000      7.9854      2.6313      0.1065      1.1304     20.9157     94.2668
  2339.9000      7.9854      2.6550      0.1119     -0.3036     20.5718    103.3403
  2340.0000      7.9859      2.6639      0.1555     -0.8410     20.1766    112.5543
  2340.1000      7.9859      2.6429      0.0795      0.4325     19.3484    117.8105
  2340.2000      7.9859      2.6156      0.0584      2.0861     18.7413    118.6247
  2340.3000      7.9894      2.6044      0.0820      2.7612     18.7739    112.3496
  2340.4000      7.9894      2.6064      0.0836      2.6419     19.2772     99.6233
  2340.5000      7.9979      2.6161      0.0349      2.0524     20.0003     88.4429
  2340.6000      7.9979      2.6331      0.0714      1.0216     20.6805     84.6408
  2340.7000      7.9979      2.6479      0.0626      0.1285     20.8412     87.1605
  2340.8000      8.0106      2.6510      0.0818     -0.0598     20.3410     91.7589
  2340.9000      8.0106      2.6402      0.1224      0.5915     19.5465     93.7561
  2341.0000      8.0249      2.6219      0.0693      1.7027     18.8822     93.4081
  2341.1000      8.0249      2.6097      0.0899      2.4414     18.7073     92.7192
  2341.2000      8.0249      2.6067      0.0935      2.6266     19.0384     92.9659
  2341.3000      8.0333      2.6115      0.0736      2.3312     19.3962     95.2481
  2341.4000      8.0333      2.6236      0.1188      1.5974     19.5711     97.2333
  2341.5000      8.0292      2.6376      0.0614      0.7499     20.1905     97.5854
  2341.6000      8.0292      2.6486      0.1137      0.0860     21.5065     98.0561
  2341.7000      8.0292      2.6542      0.0774     -0.2559     22.8563     99.6525
  2341.8000      8.0191      2.6572      0.1202     -0.4344     23.7876    102.6547
  2341.9000      8.0191      2.6553      0.0974     -0.3193     24.2374    106.5046
  2342.0000      8.0049      2.6524      0.0322     -0.1432     24.1665    108.4714
  2342.1000      8.0049      2.6584      0.0901     -0.5110     23.4083    107.1249
  2342.2000      8.0049      2.6774      0.0510     -1.6627     22.4482    103.8783
  2342.3000      7.9915      2.7142      0.1022     -3.8926     22.4847    101.8426
  2342.4000      7.9915      2.7648      0.1125     -6.9585     23.3362    105.0762
  2342.5000      7.9859      2.8109      0.1733     -9.7488     23.7564    111.9465
  2342.6000      7.9859      2.8322      0.2054    -11.0444     23.7412    115.1632
  2342.7000      7.9859      2.8230      0.1857    -10.4828     23.9432    111.6412
  2342.8000      7.9887      2.7893      0.1858     -8.4414     24.2131    104.2702
  2342.9000      7.9887      2.7445      0.1335     -5.7244     24.6568     98.8630
  2343.0000      7.9945      2.7141      0.0798     -3.8834     25.3383    100.7260
  2343.1000      7.9945      2.7190      0.0627     -4.1797     25.6301    109.4724
  2343.2000      7.9945      2.7396      0.1064     -5.4315     25.6042    116.7188
  2343.3000      8.0016      2.7290      0.1116     -4.7861     25.7627    119.2103
  2343.4000      8.0016      2.6782      0.0400     -1.7098     26.0920    124.5483
  2343.5000      8.0067      2.6306      0.0046      1.1771     26.0585    134.0638
  2343.6000      8.0067      2.6211      0.0372      1.7505     25.4423    142.0397
  2343.7000      8.0067      2.6329      0.0856      1.0344     24.8964    147.2218
  2343.8000      8.0046      2.6276      0.0878      1.3573     25.0163    148.7343
  2343.9000      8.0046      2.5955      0.0878      3.3026     25.6738    145.3591
  2344.0000      8.0058      2.5566      0.0938      5.6601     26.5576    139.6844
  2344.1000      8.0058      2.5286      0.0928      7.3557     27.6430    138.3095
  2344.2000      8.0058      2.5183      0.0883      7.9793     28.2097    145.2625
  2344.3000      8.0187      2.5258      0.0731      7.5259     27.8085    151.5461
  2344.4000      8.0187      2.5374      0.1323      6.8252     27.3959    152.2388
  2344.5000      8.0414      2.5413      0.1108      6.5871     27.5517    153.9627
  2344.6000      8.0414      2.5428      0.1162      6.4993     27.8409    155.2923
  2344.7000      8.0414      2.5427      0.1140      6.5044     28.1919    152.8821
  2344.8000      8.0801      2.5408      0.1026      6.6173     28.8304    152.2136
  2344.9000      8.0801      2.5449      0.1006      6.3679     29.3485    155.6059
  2345.0000      8.1348      2.5435      0.1403      6.4555     29.2521    159.5124
  2345.1000      8.1348      2.5194      0.0796      7.9124     28.9544    160.5118
  2345.2000      8.1348      2.4893      0.0762      9.7381     29.1699    157.9210
  2345.3000      8.1701      2.4715      0.1126     10.8208     29.8107    154.2072
  2345.4000      8.1701      2.4618      0.0994     11.4076     30.2388    152.2780
  2345.5000      8.1808      2.4521      0.1314     11.9926     30.0380    153.8905
  2345.6000      8.1808      2.4347      0.1172     13.0499     29.3515    157.4341
  2345.7000      8.1808      2.4086      0.0854     14.6309     28.9513    153.7256
  2345.8000      8.1890      2.3757      0.1091     16.6255     29.4016    143.3297
  2345.9000      8.1890      2.3236      0.1146     19.7838     30.2450    141.8876
  2346.0000      8.2012      2.2370      0.0509     25.0328     30.9208    151.6781
  2346.1000      8.2012      2.1214      0.0007     32.0338     31.6761    157.9931
  2346.2000      8.2012      2.0008     -0.0282     39.3425     32.9123    152.7435
  2346.3000      8.2071      1.8989     -0.0786     45.5199     34.0874    139.3976
  2346.4000      8.2071      1.8269     -0.0716     49.8831     34.4084    125.3175
  2346.5000      8.2064      1.7834     -0.0432     52.5184     34.0672    114.4241
  2346.6000      8.2064      1.7646      0.0245     53.6636     33.4109    104.5567
  2346.7000      8.2064      1.7722      0.0523     53.2006     32.6567     96.5438
  2346.8000      8.2003      1.8072      0.1317     51.0806     32.1669     93.1598
  2346.9000      8.2003      1.8585      0.1984     47.9711     31.8349     89.7502
  2347.0000      8.1826      1.9189      0.1858     44.3068     31.4933     83.0102
  2347.1000      8.1826      1.9926      0.2242     39.8419     31.4411     77.4199
  2347.2000      8.1826      2.0705      0.2463     35.1213     31.7312     75.1096
  2347.3000      8.1570      2.1337      0.2295     31.2928     31.8461     73.2447
  2347.4000      8.1570      2.1728      0.1996     28.9206     31.7402     70.7532
  2347.5000      8.1472      2.1873      0.1279     28.0434     31.7112     71.2252
  2347.6000      8.1472      2.1806      0.1040     28.4468     31.8165     76.4970
  2347.7000      8.1472      2.1615      0.0727     29.6050     32.2325     82.4904
  2347.8000      8.1498      2.1508      0.0097     30.2547     32.7562     86.0618
  2347.9000      8.1498      2.1635      0.0645     29.4852     32.8139     89.7220
