~Version Information
VERS.                      2.0: CWLS Log ASCII Standard - VERSION 2.0
WRAP.                       NO: One line per depth step
~Well Information Block
STRT.FT               675.0000: 
STOP.FT              2373.5000: 
STEP.FT                 0.2500: 
NULL.                -999.2500: 
COMP.          Pioneer Natural Resources: COMPANY
WELL.            Harrier 44-33: WELL
FLD.           Purgatoire River: FIELD
LOC.           456' FSL & 930' FEL: LOCATION
PROV.                 Colorado: PROVINCE
CNTY.               Las Animas: COUNTRY
SRVC.                Patterson: SERVICE COMPANY
DATE.          Mon Jun 20 07:40:56 2005: LOG DATE
UWI.           05 071 08398 00: UNIQUE WELL ID
~Curve Information Block
DEPT.FT            0 000 00 00: Depth
SN.Ohm-m                      : IEL Short Normal
SP.mV                         : IEL Spontaneous Potential
DIR.Ohm-m                     : IEL Induction Resistivity
GR.GAPI                       : Gamma Ray
~Parameter Information Block
~A  Depth        SN          SP         DIR          GR     
# ...
  1244.5000   2000.0000   2000.0000     40.8650    124.3013
  1244.7500   2000.0000   2000.0000     25.0392    128.3485
  1245.0000   2000.0000   2000.0000     19.4760    132.2922
  1245.2500   2000.0000   2000.0000     17.6582    133.5784
  1245.5000   2000.0000   2000.0000     17.7786    134.1180
  1245.7500   2000.0000   2000.0000     19.2584    133.8795
  1246.0000   2000.0000   2000.0000     21.8889    132.6358
  1246.2500   2000.0000   2000.0000     25.4535    130.8171
  1246.5000   2000.0000   2000.0000     29.4300    125.7777
  1246.7500   2000.0000   2000.0000     32.8551    120.9353
  1247.0000   2000.0000   2000.0000     34.6244    113.0667
  1247.2500   2000.0000   2000.0000     34.1264    108.8284
  1247.5000   2000.0000   2000.0000     31.5852    105.6960
  1247.7500   2000.0000   2000.0000     27.8414    105.8687
  1248.0000   2000.0000   2000.0000     23.8612    108.4231
  1248.2500   2000.0000   2000.0000     20.3289    110.6864
  1248.5000   2000.0000   2000.0000     17.5296    113.4892
  1248.7500   2000.0000   2000.0000     15.4640    114.5599
  1249.0000   2000.0000   2000.0000     14.0078    114.9902
  1249.2500   2000.0000   2000.0000     13.0172    114.6857
  1249.5000   2000.0000   2000.0000     12.3754    113.5343
  1249.7500   2000.0000   2000.0000     12.0067    112.1845
  1250.0000   2000.0000   2000.0000     11.8723    108.8053
  1250.2500   2000.0000   2000.0000     11.9543    105.6235
  1250.5000   2000.0000   2000.0000     12.2360    100.5889
  1250.7500   2000.0000   2000.0000     12.6866     98.1802
  1251.0000   2000.0000   2000.0000     13.2554     97.2794
  1251.2500   2000.0000   2000.0000     13.8789     98.3397
  1251.5000   2000.0000   2000.0000     14.4980    101.1654
  1251.7500   2000.0000   2000.0000     15.0733    103.2873
  1252.0000   2000.0000   2000.0000     15.5887    106.5477
  1252.2500   2000.0000   2000.0000     16.0428    108.6525
  1252.5000   2000.0000   2000.0000     16.4388    111.0781
  1252.7500   2000.0000   2000.0000     16.7823    111.8796
  1253.0000   2000.0000   2000.0000     17.0858    111.9409
  1253.2500   2000.0000   2000.0000     17.3705    111.4993
  1253.5000   2000.0000   2000.0000     17.6596    110.3423
  1253.7500   2000.0000   2000.0000     17.9670    109.1602
  1254.0000   2000.0000   2000.0000     18.2934    106.6352
  1254.2500   2000.0000   2000.0000     18.6285    104.4487
  1254.5000   2000.0000   2000.0000     18.9579    100.2754
  1254.7500   2000.0000   2000.0000     19.2674     96.7013
  1255.0000   2000.0000   2000.0000     19.5437     90.1652
  1255.2500   2000.0000   2000.0000     19.7755     85.5564
  1255.5000   2000.0000   2000.0000     19.9586     79.9022
  1255.7500   2000.0000   2000.0000     20.1035     77.8693
  1256.0000   2000.0000   2000.0000     20.2366     78.0275
  1256.2500   2000.0000   2000.0000     20.3895     79.9910
  1256.5000   2000.0000   2000.0000     20.5822     84.6091
  1256.7500   2000.0000   2000.0000     20.8125     88.0457
  1257.0000   2000.0000   2000.0000     21.0601     92.3633
  1257.2500   2000.0000   2000.0000     21.3033     93.9061
  1257.5000   2000.0000   2000.0000     21.5366     93.5992
  1257.7500   2000.0000   2000.0000     21.7755     92.0819
  1258.0000   2000.0000   2000.0000     22.0468     89.4758
  1258.2500   2000.0000   2000.0000     22.3723     88.2304
  1258.5000   2000.0000   2000.0000     22.7582     87.1586
  1258.7500   2000.0000   2000.0000     23.1900     86.7130
  1259.0000   2000.0000   2000.0000     23.6285     86.4078
  1259.2500   2000.0000   2000.0000     24.0149     86.5656
  1259.5000   2000.0000   2000.0000     24.2897     87.0749
  1259.7500   2000.0000   2000.0000     24.4200     87.2209
  1260.0000   2000.0000   2000.0000     24.4117     87.0585
  1260.2500   2000.0000   2000.0000     24.2959     87.1670
  1260.5000   2000.0000   2000.0000     24.1115     88.4907
  1260.7500   2000.0000   2000.0000     23.9096     90.0740
  1261.0000   2000.0000   2000.0000     23.7720     92.3880
  1261.2500   2000.0000   2000.0000     23.8097     93.1398
  1261.5000   2000.0000   2000.0000     24.1227     92.3538
  1261.7500   2000.0000   2000.0000     24.7470     90.6147
  1262.0000   2000.0000   2000.0000     25.6258     87.2393
  1262.2500   2000.0000   2000.0000     26.6346     85.5024
  1262.5000   2000.0000   2000.0000     27.6481     85.1105
  1262.7500   2000.0000   2000.0000     28.5920     86.3399
  1263.0000   2000.0000   2000.0000     29.4206     88.9250
  1263.2500   2000.0000   2000.0000     30.0398     90.0814
  1263.5000   2000.0000   2000.0000     30.2662     90.1784
  1263.7500   2000.0000   2000.0000     29.8951     89.3239
  1264.0000   2000.0000   2000.0000     28.8478     87.1305
  1264.2500   2000.0000   2000.0000     27.2606     85.1537
  1264.5000   2000.0000   2000.0000     25.4218     81.6071
  1264.7500   2000.0000   2000.0000     23.6308     79.1234
  1265.0000   2000.0000   2000.0000     22.0969     75.6203
  1265.2500   2000.0000   2000.0000     20.9163     73.4506
  1265.5000   2000.0000   2000.0000     20.0939     70.3083
  1265.7500   2000.0000   2000.0000     19.5765     68.2914
  1266.0000   2000.0000   2000.0000     19.2905     65.4767
  1266.2500   2000.0000   2000.0000     19.1832     63.7852
  1266.5000   2000.0000   2000.0000     19.2708     61.7627
  1266.7500   2000.0000   2000.0000     19.6953     61.0397
  1267.0000   2000.0000   2000.0000     20.8146     61.3873
  1267.2500   2000.0000   2000.0000     23.4387     62.8226
  1267.5000   2000.0000   2000.0000     29.7485     67.3291
  1267.7500   2000.0000   2000.0000     48.9314     72.2441
  1268.0000   2000.0000   2000.0000    265.1749     82.5533
  1268.2500   2000.0000   2000.0000 100000.0000     90.8872
  1268.5000   2000.0000   2000.0000 100000.0000    103.8816
  1268.7500   2000.0000   2000.0000 100000.0000    111.6937
  1269.0000   2000.0000   2000.0000 100000.0000    120.5905
  1269.2500   2000.0000   2000.0000 100000.0000    124.3635
  1269.5000   2000.0000   2000.0000 100000.0000    127.4884
  1269.7500   2000.0000   2000.0000 100000.0000    128.7567
  1270.0000   2000.0000   2000.0000 100000.0000    130.9925
  1270.2500   2000.0000   2000.0000 100000.0000    133.2201
  1270.5000   2000.0000   2000.0000 100000.0000    137.5368
  1270.7500   2000.0000   2000.0000 100000.0000    140.5530
  1271.0000   2000.0000   2000.0000 100000.0000    144.2006
  1271.2500   2000.0000   2000.0000 100000.0000    145.5864
  1271.5000   2000.0000   2000.0000 100000.0000    146.1236
  1271.7500   2000.0000   2000.0000 100000.0000    145.9519
  1272.0000   2000.0000   2000.0000 100000.0000    145.6346
  1272.2500   2000.0000   2000.0000 100000.0000    145.2292
  1272.5000   2000.0000   2000.0000 100000.0000    143.4855
  1272.7500   2000.0000   2000.0000 100000.0000    141.4074
  1273.0000   2000.0000   2000.0000 100000.0000    137.6664
  1273.2500   2000.0000   2000.0000 100000.0000    135.4986
  1273.5000   2000.0000   2000.0000 100000.0000    134.0366
  1273.7500   2000.0000   2000.0000 100000.0000    134.9000
  1274.0000   2000.0000   2000.0000 100000.0000    139.2805
  1274.2500   2000.0000   2000.0000 100000.0000    143.5644
  1274.5000   2000.0000   2000.0000      3.7880    149.3759
  1274.7500   2000.0000   2000.0000      1.5555    151.1402
  1275.0000   2000.0000   2000.0000      0.9041    148.7900
  1275.2500   2000.0000   2000.0000      0.6225    143.5813
  1275.5000   2000.0000   2000.0000      0.4836    130.6616
  1275.7500   2000.0000   2000.0000      0.4184    119.2846
  1276.0000   2000.0000   2000.0000      0.4013     99.8627
  1276.2500   2000.0000   2000.0000      0.4242     86.5932
  1276.5000   2000.0000   2000.0000      0.4895     68.1776
  1276.7500   2000.0000   2000.0000      0.6122     57.7375
  1277.0000   2000.0000   2000.0000      0.8306     45.5543
  1277.2500   2000.0000   2000.0000      1.2375     39.7153
  1277.5000   2000.0000   2000.0000      2.0741     33.6482
  1277.7500   2000.0000   2000.0000      4.0393     30.7950
