~Version Information
VERS.                      2.0: CWLS Log ASCII Standard - VERSION 2.0
WRAP.                       NO: One line per depth step
~Well Information Block
STRT.FT               430.0000: 
STOP.FT              1910.2500: 
STEP.FT                 0.2500: 
NULL.                -999.2500: 
COMP.          Pioneer Natural Resources: COMPANY
WELL.          Formula 23-11 Tr: WELL
FLD.           Purgatoire River: FIELD
LOC.           1976' FSL & 1935' FWL--: LOCATION
PROV.                 Colorado: PROVINCE
CNTY.               Las Animas: COUNTRY
SRVC.                Patterson: SERVICE COMPANY
DATE.          Fri Jun 10 22:41:39 2005: LOG DATE
UWI.           05 071 08399 00: UNIQUE WELL ID
~Curve Information Block
DEPT.FT            0 000 00 00: Depth
SN.Ohm-m                      : IEL Short Normal
SP.mV                         : IEL Spontaneous Potential
DIR.Ohm-m                     : IEL Induction Resistivity
GR.GAPI                       : Gamma Ray
~Parameter Information Block
~A  Depth        SN          SP         DIR          GR     
# ...
  1401.5000     23.3513   -128.6566     20.7907    118.0177
  1401.7500     23.4244   -128.6059     20.9864    120.0775
  1402.0000     23.4406   -128.5479     21.1277    123.4042
  1402.2500     23.3853   -128.4935     21.2240    125.2632
  1402.5000     23.2153   -128.4516     21.2734    126.1319
  1402.7500     22.8933   -128.4270     21.2572    125.1854
  1403.0000     22.4210   -128.4196     21.1495    122.6939
  1403.2500     21.8487   -128.4231     20.9358    121.3498
  1403.5000     21.2598   -128.4255     20.6262    120.5962
  1403.7500     20.7446   -128.4110     20.2543    120.7987
  1404.0000     20.3758   -128.3646     19.8664    122.0065
  1404.2500     20.1905   -128.2764     19.5091    123.6830
  1404.5000     20.1834   -128.1463     19.2200    127.9108
  1404.7500     20.3194   -127.9854     19.0200    131.5854
  1405.0000     20.5581   -127.8135     18.9121    137.0197
  1405.2500     20.8744   -127.6538     18.8888    139.7110
  1405.5000     21.2604   -127.5271     18.9463    141.3925
  1405.7500     21.7107   -127.4466     19.0963    140.8532
  1406.0000     22.2161   -127.4162     19.3652    138.0298
  1406.2500     22.7818   -127.4328     19.7833    135.1338
  1406.5000     23.4616   -127.4898     20.3736    129.5435
  1406.7500     24.3775   -127.5811     21.1493    125.1913
  1407.0000     25.6961   -127.7038     22.1179    118.7122
  1407.2500     27.5570   -127.8587     23.2863    115.1600
  1407.5000     29.9855   -128.0479     24.6628    111.2546
  1407.7500     32.8423   -128.2723     26.2525    108.8047
  1408.0000     35.8463   -128.5273     28.0437    103.3566
  1408.2500     38.6711   -128.8007     29.9867     98.0283
  1408.5000     41.0688   -129.0718     31.9702     88.5826
  1408.7500     42.9393   -129.3135     33.8141     82.6025
  1409.0000     44.2830   -129.4964     35.2945     75.8979
  1409.2500     45.0841   -129.5962     36.2014     73.2770
  1409.5000     45.2483   -129.5995     36.4032     71.4768
  1409.7500     44.6627   -129.5081     35.8904     70.8906
  1410.0000     43.3167   -129.3387     34.7763     69.8545
  1410.2500     41.3663   -129.1181     33.2564     69.2655
  1410.5000     39.0812   -128.8753     31.5443     70.5964
  1410.7500     36.7176   -128.6334     29.8145     74.4368
  1411.0000     34.4122   -128.4051     28.1713     85.5261
  1411.2500     32.1728   -128.1922     26.6486     95.4043
  1411.5000     29.9552   -127.9902     25.2321    110.3236
  1411.7500     27.7523   -127.7939     23.8923    118.5118
  1412.0000     25.6273   -127.6038     22.6124    127.3345
  1412.2500     23.6865   -127.4280     21.4000    131.5461
  1412.5000     22.0289   -127.2824     20.2820    136.6271
  1412.7500     20.7011   -127.1853     19.2933    139.4959
  1413.0000     19.6834   -127.1527     18.4658    143.0496
  1413.2500     18.9186   -127.1932     17.8214    144.8823
  1413.5000     18.3530   -127.3039     17.3664    146.8095
  1413.7500     17.9497   -127.4704     17.0894    147.5941
  1414.0000     17.6730   -127.6688     16.9624    148.0912
  1414.2500     17.4792   -127.8700     16.9450    147.7927
  1414.5000     17.3351   -128.0461     16.9896    145.6889
  1414.7500     17.2497   -128.1749     17.0465    142.9373
  1415.0000     17.2801   -128.2435     17.0686    137.4450
  1415.2500     17.4917   -128.2476     17.0142    133.8608
  1415.5000     17.8972   -128.1880     16.8431    130.3818
  1415.7500     18.4301   -128.0664     16.5124    129.8286
  1416.0000     18.9792   -127.8820     15.9845    131.1497
  1416.2500     19.4490   -127.6326     15.2623    132.6588
  1416.5000     19.7934   -127.3195     14.4311    134.4922
  1416.7500     20.0080   -126.9547     13.6676    134.8849
  1417.0000     20.1078   -126.5661     13.2168    133.8154
  1417.2500     20.1166   -126.1986     13.3997    132.0658
  1417.5000     20.0675   -125.9083     14.7665    128.5490
  1417.7500     20.0005   -125.7518     18.7376    126.2404
  1418.0000     19.9510   -125.7734     31.2565    123.8356
  1418.2500     19.9375   -125.9963    146.5552    123.1028
  1418.5000     19.9584   -126.4183 100000.0000    122.6792
  1418.7500     20.0002   -127.0159 100000.0000    122.3488
  1419.0000     20.0458   -127.7535 100000.0000    121.5414
  1419.2500     20.0761   -128.5945 100000.0000    120.9974
  1419.5000     20.0684   -129.5126 100000.0000    120.5981
  1419.7500     20.0022   -130.4995 100000.0000    120.7723
  1420.0000     19.8714   -131.5701     72.2265    121.8342
  1420.2500     19.6906   -132.7638     39.3334    123.0031
  1420.5000     19.4882   -134.1446     28.9725    124.9181
  1420.7500     19.2934   -135.7988     22.2743    125.8947
  1421.0000     19.1245   -137.8334     16.6833    126.6298
  1421.2500     18.9843   -140.3722     12.3804    126.9236
  1421.5000     18.8605   -143.5505      9.5059    127.9814
  1421.7500     18.7306   -147.5082      7.8772    129.4336
  1422.0000     18.5694   -152.3833      7.3792    132.5675
  1422.2500     18.3581   -158.3077      8.4732    134.8816
  1422.5000     18.0842   -165.4095     15.4610    137.7663
  1422.7500     17.7217   -173.8233 100000.0000    138.8514
  1423.0000     17.2029   -183.7065 100000.0000    139.2565
  1423.2500     16.4111   -195.2560 100000.0000    139.3393
  1423.5000     15.2189   -208.7160 100000.0000    140.5555
  1423.7500     13.5625   -224.3624 100000.0000    142.4553
  1424.0000     11.5067   -242.4573 100000.0000    146.2673
  1424.2500      9.2502   -263.1726     33.3426    148.4765
  1424.5000      7.0536   -286.4949      1.8736    149.7501
  1424.7500      5.1301   -312.1421      0.7482    149.1456
  1425.0000      3.5784   -339.5123      0.4166    147.3408
  1425.2500      2.3968   -367.6988      0.2894    146.2236
  1425.5000      1.5404   -395.5712      0.2577    144.2952
  1425.7500      0.9570   -421.9120      0.2977    141.9371
  1426.0000      0.5902   -445.5716      0.4249    135.4375
  1426.2500      0.3821   -465.6013      0.6988    128.8319
  1426.5000      0.2843   -481.3271      1.2851    115.8677
  1426.7500      0.2627   -492.3615      2.7323    105.8616
  1427.0000      0.2909   -498.5563      8.6200     90.6083
  1427.2500      0.3445   -499.9329 100000.0000     81.4490
  1427.5000      0.4022   -496.6308 100000.0000     70.7204
  1427.7500      0.4550   -488.8855 100000.0000     65.9635
  1428.0000      0.5267   -477.0458 100000.0000     62.6171
  1428.2500      0.7191   -461.6041 100000.0000     62.9095
  1428.5000      1.2825   -443.2137 100000.0000     66.5660
  1428.7500      2.6828   -422.6718     96.1543     70.3803
  1429.0000      5.5808   -400.8609      5.4598     76.7795
  1429.2500     10.6416   -378.6633      2.3591     81.0283
  1429.5000     18.2098   -356.8737      1.3624     86.9915
  1429.7500     28.0587   -336.1332      0.9358     90.4243
  1430.0000     39.4111   -316.8900      0.7603     94.1382
  1430.2500     51.2181   -299.3947      0.7469     95.3760
  1430.5000     62.4980   -283.7149      0.9102     95.2755
  1430.7500     72.5605   -269.7680      1.4407     94.1024
  1431.0000     81.0712   -257.3636      3.6291     91.4983
  1431.2500     87.9989   -246.2566 100000.0000     89.8806
  1431.5000     93.5097   -236.2026 100000.0000     88.7230
  1431.7500     97.8554   -227.0116 100000.0000     89.0778
  1432.0000    101.2942   -218.5813 100000.0000     90.7784
  1432.2500    104.0555   -210.9014 100000.0000     91.9135
  1432.5000    106.3332   -204.0343 100000.0000     92.3821
  1432.7500    108.2789   -198.0779 100000.0000     91.7006
  1433.0000    109.9834   -193.1210     89.0638     89.7860
  1433.2500    111.4705   -189.2138     15.9151     88.3597
  1433.5000    112.7302   -186.3473     11.4915     86.3722
  1433.7500    113.7788   -184.4507     11.2557     85.1387
  1434.0000    114.6965   -183.4008     13.1374     83.2646
  1434.2500    115.6043   -183.0429     18.2518     81.9663
  1434.5000    116.6004   -183.2201     35.5990     80.0536
  1434.7500    117.7123   -183.8074 100000.0000     78.8085
