~Version Information
VERS.                      2.0: CWLS Log ASCII Standard - VERSION 2.0
WRAP.                       NO: One line per depth step
~Well Information Block
STRT.FT                -2.7500: 
STOP.FT              2141.2500: 
STEP.FT                 0.2500: 
NULL.                -999.2500: 
COMP.          Pioneer Nautural Resources: COMPANY
WELL.             Enzo 43-8 Tr: WELL
FLD.           Purgatorie River: FIELD
LOC.           2303' FSL & 604' FEL--: LOCATION
PROV.                       CO: PROVINCE
CNTY.               Las Animas: COUNTRY
SRVC.                         : SERVICE COMPANY
DATE.          Thu Nov 04 09:01:55 2004: LOG DATE
UWI.            05-071-08213  : UNIQUE WELL ID
~Curve Information Block
DEPT.FT            0 000 00 00: Depth
GR.GAPI                       : Gamma Ray
CCL.                          : Casing Collar Locator
TT3.usec                      : CBL 3' Travel Time
AMP3.mV                       : CBL 3' Amplitude
~Parameter Information Block
~A  Depth        GR         CCL         TT3         AMP3    
# ...
  1136.2500    148.8690      0.0000    862.7403      5.5473
  1136.5000    157.1054      0.0000    860.9996      5.5544
  1136.7500    165.1940      0.0000    864.4696      5.4539
  1137.0000    170.8316      0.0000    867.3662      5.3400
  1137.2500    172.0566      0.0000    865.5766      5.2184
  1137.5000    168.5432      0.0000    861.0145      5.0746
  1137.7500    161.8195      0.0000    858.8146      4.9219
  1138.0000    154.2075      0.0000    861.8011      4.7863
  1138.2500    147.4429      0.0000    868.5802      4.6819
  1138.5000    141.9553      0.0000    876.0416      4.6087
  1138.7500    137.1219      0.0000    882.6523      4.5579
  1139.0000    132.1835      0.0000    889.3030      4.5145
  1139.2500    127.1226      0.0000    897.1174      4.4593
  1139.5000    122.7906      0.0000    905.0326      4.3798
  1139.7500    120.1518      0.0000    910.1582      4.2820
  1140.0000    119.3676      0.0000    910.1423      4.1880
  1140.2500    119.8194      0.0000    904.8969      4.1253
  1140.5000    120.9866      0.0000    896.5232      4.1124
  1140.7500    122.7706      0.0000    887.5999      4.1489
  1141.0000    124.8242      0.0000    879.3275      4.2157
  1141.2500    126.4501      0.0000    871.9026      4.2880
  1141.5000    127.6112      0.0000    866.2524      4.3497
  1141.7500    129.1546      0.0000    863.1247      4.3969
  1142.0000    131.3751      0.0000    860.2916      4.4307
  1142.2500    133.1723      0.0000    853.5743      4.4559
  1142.5000    133.2762      0.0000    841.6664      4.4851
  1142.7500    131.6512      0.0000    827.9548      4.5386
  1143.0000    129.1773      0.0000    817.0639      4.6311
  1143.2500    126.4930      0.0000    811.2567      4.7557
  1143.5000    123.7039      0.0000    810.5764      4.8892
  1143.7500    120.9487      0.0000    814.7573      5.0187
  1144.0000    118.7380      0.0000    823.6950      5.1549
  1144.2500    117.6632      0.0000    836.2438      5.3065
  1144.5000    118.0264      0.0000    849.2861      5.4506
  1144.7500    119.9776      0.0000    858.3243      5.5446
  1145.0000    123.8137      0.0000    859.3130      5.5719
  1145.2500    129.6955      0.0000    851.0961      5.5610
  1145.5000    136.8589      0.0000    836.9848      5.5522
  1145.7500    143.3308      0.0000    823.2104      5.5554
  1146.0000    146.9383      0.0000    815.0146      5.5476
  1146.2500    146.8838      0.0000    814.1079      5.5047
  1146.5000    144.1563      0.0000    818.7635      5.4293
  1146.7500    140.4691      0.0000    824.8914      5.3480
  1147.0000    137.2086      0.0000    827.8676      5.2857
  1147.2500    135.1586      0.0000    825.3994      5.2479
  1147.5000    134.4186      0.0000    819.0535      5.2258
  1147.7500    134.3501      0.0000    812.3157      5.2149
  1148.0000    134.0321      0.0000    807.4180      5.2198
  1148.2500    132.9712      0.0000    804.2558      5.2426
  1148.5000    131.1825      0.0000    801.4914      5.2733
  1148.7500    128.5467      0.0000    798.1113      5.2970
  1149.0000    124.5696      0.0000    794.3969      5.3032
  1149.2500    119.2692      0.0000    791.8455      5.2881
  1149.5000    114.1201      0.0000    791.8781      5.2541
  1149.7500    111.5156      0.0000    794.3848      5.2095
  1150.0000    113.0308      0.0000    797.7313      5.1611
  1150.2500    118.2929      0.0000    800.1324      5.1056
  1150.5000    125.2836      0.0000    800.7258      5.0349
  1150.7500    131.4039      0.0000    799.5544      4.9508
  1151.0000    134.5887      0.0000    797.2620      4.8714
  1151.2500    134.0824      0.0000    795.1068      4.8175
  1151.5000    130.2783      0.0000    794.7122      4.7938
  1151.7500    123.7531      0.0000    797.2158      4.7888
  1152.0000    114.8690      0.0000    802.5631      4.7934
  1152.2500    104.4715      0.0000    809.4454      4.8140
  1152.5000     94.3455      0.0000    815.5750      4.8647
  1152.7500     86.3781      0.0000    818.5089      4.9518
  1153.0000     81.4373      0.0000    817.2466      5.0638
  1153.2500     79.3740      0.0000    813.1235      5.1740
  1153.5000     79.8054      0.0000    808.6136      5.2576
  1153.7500     82.2961      0.0000    805.3622      5.3081
  1154.0000     85.8547      0.0000    803.5595      5.3345
  1154.2500     89.0728      0.0000    802.6318      5.3438
  1154.5000     91.4115      0.0000    801.8928      5.3365
  1154.7500     94.1112      0.0000    800.5842      5.3176
  1155.0000     99.0680      0.0000    797.7436      5.3007
  1155.2500    106.6254      0.0000    792.5493      5.2967
  1155.5000    114.8723      0.0000    785.1991      5.3007
  1155.7500    121.2015      0.0000    777.5186      5.2929
  1156.0000    124.3743      0.0000    772.2472      5.2571
  1156.2500    125.2440      0.0000    771.1253      5.2009
  1156.5000    125.7187      0.0000    773.3140      5.1565
  1156.7500    126.9186      0.0000    775.7626      5.1572
  1157.0000    128.2476      0.0000    775.5536      5.2134
  1157.2500    128.3238      0.0000    772.1548      5.3096
  1157.5000    126.7356      0.0000    767.3824      5.4182
  1157.7500    124.7586      0.0000    763.4554      5.5169
  1158.0000    124.2685      0.0000    761.5593      5.5959
  1158.2500    125.8411      0.0000    761.9288      5.6503
  1158.5000    128.0439      0.0000    764.3022      5.6675
  1158.7500    128.8828      0.0000    767.8039      5.6378
  1159.0000    127.7452      0.0000    770.8467      5.5798
  1159.2500    125.5544      0.0000    771.7946      5.5413
  1159.5000    123.4253      0.0000    769.9806      5.5608
  1159.7500    121.7177      0.0000    766.2009      5.6297
  1160.0000    120.1141      0.0000    762.3110      5.6995
  1160.2500    118.0874      0.0000    760.2961      5.7242
  1160.5000    115.2887      0.0000    761.4955      5.6948
  1160.7500    111.7262      0.0000    766.2181      5.6417
  1161.0000    107.7987      0.0000    773.4598      5.6069
  1161.2500    104.3844      0.0000    781.0083      5.6108
  1161.5000    102.6104      0.0000    786.6505      5.6430
  1161.7500    102.9626      0.0000    789.8955      5.6847
  1162.0000    104.7084      0.0000    792.2659      5.7334
  1162.2500    106.5207      0.0000    795.6448      5.8042
  1162.5000    107.4838      0.0000    800.5042      5.9079
  1162.7500    107.4345      0.0000    805.6230      6.0296
  1163.0000    106.6639      0.0000    809.1451      6.1272
  1163.2500    105.3576      0.0000    810.2760      6.1575
  1163.5000    103.3572      0.0000    810.3622      6.1076
  1163.7500    100.7140      0.0000    811.6231      5.9998
  1164.0000     98.3499      0.0000    814.3450      5.8672
  1164.2500     97.6487      0.0000    816.2571      5.7291
  1164.5000     99.3533      0.0000    815.1899      5.5862
  1164.7500    103.0873      0.0000    811.4094      5.4364
  1165.0000    107.7191      0.0000    806.8416      5.2872
  1165.2500    111.9959      0.0000    802.8751      5.1573
  1165.5000    115.2578      0.0000    799.5462      5.0672
  1165.7500    117.8173      0.0000    796.4622      5.0289
  1166.0000    120.1767      0.0000    793.9310      5.0390
  1166.2500    121.6425      0.0000    792.9371      5.0792
  1166.5000    120.3397      0.0000    793.9890      5.1252
  1166.7500    115.0684      0.0000    796.3639      5.1607
  1167.0000    106.8999      0.0000    798.7369      5.1803
  1167.2500     98.7049      0.0000    800.3116      5.1836
  1167.5000     93.3151      0.0000    801.1164      5.1713
  1167.7500     92.0749      0.0000    801.5222      5.1509
  1168.0000     94.6198      0.0000    801.8070      5.1398
  1168.2500     99.5667      0.0000    802.1960      5.1570
  1168.5000    105.3735      0.0000    803.2319      5.2116
  1168.7500    110.7316      0.0000    806.1105      5.2953
  1169.0000    114.4861      0.0000    812.4831      5.3874
  1169.2500    115.5515      0.0000    823.1758      5.4683
  1169.5000    113.3209      0.0000    836.4941      5.5319
