~Version Information
VERS.                      2.0: CWLS Log ASCII Standard - VERSION 2.0
WRAP.                       NO: One line per depth step
~Well Information Block
STRT.FT                -7.2500: 
STOP.FT               868.2500: 
STEP.FT                 0.2500: 
NULL.                -999.2500: 
COMP.          Pioneer Natural Resources: COMPANY
WELL.              Venom 32-22: WELL
FLD.           Purgatorie River: FIELD
LOC.           2307' FNL & 2024' FWL--: LOCATION
PROV.                       CO: PROVINCE
CNTY.               Las Animas: COUNTRY
SRVC.          Patterson Wireline: SERVICE COMPANY
DATE.          Mon May 16 15:26:38 2005: LOG DATE
UWI.           05 071 08361 00: UNIQUE WELL ID
~Curve Information Block
DEPT.FT            0 000 00 00: Depth
CCL.                          : Casing Collar Locator
TT3.usec                      : CBL 3' Travel Time
AMP3.mV                       : CBL 3' Amplitude
GR.GAPI                       : Gamma Ray
~Parameter Information Block
~A  Depth       CCL         TT3         AMP3         GR     
# ...
   729.7500      0.0000    816.2517      6.4724     66.0645
   730.0000      0.0000    821.6356      6.6287     68.7856
   730.2500      0.0000    825.6877      6.7305     74.6583
   730.5000      0.0000    828.1099      6.7756     82.4947
   730.7500      0.0000    830.6957      6.7440     90.9014
   731.0000      0.0000    834.7099      6.5919     98.5932
   731.2500      0.0000    839.6351      6.3053    104.7072
   731.5000      0.0000    844.0383      5.9437    109.0195
   731.7500      0.0000    846.9878      5.6162    111.9567
   732.0000      0.0000    848.6122      5.4101    114.1219
   732.2500      0.0000    849.7538      5.3315    115.1820
   732.5000      0.0000    851.3784      5.3161    113.2603
   732.7500      0.0000    854.1288      5.3019    106.4700
   733.0000      0.0000    857.8112      5.2920     95.4550
   733.2500      0.0000    860.9572      5.3353     83.5141
   733.5000      0.0000    861.2330      5.4534     73.7949
   733.7500      0.0000    856.9536      5.6016     66.9505
   734.0000      0.0000    848.6479      5.7075     61.5704
   734.2500      0.0000    839.3592      5.7381     56.2517
   734.5000      0.0000    833.3907      5.7244     51.1696
   734.7500      0.0000    834.1131      5.7201     48.0187
   735.0000      0.0000    842.0494      5.7431     48.5108
   735.2500      0.0000    854.5901      5.7618     52.8871
   735.5000      0.0000    867.5255      5.7352     59.8471
   735.7500      0.0000    877.0798      5.6527     67.6903
   736.0000      0.0000    881.0625      5.5298     75.3689
   736.2500      0.0000    878.9341      5.3738     82.7036
   736.5000      0.0000    871.4457      5.1708     89.9151
   736.7500      0.0000    860.2614      4.9197     96.8805
   737.0000      0.0000    847.5066      4.6660    102.6485
   737.2500      0.0000    835.4671      4.4798    105.7801
   737.5000      0.0000    826.5562      4.3914    105.3017
   737.7500      0.0000    822.8373      4.3596    101.3467
   738.0000      0.0000    824.7868      4.3136     95.1655
   738.2500      0.0000    830.4918      4.2177     88.8332
   738.5000      0.0000    836.3561      4.0931     84.7110
   738.7500      0.0000    838.3643      3.9819     84.5719
   739.0000      0.0000    832.7620      3.8975     88.7146
   739.2500      0.0000    817.1127      3.8122     95.7259
   739.5000      0.0000    792.7245      3.6986    103.2670
   739.7500      0.0000    766.3738      3.5932    109.3331
   740.0000      0.0000    748.2112      3.6087    112.9076
   740.2500      0.0000    746.2398      3.8614    113.7512
   740.5000      0.0000    761.2022      4.3795    112.1152
   740.7500      0.0000    785.6270      5.0911    108.7527
   741.0000      0.0000    808.2636      5.8915    104.8243
   741.2500      2.0000    820.9984      6.7100    101.4814
   741.5000      0.0000    822.1157      7.5249     99.4486
   741.7500      0.0000    813.1479      8.3589     98.8346
   742.0000      0.0000    793.8368      9.3215     99.1350
   742.2500      0.0000    762.8651     10.6403     99.4526
   742.5000      0.0000    725.1165     12.5219     99.0502
   742.7500      0.0000    695.7369     14.8914     97.8207
   743.0000      0.0000    691.6470     17.3360     96.0541
   743.2500      0.0000    716.0742     19.3880     93.8475
   743.5000      0.0000    753.5699     20.8207     91.0483
   743.7500      0.0000    782.6461     21.6442     87.6669
   744.0000      0.0000    792.4709     21.9295     83.9434
   744.2500      0.0000    787.6017     21.7325     80.0895
   744.5000      0.0000    779.8966     21.1448     76.3746
   744.7500      0.0000    777.4041     20.3286     73.5557
   745.0000      0.0000    779.4099     19.4700     72.7547
   745.2500      0.0000    780.0948     18.7020     74.3990
   745.5000      0.0000    775.3075     18.0536     77.3338
   745.7500      0.0000    765.2219     17.4318     79.4510
   746.0000      0.0000    752.2497     16.6705     79.5074
   746.2500      0.0000    739.0645     15.6672     78.2506
   746.5000      0.0000    728.0941     14.5064     77.6060
   746.7500      0.0000    720.4813     13.4066     78.8813
   747.0000      0.0000    715.0736     12.5371     82.0355
   747.2500      0.0000    709.9736     11.9188     86.3600
   747.5000      0.0000    705.8320     11.4894     90.9413
   747.7500      0.0000    706.7101     11.1922     94.3711
   748.0000      0.0000    716.7151     10.9748     95.1614
   748.2500      0.0000    735.6413     10.7477     93.2614
   748.5000      0.0000    757.9979     10.3997     90.5231
   748.7500      0.0000    776.1904      9.8744     88.9180
   749.0000      0.0000    784.8917      9.2232     88.6152
   749.2500      0.0000    783.3060      8.5593     88.3958
   749.5000      0.0000    774.8430      7.9522     87.4670
   749.7500      0.0000    765.6147      7.3865     85.9923
   750.0000      0.0000    761.8809      6.8207     83.9643
   750.2500      0.0000    766.2347      6.2615     80.4440
   750.5000      0.0000    775.3181      5.7730     74.3519
   750.7500      0.0000    782.5012      5.4198     65.7950
   751.0000      0.0000    783.6163      5.2035     56.4395
   751.2500      0.0000    780.1584      5.0596     48.7546
   751.5000      0.0000    777.6960      4.9203     44.8888
   751.7500      0.0000    781.8775      4.7716     45.6880
   752.0000      0.0000    794.8605      4.6518     50.1506
   752.2500      0.0000    813.7645      4.6082     55.8575
   752.5000      0.0000    832.1786      4.6605     60.4711
   752.7500      0.0000    844.1025      4.7899     63.2118
   753.0000      0.0000    847.1887      4.9489     64.9064
   753.2500      0.0000    842.5210      5.0880     66.6302
   753.5000      0.0000    832.0513      5.1820     68.4157
   753.7500      0.0000    817.2573      5.2275     69.2728
   754.0000      0.0000    800.2006      5.2205     68.3327
   754.2500      0.0000    784.8985      5.1465     65.8281
   754.5000      0.0000    776.8436      4.9975     62.9897
   754.7500      0.0000    780.4807      4.7936     61.2048
   755.0000      0.0000    796.1870      4.5865     61.3099
   755.2500      0.0000    819.3883      4.4298     63.3771
   755.5000      0.0000    843.2157      4.3393     66.8134
   755.7500      0.0000    862.4579      4.2942     70.4906
   756.0000      0.0000    875.1776      4.2838     73.0227
   756.2500      0.0000    881.5948      4.3357     73.4745
   756.5000      0.0000    882.6714      4.4766     72.0594
   756.7500      0.0000    879.7773      4.6719     69.9273
   757.0000      0.0000    874.6003      4.8317     68.1678
   757.2500      0.0000    868.4382      4.8791     67.1116
   757.5000      0.0000    861.1215      4.7938     66.4963
   757.7500      0.0000    850.9590      4.6020     66.1054
   758.0000      0.0000    836.5576      4.3677     66.1943
   758.2500      0.0000    819.4308      4.1889     67.2104
   758.5000      0.0000    804.6016      4.1495     69.1197
   758.7500      0.0000    797.8613      4.2506     71.2451
   759.0000      0.0000    801.8516      4.4097     72.8320
   759.2500      0.0000    814.2785      4.5228     73.5826
   759.5000      0.0000    829.5572      4.5186     73.6846
   759.7500      0.0000    842.3229      4.3946     73.6309
   760.0000      0.0000    849.7330      4.2269     73.9010
   760.2500      0.0000    850.9515      4.1168     74.3519
   760.5000      0.0000    845.7573      4.1058     74.0160
   760.7500      0.0000    835.0364      4.1601     71.9960
   761.0000      0.0000    822.6248      4.2315     68.5502
   761.2500      0.0000    814.8409      4.3087     64.9338
   761.5000      0.0000    816.2206      4.4063     62.2085
   761.7500      0.0000    825.7618      4.5282     60.5746
   762.0000      0.0000    838.1286      4.6546     59.8997
   762.2500      0.0000    848.0601      4.7540     60.4216
   762.5000      0.0000    852.9178      4.7937     62.5629
   762.7500      0.0000    851.7762      4.7549     66.1468
   763.0000      0.0000    843.6575      4.6550     70.0527
