~Version Information
VERS.                      2.0: CWLS Log ASCII Standard - VERSION 2.0
WRAP.                       NO: One line per depth step
~Well Information Block
STRT.FT               375.0000: 
STOP.FT              2637.0000: 
STEP.FT                 0.1000: 
NULL.                -999.2500: 
COMP.          Pioneer Natural Resources: COMPANY
WELL.            Cortina 23-25: WELL
FLD.           Purgatoire River: FIELD
LOC.           2344' FWL & 2526' FSL----: LOCATION
PROV.                 Colorado: PROVINCE
CNTY.               Las Animas: COUNTRY
SRVC.                Patterson: SERVICE COMPANY
DATE.          Thu Mar 24 07:44:45 2005: LOG DATE
UWI.           05 071 08340 00: UNIQUE WELL ID
~Curve Information Block
DEPT.FT            0 000 00 00: Depth
DCAL.in                       : CDL Caliper
DPOR.pu                       : CDL Density Porosity
NPOR.pu                       : Neutron Porosity
RHOB.g/cc                     : CDL Bulk Density
RHOC.g/cc                     : CDL Density Correction
GR.GAPI                       : Gamma Ray
~Parameter Information Block
~A  Depth       DCAL        DPOR        NPOR        RHOB        RHOC         GR     
# ...
  2026.2000      8.0719      7.9947     27.5280      2.5181      0.0168    126.5371
  2026.3000      8.0762      9.2213     27.6073      2.4978      0.0005    130.5222
  2026.4000      8.0762     10.8559     27.5876      2.4709     -0.0030    130.9811
  2026.5000      8.0781     13.0926     27.9323      2.4340     -0.0115    132.4241
  2026.6000      8.0781     15.5317     28.5899      2.3937      0.0022    132.3261
  2026.7000      8.0781     17.9345     28.9682      2.3541     -0.0047    125.0144
  2026.8000      8.0824     20.5322     28.9785      2.3112     -0.0047    114.0624
  2026.9000      8.0824     22.4572     29.2407      2.2795     -0.0724    107.5847
  2027.0000      8.0910     21.9325     29.8658      2.2881     -0.0104    109.1959
  2027.1000      8.0910     19.3724     30.1911      2.3304      0.0628    113.9486
  2027.2000      8.0910     17.3709     29.9741      2.3634      0.0926    117.2365
  2027.3000      8.1038     16.9776     29.8774      2.3699      0.0724    119.6679
  2027.4000      8.1038     16.9290     30.4723      2.3707      0.1379    121.0502
  2027.5000      8.1220     16.6166     31.3168      2.3758      0.2571    126.6487
  2027.6000      8.1220     16.3646     31.6175      2.3800      0.2301    137.1946
  2027.7000      8.1220     16.0982     31.0435      2.3844      0.2628    140.3071
  2027.8000      8.1317     16.3005     29.7992      2.3810      0.2875    131.1683
  2027.9000      8.1317     17.3191     28.6453      2.3642      0.1849    120.3622
  2028.0000      8.0963     18.4063     28.1055      2.3463      0.1458    116.6788
  2028.1000      8.0963     19.0004     27.8436      2.3365      0.1086    121.6987
  2028.2000      8.0963     18.7274     27.3579      2.3410      0.0504    135.2439
  2028.3000      8.0232     17.3495     26.7032      2.3637      0.0624    147.5559
  2028.4000      8.0232     15.2523     26.1422      2.3983      0.0307    146.2552
  2028.5000      7.9777     12.9360     25.6343      2.4366      0.0710    138.9957
  2028.6000      7.9777     10.9316     25.2463      2.4696      0.0703    140.1053
  2028.7000      7.9777      9.6213     25.2527      2.4912      0.0564    153.4651
  2028.8000      7.9671      8.9509     25.6610      2.5023      0.0302    165.8815
  2028.9000      7.9671      8.4687     26.1523      2.5103      0.0286    158.6268
  2029.0000      7.9654      7.7288     26.4673      2.5225      0.0286    140.2743
  2029.1000      7.9654      6.5801     26.4657      2.5414      0.0394    137.9011
  2029.2000      7.9654      5.5195     26.0177      2.5589      0.0729    155.0092
  2029.3000      7.9656      5.3128     25.4443      2.5623      0.0841    175.9347
  2029.4000      7.9656      5.7405     25.2072      2.5553      0.0612    189.0791
  2029.5000      7.9668      6.2646     25.1757      2.5466      0.0874    183.7027
  2029.6000      7.9668      6.6505     25.0918      2.5403      0.0167    164.7838
  2029.7000      7.9668      6.4041     24.9207      2.5443      0.0584    153.8914
  2029.8000      7.9670      5.5002     24.7047      2.5592      0.0532    152.7500
  2029.9000      7.9670      4.8597     24.5282      2.5698      0.1105    147.1259
  2030.0000      7.9672      5.2692     24.4061      2.5631      0.0309    135.7534
  2030.1000      7.9672      6.1225     24.5458      2.5490      0.0397    128.9866
  2030.2000      7.9672      6.4511     25.1211      2.5436      0.0203    130.2005
  2030.3000      7.9672      6.0441     25.6853      2.5503      0.0407    135.2880
  2030.4000      7.9672      5.6175     25.8500      2.5573      0.0709    139.1944
  2030.5000      7.9658      6.0713     25.8632      2.5498      0.0494    138.0674
  2030.6000      7.9658      7.0326     25.9291      2.5340     -0.0031    135.7858
  2030.7000      7.9658      7.6359     25.8812      2.5240      0.0359    140.3687
  2030.8000      7.9634      8.4763     25.7346      2.5101      0.0696    146.8992
  2030.9000      7.9634     10.0417     25.9280      2.4843      0.0126    145.0266
  2031.0000      7.9622     11.0312     26.5665      2.4680      0.0071    133.7133
  2031.1000      7.9622     10.9184     26.9984      2.4698      0.0495    120.3003
  2031.2000      7.9622     10.7240     26.9148      2.4731      0.0400    112.0965
  2031.3000      7.9627     10.7449     26.7252      2.4727      0.0623    108.7849
  2031.4000      7.9627     10.2361     26.4622      2.4811      0.0402    106.4967
  2031.5000      7.9632      8.9119     25.9534      2.5030      0.0789    107.9914
  2031.6000      7.9632      7.8598     25.4440      2.5203      0.1200    116.5957
  2031.7000      7.9632      8.0383     25.0299      2.5174      0.0843    125.7624
  2031.8000      7.9619      8.8993     24.5739      2.5032      0.0770    128.6299
  2031.9000      7.9619      9.3801     24.4590      2.4952      0.0431    124.0683
  2032.0000      7.9551      9.1486     24.6863      2.4990      0.0412    115.4843
  2032.1000      7.9551      8.5932     24.3972      2.5082      0.0732    107.2969
  2032.2000      7.9551      8.0645     23.5649      2.5169      0.0710    105.0507
  2032.3000      7.9444      7.5358     22.8211      2.5257      0.0587    112.5499
  2032.4000      7.9444      6.9357     22.1798      2.5356      0.0977    122.5557
  2032.5000      7.9382      6.2622     21.7446      2.5467      0.0369    126.4005
  2032.6000      7.9382      5.5442     21.5607      2.5585      0.0671    122.7997
  2032.7000      7.9382      4.9977     21.1760      2.5675      0.0554    111.0869
  2032.8000      7.9388      4.8609     20.3432      2.5698      0.0469     93.9125
  2032.9000      7.9388      5.2705     19.5076      2.5630      0.0596     82.0158
  2033.0000      7.9406      5.8331     19.2208      2.5538      0.0490     80.9037
  2033.1000      7.9406      5.9141     19.1952      2.5524      0.0364     82.4767
  2033.2000      7.9406      5.3545     18.9667      2.5617      0.0380     78.8625
  2033.3000      7.9401      4.4510     18.5904      2.5766      0.0595     75.7912
  2033.4000      7.9401      3.8755     18.4692      2.5861      0.0537     78.3196
  2033.5000      7.9385      4.3975     18.6100      2.5774      0.0408     82.0167
  2033.6000      7.9385      6.0219     18.6012      2.5506      0.0089     84.4100
  2033.7000      7.9385      7.3894     18.8000      2.5281      0.0047     86.8782
  2033.8000      7.9377      6.8934     19.4077      2.5363      0.0121     87.1866
  2033.9000      7.9377      5.0637     19.7132      2.5664      0.0864     83.5814
  2034.0000      7.9374      3.8878     19.6228      2.5859      0.0517     77.6155
  2034.1000      7.9374      3.7318     19.6134      2.5884      0.0362     74.1414
  2034.2000      7.9374      4.1628     19.4822      2.5813      0.0619     77.3929
  2034.3000      7.9383      5.5458     18.7633      2.5585      0.0600     85.1921
  2034.4000      7.9383      7.2913     17.9324      2.5297     -0.0093     88.7025
  2034.5000      7.9383      7.6256     17.5387      2.5242      0.0103     81.3454
  2034.6000      7.9383      6.3652     17.5498      2.5450      0.0611     70.0857
  2034.7000      7.9383      5.0565     17.7668      2.5666      0.0516     64.2654
  2034.8000      7.9368      4.8441     17.9375      2.5701      0.0827     62.0121
  2034.9000      7.9368      5.7490     17.9517      2.5551      0.0482     59.6087
  2035.0000      7.9363      6.7276     17.8846      2.5390     -0.0019     56.0964
  2035.1000      7.9363      7.1952     17.7776      2.5313      0.0459     52.0754
  2035.2000      7.9363      7.9534     17.5447      2.5188      0.0734     48.9359
  2035.3000      7.9371      9.6213     17.2279      2.4912      0.0593     46.8109
  2035.4000      7.9371     11.7095     17.0793      2.4568      0.0312     46.0778
  2035.5000      7.9376     12.8876     17.1563      2.4374     -0.0156     50.8594
  2035.6000      7.9376     12.2278     17.2298      2.4482      0.0083     59.8027
  2035.7000      7.9376     10.6388     17.3606      2.4745      0.0492     63.5041
