~Version Information
VERS.                      2.0: CWLS Log ASCII Standard - VERSION 2.0
WRAP.                       NO: One line per depth step
~Well Information Block
STRT.FT                -7.2500: 
STOP.FT              2827.7500: 
STEP.FT                 0.2500: 
NULL.                -999.2500: 
COMP.          Pioneer Natural Resources: COMPANY
WELL.           Ei-ei-oh 31-24: WELL
FLD.           Purgatorie River: FIELD
LOC.           235' FNL & 2001' FEL--: LOCATION
PROV.                       CO: PROVINCE
CNTY.               Las Animas: COUNTRY
SRVC.          Patterson Wireline: SERVICE COMPANY
DATE.          Tue Aug 23 12:06:00 2005: LOG DATE
UWI.           05 071 08403 00: UNIQUE WELL ID
~Curve Information Block
DEPT.FT            0 000 00 00: Depth
CCL.                          : Casing Collar Locator
TT3.usec                      : CBL 3' Travel Time
AMP3.mV                       : CBL 3' Amplitude
GR.GAPI                       : Gamma Ray
~Parameter Information Block
~A  Depth       CCL         TT3         AMP3         GR     
# ...
  2605.7500      0.0000    654.7183      4.2396     94.6801
  2606.0000      0.0000    649.7283      4.2422     89.7322
  2606.2500      0.0000    642.6542      4.2419     83.3979
  2606.5000      0.0000    636.4679      4.2348     76.4705
  2606.7500      0.0000    632.6104      4.2189     70.3941
  2607.0000      0.0000    631.2063      4.1943     66.4942
  2607.2500      0.0000    632.1468      4.1627     65.2894
  2607.5000      0.0000    635.5258      4.1304     66.5008
  2607.7500      0.0000    640.8607      4.1054     69.3618
  2608.0000      0.0000    646.1022      4.0903     72.6133
  2608.2500      0.0000    648.3131      4.0804     74.6815
  2608.5000      0.0000    646.1269      4.0702     74.6971
  2608.7500      0.0000    641.2421      4.0601     73.4199
  2609.0000      0.0000    636.9786      4.0527     72.5172
  2609.2500      0.0000    635.7632      4.0462     72.7319
  2609.5000      0.0000    638.1909      4.0378     73.2176
  2609.7500      0.0000    643.4414      4.0309     72.9094
  2610.0000      0.0000    649.5097      4.0336     72.1173
  2610.2500      0.0000    653.4952      4.0502     72.3455
  2610.5000      0.0000    653.1667      4.0791     74.6305
  2610.7500      0.0000    648.9397      4.1180     78.3797
  2611.0000      0.0000    643.8443      4.1729     81.9009
  2611.2500      0.0000    641.1180      4.2601     83.8700
  2611.5000      0.0000    641.6711      4.3915     84.2100
  2611.7500      0.0000    643.7261      4.5464     83.6669
  2612.0000      0.0000    644.8745      4.6692     82.8154
  2612.2500      0.0000    644.4885      4.7163     81.6579
  2612.5000      0.0000    643.9473      4.6996     80.0353
  2612.7500      0.0000    644.7462      4.6713     78.0512
  2613.0000     -2.0000    647.0818      4.6742     75.9515
  2613.2500      0.0000    650.2754      4.7160     73.7826
  2613.5000      0.0000    653.5999      4.7763     71.3999
  2613.7500      0.0000    656.3069      4.8297     68.8356
  2614.0000      0.0000    657.5651      4.8649     66.5065
  2614.2500      0.0000    657.0032      4.8789     65.0680
  2614.5000      0.0000    654.9152      4.8529     65.1718
  2614.7500      0.0000    651.3657      4.7524     67.2569
  2615.0000      0.0000    645.2337      4.5716     71.2457
  2615.2500      0.0000    635.0184      4.3602     76.2076
  2615.5000      0.0000    621.5474      4.1880     80.4660
  2615.7500      0.0000    609.7169      4.0904     82.5360
  2616.0000      0.0000    605.7365      4.0588     82.2415
  2616.2500      0.0000    611.3494      4.0665     80.7246
  2616.5000      0.0000    621.7795      4.0943     79.3832
  2616.7500      0.0000    630.2452      4.1376     78.9929
  2617.0000      0.0000    633.3502      4.2017     79.5495
  2617.2500      0.0000    631.7101      4.2884     80.4937
  2617.5000      0.0000    627.3915      4.3832     81.1663
  2617.7500      0.0000    622.0233      4.4558     81.2176
  2618.0000      0.0000    616.1365      4.4766     80.5519
  2618.2500      0.0000    608.8094      4.4378     79.0923
  2618.5000      0.0000    598.4155      4.3574     77.1676
  2618.7500      0.0000    585.1569      4.2647     76.0611
  2619.0000      0.0000    573.1793      4.1827     77.2396
  2619.2500      0.0000    568.9109      4.1217     80.5026
  2619.5000      0.0000    575.9435      4.0843     83.5178
  2619.7500      0.0000    591.7470      4.0703     83.8956
  2620.0000      0.0000    609.7896      4.0777     81.5121
  2620.2500      0.0000    624.1298      4.1026     78.3383
  2620.5000      0.0000    632.0905      4.1376     76.3223
  2620.7500      0.0000    634.2711      4.1731     75.9120
  2621.0000      0.0000    633.1387      4.1999     76.3580
  2621.2500      0.0000    631.2941      4.2133     76.8752
  2621.5000      0.0000    630.4365      4.2148     77.3585
  2621.7500      0.0000    631.4409      4.2099     78.0788
  2622.0000      0.0000    634.8472      4.2071     78.8485
  2622.2500      0.0000    640.9464      4.2150     78.7867
  2622.5000      0.0000    649.4738      4.2405     77.1798
  2622.7500      0.0000    659.1913      4.2874     74.3558
  2623.0000      0.0000    667.8199      4.3547     71.3620
  2623.2500      0.0000    672.9669      4.4345     68.9401
  2623.5000      0.0000    673.7252      4.5137     67.1536
  2623.7500      0.0000    671.1422      4.5790     65.9381
  2624.0000      0.0000    666.9550      4.6209     65.6132
  2624.2500      0.0000    662.3292      4.6328     66.5921
  2624.5000      0.0000    657.5718      4.6116     68.6645
  2624.7500      0.0000    651.6141      4.5593     70.9613
  2625.0000      0.0000    641.2857      4.4850     72.9438
  2625.2500      0.0000    622.7693      4.4023     75.1990
  2625.5000      0.0000    596.2082      4.3256     78.8636
  2625.7500      0.0000    569.2781      4.2666     84.3051
  2626.0000      0.0000    553.8088      4.2310     90.6096
  2626.2500      0.0000    556.6848      4.2180     96.2416
  2626.5000      0.0000    574.3611      4.2243     99.9454
  2626.7500      0.0000    596.9852      4.2467    101.1634
  2627.0000      0.0000    617.0605      4.2795    100.1058
  2627.2500      0.0000    633.5193      4.3097     97.7214
  2627.5000      0.0000    648.7480      4.3209     95.4569
  2627.7500      0.0000    663.7090      4.3024     94.6573
  2628.0000      0.0000    676.9143      4.2563     95.7629
  2628.2500      0.0000    687.2594      4.1962     97.9514
  2628.5000      0.0000    695.6635      4.1388     99.8359
  2628.7500      0.0000    702.8333      4.0956    100.6915
  2629.0000      0.0000    706.9623      4.0713    100.7658
  2629.2500      0.0000    705.2734      4.0674    100.4579
  2629.5000      0.0000    697.6824      4.0838     99.7769
  2629.7500      0.0000    688.4373      4.1139     98.7523
  2630.0000      0.0000    684.0994      4.1428     97.8398
  2630.2500      0.0000    689.1953      4.1549     97.4557
  2630.5000      0.0000    702.2383      4.1456     97.3552
  2630.7500      0.0000    715.1807      4.1248     96.9115
  2631.0000      0.0000    718.0742      4.1069     95.9029
  2631.2500      0.0000    706.3083      4.1006     94.5720
  2631.5000      0.0000    684.0503      4.1056     93.0415
  2631.7500      0.0000    660.2849      4.1150     91.2012
  2632.0000      0.0000    641.4531      4.1176     89.2730
  2632.2500      0.0000    627.4963      4.1011     88.0217
  2632.5000      0.0000    613.5485      4.0588     88.0327
  2632.7500      0.0000    594.8024      3.9986     88.8384
  2633.0000      0.0000    571.3353      3.9405     89.0986
  2633.2500      0.0000    549.6574      3.9062     87.8811
  2633.5000      0.0000    538.4020      3.9056     85.6663
  2633.7500      0.0000    540.9562      3.9328     83.8299
  2634.0000      0.0000    552.7144      3.9707     83.2342
  2634.2500      0.0000    566.0513      4.0009     83.6271
  2634.5000      0.0000    576.0516      4.0116     84.4003
  2634.7500      0.0000    580.2810      4.0019     85.5472
  2635.0000      0.0000    576.4192      3.9815     87.5836
  2635.2500      0.0000    564.5237      3.9647     90.5109
  2635.5000      0.0000    550.9323      3.9634     93.3376
  2635.7500      0.0000    545.8321      3.9821     95.1065
  2636.0000      0.0000    555.0599      4.0177     96.0995
  2636.2500      0.0000    575.1311      4.0617     97.3875
  2636.5000      0.0000    596.6950      4.1050     99.1999
  2636.7500      0.0000    611.6708      4.1410    100.3137
  2637.0000      0.0000    616.5079      4.1670     99.2831
  2637.2500      0.0000    610.4489      4.1824     95.9912
  2637.5000      0.0000    593.6833      4.1885     91.8153
  2637.7500      0.0000    568.7391      4.1894     88.5733
  2638.0000      0.0000    542.5236      4.1923     87.5150
  2638.2500      0.0000    524.5695      4.2041     88.8978
  2638.5000      0.0000    521.3399      4.2267     92.0132
  2638.7500      0.0000    531.5828      4.2539     95.6919
  2639.0000      0.0000    547.4083      4.2739     98.9270
