~Version Information
 VERS.                                  2.0 : CWLS LAS VERSION
 WRAP.                                   NO : WRAPING MODE
 SWARE .                 MController 2.5.0J : SOFTWARE VERSION
~Well Information
 WELL.                        HARRIER 44-33 : WELL
 COMP.    PIONEER NATURAL RESOURCES USA INC : COMPANY
 FLD.                      PURGATOIRE RIVER : FIELD
 LOC.                SE/SE SEC 33 T32S R66W : LOCATION
 DATE.                          06/19-20/05 : DATE(S) LOGGED
 SRVC.       BLANCO GEOLOGICAL SERVICES LLC : SERVICE COMPANY
 STAT.                             COLORADO : STATE
 CNTY.                           LAS ANIMAS : COUNTY
 CTRY.                                  USA : COUNTRY
 API.                       05-071-08398-00 : API NUMBER
 STRT.FT                             665.00 : START DEPTH
 STOP.FT                            2381.00 : STOP DEPTH
 STEP.FT                               1.00 : DEPTH INCREMENT
 NULL.                                -9999 : NULL VALUE
~Curve information
 DEPTH.FT                                   :
 ROP.MIN/FT                                 :
 GAS.UNITS                                  :
~ASCII Log data
# ...
      1265.0         0.27         35.4 
      1266.0         0.30         32.3 
      1267.0         0.32         30.1 
      1268.0         0.23         28.5 
      1269.0         0.20         28.2 
      1270.0         0.17         27.0 
      1271.0         0.10         26.8 
      1272.0         0.20         25.7 
      1273.0         0.33         28.2 
      1274.0         0.40         30.1 
      1275.0         0.53         29.7 
      1276.0         0.43         26.5 
      1277.0         0.40         26.4 
      1278.0         0.15         26.2 
      1279.0         0.13         25.8 
      1280.0         0.20         25.4 
      1281.0         0.17         24.9 
      1282.0         0.20         25.1 
      1283.0         0.17         25.5 
      1284.0         0.23         25.2 
      1285.0         0.10         24.6 
      1286.0         1.80         55.0 
      1287.0         0.48         88.8 
      1288.0         0.40         88.4 
      1289.0         0.23         68.6 
      1290.0         0.23         56.9 
      1291.0         0.27         48.4 
      1292.0         0.23         42.6 
      1293.0         0.27         37.2 
      1294.0         0.23         33.5 
      1295.0         0.13         31.3 
      1296.0         0.13         30.0 
      1297.0         0.17         29.0 
      1298.0         0.20         28.5 
      1299.0         0.20         27.3 
      1300.0         0.27         26.4 
      1301.0         0.28         26.0 
      1302.0         0.27         25.6 
      1303.0         0.20         25.7 
      1304.0         0.20         25.6 
      1305.0         0.17         26.0 
      1306.0         0.20         25.9 
      1307.0         0.20         25.5 
      1308.0         0.20         25.6 
      1309.0         0.20         25.3 
      1310.0         0.20         25.3 
      1311.0         0.20         25.3 
      1312.0         0.20         25.6 
      1313.0         0.20         24.9 
      1314.0         0.20         24.5 
      1315.0         0.17         24.9 
      1316.0         2.15         65.4 
      1317.0         0.40        117.2 
      1318.0         0.37        119.4 
      1319.0         0.30         93.9 
      1320.0         0.30         64.8 
      1321.0         0.20         50.6 
      1322.0         0.35         44.3 
      1323.0         0.23         35.6 
      1324.0         0.13         32.7 
      1325.0         0.50         31.1 
      1326.0         0.37         27.8 
      1327.0         0.50         26.8 
      1328.0         0.20         26.2 
      1329.0         0.17         26.0 
      1330.0         0.17         25.7 
      1331.0         0.13         24.9 
      1332.0         0.20         24.2 
      1333.0         0.33         24.8 
      1334.0         0.22         24.9 
      1335.0         0.23         24.6 
      1336.0         0.23         24.2 
      1337.0         0.23         24.2 
      1338.0         0.23         24.2 
      1339.0         0.20         24.2 
      1340.0         0.20         24.5 
      1341.0         0.23         24.4 
      1342.0         0.17         24.4 
      1343.0         0.23         24.8 
      1344.0         0.23         24.6 
      1345.0         0.13         24.3 
      1346.0         1.68         43.0 
      1347.0         0.23         52.5 
      1348.0         0.07         55.2 
      1349.0         0.20         64.0 
      1350.0         0.50        131.2 
      1351.0         0.30        131.7 
      1352.0         0.27        108.8 
      1353.0         0.27         79.9 
      1354.0         0.23         60.0 
      1355.0         0.13         47.3 
      1356.0         0.10         42.5 
      1357.0         0.20         40.5 
      1358.0         0.25         38.3 
      1359.0         0.13         41.8 
      1360.0         0.13         44.5 
      1361.0         0.13         45.8 
      1362.0         0.17         45.7 
      1363.0         0.10         45.1 
      1364.0         0.40         43.5 
      1365.0         0.17         38.6 
      1366.0         0.13         37.4 
      1367.0         0.20         37.6 
      1368.0         0.17         38.3 
      1369.0         0.13         38.3 
      1370.0         0.17         37.1 
      1371.0         0.20         35.8 
      1372.0         0.17         35.0 
      1373.0         0.20         34.5 
      1374.0         0.20         33.7 
      1375.0         0.13         32.2 
      1376.0         2.82        193.0 
      1377.0         0.50        198.8 
      1378.0         0.38        133.9 
      1379.0         0.20         82.3 
      1380.0         0.30         65.9 
      1381.0         0.30         51.0 
      1382.0         0.23         42.9 
      1383.0         0.27         37.8 
      1384.0         0.23         34.2 
      1385.0         0.30         32.2 
      1386.0         0.23         30.5 
      1387.0         0.23         29.4 
      1388.0         0.23         28.8 
      1389.0         0.23         28.6 
      1390.0         0.20         28.3 
      1391.0         0.20         28.1 
      1392.0         0.22         27.5 
      1393.0         0.23         27.1 
      1394.0         0.23         27.2 
      1395.0         0.27         27.1 
      1396.0         0.20         26.8 
      1397.0         0.20         26.7 
      1398.0         0.17         26.5 
      1399.0         0.23         26.2 
      1400.0         0.23         26.1 
      1401.0         0.20         26.2 
      1402.0         0.20         25.9 
      1403.0         0.27         26.2 
      1404.0         0.17         25.8 
      1405.0         0.20         24.9 
      1406.0         1.45         34.1 
      1407.0         0.53         77.7 
      1408.0         0.40        102.1 
      1409.0         0.43        101.8 
      1410.0         0.37         78.6 
      1411.0         0.33         56.5 
      1412.0         0.35         43.8 
      1413.0         0.33         35.8 
      1414.0         0.30         31.7 
      1415.0         0.20         29.8 
      1416.0         0.20         28.5 
      1417.0         0.23         27.2 
      1418.0         0.33         26.8 
      1419.0         0.23         26.2 
      1420.0         0.17         25.6 
      1421.0         0.20         25.5 
      1422.0         0.23         25.6 
      1423.0         0.23         25.2 
      1424.0         0.17         24.6 
      1425.0         0.27         24.1 
      1426.0         0.12         17.8 
      1427.0         0.13         16.6 
      1428.0         0.13         17.9 
      1429.0         0.10         18.2 
      1430.0         0.17         20.4 
      1431.0         0.17         21.3 
      1432.0         0.20         22.4 
      1433.0         0.17         23.4 
      1434.0         0.13         24.3 
      1435.0         0.30         24.1 
      1436.0         2.45        117.5 
      1437.0         0.30        180.4 
      1438.0         0.20        186.8 
      1439.0         0.20        180.6 
      1440.0         0.27        149.9 
      1441.0         0.17        105.5 
      1442.0         0.13         83.5 
      1443.0         0.23         69.1 
      1444.0         0.30         54.4 
      1445.0         0.40         50.6 
      1446.0         0.20         43.2 
      1447.0         0.27         39.5 
      1448.0         0.28         34.4 
      1449.0         0.20         32.9 
      1450.0         0.23         31.5 
      1451.0         0.23         30.7 
      1452.0         0.20         30.0 
      1453.0         0.27         29.6 
      1454.0         0.23         28.8 
      1455.0         0.27         27.7 
      1456.0         0.23         27.3 
      1457.0         0.33         26.8 
      1458.0         0.40         26.6 
      1459.0         0.27         26.8 
      1460.0         0.22         27.0 
      1461.0         0.13         26.9 
      1462.0         0.23         26.7 
      1463.0         0.27         26.8 
      1464.0         0.23         26.4 
