~Version Information
 VERS.                                  2.0 : CWLS LAS VERSION
 WRAP.                                   NO : WRAPING MODE
 SWARE .                 MController 2.5.0J : SOFTWARE VERSION
~Well Information
 WELL.                       Costello 44-24 : WELL
 COMP.    Pioneer Natural Resources USA Inc : COMPANY
 FLD.                      Purgatoire River : FIELD
 LOC.                SE/SE Sec 24 T32S R67W : LOCATION
 DATE.                            7/10/2005 : DATE(S) LOGGED
 SRVC.       BLANCO Geological Services LLC : SERVICE COMPANY
 STAT.                                   CO : STATE
 CNTY.                           Las Animas : COUNTY
 CTRY.                                  USA : COUNTRY
 API.                       05-071-08413-00 : API NUMBER
 STRT.FT                             305.00 : START DEPTH
 STOP.FT                            2545.00 : STOP DEPTH
 STEP.FT                               1.00 : DEPTH INCREMENT
 NULL.                                 999 : NULL VALUE
~Curve information
 DEPTH.FT                                   :
 ROP.MIN/FT                                 :
 GAS.UNITS                                  :
~ASCII Log data
# ...
      1305.0         0.23        254.9 
      1306.0         0.17        239.7 
      1307.0         0.17        225.3 
      1308.0         0.17        207.4 
      1309.0         0.23        202.1 
      1310.0         0.48        194.7 
      1311.0         0.40        180.6 
      1312.0         0.27        167.5 
      1313.0         0.27        162.0 
      1314.0         0.27        143.3 
      1315.0         0.27        129.9 
      1316.0        12.73        466.3 
      1317.0         2.22        392.0 
      1318.0         0.23        283.8 
      1319.0         0.63        359.4 
      1320.0         0.20        322.9 
      1321.0         0.17        314.1 
      1322.0         0.20        252.0 
      1323.0         0.27        238.9 
      1324.0         0.23        204.4 
      1325.0         0.13        184.1 
      1326.0         0.23        184.1 
      1327.0         0.30        227.5 
      1328.0         0.28        291.0 
      1329.0         0.23        353.7 
      1330.0         0.20        353.7 
      1331.0         0.30        384.1 
      1332.0         0.30        386.0 
      1333.0         0.30        370.1 
      1334.0         0.27        347.0 
      1335.0         0.20        334.4 
      1336.0         0.20        321.3 
      1337.0         0.20        317.9 
      1338.0         0.20        300.1 
      1339.0         0.23        291.1 
      1340.0         0.20        285.1 
      1341.0         0.23        284.2 
      1342.0         0.17        273.3 
      1343.0         0.18        270.1 
      1344.0         0.23        266.9 
      1345.0         0.20        261.2 
      1346.0         3.55       1111.3 
      1347.0         0.53       1316.3 
      1348.0         0.27       1165.3 
      1349.0         0.23       1099.9 
      1350.0         0.23        867.6 
      1351.0         0.30        791.1 
      1352.0         0.30        706.3 
      1353.0         0.33        635.6 
      1354.0         0.30        606.7 
      1355.0         0.28        565.7 
      1356.0         0.23        504.2 
      1357.0         0.17        477.8 
      1358.0         0.27        448.0 
      1359.0         0.23        440.0 
      1360.0         0.17        284.3 
      1361.0         0.20        263.8 
      1362.0         0.27        254.0 
      1363.0         0.23        252.6 
      1364.0         0.23        234.3 
      1365.0         0.23        228.9 
      1366.0         0.20        227.8 
      1367.0         0.20        220.3 
      1368.0         0.20        217.7 
      1369.0         0.20        211.3 
      1370.0         0.22        203.9 
      1371.0         0.17        197.9 
      1372.0         0.20        194.0 
      1373.0         0.20        192.2 
      1374.0         0.20        198.7 
      1375.0         0.20        205.3 
      1376.0         3.45        985.9 
      1377.0         0.23        825.0 
      1378.0         0.17        800.6 
      1379.0         0.13        687.9 
      1380.0         0.20        678.7 
      1381.0         0.17        636.8 
      1382.0         0.13        622.5 
      1383.0         0.13        616.2 
      1384.0         0.20        548.0 
      1385.0         0.13        548.0 
      1386.0         0.10        523.5 
      1387.0         0.10        523.5 
      1388.0         0.17        504.8 
      1389.0         0.25        489.6 
      1390.0         0.27        477.8 
      1391.0         0.20        440.0 
      1392.0         0.23        292.0 
      1393.0         0.20        291.4 
      1394.0         0.20        284.7 
      1395.0         0.17        272.9 
      1396.0         0.10        272.9 
      1397.0         0.13        264.5 
      1398.0         0.13        261.9 
      1399.0         0.13        252.9 
      1400.0         0.20        235.4 
      1401.0         0.20        225.0 
      1402.0         0.27        212.2 
      1403.0         0.27        210.9 
      1404.0         0.13        199.5 
      1405.0         0.20        199.5 
      1406.0         2.08        312.0 
      1407.0         0.53        827.9 
      1408.0         0.43        968.8 
      1409.0         0.20        982.8 
      1410.0         0.38        926.6 
      1411.0         0.10        803.1 
      1412.0         0.10        714.9 
      1413.0         0.20        640.6 
      1414.0         0.27        587.6 
      1415.0         0.30        464.8 
      1416.0         0.23        440.0 
      1417.0         0.30        290.2 
      1418.0         0.23        286.6 
      1419.0         0.23        282.1 
      1420.0         0.23        275.8 
      1421.0         0.20        269.5 
      1422.0         0.20        262.3 
      1423.0         0.20        254.2 
      1424.0         0.17        246.4 
      1425.0         0.20        240.2 
      1426.0         0.22        235.7 
      1427.0         0.20        226.9 
      1428.0         0.17        224.4 
      1429.0         0.17        222.8 
      1430.0         0.13        221.4 
      1431.0         0.17        216.5 
      1432.0         0.13        210.2 
      1433.0         0.17        194.5 
      1434.0         0.17        194.5 
      1435.0         0.20        187.2 
      1436.0         1.92        179.1 
      1437.0         0.40        322.7 
      1438.0         0.30        387.2 
      1439.0         0.23        446.5 
      1440.0         0.27        751.1 
      1441.0         0.27        754.3 
      1442.0         0.23        666.3 
      1443.0         0.23        573.7 
      1444.0         0.27        505.4 
      1445.0         0.27        495.0 
      1446.0         0.27        440.0 
      1447.0         0.23        286.7 
      1448.0         0.28        282.5 
      1449.0         0.23        274.8 
      1450.0         0.23        267.8 
      1451.0         0.20        260.1 
      1452.0         0.27        257.1 
      1453.0         0.27        242.1 
      1454.0         0.20        231.0 
      1455.0         0.20        226.7 
      1456.0         0.17        222.3 
      1457.0         0.20        215.8 
      1458.0         0.23        205.8 
      1459.0         0.20        191.6 
      1460.0         0.20        177.9 
      1461.0         0.20        172.2 
      1462.0         0.17        168.5 
      1463.0         0.25        168.2 
      1464.0         0.17        171.1 
      1465.0         0.23        174.6 
      1466.0         1.87        204.2 
      1467.0         0.30        256.8 
      1468.0         0.23        324.3 
      1469.0         0.17        420.1 
      1470.0         0.20        817.4 
      1471.0         0.22        853.6 
      1472.0         0.27        900.2 
      1473.0         0.37        896.8 
      1474.0         0.37        800.0 
      1475.0         0.37        607.9 
      1476.0         0.37        454.0 
      1477.0         0.27        277.3 
      1478.0         0.27        278.8 
      1479.0         0.20        280.6 
      1480.0         0.23        278.7 
      1481.0         0.20        275.0 
      1482.0         0.23        268.0 
      1483.0         0.22        250.0 
      1484.0         0.17        246.1 
      1485.0         0.17        233.5 
      1486.0         0.23        224.9 
      1487.0         0.17        212.7 
      1488.0         0.27        200.3 
      1489.0         0.40        179.3 
      1490.0         0.33        169.9 
      1491.0         0.30        170.9 
      1492.0         0.30        173.5 
      1493.0         0.37        177.0 
      1494.0         0.30        181.5 
      1495.0         0.28        181.6 
      1496.0         1.63        180.6 
      1497.0         0.13        218.7 
      1498.0         0.13        218.7 
      1499.0         0.13        296.8 
      1500.0         0.23        357.5 
      1501.0         0.23        414.7 
      1502.0         0.20        435.6 
      1503.0         0.20        449.6 
      1504.0         0.20        456.1 
