~Version Information               
VERS.     2.0     :     CWLS LAS VERSION
WRAP.                         NO     :     WRAPING MODE
~Well Information   
API.                      :            
WELL.               Egan 9-11V     :     WELL
COMP.                    N/A     :     COMPANY
FLD.                    N/A     :     FIELD
LOC.                    N/A     :     LOCATION
CNTY.                    N/A     :     COUNTY
STATE.              N/A     :     STATE
CTRY.                    N/A     :     COUNTRY
DATE.                N/A     :     DATE (LOGGED)
UWI.                    N/A     :     UNIQUE WELL ID
SRVC.                N/A     :     SERVICE COMPANY
STAT.                           :
STRT.FT              612.00     :     START DEPTH
STOP.FT             2500.00     :     STOP DEPTH
STEP.FT                1.00     :     DEPTH INCREMENT
NULL.             -9999           :     NULL VALUE
~Curve information               
 DEPTH.FT                                   :
 ROP.MIN/FT                                 :
 GAS.UNITS                                  :     
C1.PPM          :     
C2.PPM          :
~ASCII Log data               
# ...
1642.00        0.33     3          9.0          -49995
1643.00        0.30     0         12.0          -49995
1644.00        0.30     0         16.4          -49995
1645.00        0.33     3         26.5          -49995
1646.00        0.23     3         32.7          -49995
1647.00        0.23     3         36.5          -49995
1648.00        0.16     7         35.7          -49995
1649.00        0.20     0         32.2          -49995
1650.00        0.25     0         32.2          -49995
1651.00        0.23     3         30.2          -49995
1652.00        0.26     7         25.9          -49995
1653.00        0.30     0         21.4          -49995
1654.00        0.30     0         15.9          -49995
1655.00        0.23     3         12.8          -49995
1656.00        0.20     0         11.6          -49995
1657.00        0.26     7         11.8          -49995
1658.00        0.20     0         11.4          -49995
1659.00        0.23     3         11.4          -49995
1660.00        0.23     3         11.5          -49995
1661.00        0.30     0         11.4          -49995
1662.00        0.26     7         11.3          -49995
1663.00        0.38     3         11.0          -49995
1664.00        0.30     0         11.0          -49995
1665.00        0.30     0         10.6          -49995
1666.00        0.33     3         10.5          -49995
1667.00        0.30     0         10.6          -49995
1668.00        0.23     3          9.8          -49995
1669.00        0.23     3          9.6          -49995
1670.00        0.23     3         17.4          -49995
1671.00        0.23     3         17.4          -49995
1672.00        0.30     0         23.6          -49995
1673.00        0.50     0         39.0          -49995
1674.00        0.40     0         42.9          -49995
1675.00        0.48     3         40.4          -49995
1676.00        0.30     0         31.4          -49995
1677.00        0.20     0         23.4          -49995
1678.00        0.26     7         19.3          -49995
1679.00        0.23     3         14.8          -49995
1680.00        0.20     0         13.6          -49995
1681.00        0.23     3         12.9          -49995
1682.00        0.16     7         13.0          -49995
1683.00        0.26     7         13.6          -49995
1684.00        0.23     3         14.5          -49995
1685.00        0.20     0         14.0          -49995
1686.00        0.23     3         14.7          -49995
1687.00        0.20     0         14.2          -49995
1688.00        0.16     7         13.2          -49995
1689.00        0.25     0         12.8          -49995
1690.00        0.23     3         11.9          -49995
1691.00        0.20     0         11.5          -49995
1692.00        0.26     7         11.5          -49995
1693.00        0.23     3         10.8          -49995
1694.00        0.20     0         10.4          -49995
1695.00        0.23     3         10.1          -49995
1696.00        0.23     3         11.0          -49995
1697.00        0.23     3         10.5          -49995
1698.00        0.20     0         10.0          -49995
1699.00        0.20     0         10.0          -49995
1700.00        0.26     7         10.5          -49995
1701.00        0.26     7         11.9          -49995
1702.00        0.33     3         11.9          -49995
1703.00        0.56     7         23.5          -49995
1704.00        0.30     0         32.6          -49995
1705.00        0.26     7         42.9          -49995
1706.00        0.16     7         47.3          -49995
1707.00        0.28     3         47.3          -49995
1708.00        0.20     0         42.1          -49995
1709.00        0.23     3         40.5          -49995
1710.00        0.20     0         33.3          -49995
1711.00        0.20     0         28.1          -49995
1712.00        0.26     7         23.0          -49995
1713.00        0.23     3         16.8          -49995
1714.00        0.23     3         15.0          -49995
1715.00        0.26     7         13.2          -49995
1716.00        0.23     3         13.9          -49995
1717.00        0.23     3         13.7          -49995
1718.00        0.23     3         14.2          -49995
1719.00        0.20     0         13.5          -49995
1720.00        0.26     7         12.8          -49995
1721.00        0.25     0         12.5          -49995
1722.00        0.23     3         13.0          -49995
1723.00        0.20     0         12.9          -49995
1724.00        0.20     0         13.1          -49995
1725.00        0.16     7         12.6          -49995
1726.00        0.23     3         12.3          -49995
1727.00        0.23     3         12.8          -49995
1728.00        0.23     3         11.8          -49995
1729.00        0.23     3         11.8          -49995
1730.00        0.23     3         11.6          -49995
1731.00        0.20     0         10.4          -49995
1732.00        0.26     7         15.0          -49995
1733.00        0.40     0         18.9          -49995
1734.00        0.33     3         28.7          -49995
1735.00        0.30     0         40.1          -49995
1736.00        0.26     7         48.2          -49995
1737.00        0.26     7         49.1          -49995
1738.00        0.26     7         41.7          -49995
1739.00        0.21     7         39.1          -49995
1740.00        0.26     7         34.4          -49995
1741.00        0.26     7         28.6          -49995
1742.00        0.26     7         23.8          -49995
1743.00        0.26     7         19.1          -49995
1744.00        0.26     7         17.8          -49995
1745.00        0.26     7         17.1          -49995
1746.00        0.23     3         15.5          -49995
1747.00        0.26     7         13.8          -49995
1748.00        0.23     3         13.8          -49995
1749.00        0.26     7         13.9          -49995
1750.00        0.23     3         13.5          -49995
1751.00        0.23     3         13.5          -49995
1752.00        0.28     3         14.2          -49995
1753.00        0.30     0         13.2          -49995
1754.00        0.23     3         13.7          -49995
1755.00        0.26     7         13.4          -49995
1756.00        0.23     3         12.9          -49995
1757.00        0.26     7         13.5          -49995
1758.00        0.26     7         13.1          -49995
1759.00        0.26     7         12.7          -49995
1760.00        0.26     7         11.8          -49995
1761.00        0.26     7          8.7          -49995
1762.00        0.26     7          9.2          -49995
1763.00        0.76     7         11.9          -49995
1764.00        0.46     7         17.6          -49995
1765.00        0.36     7         31.5          -49995
1766.00        0.30     0         39.6          -49995
1767.00        0.33     3         39.6          -49995
1768.00        0.31     7         35.2          -49995
1769.00        0.26     7         27.4          -49995
1770.00        0.23     3         21.5          -49995
1771.00        0.30     0         18.7          -49995
1772.00        0.30     0         15.4          -49995
1773.00        0.30     0         15.1          -49995
1774.00        0.30     0         14.7          -49995
1775.00        0.30     0         14.7          -49995
1776.00        0.33     3         14.3          -49995
1777.00        0.30     0         13.7          -49995
1778.00        0.30     0         13.8          -49995
1779.00        0.30     0         13.8          -49995
1780.00        0.28     3         12.7          -49995
1781.00        0.23     3         11.7          -49995
1782.00        0.26     7         11.3          -49995
1783.00        0.26     7         11.2          -49995
1784.00        0.30     0         10.9          -49995
1785.00        0.30     0         11.0          -49995
1786.00        0.30     0         12.9          -49995
1787.00        0.33     3         14.1          -49995
