~Version Information               
VERS.     2.0     :     CWLS LAS VERSION
WRAP.                         NO     :     WRAPING MODE
~Well Information   
API.                      :            
WELL.               Egan 9-11V     :     WELL
COMP.                    N/A     :     COMPANY
FLD.                    N/A     :     FIELD
LOC.                    N/A     :     LOCATION
CNTY.                    N/A     :     COUNTY
STATE.              N/A     :     STATE
CTRY.                    N/A     :     COUNTRY
DATE.                N/A     :     DATE (LOGGED)
UWI.                    N/A     :     UNIQUE WELL ID
SRVC.                N/A     :     SERVICE COMPANY
STAT.                           :
STRT.FT              612.00     :     START DEPTH
STOP.FT             2500.00     :     STOP DEPTH
STEP.FT                1.00     :     DEPTH INCREMENT
NULL.             -9999           :     NULL VALUE
~Curve information               
 DEPTH.FT                                   :
 ROP.MIN/FT                                 :
 GAS.UNITS                                  :     
C1.PPM          :     
C2.PPM          :
~ASCII Log data               
612.00    -9999.00     0          2.7          -49995
613.00       28.06     7         98.3          -49995
614.00        0.35     0          0.7          -49995
615.00        0.26     7          0.6          -49995
616.00        0.30     0          0.5          -49995
617.00        0.26     7          0.1          -49995
618.00        0.26     7          0.2          -49995
619.00        0.26     7          0.3          -49995
620.00        0.26     7          0.2          -49995
621.00        0.30     0          0.0          -49995
622.00        0.26     7          0.1          -49995
623.00        0.28     3          0.1          -49995
624.00        0.20     0         -0.3          -49995
625.00        0.26     7         -0.5          -49995
626.00        0.26     7         -0.2          -49995
627.00        0.26     7         -0.4          -49995
628.00        0.26     7         -0.6          -49995
629.00        0.26     7         -0.4          -49995
630.00        0.10     0         -0.4          -49995
631.00        0.26     7         -0.6          -49995
632.00        0.26     7         -0.7          -49995
633.00        0.26     7         -1.0          -49995
634.00        0.26     7          0.9          -49995
635.00        0.16     7          0.1          -49995
636.00        0.26     7          0.0          -49995
637.00        0.28     3         -0.1          -49995
638.00        0.26     7          0.1          -49995
639.00        0.06     7        360.1          -49995
640.00        0.26     7         98.3          -49995
641.00        0.26     7        360.1          -49995
642.00        0.06     7         98.3          -49995
643.00        0.26     7        106.2          -49995
644.00        0.26     7         60.6          -49995
645.00        0.26     7         30.8          -49995
646.00        0.26     7         16.2          -49995
647.00        0.26     7          8.8          -49995
648.00        0.26     7          4.7          -49995
649.00        0.33     3          4.1          -49995
650.00        0.30     0          1.6          -49995
651.00        0.28     3          0.0          -49995
652.00        0.30     0          2.5          -49995
653.00        0.13     3          2.1          -49995
654.00        0.16     7          2.4          -49995
655.00        0.16     7          2.4          -49995
656.00        0.13     3          2.4          -49995
657.00        0.16     7          2.6          -49995
658.00        0.10     0          3.1          -49995
659.00        0.13     3          3.0          -49995
660.00        0.13     3          4.6          -49995
661.00        0.06     7          6.0          -49995
662.00        0.10     0          7.2          -49995
663.00        0.06     7          8.6          -49995
664.00        0.10     0          8.7          -49995
665.00        0.18     3          6.3          -49995
666.00        0.20     0          6.3          -49995
667.00        0.16     7          4.3          -49995
668.00        0.16     7          4.1          -49995
669.00        0.23     3          4.0          -49995
670.00        0.20     0          3.9          -49995
671.00        0.13     3          3.1          -49995
672.00        0.13     3          3.5          -49995
673.00        0.10     0          2.6          -49995
674.00        0.10     0          2.8          -49995
675.00        0.10     0          2.9          -49995
676.00        0.06     7          2.7          -49995
677.00        0.13     3          2.8          -49995
678.00        0.13     3          2.6          -49995
679.00        0.20     0          2.9          -49995
680.00        0.20     0          3.1          -49995
681.00        0.20     0          3.3          -49995
682.00        0.30     0          3.1          -49995
683.00        0.26     7          2.6          -49995
684.00        0.33     3          2.8          -49995
685.00        0.30     0          3.1          -49995
686.00        0.20     0          3.5          -49995
687.00        0.26     7          3.7          -49995
688.00        0.16     7          3.6          -49995
689.00        0.20     0          4.0          -49995
690.00        0.20     0          3.6          -49995
691.00        0.20     0          3.7          -49995
692.00        0.16     7          3.2          -49995
693.00        0.16     7          3.2          -49995
694.00        0.20     0          3.4          -49995
695.00        0.21     7          3.1          -49995
696.00        0.23     3          3.0          -49995
697.00        0.16     7          2.9          -49995
698.00        0.23     3          3.2          -49995
699.00        0.20     0          2.8          -49995
700.00        0.20     0          3.0          -49995
701.00        0.16     7          3.2          -49995
702.00        0.20     0          3.4          -49995
703.00        0.16     7          3.9          -49995
704.00        0.20     0          3.4          -49995
705.00        0.13     3          3.2          -49995
706.00        0.16     7          3.5          -49995
707.00        0.13     3          3.2          -49995
708.00        0.16     7          3.0          -49995
709.00        0.13     3          3.3          -49995
710.00        0.13     3          3.2          -49995
711.00        0.10     0          3.3          -49995
712.00        0.10     0          3.5          -49995
713.00        0.10     0          4.1          -49995
714.00        0.26     7          3.7          -49995
715.00        0.28     3          3.8          -49995
716.00        0.26     7          4.1          -49995
717.00        0.26     7          4.3          -49995
718.00        0.23     3          3.9          -49995
719.00        0.26     7          4.1          -49995
720.00        0.26     7          4.4          -49995
721.00        0.26     7          4.5          -49995
722.00        0.30     0          5.7          -49995
723.00        0.26     7          5.6          -49995
724.00        0.26     7          5.1          -49995
725.00        0.26     7          4.7          -49995
726.00        0.26     7          4.4          -49995
727.00        0.28     3          5.3          -49995
728.00        0.26     7          5.9          -49995
729.00        0.16     7          6.3          -49995
730.00        0.13     3          6.5          -49995
731.00        0.26     7          6.2          -49995
732.00        0.26     7          6.2          -49995
733.00        0.13     3          5.9          -49995
734.00        0.23     3          5.5          -49995
735.00        0.13     3          5.7          -49995
736.00        0.10     0          5.2          -49995
737.00        0.23     3          5.1          -49995
738.00        0.16     7          4.5          -49995
739.00        0.26     7          4.9          -49995
740.00        0.26     7          5.2          -49995
741.00        0.26     7          5.0          -49995
742.00        0.20     0          5.6          -49995
743.00        0.48     3          5.5          -49995
744.00        0.13     3          5.6          -49995
745.00        0.30     0          6.8          -49995
746.00        0.26     7          6.8          -49995
747.00        0.20     0          7.7          -49995
748.00        0.20     0          7.0          -49995
749.00        0.23     3          6.8          -49995
750.00        0.20     0          7.3          -49995
751.00        0.16     7          6.8          -49995
752.00        0.13     3          6.4          -49995
753.00        0.26     7          6.2          -49995
754.00        0.26     7          6.8          -49995
755.00        0.13     3          6.5          -49995
756.00        0.20     0          6.7          -49995
757.00        0.13     3          6.9          -49995
758.00        0.18     3          7.2          -49995
759.00        0.16     7          7.0          -49995
760.00        0.13     3          7.4          -49995
