~Version Information
VERS.                      2.0: CWLS Log ASCII Standard - VERSION 2.0
WRAP.                       NO: One line per depth step
~Well Information Block
STRT.FT                -7.2500: 
STOP.FT               868.2500: 
STEP.FT                 0.2500: 
NULL.                -999.2500: 
COMP.          Pioneer Natural Resources: COMPANY
WELL.              Venom 32-22: WELL
FLD.           Purgatorie River: FIELD
LOC.           2307' FNL & 2024' FWL--: LOCATION
PROV.                       CO: PROVINCE
CNTY.               Las Animas: COUNTRY
SRVC.          Patterson Wireline: SERVICE COMPANY
DATE.          Mon May 16 15:26:38 2005: LOG DATE
UWI.           05 071 08361 00: UNIQUE WELL ID
~Curve Information Block
DEPT.FT            0 000 00 00: Depth
CCL.                          : Casing Collar Locator
TT3.usec                      : CBL 3' Travel Time
AMP3.mV                       : CBL 3' Amplitude
GR.GAPI                       : Gamma Ray
~Parameter Information Block
~A  Depth       CCL         TT3         AMP3         GR     
# ...
   428.2500      0.0000    857.5520      5.0037    128.1565
   428.5000      0.0000    858.8995      5.0149    124.7005
   428.7500      0.0000    859.9997      5.0394    119.5651
   429.0000      0.0000    860.2475      5.0665    115.0017
   429.2500      0.0000    859.5060      5.0877    112.4311
   429.5000      0.0000    858.1959      5.0947    111.6152
   429.7500      0.0000    856.9208      5.0830    111.5150
   430.0000      0.0000    856.0942      5.0621    111.4414
   430.2500      0.0000    855.9446      5.0529    111.2154
   430.5000      0.0000    856.7465      5.0706    110.5268
   430.7500      0.0000    858.8115      5.1133    108.5301
   431.0000      0.0000    862.0168      5.1662    104.1911
   431.2500      0.0000    865.2858      5.2131     97.0724
   431.5000      0.0000    866.8918      5.2465     87.6890
   431.7500      0.0000    865.7509      5.2716     77.1117
   432.0000      0.0000    862.4236      5.2937     66.5027
   432.2500      0.0000    858.6064      5.2984     57.0858
   432.5000      0.0000    855.7469      5.2569     50.0902
   432.7500      0.0000    854.2795      5.1633     46.2889
   433.0000      0.0000    853.8696      5.0611     45.5561
   433.2500      0.0000    853.9841      5.0186     46.9666
   433.5000      0.0000    854.2339      5.0704     49.3247
   433.7500      0.0000    854.4303      5.1870     51.6396
   434.0000      0.0000    854.5211      5.3039     53.2987
   434.2500      0.0000    854.5182      5.3749     54.0912
   434.5000      0.0000    854.4605      5.3914     54.2469
   434.7500      0.0000    854.3908      5.3599     54.2334
   435.0000      0.0000    854.3350      5.2828     54.1477
   435.2500      0.0000    854.2708      5.1700     53.3955
   435.5000      0.0000    854.1003      5.0618     51.4087
   435.7500      0.0000    853.5655      5.0137     48.6501
   436.0000      0.0000    851.9814      5.0459     46.4345
   436.2500      0.0000    847.8256      5.1174     45.6699
   436.5000      0.0000    838.8845      5.1691     46.1160
   436.7500      0.0000    824.1370      5.1876     47.0068
   437.0000      0.0000    806.8022      5.2101     48.1977
   437.2500      0.0000    794.6765      5.2619     50.5794
   437.5000      0.0000    794.8908      5.3157     55.4915
   437.7500      0.0000    807.4515      5.3265     63.8718
   438.0000      0.0000    825.2366      5.2977     75.7939
   438.2500      0.0000    840.4207      5.2851     90.2384
   438.5000      0.0000    849.6848      5.3331    104.9318
   438.7500      0.0000    853.7347      5.4291    116.8742
   439.0000      0.0000    853.9529      5.5320    123.8765
   439.2500      0.0000    850.1831      5.6230    125.8858
   439.5000      0.0000    841.1993      5.7105    124.6513
   439.7500      0.0000    827.5629      5.7914    122.0892
   440.0000      0.0000    814.3047      5.8319    119.1561
   440.2500      0.0000    809.0153      5.7936    116.1953
   440.5000      0.0000    815.3183      5.6716    113.7654
   440.7500      0.0000    829.1075      5.4977    112.7577
   441.0000      0.0000    842.4871      5.3154    113.9392
   441.2500      0.0000    850.1611      5.1616    117.5351
   441.5000      0.0000    851.0643      5.0638    122.9313
   441.7500      0.0000    846.1615      5.0345    128.6255
   442.0000      0.0000    837.4738      5.0591    132.9930
   442.2500      0.0000    829.0478      5.1034    135.6142
   442.5000      0.0000    826.1393      5.1408    137.4193
   442.7500      0.0000    831.3682      5.1704    138.7396
   443.0000      0.0000    842.2448      5.2052    137.7083
   443.2500      0.0000    853.5270      5.2471    131.9319
   443.5000      0.0000    861.5374      5.2838    121.8535
   443.7500      0.0000    865.7263      5.3071    111.3242
   444.0000      0.0000    867.2957      5.3201    104.5207
   444.2500      0.0000    867.5402      5.3240    103.0197
   444.5000      0.0000    867.2442      5.3066    105.7709
   444.7500      0.0000    866.7257      5.2536    110.7815
   445.0000      0.0000    865.9713      5.1706    116.3218
   445.2500      0.0000    864.8334      5.0866    121.1782
   445.5000      0.0000    863.2993      5.0307    124.6658
   445.7500      0.0000    861.6912      5.0124    126.9417
   446.0000      0.0000    860.5414      5.0271    129.1064
   446.2500      0.0000    860.2343      5.0719    132.1257
   446.5000      0.0000    860.7649      5.1474    135.3072
   446.7500      0.0000    861.8033      5.2475    136.3706
   447.0000      0.0000    862.9217      5.3560    133.3293
   447.2500      0.0000    863.7907      5.4556    126.2036
   447.5000      0.0000    864.2772      5.5345    117.1183
   447.7500      0.0000    864.4464      5.5865    108.9759
   448.0000      0.0000    864.4653      5.6120    103.5669
   448.2500      0.0000    864.4445      5.6205    100.4209
   448.5000      0.0000    864.3318      5.6243     97.6969
   448.7500      0.0000    863.9587      5.6238     94.4601
   449.0000      0.0000    863.2233      5.6058     91.7090
   449.2500      0.0000    862.2640      5.5648     90.9542
   449.5000      0.0000    861.4597      5.5200     92.3427
   449.7500      0.0000    861.2429      5.5030     94.6025
   450.0000      0.0000    861.8559      5.5328     96.4556
   450.2500      0.0000    863.1772      5.6084     97.6321
   450.5000      0.0000    864.7203      5.7134     98.6468
   450.7500      0.0000    865.8792      5.8184     99.9409
   451.0000      0.0000    866.2831      5.8864    101.4409
   451.2500      0.0000    865.9451      5.8953    102.9220
   451.5000      0.0000    865.1017      5.8568    104.4345
   451.7500      0.0000    863.9830      5.7993    106.0569
   452.0000      0.0000    862.6171      5.7357    107.4661
   452.2500      0.0000    860.4916      5.6614    108.2623
   452.5000      0.0000    855.8325      5.5795    108.7457
   452.7500      0.0000    845.2420      5.5123    109.9662
   453.0000      0.0000    825.3696      5.4850    112.7446
   453.2500      0.0000    797.1269      5.5088    116.6430
   453.5000      0.0000    768.9304      5.5754    120.1597
   453.7500      0.0000    753.6476      5.6574    122.1269
   454.0000      0.0000    759.4907      5.7271    122.7984
   454.2500      0.0000    783.1446      5.7843    123.4156
   454.5000      0.0000    812.5963      5.8519    124.8837
   454.7500      0.0000    836.6123      5.9348    127.1317
   455.0000      0.0000    851.1124      5.9948    129.5614
   455.2500      0.0000    858.1254      5.9823    131.6784
   455.5000      0.0000    861.3846      5.8858    133.1818
   455.7500      0.0000    863.4427      5.7406    133.8156
   456.0000      0.0000    865.2074      5.5926    133.4609
   456.2500      0.0000    866.6451      5.4664    132.4483
   456.5000      0.0000    867.4056      5.3639    131.6283
   456.7500      0.0000    866.9380      5.2745    131.9169
   457.0000      0.0000    864.2612      5.1746    133.6386
   457.2500      0.0000    858.3995      5.0249    136.2422
   457.5000      0.0000    850.1334      4.7825    138.6034
   457.7500      0.0000    843.5641      4.4329    139.6484
   458.0000      0.0000    844.2101      4.0224    138.7695
   458.2500      0.0000    853.7573      3.6557    135.6759
   458.5000      0.0000    867.5201      3.4441    130.1732
   458.7500      0.0000    878.5985      3.4398    122.7262
   459.0000      0.0000    883.7069      3.6068    115.1561
   459.2500      0.0000    883.9462      3.8448    109.8321
   459.5000      2.0000    881.5615      4.0474    107.8158
   459.7500      2.0000    877.8243      4.1553    108.3010
   460.0000      0.0000    873.1937      4.1687    109.6172
   460.2500      0.0000    867.8712      4.1347    110.0529
   460.5000      0.0000    862.2680      4.1321    108.2194
   460.7500      0.0000    857.6409      4.2315    103.9299
   461.0000      0.0000    855.7640      4.4319     98.8688
   461.2500      0.0000    857.2952      4.6483     95.5240
   461.5000      0.0000    860.6818      4.7934     95.1360
