~Version Information
VERS.                      2.0: CWLS Log ASCII Standard - VERSION 2.0
WRAP.                       NO: One line per depth step
~Well Information Block
STRT.FT               250.0000: 
STOP.FT              1573.7500: 
STEP.FT                 0.2500: 
NULL.                -999.2500: 
COMP.          Pioneer Natural Resources: COMPANY
WELL.          Big Cat Federal 44-1: WELL
FLD.           Purgatoire River: FIELD
LOC.           197' FSL & 973' FEL--: LOCATION
CNTY.               Las Animas: COUNTY
SRVC.                Patterson: SERVICE COMPANY
DATE.          Sun Apr 23 14:54:11 2006: LOG DATE
UWI.           05 071 08042 00: UNIQUE WELL ID
STAT.                 Colorado: STATE
~Curve Information Block
DEPT.FT            0 000 00 00: Depth
DIR.Ohm-m                     : IEL Induction Resistivity
GR.GAPI                       : Gamma Ray
~Parameter Information Block
~A  Depth       DIR          GR     
# ...
   528.7500     20.9125    106.3742
   529.0000     20.9932    103.7103
   529.2500     21.0889    102.6054
   529.5000     21.2046    102.4536
   529.7500     21.3455    103.2408
   530.0000     21.5086    105.0777
   530.2500     21.6802    106.2535
   530.5000     21.8384    107.4123
   530.7500     21.9603    107.8846
   531.0000     22.0324    108.8420
   531.2500     22.0581    109.8649
   531.5000     22.0586    111.4314
   531.7500     22.0656    111.9362
   532.0000     22.1096    111.4885
   532.2500     22.2113    110.6062
   532.5000     22.3797    108.9703
   532.7500     22.6188    107.8557
   533.0000     22.9379    106.2271
   533.2500     23.3577    105.0952
   533.5000     23.9052    102.8584
   533.7500     24.5992    100.6026
   534.0000     25.4344     95.6736
   534.2500     26.3803     91.5368
   534.5000     27.3965     84.9406
   534.7500     28.4554     80.8322
   535.0000     29.5530     75.7257
   535.2500     30.6962     73.2029
   535.5000     31.8803     70.7599
   535.7500     33.0751     69.9007
   536.0000     34.2339     69.6427
   536.2500     35.3133     70.1996
   536.5000     36.2845     71.9174
   536.7500     37.1226     73.2405
   537.0000     37.7882     74.9552
   537.2500     38.2299     75.9926
   537.5000     38.4185     77.7171
   537.7500     38.3826     78.8741
   538.0000     38.2115     80.0018
   538.2500     38.0155     80.1770
   538.5000     37.8742     80.1483
   538.7500     37.8065     80.5204
   539.0000     37.7762     82.1002
   539.2500     37.7264     83.5391
   539.5000     37.6185     85.2479
   539.7500     37.4468     85.5508
   540.0000     37.2237     84.5162
   540.2500     36.9577     83.2388
   540.5000     36.6456     81.6047
   540.7500     36.2775     81.1437
   541.0000     35.8432     81.3197
   541.2500     35.3389     81.7678
   541.5000     34.7750     82.7107
   541.7500     34.1800     83.4369
   542.0000     33.5966     84.4039
   542.2500     33.0741     84.9516
   542.5000     32.6576     86.2976
   542.7500     32.3786     88.0862
   543.0000     32.2468     92.0674
   543.2500     32.2452     94.6601
   543.5000     32.3298     96.3569
   543.7500     32.4341     95.5596
   544.0000     32.4865     92.6737
   544.2500     32.4414     90.7291
   544.5000     32.3060     88.6265
   544.7500     32.1346     87.6103
   545.0000     31.9893     86.5074
   545.2500     31.9040     86.3528
   545.5000     31.8782     87.4743
   545.7500     31.8969     88.9335
   546.0000     31.9514     91.1996
   546.2500     32.0458     92.1906
   546.5000     32.1930     92.2999
   546.7500     32.4066     91.2886
   547.0000     32.6927     88.1785
   547.2500     33.0418     85.3022
   547.5000     33.4302     80.5164
   547.7500     33.8301     77.4296
   548.0000     34.2186     73.5308
   548.2500     34.5764     71.7535
   548.5000     34.8810     70.9630
   548.7500     35.1045     71.9093
   549.0000     35.2189     75.0982
   549.2500     35.1979     77.6418
   549.5000     35.0171     80.7522
   549.7500     34.6623     82.1231
   550.0000     34.1459     83.7533
   550.2500     33.5138     84.9849
   550.5000     32.8317     86.9234
   550.7500     32.1616     87.8063
   551.0000     31.5496     88.1080
   551.2500     31.0253     87.9338
   551.5000     30.6011     87.9712
   551.7500     30.2686     88.3927
   552.0000     30.0046     89.2886
   552.2500     29.7878     89.8200
   552.5000     29.6144     90.6340
   552.7500     29.4952     91.5508
   553.0000     29.4389     94.0035
   553.2500     29.4380     96.2579
   553.5000     29.4681     99.6912
   553.7500     29.4953    101.4007
   554.0000     29.4856    102.5393
   554.2500     29.4173    102.4332
   554.5000     29.2957    101.5260
   554.7500     29.1575    100.7539
   555.0000     29.0527     99.7912
   555.2500     29.0129     99.4518
   555.5000     29.0321     99.4262
   555.7500     29.0736     99.5663
   556.0000     29.0943     99.5643
   556.2500     29.0657     99.2151
   556.5000     28.9781     98.2464
   556.7500     28.8344     97.6694
   557.0000     28.6430     97.5484
   557.2500     28.4132     97.9423
   557.5000     28.1540     98.6844
   557.7500     27.8778     99.1592
   558.0000     27.6031    100.2336
   558.2500     27.3521    101.3050
   558.5000     27.1379    102.9849
   558.7500     26.9523    103.8988
   559.0000     26.7665    105.0832
   559.2500     26.5449    105.8475
   559.5000     26.2641    106.6183
   559.7500     25.9235    106.6335
   560.0000     25.5451    106.0793
   560.2500     25.1641    105.7767
   560.5000     24.8181    106.1710
   560.7500     24.5384    107.0424
   561.0000     24.3446    108.5000
   561.2500     24.2393    109.0350
   561.5000     24.2031    108.9998
   561.7500     24.1978    108.7041
   562.0000     24.1805    108.1725
   562.2500     24.1204    107.6309
   562.5000     24.0040    106.2299
   562.7500     23.8281    105.0286
   563.0000     23.5914    103.7580
   563.2500     23.2971    103.9513
   563.5000     22.9576    106.2906
   563.7500     22.5917    108.8038
   564.0000     22.2149    112.5597
   564.2500     21.8327    114.3528
   564.5000     21.4435    115.6107
   564.7500     21.0483    115.6784
   565.0000     20.6593    115.3420
   565.2500     20.2999    115.3962
   565.5000     19.9962    116.6730
   565.7500     19.7656    118.2454
   566.0000     19.6111    120.3982
   566.2500     19.5250    120.7028
   566.5000     19.4963    118.6397
   566.7500     19.5161    115.9222
   567.0000     19.5763    111.0401
   567.2500     19.6642    107.6740
   567.5000     19.7583    102.5408
   567.7500     19.8295     99.1868
   568.0000     19.8499     95.1232
   568.2500     19.8011     93.6814
   568.5000     19.6789     93.9828
   568.7500     19.4913     95.8541
   569.0000     19.2538    100.9211
   569.2500     18.9828    105.3169
   569.5000     18.6885    111.7062
   569.7500     18.3687    114.7476
   570.0000     18.0114    116.9216
   570.2500     17.6010    117.4003
   570.5000     17.1205    118.3051
   570.7500     16.5424    119.6077
   571.0000     15.8196    122.4681
   571.2500     14.8968    124.4970
   571.5000     13.7544    127.0192
   571.7500     12.4597    128.2591
   572.0000     11.1697    129.8312
   572.2500     10.0775    131.0716
   572.5000      9.3645    133.6040
   572.7500      9.2270    135.4759
   573.0000     10.0438    137.2955
   573.2500     13.0540    137.0936
   573.5000     26.0648    134.1777
   573.7500 100000.0000    130.7370
   574.0000 100000.0000    124.0184
   574.2500 100000.0000    118.5889
   574.5000 100000.0000    108.4354
   574.7500 100000.0000    100.0619
   575.0000 100000.0000     85.9675
   575.2500 100000.0000     76.8742
   575.5000 100000.0000     66.0552
   575.7500 100000.0000     61.3675
   576.0000 100000.0000     57.7023
   576.2500 100000.0000     56.9010
   576.5000 100000.0000     57.6155
   576.7500 100000.0000     59.4212
   577.0000 100000.0000     64.2241
   577.2500      7.4850     68.5773
   577.5000      3.2897     75.8680
   577.7500      2.1713     80.5742
   578.0000      1.7767     86.5177
   578.2500      1.7145     89.3783
   578.5000      1.9038     91.2178
   578.7500      2.3264     90.0981
   579.0000      2.7292     84.0280
   579.2500      2.3615     77.4391
   579.5000      1.3805     66.1753
   579.7500      0.6706     59.5494
   580.0000      0.2994     53.1929
   580.2500      0.1160     51.8599
   580.5000      0.0411     54.0642
   580.7500      0.0160     57.9313
   581.0000      0.0076     66.2803
   581.2500      0.0046     72.6820
   581.5000      0.0033     81.7522
   581.7500      0.0027     86.5148
   582.0000      0.0025     91.0031
   582.2500      0.0025     92.5621
   582.5000      0.0027     94.6563
   582.7500      0.0032     97.3175
   583.0000      0.0043    104.5520
   583.2500      0.0071    111.0281
   583.5000      0.0147    120.6301
   583.7500      0.0376    125.4438
   584.0000      0.1078    129.3239
   584.2500      0.2868    130.2399
