~Version Information
VERS.                      2.0: CWLS Log ASCII Standard - VERSION 2.0
WRAP.                       NO: One line per depth step
~Well Information Block
STRT.FT               665.0000: 
STOP.FT              1972.5000: 
STEP.FT                 0.1000: 
NULL.                -999.2500: 
COMP.          Petrogulf Corporation: COMPANY
WELL.          Great Plains 22-21V: WELL
FLD.           Purgatorie River: FIELD
LOC.           63' FNL & 1895' FWL: LOCATION
PROV.                 Colorado: PROVINCE
CNTY.               Las Animas: COUNTRY
SRVC.                Patterson: SERVICE COMPANY
DATE.          Thu Sep 01 07:39:43 2005: LOG DATE
UWI.                          : UNIQUE WELL ID
~Curve Information Block
DEPT.FT            0 000 00 00: Depth
DCAL.in                       : CDL Caliper
RHOB.g/cc                     : CDL Bulk Density
RHOC.g/cc                     : CDL Density Correction
DPOR.pu                       : CDL Density Porosity
GR.GAPI                       : Gamma Ray
NPOR.pu                       : Neutron Porosity
~Parameter Information Block
~A  Depth       DCAL        RHOB        RHOC        DPOR         GR         NPOR    
   665.0000      8.1905      2.3439     -0.3300     18.5540     68.8404     37.2517
   665.1000      8.1905      2.3281     -0.3149     19.5063     73.2410     37.4485
   665.2000      8.1905      2.3080     -0.3005     20.7266     77.7612     37.2770
   665.3000      8.1980      2.2838     -0.3869     22.1931     80.0220     37.1617
   665.4000      8.1980      2.2762     -0.4050     22.6570     80.3539     37.2497
   665.5000      8.1899      2.2975     -0.3869     21.3623     81.5061     37.4686
   665.6000      8.1899      2.3321     -0.3244     19.2674     84.1206     37.6327
   665.7000      8.1899      2.3512     -0.2967     18.1090     86.1970     37.5778
   665.8000      8.1898      2.3499     -0.3648     18.1876     86.1907     37.5504
   665.9000      8.1898      2.3539     -0.3459     17.9428     85.4972     37.8836
   666.0000      8.1969      2.3723     -0.3048     16.8299     86.0910     38.3728
   666.1000      8.1969      2.3845     -0.3041     16.0937     87.3102     38.6559
   666.2000      8.1969      2.3795     -0.3414     16.3936     87.8929     38.7730
   666.3000      8.1922      2.3650     -0.3260     17.2723     87.2846     38.9309
   666.4000      8.1922      2.3513     -0.3247     18.1017     85.2838     39.0926
   666.5000      8.1874      2.3386     -0.2865     18.8727     83.3290     38.9726
   666.6000      8.1874      2.3129     -0.2950     20.4331     83.5184     38.4117
   666.7000      8.1874      2.2748     -0.3498     22.7370     85.3358     37.8307
   666.8000      8.1862      2.2505     -0.3878     24.2131     86.5923     37.6475
   666.9000      8.1862      2.2499     -0.3383     24.2492     86.6757     37.5573
   667.0000      8.1915      2.2526     -0.3182     24.0866     85.2943     37.3969
   667.1000      8.1915      2.2466     -0.3309     24.4474     82.5764     37.5772
   667.2000      8.1915      2.2499     -0.3591     24.2467     80.6275     38.1955
   667.3000      8.1928      2.2789     -0.3207     22.4915     81.8919     38.7941
   667.4000      8.1928      2.3210     -0.2881     19.9386     85.3977     38.9236
   667.5000      8.1890      2.3558     -0.2505     17.8312     87.8164     38.5241
   667.6000      8.1890      2.3771     -0.2746     16.5386     87.7016     37.9626
   667.7000      8.1890      2.3899     -0.2981     15.7650     85.2828     37.6974
   667.8000      8.1978      2.3950     -0.2634     15.4555     81.1554     37.7707
   667.9000      8.1978      2.3905     -0.3072     15.7301     76.4680     37.8503
   668.0000      8.1972      2.3861     -0.3342     15.9929     73.2593     37.7575
   668.1000      8.1972      2.3899     -0.3083     15.7663     73.4333     37.5870
   668.2000      8.1972      2.3898     -0.2909     15.7690     77.0797     37.6005
   668.3000      8.1689      2.3739     -0.3226     16.7327     80.3808     37.9156
   668.4000      8.1689      2.3592     -0.4215     17.6234     79.1346     38.1396
   668.5000      8.1935      2.3749     -0.4065     16.6740     74.6830     37.7909
   668.6000      8.1935      2.4158     -0.3290     14.1945     69.6767     37.0002
   668.7000      8.1935      2.4506     -0.2968     12.0878     64.9145     36.4041
   668.8000      8.1906      2.4585     -0.3151     11.6046     62.2074     36.3004
   668.9000      8.1906      2.4397     -0.3130     12.7434     62.2966     36.4024
   669.0000      8.1968      2.4150     -0.3718     14.2402     63.4586     36.3784
   669.1000      8.1968      2.4103     -0.3896     14.5275     65.1103     36.2828
   669.2000      8.1968      2.4303     -0.3503     13.3171     66.7030     36.3010
   669.3000      8.2030      2.4595     -0.3084     11.5481     68.2208     36.2948
   669.4000      8.2030      2.4859     -0.3655      9.9453     70.6752     36.0946
   669.5000      8.2010      2.5110     -0.3400      8.4268     72.9432     35.9501
   669.6000      8.2010      2.5351     -0.3119      6.9629     72.6232     36.1236
   669.7000      8.2010      2.5506     -0.3181      6.0248     70.2601     36.4266
   669.8000      8.1842      2.5486     -0.2922      6.1484     68.2601     36.7798
   669.9000      8.1842      2.5303     -0.3342      7.2524     68.6605     37.2400
   670.0000      8.1993      2.5093     -0.3535      8.5266     72.5932     37.3557
   670.1000      8.1993      2.4992     -0.3916      9.1401     78.8568     37.0737
   670.2000      8.1993      2.4987     -0.3818      9.1671     83.1199     37.1315
   670.3000      8.1801      2.4895     -0.3836      9.7288     82.9326     37.6915
   670.4000      8.1801      2.4618     -0.4404     11.4079     81.7863     38.0713
   670.5000      8.1866      2.4252     -0.4333     13.6272     83.7949     37.9361
   670.6000      8.1866      2.3915     -0.4367     15.6639     87.8377     37.7473
   670.7000      8.1866      2.3705     -0.4813     16.9379     90.1319     37.9100
   670.8000      8.1728      2.3628     -0.4375     17.4048     89.8971     38.1994
   670.9000      8.1728      2.3576     -0.4518     17.7193     90.0060     38.4075
   671.0000      8.1703      2.3484     -0.3903     18.2766     91.9775     38.5034
   671.1000      8.1703      2.3400     -0.4296     18.7891     94.1621     38.4377
   671.2000      8.1703      2.3368     -0.4142     18.9806     95.5353     38.4103
   671.3000      8.1514      2.3297     -0.4031     19.4131     96.1315     38.5611
   671.4000      8.1514      2.3171     -0.4644     20.1778     95.3075     38.6120
   671.5000      8.1676      2.3180     -0.4392     20.1238     93.7773     38.4528
   671.6000      8.1676      2.3414     -0.4330     18.7030     91.9303     38.3282
   671.7000      8.1676      2.3762     -0.4160     16.5920     88.9148     38.4015
   671.8000      8.1523      2.4044     -0.3259     14.8825     85.9376     38.6326
   671.9000      8.1523      2.4173     -0.3570     14.1004     86.4856     38.7871
   672.0000      8.1770      2.4223     -0.3582     13.8027     90.4663     38.7458
   672.1000      8.1770      2.4272     -0.3465     13.5059     92.3318     38.6062
   672.2000      8.1770      2.4339     -0.3630     13.0964     90.8856     38.3925
   672.3000      8.1736      2.4448     -0.3622     12.4351     90.7355     38.0972
   672.4000      8.1736      2.4521     -0.3565     11.9952     91.8978     37.8352
   672.5000      8.1751      2.4401     -0.3351     12.7224     92.2027     37.8679
   672.6000      8.1751      2.4143     -0.3959     14.2844     93.3423     38.2136
   672.7000      8.1751      2.3929     -0.3429     15.5845     95.5032     38.4908
   672.8000      8.1656      2.3733     -0.3581     16.7710     97.3529     38.3454
   672.9000      8.1656      2.3420     -0.3453     18.6678     98.5696     37.8770
   673.0000      8.1673      2.2941     -0.3677     21.5672     98.6636     37.6324
   673.1000      8.1673      2.2429     -0.4866     24.6724     97.5007     37.9307
   673.2000      8.1673      2.2015     -0.4148     27.1802     94.3817     38.3452
   673.3000      8.1623      2.1601     -0.4686     29.6927     89.4239     38.3958
   673.4000      8.1623      2.1058     -0.4729     32.9833     85.7384     38.2064
   673.5000      8.1663      2.0258     -0.4442     37.8311     85.1837     38.0911
   673.6000      8.1663      1.9050     -0.4532     45.1543     85.1657     38.1090
   673.7000      8.1663      1.7624     -0.6394     53.7952     83.2635     38.0756
   673.8000      8.1488      1.6483     -0.6753     60.7105     80.4748     37.8943
   673.9000      8.1488      1.5903     -0.6707     64.2235     79.1343     37.7119
   674.0000      8.1726      1.5811     -0.6919     64.7807     79.2360     37.5359
   674.1000      8.1726      1.5957     -0.6119     63.8988     78.8866     37.2172
   674.2000      8.1726      1.6122     -0.6350     62.8982     77.9378     36.9451
   674.3000      8.1664      1.6391     -0.6519     61.2677     77.8188     37.2175
   674.4000      8.1664      1.6979     -0.6408     57.7004     78.5283     38.1258
   674.5000      8.1345      1.7834     -0.5639     52.5206     79.0162     39.0016
