~Version Information
VERS.                      2.0: CWLS Log ASCII Standard - VERSION 2.0
WRAP.                       NO: One line per depth step
~Well Information Block
STRT.FT               928.1000: 
STOP.FT              2417.7000: 
STEP.FT                 0.1000: 
NULL.                -999.2500: 
COMP.          Pioneer Natural Resources: COMPANY
WELL.            Chevron 13-13: WELL
FLD.           Purgatoire River: FIELD
LOC.           1560' FSL & 711' FWL--: LOCATION
CNTY.               Las Animas: COUNTY
SRVC.          Superior Well Services: SERVICE COMPANY
DATE.          Mon Feb 12 14:51:53 2007: LOG DATE
UWI.           05 071 08319 00: UNIQUE WELL ID
STAT.                 Colorado: STATE
~Curve Information Block
DEPT.FT            0 000 00 00: Depth
DIR.Ohm-m                     : IEL Induction Resistivity
GR.GAPI                       : Gamma Ray
SN.Ohm-m                      : IEL Short Normal
SP.mV                         : IEL Spontaneous Potential
~Parameter Information Block
~A  Depth       DIR          GR          SN          SP     
# ...
  2107.3000     21.1586     71.2733     23.9560     82.3515
  2107.4000     21.1586     70.4554     23.9560     82.3515
  2107.5000     21.1553     69.6311     23.8776     82.2315
  2107.6000     21.1553     68.9047     23.8776     82.2315
  2107.7000     21.1553     68.3652     23.8776     82.2315
  2107.8000     21.1730     68.0779     23.7808     82.1100
  2107.9000     21.1730     68.0738     23.7808     82.1100
  2108.0000     21.2043     68.3490     23.6882     81.9769
  2108.1000     21.2043     68.8684     23.6882     81.9769
  2108.2000     21.2043     69.5713     23.6882     81.9769
  2108.3000     21.2393     70.3858     23.6270     81.8237
  2108.4000     21.2393     71.2413     23.6270     81.8237
  2108.5000     21.2785     72.0787     23.6474     81.6437
  2108.6000     21.2785     72.8567     23.6474     81.6437
  2108.7000     21.2785     73.5506     23.6474     81.6437
  2108.8000     21.3346     74.1477     23.7797     81.4328
  2108.9000     21.3346     74.6373     23.7797     81.4328
  2109.0000     21.4241     75.0045     24.0896     81.1901
  2109.1000     21.4241     75.2232     24.0896     81.1901
  2109.2000     21.4241     75.2593     24.0896     81.1901
  2109.3000     21.5531     75.0743     24.5601     80.9177
  2109.4000     21.5531     74.6357     24.5601     80.9177
  2109.5000     21.7109     73.9262     25.1198     80.6210
  2109.6000     21.7109     72.9523     25.1198     80.6210
  2109.7000     21.7109     71.7475     25.1198     80.6210
  2109.8000     21.8761     70.3723     25.7134     80.3084
  2109.9000     21.8761     68.9023     25.7134     80.3084
  2110.0000     22.0303     67.4196     26.1659     79.9906
  2110.1000     22.0303     66.0017     26.1659     79.9906
  2110.2000     22.0303     64.7088     26.1659     79.9906
  2110.3000     22.1649     63.5800     26.4010     79.6803
  2110.4000     22.1649     62.6332     26.4010     79.6803
  2110.5000     22.2740     61.8691     26.4311     79.3915
  2110.6000     22.2740     61.2799     26.4311     79.3915
  2110.7000     22.2740     60.8574     26.4311     79.3915
  2110.8000     22.3401     60.5980     26.3033     79.1388
  2110.9000     22.3401     60.5068     26.3033     79.1388
  2111.0000     22.3307     60.5943     26.0590     78.9365
  2111.1000     22.3307     60.8739     26.0590     78.9365
  2111.2000     22.3307     61.3530     26.0590     78.9365
  2111.3000     22.2137     62.0306     25.7362     78.7980
  2111.4000     22.2137     62.8939     25.7362     78.7980
  2111.5000     21.9796     63.9185     25.3370     78.7354
  2111.6000     21.9796     65.0741     25.3370     78.7354
  2111.7000     21.9796     66.3270     25.3370     78.7354
  2111.8000     21.6504     67.6483     24.7182     78.7590
  2111.9000     21.6504     69.0145     24.7182     78.7590
  2112.0000     21.2661     70.4143     23.8642     78.8769
  2112.1000     21.2661     71.8453     23.8642     78.8769
  2112.2000     21.2661     73.3139     23.8642     78.8769
  2112.3000     20.8644     74.8321     23.0125     79.0947
  2112.4000     20.8644     76.4143     23.0125     79.0947
  2112.5000     20.4702     78.0717     22.2344     79.4152
  2112.6000     20.4702     79.8155     22.2344     79.4152
  2112.7000     20.4702     81.6488     22.2344     79.4152
  2112.8000     20.0942     83.5711     21.6202     79.8381
  2112.9000     20.0942     85.5789     21.6202     79.8381
  2113.0000     19.7332     87.6603     21.2314     80.3598
  2113.1000     19.7332     89.8007     21.2314     80.3598
  2113.2000     19.7332     91.9823     21.2314     80.3598
  2113.3000     19.3649     94.1826     20.9690     80.9726
  2113.4000     19.3649     96.3804     20.9690     80.9726
  2113.5000     18.9466     98.5596     20.5675     81.6650
  2113.6000     18.9466    100.7117     20.5675     81.6650
  2113.7000     18.9466    102.8390     20.5675     81.6650
  2113.8000     18.4292    104.9544     19.8859     82.4214
  2113.9000     18.4292    107.0765     19.8859     82.4214
  2114.0000     17.7853    109.2239     18.9243     83.2223
  2114.1000     17.7853    111.4024     18.9243     83.2223
  2114.2000     17.7853    113.5964     18.9243     83.2223
  2114.3000     17.0329    115.7654     17.7944     84.0448
  2114.4000     17.0329    117.8408     17.7944     84.0448
  2114.5000     16.2336    119.7300     16.7281     84.8640
  2114.6000     16.2336    121.3340     16.7281     84.8640
  2114.7000     16.2336    122.5531     16.7281     84.8640
  2114.8000     15.4640    123.3088     15.7845     85.6540
  2114.9000     15.4640    123.5504     15.7845     85.6540
  2115.0000     14.7823    123.2685     15.1497     86.3892
  2115.1000     14.7823    122.4938     15.1497     86.3892
  2115.2000     14.7823    121.2960     15.1497     86.3892
  2115.3000     14.2116    119.7733     14.8803     87.0458
  2115.4000     14.2116    118.0410     14.8803     87.0458
  2115.5000     13.7434    116.2174     14.8721     87.6031
  2115.6000     13.7434    114.4048     14.8721     87.6031
  2115.7000     13.7434    112.6784     14.8721     87.6031
  2115.8000     13.3529    111.0769     14.9965     88.0446
  2115.9000     13.3529    109.6040     14.9965     88.0446
  2116.0000     13.0179    108.2332     15.1240     88.3581
  2116.1000     13.0179    106.9155     15.1240     88.3581
  2116.2000     13.0179    105.5978     15.1240     88.3581
  2116.3000     12.7310    104.2363     15.2234     88.5367
  2116.4000     12.7310    102.8061     15.2234     88.5367
  2116.5000     12.5016    101.3087     15.3704     88.5783
  2116.6000     12.5016     99.7712     15.3704     88.5783
  2116.7000     12.5016     98.2397     15.3704     88.5783
  2116.8000     12.3508     96.7756     15.5997     88.4856
  2116.9000     12.3508     95.4398     15.5997     88.4856
  2117.0000     12.3036     94.2857     15.8725     88.2653
  2117.1000     12.3036     93.3558     15.8725     88.2653
  2117.2000     12.3036     92.6699     15.8725     88.2653
  2117.3000     12.3830     92.2231     16.1958     87.9281
  2117.4000     12.3830     91.9910     16.1958     87.9281
  2117.5000     12.6059     91.9269     16.6311     87.4877
  2117.6000     12.6059     91.9664     16.6311     87.4877
  2117.7000     12.6059     92.0382     16.6311     87.4877
  2117.8000     12.9803     92.0727     17.0912     86.9604
  2117.9000     12.9803     92.0122     17.0912     86.9604
  2118.0000     13.5022     91.8149     17.5303     86.3647
  2118.1000     13.5022     91.4648     17.5303     86.3647
  2118.2000     13.5022     90.9651     17.5303     86.3647
  2118.3000     14.1497     90.3384     18.0098     85.7210
  2118.4000     14.1497     89.6124     18.0098     85.7210
  2118.5000     14.8780     88.8172     18.4895     85.0510
  2118.6000     14.8780     87.9697     18.4895     85.0510
  2118.7000     14.8780     87.0755     18.4895     85.0510
  2118.8000     15.6183     86.1295     18.9283     84.3781
  2118.9000     15.6183     85.1196     18.9283     84.3781
  2119.0000     16.2888     84.0410     19.2612     83.7269
  2119.1000     16.2888     82.9042     19.2612     83.7269
  2119.2000     16.2888     81.7447     19.2612     83.7269
  2119.3000     16.8178     80.6266     19.5225     83.1234
  2119.4000     16.8178     79.6396     19.5225     83.1234
  2119.5000     17.1696     78.8878     19.7873     82.5946
  2119.6000     17.1696     78.4761     19.7873     82.5946
  2119.7000     17.1696     78.4928     19.7873     82.5946
  2119.8000     17.3537     78.9992     20.1760     82.1681
  2119.9000     17.3537     80.0114     20.1760     82.1681
  2120.0000     17.4131     81.5008     20.7037     81.8704
  2120.1000     17.4131     83.3969     20.7037     81.8704
  2120.2000     17.4131     85.5957     20.7037     81.8704
  2120.3000     17.3985     87.9713     21.2251     81.7252
  2120.4000     17.3985     90.3862     21.2251     81.7252
  2120.5000     17.3449     92.7079     21.6314     81.7507
  2120.6000     17.3449     94.8136     21.6314     81.7507
