~Version Information
VERS.                      2.0: CWLS Log ASCII Standard - VERSION 2.0
WRAP.                       NO: One line per depth step
~Well Information Block
STRT.FT               846.6000: 
STOP.FT              2609.1000: 
STEP.FT                 0.1000: 
NULL.                -999.2500: 
COMP.          Petrogulf Corporation: COMPANY
WELL.            Lavedure 7-44: WELL
FLD.           Purgatoire River: FIELD
LOC.           969' FSL & 501' FEL: LOCATION
PROV.                 Colorado: PROVINCE
CNTY.               Las Animas: COUNTRY
SRVC.                Patterson: SERVICE COMPANY
DATE.          Sun Dec 07 14:55:17 2003: LOG DATE
UWI.                          : UNIQUE WELL ID
~Curve Information Block
DEPT.FT            0 000 00 00: Depth
DCAL.in                       : CDL Caliper
RHOB.g/cc                     : CDL Bulk Density
RHOC.g/cc                     : CDL Density Correction
DPOR.pu                       : CDL Density Porosity
GR.GAPI                       : Gamma Ray
NPOR.pu                       : Neutron Porosity
~Parameter Information Block
~A  Depth       DCAL        RHOB        RHOC        DPOR         GR         NPOR    
# ...
  2373.0000      7.9916      2.5803      0.0661      4.2217     59.3504     17.4733
  2373.1000      7.9916      2.5784      0.0660      4.3417     59.6890     17.4724
  2373.2000      7.9916      2.5764      0.0656      4.4633     60.0413     17.4601
  2373.3000      7.9718      2.5743      0.0650      4.5872     60.3684     17.4357
  2373.4000      7.9718      2.5722      0.0642      4.7144     60.6356     17.4010
  2373.5000      7.9608      2.5701      0.0632      4.8454     60.8170     17.3608
  2373.6000      7.9608      2.5678      0.0620      4.9805     60.8987     17.3220
  2373.7000      7.9608      2.5655      0.0607      5.1193     60.8835     17.2928
  2373.8000      7.9557      2.5632      0.0591      5.2606     60.7843     17.2812
  2373.9000      7.9557      2.5609      0.0572      5.4024     60.6272     17.2940
  2374.0000      7.9526      2.5586      0.0553      5.5417     60.4424     17.3346
  2374.1000      7.9526      2.5564      0.0532      5.6747     60.2647     17.4029
  2374.2000      7.9526      2.5544      0.0512      5.7969     60.1261     17.4943
  2374.3000      7.9632      2.5526      0.0494      5.9034     60.0572     17.5999
  2374.4000      7.9632      2.5512      0.0479      5.9897     60.0792     17.7066
  2374.5000      7.9756      2.5502      0.0470      6.0515     60.2039     17.7991
  2374.6000      7.9756      2.5496      0.0466      6.0860     60.4308     17.8607
  2374.7000      7.9756      2.5495      0.0469      6.0914     60.7446     17.8759
  2374.8000      7.9785      2.5499      0.0478      6.0682     61.1196     17.8325
  2374.9000      7.9785      2.5507      0.0492      6.0186     61.5181     17.7237
  2375.0000      7.9803      2.5519      0.0511      5.9467     61.8984     17.5492
  2375.1000      7.9803      2.5533      0.0532      5.8585     62.2211     17.3167
  2375.2000      7.9803      2.5549      0.0552      5.7612     62.4548     17.0408
  2375.3000      7.9845      2.5566      0.0570      5.6627     62.5798     16.7419
  2375.4000      7.9845      2.5581      0.0583      5.5712     62.5898     16.4435
  2375.5000      7.9852      2.5593      0.0588      5.4942     62.4921     16.1693
  2375.6000      7.9852      2.5603      0.0585      5.4381     62.2992     15.9399
  2375.7000      7.9852      2.5608      0.0573      5.4076     62.0259     15.7705
  2375.8000      7.9862      2.5608      0.0553      5.4055     61.6849     15.6693
  2375.9000      7.9862      2.5604      0.0525      5.4321     61.2849     15.6368
  2376.0000      7.9951      2.5595      0.0491      5.4858     60.8314     15.6662
  2376.1000      7.9951      2.5582      0.0455      5.5627     60.3289     15.7453
  2376.2000      7.9951      2.5567      0.0419      5.6571     59.7880     15.8579
  2376.3000      8.0129      2.5549      0.0385      5.7624     59.2253     15.9873
  2376.4000      8.0129      2.5531      0.0358      5.8709     58.6649     16.1179
  2376.5000      8.0266      2.5514      0.0338      5.9749     58.1323     16.2375
  2376.6000      8.0266      2.5499      0.0329      6.0667     57.6551     16.3380
  2376.7000      8.0266      2.5487      0.0330      6.1398     57.2549     16.4160
  2376.8000      8.0221      2.5479      0.0343      6.1885     56.9447     16.4718
  2376.9000      8.0221      2.5476      0.0367      6.2087     56.7298     16.5080
  2377.0000      8.0120      2.5477      0.0402      6.1978     56.6099     16.5288
  2377.1000      8.0120      2.5484      0.0446      6.1551     56.5826     16.5376
  2377.2000      8.0120      2.5497      0.0497      6.0814     56.6501     16.5365
  2377.3000      8.0197      2.5513      0.0551      5.9791     56.8200     16.5260
  2377.4000      8.0197      2.5534      0.0605      5.8522     57.1059     16.5040
  2377.5000      8.0198      2.5559      0.0657      5.7058     57.5219     16.4674
  2377.6000      8.0198      2.5585      0.0703      5.5460     58.0757     16.4117
  2377.7000      8.0198      2.5612      0.0742      5.3794     58.7616     16.3329
  2377.8000      7.9946      2.5640      0.0772      5.2131     59.5485     16.2278
  2377.9000      7.9946      2.5666      0.0793      5.0537     60.3821     16.0949
  2378.0000      7.9779      2.5690      0.0803      4.9073     61.1811     15.9348
  2378.1000      7.9779      2.5711      0.0805      4.7791     61.8462     15.7508
  2378.2000      7.9779      2.5729      0.0798      4.6726     62.2744     15.5478
  2378.3000      7.9912      2.5743      0.0784      4.5900     62.3721     15.3327
  2378.4000      7.9912      2.5752      0.0764      4.5313     62.0726     15.1129
  2378.5000      8.0246      2.5758      0.0741      4.4950     61.3494     14.8962
  2378.6000      8.0246      2.5761      0.0715      4.4777     60.2240     14.6896
  2378.7000      8.0246      2.5762      0.0690      4.4744     58.7665     14.4989
  2378.8000      8.0516      2.5761      0.0667      4.4795     57.0897     14.3284
  2378.9000      8.0516      2.5760      0.0649      4.4870     55.3331     14.1811
  2379.0000      8.0480      2.5759      0.0637      4.4911     53.6489     14.0584
  2379.1000      8.0480      2.5760      0.0633      4.4870     52.1801     13.9610
  2379.2000      8.0480      2.5762      0.0636      4.4716     51.0427     13.8886
  2379.3000      8.0215      2.5767      0.0645      4.4433     50.3132     13.8404
  2379.4000      8.0215      2.5774      0.0658      4.4029     50.0206     13.8146
  2379.5000      7.9971      2.5782      0.0673      4.3527     50.1457     13.8086
  2379.6000      7.9971      2.5791      0.0685      4.2969     50.6277     13.8189
  2379.7000      7.9971      2.5800      0.0693      4.2405     51.3772     13.8405
  2379.8000      7.9860      2.5809      0.0692      4.1888     52.2915     13.8676
  2379.9000      7.9860      2.5816      0.0683      4.1466     53.2692     13.8932
  2380.0000      7.9820      2.5821      0.0664      4.1177     54.2252     13.9102
  2380.1000      7.9820      2.5823      0.0635      4.1043     55.0957     13.9120
  2380.2000      7.9820      2.5822      0.0600      4.1064     55.8416     13.8926
  2380.3000      7.9819      2.5820      0.0561      4.1221     56.4440     13.8481
  2380.4000      7.9819      2.5816      0.0522      4.1479     56.8960     13.7763
  2380.5000      7.9953      2.5811      0.0485      4.1787     57.1946     13.6774
  2380.6000      7.9953      2.5806      0.0455      4.2086     57.3325     13.5537
  2380.7000      7.9953      2.5802      0.0432      4.2317     57.2956     13.4093
  2380.8000      8.0230      2.5800      0.0419      4.2425     57.0624     13.2502
  2380.9000      8.0230      2.5801      0.0415      4.2366     56.6097     13.0828
  2381.0000      8.0515      2.5805      0.0419      4.2113     55.9202     12.9142
  2381.1000      8.0515      2.5813      0.0428      4.1658     54.9858     12.7512
  2381.2000      8.0515      2.5823      0.0440      4.1009     53.8180     12.6003
  2381.3000      8.0706      2.5837      0.0452      4.0197     52.4445     12.4666
  2381.4000      8.0706      2.5852      0.0461      3.9265     50.9098     12.3545
  2381.5000      8.0658      2.5869      0.0465      3.8271     49.2749     12.2671
  2381.6000      8.0658      2.5885      0.0463      3.7281     47.6117     12.2061
  2381.7000      8.0658      2.5900      0.0455      3.6365     45.9996     12.1724
  2381.8000      8.0423      2.5913      0.0441      3.5594     44.5211     12.1658
  2381.9000      8.0423      2.5922      0.0424      3.5035     43.2590     12.1857
  2382.0000      8.0211      2.5927      0.0403      3.4748     42.2887     12.2316
  2382.1000      8.0211      2.5926      0.0383      3.4785     41.6727     12.3029
  2382.2000      8.0211      2.5919      0.0362      3.5186     41.4532     12.4002
  2382.3000      8.0084      2.5906      0.0344      3.5978     41.6410     12.5252
  2382.4000      8.0084      2.5887      0.0328      3.7173     42.2175     12.6809
  2382.5000      8.0011      2.5860      0.0315      3.8770     43.1318     12.8715
