~Version Information
VERS.                      2.0: CWLS Log ASCII Standard - VERSION 2.0
WRAP.                       NO: One line per depth step
~Well Information Block
STRT.FT                 1.5000: 
STOP.FT              1895.2500: 
STEP.FT                 0.2500: 
NULL.                -999.2500: 
COMP.          Petrogulf Corporation: COMPANY
WELL.             State 16-32R: WELL
FLD.           Purgatorie River: FIELD
LOC.           1849' FNL & 1677' FEL: LOCATION
CNTY.               Las Animas: COUNTY
SRVC.                         : SERVICE COMPANY
DATE.          Thu May 20 08:40:19 2004: LOG DATE
UWI.           05 071 08033 00: UNIQUE WELL ID
STAT.                 Colorado: STATE
~Curve Information Block
DEPT.FT            0 000 00 00: Depth
GR.GAPI                       : Gamma Ray
CCL.                          : Casing Collar Locator
TT3.usec                      : CBL 3' Travel Time
AMP3.mV                       : CBL 3' Amplitude
~Parameter Information Block
~A  Depth        GR         CCL         TT3         AMP3    
# ...
   236.0000     67.6323      0.0000    262.2224     52.4064
   236.2500     66.3173      0.0000    272.7726     50.9447
   236.5000     65.1841      0.0000    281.2120     49.5413
   236.7500     63.8334      0.0000    285.5449     48.3515
   237.0000     61.9361      0.0000    286.9992     47.4447
   237.2500     59.6566      0.0000    287.3770     46.8461
   237.5000     57.9804      0.0000    287.5180     46.4641
   237.7500     58.4287      0.0000    287.5835     46.1230
   238.0000     61.9649      0.0000    287.5631     45.7784
   238.2500     68.0903      0.0000    287.4600     45.6448
   238.5000     75.3146      0.0000    287.2819     46.0345
   238.7500     82.5675      0.0000    287.0362     46.9367
   239.0000     89.8339      0.0000    286.7621     47.8797
   239.2500     97.3174      0.0000    286.5280     48.4064
   239.5000    104.3701      0.0000    286.3943     48.4066
   239.7500    109.5683      0.0000    286.3819     47.9877
   240.0000    111.8231      0.0000    286.4607     47.4061
   240.2500    111.2016      0.0000    286.5770     46.9121
   240.5000    108.5950      0.0000    286.6815     46.5704
   240.7500    104.8885      0.0000    286.7368     46.4648
   241.0000    100.9011      0.0000    286.7380     46.7725
   241.2500     97.9002      0.0000    286.7220     47.3927
   241.5000     97.3168      0.0000    286.7336     47.8714
   241.7500     99.5926      0.0000    286.7894     47.8676
   242.0000    103.5609      0.0000    286.8762     47.4105
   242.2500    107.1352      0.0000    286.9812     46.6196
   242.5000    108.7103      0.0000    287.1198     45.5369
   242.7500    108.2105      0.0000    287.3008     44.4116
   243.0000    106.8865      0.0000    287.4772     43.7601
   243.2500    105.8948      0.0000    287.5846     43.8915
   243.5000    105.3354      0.0000    287.6121     44.6119
   243.7500    104.9239      0.0000    287.5863     45.4876
   244.0000    104.8697      0.0000    287.5164     46.1879
   244.2500    105.2732      0.0000    287.4051     46.5625
   244.5000    105.2973      0.0000    287.2767     46.6158
   244.7500    103.8986      0.0000    287.1600     46.4726
   245.0000    101.1652      0.0000    287.0683     46.2871
   245.2500     98.3335      0.0000    287.0077     46.1858
   245.5000     96.7052      0.0000    286.9869     46.2768
   245.7500     96.7947      0.0000    287.0047     46.5848
   246.0000     98.1776      0.0000    287.0370     46.9532
   246.2500     99.8939      0.0000    287.0536     47.1557
   246.5000    101.0910      0.0000    287.0380     47.1130
   246.7500    101.3800      0.0000    286.9789     46.8643
   247.0000    100.7841      0.0000    286.8748     46.4274
   247.2500     99.5387      0.0000    286.7506     45.9099
   247.5000     97.9515      0.0000    286.6429     45.6044
   247.7500     96.5181      0.0000    286.5682     45.6944
   248.0000     96.1738      0.0000    286.5172     45.9740
   248.2500     97.8749      0.0000    286.4821     46.0313
   248.5000    101.4260      0.0000    286.4802     45.6133
   248.7500    105.0428      0.0000    286.5279     44.7416
   249.0000    106.6297      0.0000    286.6017     43.5978
   249.2500    105.4673      0.0000    286.6508     42.3567
   249.5000    102.6305      0.0000    286.6544     41.0490
   249.7500    100.0855      0.0000    286.6543     39.5604
   250.0000     99.3788      0.0000    286.7049     37.7914
   250.2500    100.7274      0.0000    286.8128     35.8876
   250.5000    103.0474      0.0000    286.9438     34.3641
   250.7500    104.8575      0.0000    287.0568     33.7440
   251.0000    105.2354      0.0000    287.1278     33.9635
   251.2500    104.0616      0.0000    287.1644     34.4046
   251.5000    101.7230      0.0000    287.1905     34.5498
   251.7500     98.7250      0.0000    287.1972     34.4744
   252.0000     95.2765      0.0000    287.1357     34.6435
   252.2500     91.1174      0.0000    286.9798     35.2624
   252.5000     86.2152      0.0000    286.7690     36.0104
   252.7500     81.7760      0.0000    286.5756     36.4744
   253.0000     79.8367      0.0000    286.4554     36.6113
   253.2500     81.3428      0.0000    286.4354     36.6935
   253.5000     85.1563      0.0000    286.5003     36.9919
   253.7500     89.4331      0.0000    286.5953     37.4791
   254.0000     93.4897      0.0000    286.6808     37.7663
   254.2500     97.7370      0.0000    286.7612     37.5196
   254.5000    102.2139      0.0000    286.8513     36.8465
   254.7500    105.9213      0.0000    286.9483     36.0733
   255.0000    107.5621      0.0000    287.0331     35.3445
   255.2500    106.6294      0.0000    287.0815     34.5800
   255.5000    103.8556      0.0000    287.0840     33.7063
   255.7500    100.6701      0.0000    287.0540     32.9030
   256.0000     98.0753      0.0000    287.0111     32.5262
   256.2500     95.9921      0.0000    286.9650     32.6561
   256.5000     93.6961      0.0000    286.9169     32.8770
   256.7500     90.6079      0.0000    286.8648     32.7039
   257.0000     86.5879      0.0000    286.8136     32.1123
   257.2500     81.8831      0.0000    286.7830     31.4646
   257.5000     77.1986      0.0000    286.7908     31.0309
   257.7500     73.7146      0.0000    286.8439     30.7509
   258.0000     72.6240      0.0000    286.9524     30.3895
   258.2500     74.2481      0.0000    287.1104     29.8098
   258.5000     77.5645      0.0000    287.2790     29.0604
   258.7500     80.8533      0.0000    287.4317     28.2478
   259.0000     82.8983      0.0000    287.5618     27.4627
   259.2500     83.4316      0.0000    287.6391     26.7932
   259.5000     82.7422      0.0000    287.6334     26.2535
   259.7500     81.3761      0.0000    287.5680     25.7746
   260.0000     79.9527      0.0000    287.5683     25.3651
   260.2500     78.6380      0.0000    288.2629     25.1406
   260.5000     76.8829      0.0000    292.8027     25.0574
   260.7500     74.1424      0.0000    311.3457     24.7691
   261.0000     70.8067      0.0000    360.6042     23.9759
   261.2500     68.0238      0.0000    443.1056     22.7173
   261.5000     66.5961      0.0000    524.5596     21.1278
   261.7500     66.3388      0.0000    567.6178     19.2887
   262.0000     66.5069      0.0000    588.4951     17.4305
   262.2500     66.4782      0.0000    625.3739     16.0158
   262.5000     65.9129      0.0000    673.4894     15.5204
   262.7500     64.6680      0.0000    705.2996     16.0190
   263.0000     63.0732      0.0000    712.6579     17.1126
   263.2500     62.2900      2.0000    700.1461     18.3477
   263.5000     63.9309      0.0000    669.3704     19.5359
   263.7500     68.9500      0.0000    617.0116     20.7133
   264.0000     76.7398      0.0000    541.7698     21.8155
   264.2500     85.1732      0.0000    465.8358     22.4595
   264.5000     91.7010      0.0000    430.1464     22.4826
   264.7500     94.8795      0.0000    437.2155     22.5836
   265.0000     95.2250      0.0000    436.1930     23.6489
   265.2500     94.6853      0.0000    395.4821     25.4647
   265.5000     95.2348      0.0000    344.4957     26.6856
   265.7500     97.7498      0.0000    327.8824     26.2011
   266.0000    101.7567      0.0000    367.1798     24.2044
   266.2500    105.8406      0.0000    459.6853     21.7120
   266.5000    108.3700      0.0000    573.1389     19.5322
   266.7500    108.3262      0.0000    661.5126     17.9265
   267.0000    105.8375      0.0000    705.6241     16.8171
   267.2500    101.9491      0.0000    717.1019     16.1080
   267.5000     97.9010      0.0000    705.9442     15.8439
   267.7500     94.6031      0.0000    663.0622     16.1196
   268.0000     92.4727      0.0000    577.8520     16.9835
   268.2500     91.4378      0.0000    468.5811     18.4310
   268.5000     91.0761      0.0000    375.6027     20.3931
   268.7500     90.8636      0.0000    320.9816     22.7434
   269.0000     90.3660      0.0000    297.3960     25.3778
   269.2500     89.3790      0.0000    289.4082     28.2836
