~Version Information
VERS.                      2.0: CWLS Log ASCII Standard - VERSION 2.0
WRAP.                       NO: One line per depth step
~Well Information Block
STRT.FT               698.9000: 
STOP.FT              2459.5000: 
STEP.FT                 0.1000: 
NULL.                -999.2500: 
COMP.          Petrogulf Corporation: COMPANY
WELL.             State 16-23V: WELL
FLD.           Purgatorie River: FIELD
LOC.           2414' FSL & 2215' FWL: LOCATION
PROV.                 Colorado: PROVINCE
CNTY.               Las Animas: COUNTRY
SRVC.                         : SERVICE COMPANY
DATE.          Mon Jun 09 12:47:39 2003: LOG DATE
UWI.           05 071 07865 00: UNIQUE WELL ID
~Curve Information Block
DEPT.FT            0 000 00 00: Depth
SP.mV                         : DIL Spontaneous Potential
RILD.Ohm-m                    : DIL Deep Resistivity
RILM.Ohm-m                    : DIL Medium Resistivity
RLL3.Ohm-m                    : DIL Shallow Resistivity
GR.GAPI                       : Gamma Ray
~Parameter Information Block
~A  Depth        SP         RILD        RILM        RLL3         GR     
# ...
  1863.7000     12.3085     27.9173     42.0623     41.6532     67.5619
  1863.8000     12.5005     27.7375     42.1837     41.6476     68.1520
  1863.9000     12.5005     27.7375     42.1837     41.6476     68.6087
  1864.0000     12.7175     27.5421     42.6704     42.6071     68.9919
  1864.1000     12.7175     27.5421     42.6704     42.6071     69.3460
  1864.2000     12.7175     27.5421     42.6704     42.6071     69.7032
  1864.3000     12.9425     27.4068     43.3834     44.3829     70.0863
  1864.4000     12.9425     27.4068     43.3834     44.3829     70.5130
  1864.5000     13.1539     27.4071     44.1265     46.7998     71.0028
  1864.6000     13.1539     27.4071     44.1265     46.7998     71.5804
  1864.7000     13.1539     27.4071     44.1265     46.7998     72.2773
  1864.8000     13.3446     27.5799     44.5755     49.3364     73.1298
  1864.9000     13.3446     27.5799     44.5755     49.3364     74.1743
  1865.0000     13.5155     27.9055     44.2739     51.2234     75.4385
  1865.1000     13.5155     27.9055     44.2739     51.2234     76.9388
  1865.2000     13.5155     27.9055     44.2739     51.2234     78.6687
  1865.3000     13.6676     28.2806     42.8816     51.7077     80.6011
  1865.4000     13.6676     28.2806     42.8816     51.7077     82.6861
  1865.5000     13.8038     28.5221     40.4933     50.2863     84.8545
  1865.6000     13.8038     28.5221     40.4933     50.2863     87.0301
  1865.7000     13.8038     28.5221     40.4933     50.2863     89.1400
  1865.8000     13.9230     28.4246     37.5504     47.0785     91.1215
  1865.9000     13.9230     28.4246     37.5504     47.0785     92.9379
  1866.0000     14.0133     27.8335     34.4202     42.9126     94.5780
  1866.1000     14.0133     27.8335     34.4202     42.9126     96.0569
  1866.2000     14.0133     27.8335     34.4202     42.9126     97.4145
  1866.3000     14.0673     26.7039     31.2247     38.5971     98.7065
  1866.4000     14.0673     26.7039     31.2247     38.5971     99.9935
  1866.5000     14.0931     25.1389     28.0355     34.2259    101.3386
  1866.6000     14.0931     25.1389     28.0355     34.2259    102.7952
  1866.7000     14.0931     25.1389     28.0355     34.2259    104.4071
  1866.8000     14.1038     23.3584     25.0384     29.5912    106.2011
  1866.9000     14.1038     23.3584     25.0384     29.5912    108.1906
  1867.0000     14.1082     21.5872     22.4401     24.9738    110.3699
  1867.1000     14.1082     21.5872     22.4401     24.9738    112.7146
  1867.2000     14.1082     21.5872     22.4401     24.9738    115.1884
  1867.3000     14.1141     19.9649     20.3191     21.0382    117.7424
  1867.4000     14.1141     19.9649     20.3191     21.0382    120.3213
  1867.5000     14.1267     18.5502     18.6154     18.1653    122.8739
  1867.6000     14.1267     18.5502     18.6154     18.1653    125.3566
  1867.7000     14.1267     18.5502     18.6154     18.1653    127.7415
  1867.8000     14.1431     17.3772     17.2167     16.2528    130.0167
  1867.9000     14.1431     17.3772     17.2167     16.2528    132.1879
  1868.0000     14.1565     16.4776     16.0333     15.0070    134.2754
  1868.1000     14.1565     16.4776     16.0333     15.0070    136.3107
  1868.2000     14.1565     16.4776     16.0333     15.0070    138.3344
  1868.3000     14.1629     15.8508     15.0190     14.1738    140.3890
  1868.4000     14.1629     15.8508     15.0190     14.1738    142.5142
  1868.5000     14.1625     15.4405     14.1545     13.5871    144.7434
  1868.6000     14.1625     15.4405     14.1545     13.5871    147.0967
  1868.7000     14.1625     15.4405     14.1545     13.5871    149.5764
  1868.8000     14.1558     15.1624     13.4326     13.2022    152.1639
  1868.9000     14.1558     15.1624     13.4326     13.2022    154.8156
  1869.0000     14.1382     14.9572     12.8543     13.0674    157.4701
  1869.1000     14.1382     14.9572     12.8543     13.0674    160.0504
  1869.2000     14.1382     14.9572     12.8543     13.0674    162.4694
  1869.3000     14.1019     14.8106     12.4276     13.1875    164.6441
  1869.4000     14.1019     14.8106     12.4276     13.1875    166.4938
  1869.5000     14.0458     14.7390     12.1644     13.4962    167.9524
  1869.6000     14.0458     14.7390     12.1644     13.4962    168.9687
  1869.7000     14.0458     14.7390     12.1644     13.4962    169.5039
  1869.8000     13.9729     14.7765     12.0778     13.9372    169.5325
  1869.9000     13.9729     14.7765     12.0778     13.9372    169.0414
  1870.0000     13.8754     14.9700     12.1821     14.5020    168.0243
  1870.1000     13.8754     14.9700     12.1821     14.5020    166.4859
  1870.2000     13.8754     14.9700     12.1821     14.5020    164.4406
  1870.3000     13.7371     15.3594     12.4917     15.3009    161.9120
  1870.4000     13.7371     15.3594     12.4917     15.3009    158.9358
  1870.5000     13.5517     15.9505     13.0218     16.6377    155.5605
  1870.6000     13.5517     15.9505     13.0218     16.6377    151.8409
  1870.7000     13.5517     15.9505     13.0218     16.6377    147.8367
  1870.8000     13.3301     16.7095     13.7849     18.8943    143.6058
  1870.9000     13.3301     16.7095     13.7849     18.8943    139.1984
  1871.0000     13.0879     17.5980     14.7835     22.2878    134.6510
  1871.1000     13.0879     17.5980     14.7835     22.2878    129.9872
  1871.2000     13.0879     17.5980     14.7835     22.2878    125.2187
  1871.3000     12.8369     18.6154     15.9936     26.6693    120.3470
  1871.4000     12.8369     18.6154     15.9936     26.6693    115.3752
  1871.5000     12.5833     19.7915     17.3537     31.4532    110.3128
  1871.6000     12.5833     19.7915     17.3537     31.4532    105.1817
  1871.7000     12.5833     19.7915     17.3537     31.4532    100.0213
  1871.8000     12.3297     21.1238     18.7796     35.7821     94.8860
  1871.9000     12.3297     21.1238     18.7796     35.7821     89.8421
  1872.0000     12.0852     22.5332     20.2177     38.9616     84.9579
  1872.1000     12.0852     22.5332     20.2177     38.9616     80.2977
  1872.2000     12.0852     22.5332     20.2177     38.9616     75.9132
  1872.3000     11.8678     23.9012     21.6918     40.9629     71.8371
  1872.4000     11.8678     23.9012     21.6918     40.9629     68.0830
  1872.5000     11.6945     25.1682     23.2794     42.5856     64.6494
  1872.6000     11.6945     25.1682     23.2794     42.5856     61.5189
  1872.7000     11.6945     25.1682     23.2794     42.5856     58.6670
  1872.8000     11.5693     26.3995     25.0305     44.9658     56.0649
  1872.9000     11.5693     26.3995     25.0305     44.9658     53.6859
  1873.0000     11.4831     27.7370     26.9028     48.6814     51.5050
  1873.1000     11.4831     27.7370     26.9028     48.6814     49.4996
  1873.2000     11.4831     27.7370     26.9028     48.6814     47.6514
  1873.3000     11.4248     29.2503     28.7610     53.1840     45.9446
  1873.4000     11.4248     29.2503     28.7610     53.1840     44.3656
  1873.5000     11.3897     30.8170     30.4325     57.0511     42.9069
  1873.6000     11.3897     30.8170     30.4325     57.0511     41.5640
  1873.7000     11.3897     30.8170     30.4325     57.0511     40.3372
  1873.8000     11.3761     32.1773     31.7802     58.8591     39.2311
  1873.9000     11.3761     32.1773     31.7802     58.8591     38.2537
  1874.0000     11.3793     33.1431     32.7542     58.0023     37.4120
  1874.1000     11.3793     33.1431     32.7542     58.0023     36.7125
  1874.2000     11.3793     33.1431     32.7542     58.0023     36.1556
  1874.3000     11.3911     33.6838     33.4094     54.8965     35.7343
  1874.4000     11.3911     33.6838     33.4094     54.8965     35.4344
  1874.5000     11.4048     33.7820     33.8834     50.6010     35.2339
  1874.6000     11.4048     33.7820     33.8834     50.6010     35.1059
  1874.7000     11.4048     33.7820     33.8834     50.6010     35.0227
  1874.8000     11.4218     33.3401     34.3276     46.3451     34.9606
