~Version Information
 VERS.                      2.0: CWLS Log ASCII Standard - VERSION 2.0
 WRAP.                       NO: One line per depth step
 ~Well Information Block
 STRT.FT               886.1000: 
 STOP.FT              2599.0000: 
 STEP.FT                 0.1000: 
 NULL.                -999.2500: 
 COMP.          Petrogulf Corporation: COMPANY
 WELL.               YWAM 7-23V: WELL
 FLD.           Purgatorie River: FIELD
 LOC.           230' FSL & 225' FWL: LOCATION
 CNTY.               Las Animas: COUNTY
 SRVC.                         : SERVICE COMPANY
 DATE.          Sat Oct 30 10:42:52 2004: LOG DATE
 UWI.           05 071 08227 00: UNIQUE WELL ID
 STAT.                 Colorado: STATE
 PROV.                         :Province
 ~Curve Information Block
 DEPT.FT            0 000 00 00: Depth
 DCAL.in                       : CDL Caliper
 RHOB.g/cc                     : CDL Bulk Density
 RHOC.g/cc                     : CDL Density Correction
 DPOR.pu                       : CDL Density Porosity
 GR.GAPI                       : Gamma Ray
 NPOR.pu                       : Neutron Porosity
 ~Parameter Information Block
 ~A  Depth       DCAL        RHOB        RHOC        DPOR         GR         NPOR    
# ...
  2585.3000      7.8479      2.5076      0.0321      8.6289   -999.2500   -999.2500
  2585.4000      7.8479      2.5265      0.1131      7.4821   -999.2500   -999.2500
  2585.5000      7.8496      2.5397      0.0899      6.6876   -999.2500   -999.2500
  2585.6000      7.8496      2.5353      0.0837      6.9541   -999.2500   -999.2500
  2585.7000      7.8496      2.5178      0.0597      8.0139   -999.2500   -999.2500
  2585.8000      7.8493      2.4968      0.0366      9.2825   -999.2500   -999.2500
  2585.9000      7.8493      2.4780     -0.0008     10.4271   -999.2500   -999.2500
  2586.0000      7.8485      2.4685      0.0063     11.0027   -999.2500   -999.2500
  2586.1000      7.8485      2.4751      0.0222     10.6028   -999.2500   -999.2500
  2586.2000      7.8485      2.4920      0.0709      9.5759   -999.2500   -999.2500
  2586.3000      7.8504      2.5025      0.0470      8.9395   -999.2500   -999.2500
  2586.4000      7.8504      2.5021      0.0493      8.9653   -999.2500   -999.2500
  2586.5000      7.8519      2.4964      0.0696      9.3081   -999.2500   -999.2500
  2586.6000      7.8519      2.4874      0.0641      9.8539   -999.2500   -999.2500
  2586.7000      7.8519      2.4783      0.0368     10.4078   -999.2500   -999.2500
  2586.8000      7.8567      2.4707      0.0795     10.8664   -999.2500   -999.2500
  2586.9000      7.8567      2.4684      0.0130     11.0069   -999.2500   -999.2500
  2587.0000      7.8528      2.4817      0.0539     10.2001   -999.2500   -999.2500
  2587.1000      7.8528      2.5075      0.0732      8.6373   -999.2500   -999.2500
  2587.2000      7.8528      2.5291      0.1229      7.3273   -999.2500   -999.2500
  2587.3000      7.8429      2.5348      0.0977      6.9839   -999.2500   -999.2500
  2587.4000      7.8429      2.5257      0.0811      7.5336   -999.2500   -999.2500
  2587.5000      7.8427      2.5092      0.0881      8.5344   -999.2500   -999.2500
  2587.6000      7.8427      2.4919      0.0654      9.5839   -999.2500   -999.2500
  2587.7000      7.8427      2.4744      0.0763     10.6413   -999.2500   -999.2500
  2587.8000      7.8438      2.4543      0.0573     11.8612   -999.2500   -999.2500
  2587.9000      7.8438      2.4399      0.0284     12.7324   -999.2500   -999.2500
  2588.0000      7.8434      2.4390      0.0663     12.7902   -999.2500   -999.2500
  2588.1000      7.8434      2.4505      0.0319     12.0900   -999.2500   -999.2500
  2588.2000      7.8434      2.4742      0.0616     10.6549   -999.2500   -999.2500
  2588.3000      7.8354      2.4939      0.0924      9.4634   -999.2500   -999.2500
  2588.4000      7.8354      2.4938      0.0791      9.4677   -999.2500   -999.2500
  2588.5000      7.8315      2.4897      0.1050      9.7140   -999.2500   -999.2500
  2588.6000      7.8315      2.5035      0.0967      8.8792   -999.2500   -999.2500
  2588.7000      7.8315      2.5371      0.0992      6.8401   -999.2500   -999.2500
  2588.8000      7.8309      2.5716      0.1461      4.7491   -999.2500   -999.2500
  2588.9000      7.8309      2.5831      0.1349      4.0573   -999.2500   -999.2500
  2589.0000      7.8263      2.5789      0.0620      4.3107   -999.2500   -999.2500
  2589.1000      7.8263      2.5879      0.0810      3.7644   -999.2500   -999.2500
  2589.2000      7.8263      2.6126      0.1342      2.2692   -999.2500   -999.2500
  2589.3000      7.8292      2.6241      0.1603      1.5681   -999.2500   -999.2500
  2589.4000      7.8292      2.6067      0.1099      2.6252   -999.2500   -999.2500
  2589.5000      7.8248      2.5778      0.0865      4.3735   -999.2500   -999.2500
  2589.6000      7.8248      2.5566      0.0647      5.6604   -999.2500   -999.2500
  2589.7000      7.8248      2.5464      0.0585      6.2795   -999.2500   -999.2500
  2589.8000      7.8249      2.5422      0.0883      6.5332   -999.2500   -999.2500
  2589.9000      7.8249      2.5390      0.0515      6.7274   -999.2500   -999.2500
  2590.0000      7.8164      2.5350      0.0880      6.9698   -999.2500   -999.2500
  2590.1000      7.8164      2.5284      0.0654      7.3689   -999.2500   -999.2500
  2590.2000      7.8164      2.5237      0.0443      7.6556   -999.2500   -999.2500
  2590.3000      7.8342      2.5245      0.0614      7.6034   -999.2500   -999.2500
  2590.4000      7.8342      2.5275      0.0461      7.4230   -999.2500   -999.2500
  2590.5000      7.8353      2.5302      0.0705      7.2606   -999.2500   -999.2500
  2590.6000      7.8353      2.5337      0.0356      7.0489   -999.2500   -999.2500
  2590.7000      7.8353      2.5400      0.0845      6.6686   -999.2500   -999.2500
  2590.8000      7.8412      2.5468      0.0631      6.2561   -999.2500   -999.2500
  2590.9000      7.8412      2.5511      0.0758      5.9960   -999.2500   -999.2500
  2591.0000      7.8377      2.5474      0.0887      6.2191   -999.2500   -999.2500
  2591.1000      7.8377      2.5322      0.0769      7.1365   -999.2500   -999.2500
  2591.2000      7.8377      2.5186      0.0386      7.9659   -999.2500   -999.2500
  2591.3000      7.8331      2.5254      0.0127      7.5493   -999.2500   -999.2500
  2591.4000      7.8331      2.5495      0.0909      6.0929   -999.2500   -999.2500
  2591.5000      7.8337      2.5704      0.0784      4.8239   -999.2500   -999.2500
  2591.6000      7.8337      2.5828      0.1008      4.0739   -999.2500   -999.2500
  2591.7000      7.8337      2.5864      0.1291      3.8556   -999.2500   -999.2500
  2591.8000      7.8325      2.5728      0.1113      4.6767   -999.2500   -999.2500
  2591.9000      7.8325      2.5445      0.0711      6.3957   -999.2500   -999.2500
  2592.0000      7.8356      2.5146      0.0688      8.2075   -999.2500   -999.2500
  2592.1000      7.8356      2.4982      0.0376      9.1973   -999.2500   -999.2500
  2592.2000      7.8356      2.5073      0.0533      8.6460   -999.2500   -999.2500
  2592.3000      7.8335      2.5307      0.0942      7.2328   -999.2500   -999.2500
  2592.4000      7.8335      2.5401      0.0918      6.6606   -999.2500   -999.2500
  2592.5000      7.8388      2.5256      0.0607      7.5384   -999.2500   -999.2500
  2592.6000      7.8388      2.5050      0.0564      8.7864   -999.2500   -999.2500
  2592.7000      7.8388      2.5015      0.0352      9.0004   -999.2500   -999.2500
  2592.8000      7.8429      2.5179      0.0866      8.0048   -999.2500   -999.2500
  2592.9000      7.8429      2.5324      0.0836      7.1249   -999.2500   -999.2500
  2593.0000      7.8399      2.5293      0.0669      7.3129   -999.2500   -999.2500
  2593.1000      7.8399      2.5192      0.0663      7.9302   -999.2500   -999.2500
  2593.2000      7.8399      2.5195      0.0179      7.9094   -999.2500   -999.2500
  2593.3000      7.8380      2.5290      0.0858      7.3317   -999.2500   -999.2500
  2593.4000      7.8380      2.5335      0.0585      7.0592   -999.2500   -999.2500
  2593.5000      7.8396      2.5290      0.0697      7.3353   -999.2500   -999.2500
  2593.6000      7.8396      2.5145      0.0804      8.2145   -999.2500   -999.2500
  2593.7000      7.8396      2.4940      0.0359      9.4520   -999.2500   -999.2500
  2593.8000      7.8492      2.4869     -0.0127      9.8832   -999.2500   -999.2500
  2593.9000      7.8492      2.4980      0.0782      9.2141   -999.2500   -999.2500
  2594.0000      7.8475      2.5092      0.0537      8.5344   -999.2500   -999.2500
  2594.1000      7.8475      2.5174      0.0549      8.0394   -999.2500   -999.2500
  2594.2000      7.8475      2.5326      0.0776      7.1149   -999.2500   -999.2500
  2594.3000      7.8328      2.5477      0.0841      6.1982   -999.2500   -999.2500
  2594.4000      7.8328      2.5479      0.0707      6.1894   -999.2500   -999.2500
  2594.5000      7.8292      2.5328      0.0454      7.1032   -999.2500   -999.2500
  2594.6000      7.8292      2.5116      0.0758      8.3908   -999.2500   -999.2500
  2594.7000      7.8292      2.4976      0.0069      9.2375   -999.2500   -999.2500
  2594.8000      7.8220      2.5054      0.0647      8.7664   -999.2500   -999.2500
