~Version Information
VERS.                      2.0: CWLS Log ASCII Standard - VERSION 2.0
WRAP.                       NO: One line per depth step
~Well Information Block
STRT.FT               770.0000: 
STOP.FT              1718.7000: 
STEP.FT                 0.1000: 
NULL.                -999.2500: 
COMP.          Pioneer Natural Resources: COMPANY
WELL.            Salty 42-6 Tr: WELL
FLD.           Purgatoire River: FIELD
LOC.           2409' FNL & 599' FEL: LOCATION
PROV.                 Colorado: PROVINCE
CNTY.               Las Animas: COUNTRY
SRVC.                Patterson: SERVICE COMPANY
DATE.          Thu Dec 16 09:30:36 2004: LOG DATE
UWI.           05 071 08238 00: UNIQUE WELL ID
~Curve Information Block
DEPT.FT            0 000 00 00: Depth
DCAL.in                       : CDL Caliper
RHOB.g/cc                     : CDL Bulk Density
RHOC.g/cc                     : CDL Density Correction
DPOR.pu                       : CDL Density Porosity
NPOR.pu                       : Neutron Porosity
GR.GAPI                       : Gamma Ray
~Parameter Information Block
~A  Depth       DCAL        RHOB        RHOC        DPOR        NPOR         GR     
# ...
   894.8000      8.0313      2.5371      0.0923      6.8448     19.9172     74.1459
   894.9000      8.0313      2.5384      0.1091      6.7660     19.8994     75.1388
   895.0000      8.0296      2.5310      0.1234      7.2113     19.6907     71.3266
   895.1000      8.0296      2.5054      0.0912      8.7617     19.6209     69.6787
   895.2000      8.0296      2.4742      0.0126     10.6568     19.7869     72.1155
   895.3000      8.0289      2.4586      0.0183     11.6027     20.0654     74.7393
   895.4000      8.0289      2.4571      0.0575     11.6902     20.3942     74.8712
   895.5000      8.0293      2.4590      0.0423     11.5747     20.7646     70.7677
   895.6000      8.0293      2.4570      0.0917     11.6963     21.1298     64.0562
   895.7000      8.0293      2.4450      0.0516     12.4227     21.3400     59.2129
   895.8000      8.0300      2.4353      0.0157     13.0100     21.4516     59.3234
   895.9000      8.0300      2.4354      0.0629     13.0085     21.7394     64.3147
   896.0000      8.0296      2.4101      0.0864     14.5379     22.2631     71.0536
   896.1000      8.0296      2.3174      0.1051     20.1560     22.5701     75.2642
   896.2000      8.0296      2.1709     -0.0567     29.0345     22.0032     74.1085
   896.3000      8.0288      2.0224     -0.0540     38.0337     20.7844     69.3502
   896.4000      8.0288      1.8895     -0.0991     46.0920     19.6129     63.7687
   896.5000      8.0264      1.7545     -0.1171     54.2744     18.5106     58.9117
   896.6000      8.0264      1.6063     -0.2022     63.2555     17.1157     56.0654
   896.7000      8.0264      1.4567     -0.2287     72.3200     15.2740     54.4494
   896.8000      8.0261      1.3293     -0.2000     80.0395     13.2294     51.7428
   896.9000      8.0261      1.2474     -0.1856     85.0090     11.4178     47.1737
   897.0000      8.0549      1.2329     -0.0741     85.8859      9.9057     43.3595
   897.1000      8.0549      1.2795      0.1718     83.0625      8.5352     42.1300
   897.2000      8.0549      1.3377      0.2694     79.5360      7.4387     41.4901
   897.3000      8.1738      1.3729      0.2472     77.3982      6.8058     40.9146
   897.4000      8.1738      1.4010      0.2424     75.6966      6.6097     42.1979
   897.5000      8.3644      1.4561      0.2215     72.3570      6.7355     45.2282
   897.6000      8.3644      1.5559      0.2259     66.3077      7.1309     50.3630
   897.7000      8.3644      1.6927      0.2640     58.0181      7.7435     57.7567
   897.8000      8.4835      1.8452      0.3012     48.7729      8.4741     64.6983
   897.9000      8.4835      1.9866      0.3568     40.2055      9.4391     69.9439
   898.0000      8.4978      2.0989      0.3284     33.4016     10.7610     74.9309
   898.1000      8.4978      2.1946      0.3268     27.5974     12.0976     81.4217
   898.2000      8.4978      2.3002      0.3569     21.2015     13.3955     91.2607
   898.3000      8.4514      2.4197      0.4142     13.9567     15.0494    102.3339
   898.4000      8.4514      2.5262      0.4323      7.5003     17.1195    109.3247
   898.5000      8.3340      2.5856      0.3352      3.9056     19.3737    112.4768
   898.6000      8.3340      2.5887      0.2288      3.7153     21.5377    115.8518
   898.7000      8.3340      2.5577      0.1053      5.5957     23.5346    118.8420
   898.8000      8.1524      2.5216      0.0537      7.7803     25.2146    117.4720
   898.9000      8.1524      2.4962      0.0446      9.3185     26.3033    114.6642
   899.0000      8.0232      2.4831      0.0465     10.1140     26.9699    115.2942
   899.1000      8.0232      2.4730      0.0327     10.7300     27.5487    117.5384
   899.2000      8.0232      2.4622      0.0276     11.3811     27.8971    121.2344
   899.3000      7.9807      2.4637     -0.0099     11.2927     27.8108    126.9179
   899.4000      7.9807      2.4791      0.0895     10.3549     27.3539    129.4816
   899.5000      7.9730      2.4958      0.0308      9.3470     26.8099    127.6094
   899.6000      7.9730      2.5119      0.0911      8.3699     26.3136    124.3501
   899.7000      7.9730      2.5258      0.0797      7.5246     25.8619    119.6331
   899.8000      7.9719      2.5338      0.0848      7.0415     25.6207    114.3369
   899.9000      7.9719      2.5382      0.0944      6.7731     25.7319    110.5519
   900.0000      7.9756      2.5426      0.0888      6.5068     26.0332    108.1896
   900.1000      7.9756      2.5502      0.0770      6.0497     26.3318    107.6128
   900.2000      7.9756      2.5564      0.1068      5.6746     26.7999    110.3454
   900.3000      7.9853      2.5560      0.0721      5.6995     27.6066    116.6092
   900.4000      7.9853      2.5581      0.1105      5.5679     28.4722    124.8423
   900.5000      7.9956      2.5706      0.0657      4.8125     29.1975    132.6485
   900.6000      7.9956      2.5763      0.1315      4.4671     29.7634    135.8334
   900.7000      7.9956      2.5521      0.0625      5.9348     29.8199    132.3987
   900.8000      7.9997      2.5117      0.0568      8.3840     29.3832    128.1248
   900.9000      7.9997      2.4815      0.0131     10.2104     28.9327    130.2644
   901.0000      7.9994      2.4621      0.0427     11.3884     28.5652    136.6754
   901.1000      7.9994      2.4456      0.0339     12.3890     28.2041    138.6975
   901.2000      7.9994      2.4377      0.0145     12.8655     27.8974    134.2750
   901.3000      7.9977      2.4455      0.0567     12.3969     27.6438    127.9539
   901.4000      7.9977      2.4608      0.0645     11.4690     27.2983    123.9868
   901.5000      7.9975      2.4670      0.0824     11.0885     26.8122    123.4520
   901.6000      7.9975      2.4638      0.0196     11.2870     26.5585    126.0316
   901.7000      7.9975      2.4686      0.0534     10.9937     26.5270    132.7899
   901.8000      7.9998      2.4850      0.0805     10.0013     26.3227    142.9962
   901.9000      7.9998      2.5049      0.0969      8.7943     26.1960    150.7724
   902.0000      8.0010      2.5228      0.1454      7.7098     26.4304    149.4166
   902.1000      8.0010      2.5278      0.1455      7.4044     26.8321    140.5325
   902.2000      8.0010      2.5171      0.0948      8.0547     27.1618    132.2274
   902.3000      8.0017      2.5045      0.0798      8.8201     27.3873    128.2869
   902.4000      8.0017      2.4999      0.0772      9.0974     27.5292    128.0991
   902.5000      8.0025      2.4958      0.1123      9.3434     27.4763    129.3631
   902.6000      8.0025      2.4858      0.0690      9.9514     27.2465    128.1227
   902.7000      8.0025      2.4832      0.0057     10.1100     26.9264    124.7740
   902.8000      8.0019      2.4957      0.0467      9.3519     26.3965    123.5794
   902.9000      8.0019      2.5087      0.0671      8.5629     25.6602    123.4741
   903.0000      8.0018      2.5164      0.0582      8.0950     24.9505    121.8401
   903.1000      8.0018      2.5191      0.1127      7.9312     24.4831    121.6796
   903.2000      8.0018      2.5093      0.0756      8.5259     24.4210    125.2556
   903.3000      8.0027      2.4945      0.0420      9.4266     24.6657    128.6495
   903.4000      8.0027      2.4920      0.0316      9.5742     24.9941    130.0425
   903.5000      8.0034      2.5055      0.0569      8.7548     25.1652    133.8087
   903.6000      8.0034      2.5247      0.0511      7.5923     25.0662    139.9537
   903.7000      8.0034      2.5402      0.1049      6.6547     24.9235    141.8022
   903.8000      8.0036      2.5485      0.0694      6.1526     24.6360    137.9602
   903.9000      8.0036      2.5514      0.0758      5.9749     24.2144    133.4307
   904.0000      8.0028      2.5511      0.0493      5.9930     24.3170    131.8289
   904.1000      8.0028      2.5465      0.0858      6.2714     24.9597    132.0771
   904.2000      8.0028      2.5343      0.0371      7.0141     25.3673    130.6333
   904.3000      8.0024      2.5192      0.0474      7.9295     25.3586    129.3846
