~Version Information
VERS.                      2.0: CWLS Log ASCII Standard - VERSION 2.0
WRAP.                       NO: One line per depth step
~Well Information Block
STRT.FT               -13.5000: 
STOP.FT              2092.5000: 
STEP.FT                 0.2500: 
NULL.                -999.2500: 
COMP.          Petrogulf Corporation: COMPANY
WELL.          Robinson 15-11V: WELL
FLD.           Purgatorie River: FIELD
LOC.           226' FNL & 592' FWL--: LOCATION
CNTY.               Las Animas: COUNTY
SRVC.                         : SERVICE COMPANY
DATE.          Tue Aug 17 13:05:46 2004: LOG DATE
UWI.                          : UNIQUE WELL ID
STAT.                       CO: STATE
~Curve Information Block
DEPT.FT            0 000 00 00: Depth
CCL.                          : Casing Collar Locator
TT3.usec                      : CBL 3' Travel Time
AMP3.mV                       : CBL 3' Amplitude
GR.GAPI                       : Gamma Ray
~Parameter Information Block
~A  Depth       CCL         TT3         AMP3         GR     
# ...
   690.0000      0.0000    421.9759     10.7004    115.0631
   690.2500      0.0000    431.5681     10.8195    111.7920
   690.5000      0.0000    458.1747     10.7861    106.0297
   690.7500      0.0000    494.9962     10.5981     97.6205
   691.0000      0.0000    544.2848     10.2321     88.2953
   691.2500      0.0000    605.3944      9.6782     81.1071
   691.5000      0.0000    667.3856      8.9727     78.2243
   691.7500      0.0000    717.0284      8.1730     79.6292
   692.0000      0.0000    749.3575      7.3176     83.8041
   692.2500      0.0000    768.0650      6.4292     88.9455
   692.5000      0.0000    779.1938      5.5461     93.2342
   692.7500      0.0000    786.6017      4.7277     94.5432
   693.0000      0.0000    791.4885      4.0286     90.9459
   693.2500      0.0000    793.7404      3.4727     82.2210
   693.5000      0.0000    793.1756      3.0528     70.8125
   693.7500      0.0000    790.1589      2.7469     60.7841
   694.0000      0.0000    785.7563      2.5337     55.3836
   694.2500      0.0000    781.3378      2.4074     55.3590
   694.5000      0.0000    777.7590      2.3958     59.2501
   694.7500      0.0000    775.0789      2.5617     65.2394
   695.0000      0.0000    772.5504      2.9717     73.0785
   695.2500      0.0000    767.5213      3.6561     84.1488
   695.5000      0.0000    753.6040      4.5990     99.2252
   695.7500      0.0000    721.1614      5.7692    116.4164
   696.0000      0.0000    662.5816      7.1578    132.0300
   696.2500      0.0000    580.2211      8.7825    143.5597
   696.5000      0.0000    489.4176     10.6464    151.2894
   696.7500      0.0000    410.7419     12.6722    156.8073
   697.0000      0.0000    357.1617     14.6557    160.3919
   697.2500      0.0000    328.4710     16.2968    160.3429
   697.5000      0.0000    316.3986     17.3275    155.0954
   697.7500      0.0000    312.4837     17.6414    145.6943
   698.0000      0.0000    311.7057     17.3230    135.7622
   698.2500      0.0000    312.0840     16.5745    129.0117
   698.5000      0.0000    313.5487     15.6148    126.8332
   698.7500      0.0000    317.9665     14.6118    127.8019
   699.0000      0.0000    330.2677     13.6610    128.9864
   699.2500      0.0000    358.7308     12.8028    128.1942
   699.5000      0.0000    411.1296     12.0551    125.7425
   699.7500      0.0000    486.8440     11.4289    124.2927
   700.0000      0.0000    572.3159     10.9152    126.7510
   700.2500      0.0000    647.5362     10.4774    133.7721
   700.5000      0.0000    699.0473     10.0780    142.7187
   700.7500      0.0000    726.3990      9.7171    149.2139
   701.0000      0.0000    737.5706      9.4213    150.2966
   701.2500      0.0000    741.0483      9.2007    146.4558
   701.5000      0.0000    742.0055      9.0391    140.9227
   701.7500      0.0000    742.7191      8.9215    137.1358
   702.0000      0.0000    744.1812      8.8417    136.6041
   702.2500      0.0000    747.0641      8.7765    138.5214
   702.5000      0.0000    751.7737      8.6728    140.9008
   702.7500      0.0000    758.0048      8.4723    141.9023
   703.0000      0.0000    764.5590      8.1470    140.3833
   703.2500      0.0000    769.6648      7.7187    135.9139
   703.5000      0.0000    771.5936      7.2570    128.6088
   703.7500      0.0000    769.5319      6.8524    118.8136
   704.0000      0.0000    764.3881      6.5702    107.1157
   704.2500      0.0000    758.5276      6.4219     94.9048
   704.5000      0.0000    754.2368      6.3633     84.4907
   704.7500      0.0000    752.4206      6.3125     78.2045
   705.0000      0.0000    752.7665      6.1887     77.2252
   705.2500      0.0000    754.8778      5.9574     80.9423
   705.5000      0.0000    758.8694      5.6472     87.0684
   705.7500      0.0000    764.5887      5.3290     92.6283
   706.0000      0.0000    770.5782      5.0840     95.5832
   706.2500      0.0000    774.4944      4.9777     95.8124
   706.5000      0.0000    774.8191      5.0367     94.3523
   706.7500      0.0000    772.0403      5.2406     91.7513
   707.0000      0.0000    768.2258      5.5392     87.7130
   707.2500      0.0000    765.3345      5.8799     82.4086
   707.5000      0.0000    763.4299      6.2345     77.2799
   707.7500      0.0000    760.0692      6.6133     73.9425
   708.0000      0.0000    751.2015      7.0459     72.7063
   708.2500      0.0000    732.0338      7.5487     72.6049
   708.5000      0.0000    696.9423      8.1233     72.4175
   708.7500      0.0000    640.9753      8.7790     71.2888
   709.0000      0.0000    565.2824      9.5307     68.9280
   709.2500      0.0000    481.6544     10.3686     65.8365
   709.5000      0.0000    408.0213     11.2476     63.1005
   709.7500      0.0000    356.9560     12.1093     61.5840
   710.0000      0.0000    329.1452     12.9047     61.4679
   710.2500      0.0000    317.2012     13.5954     62.6160
   710.5000      0.0000    313.1054     14.1434     64.9220
   710.7500      0.0000    311.9733     14.5091     67.9873
   711.0000      0.0000    311.7646     14.6671     70.8239
   711.2500      0.0000    311.8461     14.6230     72.4333
   711.5000      0.0000    312.0570     14.4136     72.7660
   711.7500      0.0000    312.3360     14.0885     72.7768
   712.0000      0.0000    312.6481     13.6973     73.3765
   712.2500      0.0000    312.9557     13.2957     74.5227
   712.5000      0.0000    313.2235     12.9485     75.3667
   712.7500      0.0000    313.4284     12.7111     74.9848
   713.0000      0.0000    313.5649     12.6088     72.8129
   713.2500      0.0000    313.6410     12.6235     68.7989
   713.5000      0.0000    313.6681     12.6948     63.5434
   713.7500      0.0000    313.6580     12.7563     58.1131
   714.0000      0.0000    313.6235     12.7949     53.3648
   714.2500      0.0000    313.5764     12.8743     49.6585
   714.5000      0.0000    313.5189     13.0707     47.3759
   714.7500      0.0000    313.4457     13.3697     47.1486
   715.0000      0.0000    313.3658     13.6416     49.0036
   715.2500      0.0000    313.3205     13.7368     51.5910
   715.5000      0.0000    313.3619     13.6058     52.9718
   715.7500      0.0000    313.5051     13.3285     52.3570
   716.0000      0.0000    313.7435     13.0399     50.7069
   716.2500      0.0000    314.1619     12.8221     49.4453
   716.5000      0.0000    315.4005     12.6568     48.9642
   716.7500      0.0000    319.7512     12.4750     48.7616
   717.0000      0.0000    332.8560     12.2344     48.6710
   717.2500      0.0000    364.1439     11.9310     49.1950
   717.5000      0.0000    422.5423     11.5629     50.5317
   717.7500      0.0000    507.5323     11.1334     51.9109
   718.0000      0.0000    603.9159     10.6793     52.2263
   718.2500      0.0000    689.0690     10.2551     51.1092
   718.5000      0.0000    747.6173      9.8952     49.1445
   718.7500      0.0000    778.6922      9.6190     47.0752
   719.0000      0.0000    790.5939      9.4489     44.9362
   719.2500      0.0000    791.4742      9.3889     42.1116
   719.5000      0.0000    784.4522      9.3868     38.2975
   719.7500      0.0000    767.4025      9.3474     34.3199
   720.0000      0.0000    735.2833      9.2108     31.8041
   720.2500      0.0000    685.5927      9.0053     31.8443
   720.5000      0.0000    625.7919      8.8014     33.8851
   720.7500      0.0000    574.8433      8.6414     36.0325
   721.0000      0.0000    552.8943      8.5507     36.6445
   721.2500      0.0000    566.9337      8.5756     35.4978
   721.5000      0.0000    606.7068      8.7540     33.4884
   721.7500      0.0000    653.4276      9.0519     31.7547
   722.0000     -2.0000    691.1672      9.3575     31.3046
   722.2500      0.0000    711.8759      9.5494     32.9682
   722.5000      0.0000    713.4880      9.5987     37.1302
   722.7500      0.0000    697.1686      9.6146     43.3829
   723.0000      0.0000    668.6118      9.7531     50.5933
   723.2500      0.0000    639.4061     10.0481     57.4185
