~Version Information
VERS.                      2.0: CWLS Log ASCII Standard - VERSION 2.0
WRAP.                       NO: One line per depth step
~Well Information Block
STRT.FT                -8.2500: 
STOP.FT              2239.2500: 
STEP.FT                 0.2500: 
NULL.                -999.2500: 
COMP.          Pioneer Natural Resources: COMPANY
WELL.            Moo Moo 31-36: WELL
FLD.           Purgatorie River: FIELD
LOC.           612' FNL & 2326' FEL--: LOCATION
PROV.                       CO: PROVINCE
CNTY.               Las Animas: COUNTRY
SRVC.          Patterson Wireline: SERVICE COMPANY
DATE.          Thu Jun 23 10:04:07 2005: LOG DATE
UWI.           05 071 08395 00: UNIQUE WELL ID
~Curve Information Block
DEPT.FT            0 000 00 00: Depth
CCL.                          : Casing Collar Locator
TT3.usec                      : CBL 3' Travel Time
AMP3.mV                       : CBL 3' Amplitude
GR.GAPI                       : Gamma Ray
~Parameter Information Block
~A  Depth       CCL         TT3         AMP3         GR     
# ...
  1465.7500      0.0000    519.9747      3.6456    129.1496
  1466.0000      0.0000    540.5358      3.7377    130.1640
  1466.2500      0.0000    572.2570      3.8672    127.1619
  1466.5000      0.0000    607.8266      3.9854    119.6065
  1466.7500      0.0000    640.1764      4.1048    108.6703
  1467.0000      0.0000    664.7567      4.2576     96.4005
  1467.2500      0.0000    679.9416      4.4336     85.0207
  1467.5000      0.0000    685.9607      4.5847     76.4776
  1467.7500      0.0000    684.4438      4.6812     72.0022
  1468.0000      0.0000    678.4692      4.7356     71.9896
  1468.2500      0.0000    671.6640      4.7704     76.3999
  1468.5000      0.0000    666.5437      4.7850     84.9436
  1468.7500      0.0000    663.7253      4.7662     96.4251
  1469.0000      0.0000    662.5829      4.7128    108.0711
  1469.2500      0.0000    662.3125      4.6355    116.3245
  1469.5000      0.0000    662.4927      4.5360    119.1382
  1469.7500      0.0000    663.1359      4.4008    117.4790
  1470.0000      0.0000    664.6528      4.2226    114.0155
  1470.2500      0.0000    667.7770      4.0275    110.3961
  1470.5000      0.0000    673.1019      3.8676    106.3625
  1470.7500      0.0000    680.3133      3.7825    101.2699
  1471.0000      0.0000    688.0659      3.7797     95.6436
  1471.2500      0.0000    695.3189      3.8476     91.1816
  1471.5000      0.0000    702.7253      3.9532     89.8317
  1471.7500      0.0000    711.4581      4.0330     92.8593
  1472.0000      0.0000    720.0063      4.0308    100.0543
  1472.2500      0.0000    723.5656      3.9555    109.3696
  1472.5000      0.0000    718.0817      3.8694    117.4844
  1472.7500      0.0000    704.1106      3.8218    121.2728
  1473.0000      0.0000    685.4554      3.8266    119.5312
  1473.2500      0.0000    664.8326      3.8968    113.9370
  1473.5000      0.0000    642.5542      4.0460    108.2126
  1473.7500      0.0000    619.3842      4.2449    105.5269
  1474.0000      0.0000    598.7591      4.4134    106.1641
  1474.2500      0.0000    584.9330      4.4739    107.7587
  1474.5000      0.0000    580.2391      4.4014    107.9118
  1474.7500      0.0000    585.4920      4.2291    106.4516
  1475.0000      0.0000    601.2791      4.0228    105.0286
  1475.2500      0.0000    627.0943      3.8464    104.9869
  1475.5000      0.0000    660.6214      3.7426    106.2634
  1475.7500      0.0000    698.9296      3.7320    108.0932
  1476.0000      0.0000    738.8059      3.8060    109.8895
  1476.2500      0.0000    775.7090      3.9175    111.2719
  1476.5000      0.0000    804.6490      4.0008    111.9443
  1476.7500      0.0000    823.1362      4.0118    111.9708
  1477.0000      0.0000    832.4041      3.9380    111.8758
  1477.2500      0.0000    835.3274      3.7886    112.3170
  1477.5000      0.0000    833.2662      3.5996    113.8060
  1477.7500      0.0000    823.9017      3.4345    116.5631
  1478.0000      0.0000    801.1943      3.3555    120.4111
  1478.2500      0.0000    758.9918      3.3919    124.8283
  1478.5000      0.0000    697.7808      3.5326    129.2102
  1478.7500      0.0000    628.6013      3.7300    133.0925
  1479.0000      0.0000    568.1169      3.9109    136.1677
  1479.2500      0.0000    528.7360      4.0069    138.1998
  1479.5000      0.0000    514.3355      4.0006    139.2285
  1479.7500      0.0000    524.0380      3.9446    139.9396
  1480.0000      0.0000    555.5825      3.9210    141.0775
  1480.2500      0.0000    602.6136      3.9679    141.9777
  1480.5000      0.0000    651.7530      4.0437    140.6115
  1480.7500      0.0000    687.6307      4.0609    136.0559
  1481.0000      0.0000    702.7941      3.9513    130.3762
  1481.2500      0.0000    701.4260      3.7187    127.2110
  1481.5000      0.0000    693.4215      3.4530    128.7485
  1481.7500      0.0000    686.3660      3.2792    134.5331
  1482.0000      0.0000    682.7649      3.2683    142.5687
  1482.2500      0.0000    682.2058      3.3906    150.6967
  1482.5000      0.0000    684.0267      3.5530    157.2892
  1482.7500      0.0000    688.0697      3.6697    161.5888
  1483.0000      0.0000    694.4224      3.7055    163.6507
  1483.2500      0.0000    703.4583      3.6824    163.7939
  1483.5000      0.0000    715.9737      3.6575    162.3435
  1483.7500      0.0000    732.2560      3.6724    159.9314
  1484.0000      0.0000    750.1609      3.7111    157.4797
  1484.2500      0.0000    765.0759      3.7187    155.5476
  1484.5000      0.0000    773.8484      3.6700    153.9314
  1484.7500      0.0000    778.6268      3.6106    151.9211
  1485.0000      0.0000    784.3187      3.6217    148.7389
  1485.2500      0.0000    792.0478      3.7438    143.9961
  1485.5000      0.0000    797.6328      3.9406    138.3685
  1485.7500      0.0000    797.0132      4.1313    133.8706
  1486.0000      0.0000    790.6365      4.2520    132.6627
  1486.2500      0.0000    781.6628      4.2931    135.0373
  1486.5000      0.0000    772.0704      4.2868    138.9736
  1486.7500      0.0000    762.2773      4.2628    141.9427
  1487.0000      0.0000    753.4017      4.2279    143.0487
  1487.2500      0.0000    747.4424      4.1926    143.6393
  1487.5000      0.0000    744.4736      4.1893    146.0126
  1487.7500      0.0000    741.4675      4.2392    151.0565
  1488.0000      0.0000    735.5025      4.3143    156.9517
  1488.2500      0.0000    727.1906      4.3581    160.5732
  1488.5000      0.0000    719.7531      4.3349    160.1571
  1488.7500      0.0000    715.6400      4.2372    156.3044
  1489.0000      0.0000    715.0698      4.0634    150.7997
  1489.2500      0.0000    717.4745      3.8274    145.2815
  1489.5000      0.0000    723.5854      3.5883    140.8149
  1489.7500      0.0000    735.3615      3.4264    137.6469
  1490.0000      0.0000    752.9154      3.3787    135.0767
  1490.2500      0.0000    771.8594      3.4204    132.0152
  1490.5000      0.0000    785.4625      3.5079    127.8286
  1490.7500      0.0000    790.3904      3.6162    122.5938
  1491.0000      0.0000    789.7070      3.7355    116.9669
  1491.2500      0.0000    789.9835      3.8505    111.9781
  1491.5000     -2.0000    795.9474      3.9342    108.7188
  1491.7500      0.0000    807.6013      3.9693    108.2310
  1492.0000      0.0000    820.5355      3.9733    111.7666
  1492.2500      0.0000    827.6437      3.9954    120.4313
  1492.5000      0.0000    822.3893      4.0721    133.8645
  1492.7500      0.0000    802.5461      4.1907    149.3788
  1493.0000      0.0000    770.5011      4.3100    162.7336
  1493.2500      0.0000    731.0546      4.4053    170.0408
  1493.5000      0.0000    691.8643      4.4765    169.6125
  1493.7500      0.0000    663.7742      4.5313    162.5939
  1494.0000      0.0000    654.3140      4.5776    151.7005
  1494.2500      0.0000    660.0825      4.6156    139.1172
  1494.5000      0.0000    670.2683      4.6278    125.7489
  1494.7500      0.0000    677.8020      4.5927    112.3550
  1495.0000      0.0000    683.1977      4.5110    100.7926
  1495.2500      0.0000    689.0017      4.4112     93.6893
  1495.5000      0.0000    695.2422      4.3277     93.0108
  1495.7500      0.0000    699.8865      4.2688     98.9966
  1496.0000      0.0000    699.9905      4.2094    110.0976
  1496.2500      0.0000    691.8085      4.1295    123.6962
  1496.5000      0.0000    672.2504      4.0552    137.1977
  1496.7500      0.0000    642.4250      4.0335    148.7818
  1497.0000      0.0000    609.8723      4.0696    157.1902
  1497.2500      0.0000    585.7770      4.1256    160.9937
  1497.5000      0.0000    578.6223      4.1829    158.4455
  1497.7500      0.0000    589.5933      4.2564    148.4713
  1498.0000      0.0000    612.6215      4.3427    132.2930
  1498.2500      0.0000    637.4274      4.4093    113.9129
  1498.5000      0.0000    653.9936      4.4517     98.1295
  1498.7500      0.0000    657.9907      4.5172     87.6493
  1499.0000      0.0000    654.5001      4.6500     82.2098
