~Version Information
VERS.                      2.0: CWLS Log ASCII Standard - VERSION 2.0
WRAP.                       NO: One line per depth step
~Well Information Block
STRT.FT               480.0000: 
STOP.FT              1629.0000: 
STEP.FT                 0.2500: 
NULL.                -999.2500: 
COMP.          Pioneer Natural Resources: COMPANY
WELL.          Dude Canyon 22-32 Tr: WELL
FLD.           Purgatoire River: FIELD
LOC.           1741' FNL & 2331' FWL: LOCATION
PROV.                 Colorado: PROVINCE
CNTY.               Las Animas: COUNTRY
SRVC.                Patterson: SERVICE COMPANY
DATE.          Sat Jul 09 01:36:28 2005: LOG DATE
UWI.           05 071 08421 00: UNIQUE WELL ID
~Curve Information Block
DEPT.FT            0 000 00 00: Depth
SN.Ohm-m                      : IEL Short Normal
SP.mV                         : IEL Spontaneous Potential
DIR.Ohm-m                     : IEL Induction Resistivity
GR.GAPI                       : Gamma Ray
~Parameter Information Block
~A  Depth        SN          SP         DIR          GR     
# ...
   848.5000     25.7201    -25.1085     21.2845     99.5017
   848.7500     26.1930    -25.6357     21.4271     98.8866
   849.0000     26.1983    -26.2350     21.6289     98.9206
   849.2500     25.6817    -26.9709     21.9247    100.4216
   849.5000     24.9364    -27.8497     22.3301    105.3249
   849.7500     24.4762    -28.8268     22.8416    110.0023
   850.0000     24.5758    -29.8379     23.4472    117.5899
   850.2500     25.0810    -30.8296     24.1296    121.6265
   850.5000     25.6944    -31.7748     24.8592    123.6224
   850.7500     26.2842    -32.6673     25.5902    121.5064
   851.0000     26.8454    -33.5029     26.2787    114.1988
   851.2500     27.3398    -34.2579     26.9150    108.2445
   851.5000     27.7978    -34.8797     27.5365    100.6069
   851.7500     28.4778    -35.3040     28.2096     97.1907
   852.0000     29.6824    -35.5044     28.9958     94.0604
   852.2500     31.4877    -35.5435     29.9315     92.4082
   852.5000     33.7539    -35.5649     31.0228     89.4100
   852.7500     36.2641    -35.7083     32.2412     86.9929
   853.0000     38.7913    -36.0155     33.5057     83.3705
   853.2500     41.2011    -36.4041     34.6530     81.2237
   853.5000     43.5526    -36.7116     35.4355     77.9835
   853.7500     45.8963    -36.7638     35.6044     75.3141
   854.0000     47.9566    -36.4501     35.0706     70.4970
   854.2500     49.2135    -35.7966     34.0064     67.4815
   854.5000     49.2764    -34.9922     32.7489     65.0643
   854.7500     48.1020    -34.3146     31.5815     65.6179
   855.0000     45.9430    -33.9889     30.5923     70.1181
   855.2500     43.1261    -34.0892     29.6878     75.3884
   855.5000     39.9007    -34.5483     28.7158     85.5541
   855.7500     36.5131    -35.2391     27.5911     92.5839
   856.0000     33.2381    -36.0497     26.3372    101.0933
   856.2500     30.2517    -36.9139     25.0340    104.5347
   856.5000     27.5865    -37.8064     23.7470    106.2827
   856.7500     25.2080    -38.7256     22.4996    105.7729
   857.0000     23.0950    -39.6772     21.2894    104.1500
   857.2500     21.3118    -40.6650     20.1174    103.5160
   857.5000     19.9935    -41.6892     19.0042    104.3297
   857.7500     19.1442    -42.7485     17.9818    106.1211
   858.0000     18.5399    -43.8448     17.0753    110.1197
   858.2500     17.9266    -44.9852     16.2886    113.1227
   858.5000     17.1514    -46.1774     15.6029    117.1889
   858.7500     16.1738    -47.4255     14.9869    119.3055
   859.0000     15.1612    -48.7346     14.4117    121.7143
   859.2500     14.3926    -50.1188     13.8642    123.0309
   859.5000     13.9731    -51.5987     13.3483    124.7383
   859.7500     13.8015    -53.1895     12.8753    125.7412
   860.0000     13.7537    -54.8919     12.4529    127.4769
   860.2500     13.7369    -56.6897     12.0817    129.2192
   860.5000     13.6424    -58.5547     11.7602    132.9500
   860.7500     13.4292    -60.4574     11.4917    135.6898
   861.0000     13.1982    -62.3791     11.2861    138.7313
   861.2500     13.0715    -64.3203     11.1553    139.4292
   861.5000     13.0861    -66.2969     11.1067    138.2975
   861.7500     13.1926    -68.3297     11.1383    136.4426
   862.0000     13.2653    -70.4332     11.2391    133.3624
   862.2500     13.1938    -72.6027     11.3917    132.1443
   862.5000     12.9989    -74.7967     11.5759    132.5257
   862.7500     12.7882    -76.9271     11.7716    133.7202
   863.0000     12.6804    -78.8713     11.9621    134.4891
   863.2500     12.8053    -80.5068     12.1373    132.8196
   863.5000     13.2193    -81.7413     12.2970    125.8295
   863.7500     13.8106    -82.5183     12.4535    118.8030
   864.0000     14.3860    -82.8053     12.6310    108.0396
   864.2500     14.8191    -82.5886     12.8612    103.1020
   864.5000     15.1159    -81.8759     13.1746    101.6417
   864.7500     15.3836    -80.6909     13.5901    104.6638
   865.0000     15.7054    -79.0512     14.1063    113.1046
   865.2500     16.0486    -76.9533     14.6967    119.4039
   865.5000     16.3488    -74.3925     15.3110    126.5944
   865.7500     16.6197    -71.4278     15.8833    128.8209
   866.0000     16.9544    -68.2611     16.3472    128.5947
   866.2500     17.4541    -65.2578     16.6520    127.0131
   866.5000     18.1021    -62.8384     16.7730    124.2611
   866.7500     18.8080    -61.2765     16.7152    122.9805
   867.0000     19.6146    -60.5626     16.5159    122.5711
   867.2500     20.6129    -60.4579     16.2412    123.1585
   867.5000     21.6611    -60.6767     15.9725    124.5113
   867.7500     22.4073    -61.0308     15.7833    125.3700
   868.0000     22.5800    -61.4547     15.7191    126.6269
   868.2500     22.1283    -61.9587     15.7879    127.7499
   868.5000     21.1154    -62.5807     15.9628    130.3951
   868.7500     19.6999    -63.3590     16.1930    132.8116
   869.0000     18.2095    -64.3215     16.4193    136.7652
   869.2500     17.0118    -65.4802     16.5870    139.0603
   869.5000     16.2974    -66.8298     16.6538    141.1573
   869.7500     16.0294    -68.3540     16.5924    141.3111
   870.0000     16.0165    -70.0400     16.3941    139.5156
   870.2500     16.0333    -71.8932     16.0749    137.2790
   870.5000     15.9350    -73.9324     15.6767    133.4578
   870.7500     15.7087    -76.1607     15.2570    131.3251
   871.0000     15.4663    -78.5277     14.8720    129.8210
   871.2500     15.3496    -80.9099     14.5629    130.3454
   871.5000     15.3805    -83.1307     14.3507    133.2780
   871.7500     15.4479    -85.0212     14.2373    135.9689
   872.0000     15.4638    -86.4936     14.2097    139.2607
   872.2500     15.4472    -87.5758     14.2465    140.0358
   872.5000     15.4241    -88.3811     14.3246    138.6988
   872.7500     15.3456    -89.0389     14.4237    136.6714
   873.0000     15.1307    -89.6373     14.5252    133.1484
   873.2500     14.7434    -90.2091     14.6076    130.8198
   873.5000     14.2416    -90.7514     14.6441    127.2324
   873.7500     13.7906    -91.2514     14.6132    124.7300
   874.0000     13.6321    -91.7018     14.5184    121.3731
   874.2500     13.9772    -92.1033     14.3970    119.9319
   874.5000     14.8521    -92.4637     14.3066    119.4092
   874.7500     16.0434    -92.7955     14.2983    119.9885
   875.0000     17.2045    -93.1120     14.3991    121.8383
   875.2500     18.0077    -93.4202     14.6101    123.7141
   875.5000     18.2853    -93.7153     14.9155    127.4226
   875.7500     18.1103    -93.9836     15.2921    129.9492
   876.0000     17.7356    -94.2124     15.7098    132.2143
   876.2500     17.4090    -94.3946     16.1286    132.1404
   876.5000     17.2350    -94.5239     16.4956    130.2025
   876.7500     17.2085    -94.5902     16.7532    128.4607
   877.0000     17.3107    -94.5828     16.8549    125.9295
   877.2500     17.5232    -94.4994     16.7814    124.3317
   877.5000     17.7769    -94.3494     16.5499    122.1824
   877.7500     17.9736    -94.1486     16.2112    121.1164
   878.0000     18.0827    -93.9117     15.8376    120.2790
   878.2500     18.1226    -93.6507     15.5056    120.3024
   878.5000     18.0719    -93.3772     15.2770    121.5716
   878.7500     17.9113    -93.1061     15.1849    123.4322
   879.0000     17.7031    -92.8527     15.2278    127.4277
   879.2500     17.5360    -92.6251     15.3758    130.3692
   879.5000     17.3696    -92.4173     15.5895    134.4402
   879.7500     16.9746    -92.2137     15.8393    136.8067
   880.0000     16.1191    -92.0021     16.1139    139.8684
   880.2500     14.8449    -91.7854     16.4129    141.4568
   880.5000     13.5632    -91.5771     16.7326    142.5485
   880.7500     12.8548    -91.3870     17.0605    141.9976
   881.0000     13.0948    -91.2137     17.3807    138.8010
   881.2500     14.2593    -91.0476     17.6860    135.0617
   881.5000     16.0064    -90.8799     17.9810    127.5431
   881.7500     17.8895    -90.7081     18.2724    122.0553
