~Version Information
VERS.                      2.0: CWLS Log ASCII Standard - VERSION 2.0
WRAP.                       NO: One line per depth step
~Well Information Block
STRT.FT                15.0000: 
STOP.FT              1891.7500: 
STEP.FT                 0.2500: 
NULL.                -999.2500: 
COMP.          Pioneer Natural Resources: COMPANY
WELL.          Oink Oink 14-36 Tr: WELL
FLD.           Purgatoire River: FIELD
LOC.           236' FSL & 164' FWL: LOCATION
PROV.                 Colorado: PROVINCE
CNTY.               Las Animas: COUNTRY
SRVC.                Patterson: SERVICE COMPANY
DATE.          Wed Jun 22 11:40:13 2005: LOG DATE
UWI.           05 071 08393 00: UNIQUE WELL ID
~Curve Information Block
DEPT.FT            0 000 00 00: Depth
GR.GAPI                       : Gamma Ray
CCL.                          : Casing Collar Locator
TT3.usec                      : CBL 3' Travel Time
AMP3.mV                       : CBL 3' Amplitude
~Parameter Information Block
~A  Depth        GR         CCL         TT3         AMP3    
# ...
   149.0000     54.0749      0.0000    701.2440      7.2054
   149.2500     55.4477      0.0000    700.8712      7.1728
   149.5000     57.6503      0.0000    700.5129      7.1525
   149.7500     60.6475      0.0000    700.2350      7.1539
   150.0000     63.9288      0.0000    700.0728      7.1715
   150.2500     66.6774      0.0000    700.0724      7.1872
   150.5000     68.2426      0.0000    700.2797      7.1812
   150.7500     68.6953      0.0000    700.6590      7.1446
   151.0000     68.6862      0.0000    701.0577      7.0806
   151.2500     68.5400      0.0000    701.3036      6.9971
   151.5000     67.8525      0.0000    701.3460      6.9019
   151.7500     66.2209      0.0000    701.2709      6.8061
   152.0000     63.9902      0.0000    701.1779      6.7264
   152.2500     61.9603      0.0000    701.0847      6.6769
   152.5000     60.5691      0.0000    700.9554      6.6569
   152.7500     59.6973      0.0000    700.7730      6.6497
   153.0000     59.2158      0.0000    700.5565      6.6346
   153.2500     59.2015      0.0000    700.2826      6.5981
   153.5000     59.3660      0.0000    699.7052      6.5377
   153.7500     58.7820      0.0000    698.0535      6.4588
   154.0000     56.7019      0.0000    693.8748      6.3709
   154.2500     53.5446      0.0000    685.6468      6.2831
   154.5000     50.7437      0.0000    673.2359      6.2005
   154.7500     49.5494      0.0000    658.8315      6.1241
   155.0000     50.0766      0.0000    645.8733      6.0550
   155.2500     51.4899      0.0000    636.7191      5.9965
   155.5000     52.8765      0.0000    631.4142      5.9514
   155.7500     53.7591      0.0000    628.4050      5.9179
   156.0000     54.0828      0.0000    625.9816      5.8899
   156.2500     54.1035      0.0000    623.3298      5.8629
   156.5000     54.1886      0.0000    620.9099      5.8356
   156.7500     54.3920      0.0000    619.9808      5.8058
   157.0000     54.3128      0.0000    621.4467      5.7680
   157.2500     53.7050      0.0000    625.2563      5.7197
   157.5000     53.1529      0.0000    630.9584      5.6675
   157.7500     53.7827      0.0000    638.2232      5.6246
   158.0000     56.2224      0.0000    646.3351      5.6026
   158.2500     59.8708      0.0000    653.6775      5.6032
   158.5000     63.0885      0.0000    658.4142      5.6156
   158.7500     64.1718      0.0000    659.6054      5.6229
   159.0000     62.4865      0.0000    657.5214      5.6131
   159.2500     58.8981      0.0000    653.5211      5.5855
   159.5000     55.1204      0.0000    650.2753      5.5505
   159.7500     52.5664      0.0000    651.3465      5.5248
   160.0000     51.6788      0.0000    658.8814      5.5238
   160.2500     52.0639      0.0000    671.2683      5.5529
   160.5000     53.0331      0.0000    684.0258      5.6035
   160.7500     54.0049      0.0000    693.3220      5.6602
   161.0000     54.6731      0.0000    698.2178      5.7104
   161.2500     55.1721      0.0000    699.9528      5.7477
   161.5000     56.0699      0.0000    699.9824      5.7648
   161.7500     57.8009      0.0000    698.7240      5.7470
   162.0000     59.9319      0.0000    695.4598      5.6753
   162.2500     61.2251      0.0000    689.1951      5.5438
   162.5000     60.6823      0.0000    680.0266      5.3775
   162.7500     58.5250      0.0000    670.1299      5.2256
   163.0000     56.0601      0.0000    663.4952      5.1200
   163.2500     54.5438      0.0000    664.3813      5.0418
   163.5000     54.1780      0.0000    675.3450      4.9488
   163.7500     54.1343      0.0000    695.6125      4.8291
   164.0000     53.4950      0.0000    720.4346      4.7065
   164.2500     52.2301      0.0000    742.3027      4.6037
   164.5000     51.2647     -3.0000    754.2775      4.5254
   164.7500     51.5461      0.0000    753.4162      4.4706
   165.0000     53.1250      2.8166    741.5245      4.4465
   165.2500     55.1860      0.0000    723.3325      4.4724
   165.5000     56.7761      0.0000    704.4788      4.5685
   165.7500     57.3741      0.0000    689.9748      4.7342
   166.0000     56.9447      0.0000    682.3020      4.9395
   166.2500     55.7446      0.0000    680.1527      5.1489
   166.5000     54.1769      0.0000    679.8882      5.3447
   166.7500     52.7040      0.0000    678.7670      5.5173
   167.0000     51.6891      0.0000    676.5389      5.6502
   167.2500     51.1877      0.0000    674.3160      5.7301
   167.5000     50.9385      0.0000    672.8798      5.7657
   167.7500     50.6581      0.0000    672.2066      5.7842
   168.0000     50.3079      0.0000    671.8701      5.8109
   168.2500     50.0334      0.0000    671.3217      5.8517
   168.5000     49.9352      0.0000    669.8465      5.8942
   168.7500     50.0269      0.0000    666.7147      5.9222
   169.0000     50.4104      0.0000    661.9791      5.9303
   169.2500     51.3731      0.0000    657.2928      5.9262
   169.5000     53.1719      0.0000    655.2477      5.9239
   169.7500     55.6250      0.0000    657.1678      5.9359
   170.0000     57.9494      0.0000    661.7994      5.9681
   170.2500     59.1745      0.0000    666.5957      6.0159
   170.5000     58.8835      0.0000    669.8887      6.0663
   170.7500     57.5262      0.0000    671.5458      6.1062
   171.0000     55.9211      0.0000    672.1843      6.1277
   171.2500     54.5593      0.0000    672.3795      6.1291
   171.5000     53.4631      0.0000    672.4501      6.1143
   171.7500     52.5210      0.0000    672.5305      6.0931
   172.0000     51.7929      0.0000    672.6476      6.0772
   172.2500     51.6145      0.0000    672.7810      6.0718
   172.5000     52.4352      0.0000    672.9003      6.0716
   172.7500     54.3785      0.0000    672.9901      6.0668
   173.0000     56.9216      0.0000    673.0499      6.0515
   173.2500     59.0852      0.0000    673.0898      6.0264
   173.5000     59.9536      0.0000    673.1315      5.9965
   173.7500     59.1980      0.0000    673.1894      5.9674
   174.0000     57.3469      0.0000    673.1948      5.9458
   174.2500     55.4731      0.0000    672.8542      5.9364
   174.5000     54.3673      0.0000    671.5856      5.9374
   174.7500     54.0651      0.0000    668.7811      5.9410
   175.0000     54.2498      0.0000    664.3842      5.9376
   175.2500     54.7760      0.0000    659.2364      5.9204
   175.5000     55.5981      0.0000    654.6564      5.8867
   175.7500     56.6089      0.0000    651.5897      5.8385
   176.0000     57.7939      0.0000    650.2228      5.7835
   176.2500     59.1527      0.0000    650.3418      5.7313
   176.5000     60.3019      0.0000    651.8204      5.6880
   176.7500     60.5909      0.0000    654.5983      5.6536
   177.0000     59.8333      0.0000    658.2621      5.6235
   177.2500     58.6082      0.0000    662.0660      5.5932
   177.5000     57.6167      0.0000    665.7944      5.5608
   177.7500     56.9166      0.0000    670.3263      5.5287
   178.0000     55.9961      0.0000    676.5777      5.5018
   178.2500     54.5567      0.0000    683.7778      5.4835
   178.5000     53.0586      0.0000    689.5616      5.4701
   178.7500     52.4320      0.0000    692.1880      5.4524
   179.0000     53.2640      0.0000    692.3253      5.4221
   179.2500     55.2067      0.0000    692.3129      5.3775
   179.5000     57.0079      0.0000    693.7910      5.3224
   179.7500     57.1087      0.0000    696.3330      5.2641
   180.0000     54.6150      0.0000    698.2390      5.2101
   180.2500     50.1834      0.0000    698.2001      5.1672
   180.5000     45.9623      0.0000    696.2773      5.1415
   180.7500     44.1813      0.0000    693.8238      5.1400
   181.0000     45.4465      0.0000    692.4916      5.1678
   181.2500     48.4787      0.0000    692.7805      5.2221
   181.5000     51.5759      0.0000    693.6252      5.2878
   181.7500     54.0380      0.0000    693.9128      5.3443
   182.0000     56.0248      0.0000    694.1853      5.3788
   182.2500     57.5440      0.0000    696.0181      5.3923
