~Version Information
VERS.                      2.0: CWLS Log ASCII Standard - VERSION 2.0
WRAP.                       NO: One line per depth step
~Well Information Block
STRT.FT               605.6000: 
STOP.FT              1938.0000: 
STEP.FT                 0.1000: 
NULL.                -999.2500: 
COMP.          Petrogulf Corporation: COMPANY
WELL.              Graff 9-31R: WELL
FLD.           Purgatorie River: FIELD
LOC.           707' FNL & 1713' FEL: LOCATION
CNTY.               Las Animas: COUNTY
SRVC.                         : SERVICE COMPANY
DATE.          Mon Oct 25 06:13:30 2004: LOG DATE
UWI.           05 071 08037 00: UNIQUE WELL ID
STAT.                 Colorado: STATE
~Curve Information Block
DEPT.FT            0 000 00 00: Depth
DCAL.in                       : CDL Caliper
RHOB.g/cc                     : CDL Bulk Density
RHOC.g/cc                     : CDL Density Correction
DPOR.pu                       : CDL Density Porosity
GR.GAPI                       : Gamma Ray
NPOR.pu                       : Neutron Porosity
~Parameter Information Block
~A  Depth       DCAL        RHOB        RHOC        DPOR         GR         NPOR    
# ...
   884.0000      8.2009      2.5866      0.0450      3.8415    116.1681     24.4862
   884.1000      8.2009      2.6094      0.0837      2.4608    112.3711     24.5112
   884.2000      8.2009      2.6165      0.0779      2.0294    110.7198     24.3309
   884.3000      8.2011      2.6041      0.0426      2.7843    110.6914     23.5815
   884.4000      8.2011      2.5770      0.0654      4.4219    108.3439     22.8202
   884.5000      8.1973      2.5529      0.0576      5.8869    108.2502     22.7671
   884.6000      8.1973      2.5388      0.0607      6.7376    113.6859     23.1490
   884.7000      8.1973      2.5249      0.0486      7.5831    117.6359     23.3448
   884.8000      8.1802      2.5154      0.0407      8.1604    119.0182     23.2688
   884.9000      8.1802      2.5192      0.0475      7.9265    119.6694     23.2560
   885.0000      8.1830      2.5195      0.0721      7.9102    115.5472     23.7381
   885.1000      8.1830      2.5058     -0.0099      8.7404    107.9887     24.4816
   885.2000      8.1830      2.5004      0.0045      9.0652    104.4759     24.8546
   885.3000      8.1763      2.5170      0.0649      8.0629    107.6173     24.9349
   885.4000      8.1763      2.5459      0.0164      6.3075    115.7571     24.9429
   885.5000      8.1760      2.5764      0.0719      4.4618    124.2730     24.7550
   885.6000      8.1760      2.6014      0.0689      2.9452    125.0820     24.5424
   885.7000      8.1760      2.6212      0.0649      1.7430    117.9897     24.4948
   885.8000      8.1743      2.6352      0.1079      0.8951    111.8321     24.4550
   885.9000      8.1743      2.6403      0.0674      0.5885    109.0356     24.5442
   886.0000      8.1710      2.6382      0.0564      0.7135    104.7582     24.8872
   886.1000      8.1710      2.6337      0.0310      0.9904    100.0725     24.9691
   886.2000      8.1710      2.6334      0.0055      1.0087     99.2885     24.6454
   886.3000      8.1724      2.6355      0.0096      0.8789    100.9312     24.2035
   886.4000      8.1724      2.6274      0.0334      1.3727    102.5210     23.7109
   886.5000      8.1726      2.6116     -0.0039      2.3261    104.5477     23.1955
   886.6000      8.1726      2.6021      0.0208      2.9019    108.9779     22.6213
   886.7000      8.1726      2.5928      0.0586      3.4680    114.9733     22.0541
   886.8000      8.1725      2.5710      0.0235      4.7872    118.5313     21.4641
   886.9000      8.1725      2.5422      0.0096      6.5335    118.2805     20.6617
   887.0000      8.1750      2.5205      0.0165      7.8484    115.3647     19.6016
   887.1000      8.1750      2.5000      0.0545      9.0911    113.3815     18.2797
   887.2000      8.1750      2.4530      0.0300     11.9411    112.7249     16.6568
   887.3000      8.1774      2.3714     -0.0003     16.8843    113.3014     15.0787
   887.4000      8.1774      2.2765     -0.0107     22.6346    118.2357     14.0426
   887.5000      8.1924      2.1787      0.0075     28.5641    121.5354     13.2226
   887.6000      8.1924      2.0684     -0.0643     35.2515    117.5840     12.0600
   887.7000      8.1924      1.9475     -0.0733     42.5732    114.7502     10.7967
   887.8000      8.2480      1.8324     -0.0855     49.5532    118.4612     10.0195
   887.9000      8.2480      1.7299     -0.1055     55.7654    120.9768      9.8400
   888.0000      8.3322      1.6341     -0.1164     61.5695    115.2185      9.8661
   888.1000      8.3322      1.5476     -0.1163     66.8151    104.0398      9.8248
   888.2000      8.3322      1.4850     -0.0221     70.6051     95.2408      9.7309
   888.3000      8.4448      1.4468      0.0414     72.9213     92.3478      9.6407
   888.4000      8.4448      1.4170      0.0749     74.7284     90.4488      9.4372
   888.5000      8.5353      1.3846      0.0878     76.6922     85.2464      8.9992
   888.6000      8.5353      1.3526      0.0386     78.6317     80.1851      8.4394
   888.7000      8.5353      1.3306      0.0548     79.9664     77.8909      7.7593
   888.8000      8.6385      1.3168      0.1114     80.8001     75.2477      6.8675
   888.9000      8.6385      1.3023      0.1039     81.6766     68.9632      5.8995
   889.0000      8.8046      1.2933      0.0673     82.2267     61.4436      4.9875
   889.1000      8.8046      1.3008      0.1110     81.7696     56.9774      4.1738
   889.2000      8.8046      1.3155      0.1953     80.8759     56.1576      3.6299
   889.3000      8.8806      1.3222      0.1637     80.4721     57.2113      3.4650
   889.4000      8.8806      1.3186      0.2056     80.6936     56.6240      3.5754
   889.5000      9.1174      1.3015      0.2621     81.7267     53.2618      3.8184
   889.6000      9.1174      1.2722      0.1966     83.5043     50.6904      4.2727
   889.7000      9.1174      1.2522      0.1541     84.7164     52.2460      5.2512
   889.8000      9.4894      1.2745      0.1137     83.3633     54.6225      6.9434
   889.9000      9.4894      1.3646      0.1275     77.9014     52.9362      9.2020
   890.0000      9.8971      1.5198      0.2221     68.4995     49.6197     11.8772
   890.1000      9.8971      1.7091      0.3410     57.0267     48.9229     15.1198
   890.2000      9.8971      1.9006      0.4190     45.4202     50.9298     18.9741
   890.3000      9.8646      2.0741      0.4875     34.9041     55.8987     23.0574
   890.4000      9.8646      2.2155      0.5073     26.3339     64.8153     26.9504
   890.5000      8.8775      2.3272      0.4232     19.5648     74.8501     29.8220
   890.6000      8.8775      2.4271      0.3777     13.5080     82.2308     31.1857
   890.7000      8.8775      2.5143      0.3448      8.2249     90.2656     31.7817
   890.8000      8.4239      2.5627      0.2621      5.2894    104.7964     32.5053
   890.9000      8.4239      2.5659      0.1044      5.0964    123.3621     33.3295
   891.0000      8.2551      2.5485      0.0543      6.1512    139.2297     33.6093
   891.1000      8.2551      2.5253      0.0281      7.5562    150.8075     33.3260
   891.2000      8.2551      2.4973     -0.0169      9.2527    159.0221     32.9490
   891.3000      8.2366      2.4807     -0.0383     10.2613    164.8167     32.4321
   891.4000      8.2366      2.4983     -0.0570      9.1926    169.0969     31.4715
   891.5000      8.2387      2.5441      0.0212      6.4184    172.8270     30.3369
   891.6000      8.2387      2.5856      0.0511      3.9010    179.4606     29.5593
   891.7000      8.2387      2.6023      0.0130      2.8902    186.6698     29.1453
   891.8000      8.2422      2.5982      0.0591      3.1390    185.6758     28.8498
   891.9000      8.2422      2.5878      0.0446      3.7709    177.9988     28.3994
   892.0000      8.2454      2.5778      0.0299      4.3778    174.8836     27.5335
   892.1000      8.2454      2.5590      0.0694      5.5125    178.8361     26.8393
   892.2000      8.2454      2.5263     -0.0173      7.4999    184.8678     27.0316
   892.3000      8.2486      2.4886      0.0210      9.7811    188.9870     27.5518
   892.4000      8.2486      2.4610     -0.0440     11.4549    188.1212     27.8912
   892.5000      8.2496      2.4654     -0.0148     11.1849    181.7616     28.5335
   892.6000      8.2496      2.5189     -0.0116      7.9462    174.6035     29.7372
   892.7000      8.2496      2.6150      0.0828      2.1191    171.7108     31.1747
   892.8000      8.2502      2.7234      0.1419     -4.4493    171.8089     32.2036
   892.9000      8.2502      2.8098      0.2115     -9.6844    170.0171     32.4481
   893.0000      8.2508      2.8583      0.2037    -12.6261    166.1951     32.1781
   893.1000      8.2508      2.8634      0.2492    -12.9322    163.6848     31.7698
   893.2000      8.2508      2.8261      0.1618    -10.6713    163.0922     31.3143
   893.3000      8.2509      2.7766      0.0436     -7.6704    160.5772     30.8910
   893.4000      8.2509      2.7429     -0.0188     -5.6319    150.8186     30.6322
   893.5000      8.2408      2.7133     -0.0194     -3.8334    136.5591     30.3219
