~Version Information
 VERS.                      2.0: CWLS Log ASCII Standard - VERSION 2.0
 WRAP.                       NO: One line per depth step
 ~Well Information Block
 STRT.FT               130.0000: 
 STOP.FT              1766.9000: 
 STEP.FT                 0.1000: 
 NULL.                -999.2500: 
 COMP.          Petrogulf Corporation: COMPANY
 WELL.           Parsons 23-15V: WELL
 FLD.           Purgatorie River: FIELD
 LOC.           2095' FSL & 1817' FWL--API 05 071 07556 00----: LOCATION
 CNTY.               Las Animas: COUNTY
 SRVC.                         : SERVICE COMPANY
 DATE.          Fri Apr 19 17:40:55 2002: LOG DATE
 UWI.                          : UNIQUE WELL ID
 STAT.                       CO: STATE
 PROV.                         :Province
 ~Curve Information Block
 DEPT.FT            0 000 00 00: Depth
 DCAL.in                       : CDL Caliper
 RHOB.g/cc                     : CDL Bulk Density
 RHOC.g/cc                     : CDL Density Correction
 DPOR.pu                       : CDL Density Porosity
 GR.GAPI                       : Gamma Ray
 NPOR.pu                       : Neutron Porosity
 ~Parameter Information Block
 ~A  Depth       DCAL        RHOB        RHOC        DPOR         GR         NPOR    
# ...
  1003.6000      7.8834      2.5462      0.0452      6.2896    177.4809     27.5330
  1003.7000      7.8834      2.5471      0.0475      6.2337    178.5908     27.7639
  1003.8000      7.8857      2.5484      0.0497      6.1604    179.4233     28.0002
  1003.9000      7.8857      2.5498      0.0517      6.0757    179.9664     28.2284
  1004.0000      7.8893      2.5512      0.0534      5.9855    180.2296     28.4316
  1004.1000      7.8893      2.5527      0.0548      5.8959    180.2458     28.5913
  1004.2000      7.8893      2.5541      0.0559      5.8129    180.0682     28.6911
  1004.3000      7.8967      2.5553      0.0569      5.7416    179.7686     28.7187
  1004.4000      7.8967      2.5562      0.0576      5.6868    179.4275     28.6684
  1004.5000      7.9068      2.5567      0.0581      5.6525    179.1267     28.5426
  1004.6000      7.9068      2.5569      0.0582      5.6415    178.9401     28.3511
  1004.7000      7.9068      2.5567      0.0578      5.6554    178.9163     28.1099
  1004.8000      7.9084      2.5560      0.0569      5.6948    179.0697     27.8385
  1004.9000      7.9084      2.5550      0.0552      5.7588    179.3722     27.5575
  1005.0000      7.8974      2.5536      0.0529      5.8451    179.7538     27.2862
  1005.1000      7.8974      2.5518      0.0500      5.9505    180.1099     27.0407
  1005.2000      7.8974      2.5498      0.0466      6.0705    180.3196     26.8323
  1005.3000      7.8865      2.5477      0.0431      6.2000    180.2645     26.6693
  1005.4000      7.8865      2.5455      0.0397      6.3335    179.8538     26.5562
  1005.5000      7.8762      2.5433      0.0368      6.4654    179.0365     26.4945
  1005.6000      7.8762      2.5413      0.0347      6.5905    177.8177     26.4831
  1005.7000      7.8762      2.5394      0.0336      6.7043    176.2551     26.5187
  1005.8000      7.8660      2.5377      0.0335      6.8034    174.4512     26.5951
  1005.9000      7.8660      2.5364      0.0344      6.8856    172.5366     26.7041
  1006.0000      7.8628      2.5353      0.0361      6.9502    170.6567     26.8360
  1006.1000      7.8628      2.5345      0.0386      6.9980    168.9542     26.9805
  1006.2000      7.8628      2.5340      0.0415      7.0311    167.5541     27.1286
  1006.3000      7.8646      2.5336      0.0447      7.0530    166.5621     27.2735
  1006.4000      7.8646      2.5334      0.0480      7.0684    166.0545     27.4123
  1006.5000      7.8699      2.5331      0.0512      7.0828    166.0815     27.5445
  1006.6000      7.8699      2.5328      0.0542      7.1022    166.6615     27.6726
  1006.7000      7.8699      2.5323      0.0569      7.1333    167.7803     27.7994
  1006.8000      7.8705      2.5315      0.0593      7.1824    169.3882     27.9284
  1006.9000      7.8705      2.5303      0.0613      7.2559    171.3997     28.0605
  1007.0000      7.8619      2.5286      0.0628      7.3594    173.6987     28.1957
  1007.1000      7.8619      2.5263      0.0638      7.4978    176.1436     28.3315
  1007.2000      7.8619      2.5234      0.0641      7.6746    178.5826     28.4649
  1007.3000      7.8555      2.5198      0.0639      7.8922    180.8717     28.5916
  1007.4000      7.8555      2.5155      0.0630      8.1511    182.8863     28.7077
  1007.5000      7.8560      2.5106      0.0614      8.4500    184.5414     28.8081
  1007.6000      7.8560      2.5050      0.0593      8.7855    185.7905     28.8888
  1007.7000      7.8560      2.4990      0.0568      9.1522    186.6255     28.9455
  1007.8000      7.8644      2.4925      0.0539      9.5424    187.0674     28.9747
  1007.9000      7.8644      2.4859      0.0508      9.9469    187.1525     28.9750
  1008.0000      7.8798      2.4792      0.0478     10.3543    186.9188     28.9475
  1008.1000      7.8798      2.4726      0.0450     10.7523    186.3974     28.8964
  1008.2000      7.8798      2.4664      0.0428     11.1276    185.6081     28.8294
  1008.3000      7.8996      2.4608      0.0413     11.4668    184.5630     28.7564
  1008.4000      7.8996      2.4560      0.0409     11.7571    183.2756     28.6887
  1008.5000      7.9283      2.4522      0.0417     11.9866    181.7688     28.6374
  1008.6000      7.9283      2.4496      0.0438     12.1456    180.0873     28.6116
  1008.7000      7.9283      2.4483      0.0473     12.2266    178.2924     28.6182
  1008.8000      7.9619      2.4483      0.0521     12.2253    176.4664     28.6601
  1008.9000      7.9619      2.4497      0.0581     12.1404    174.6965     28.7365
  1009.0000      7.9894      2.4524      0.0651     11.9740    173.0688     28.8422
  1009.1000      7.9894      2.4564      0.0729     11.7315    171.6530     28.9669
  1009.2000      7.9894      2.4616      0.0811     11.4208    170.4949     29.0964
  1009.3000      7.9839      2.4676      0.0895     11.0525    169.6173     29.2125
  1009.4000      7.9839      2.4745      0.0977     10.6382    169.0128     29.2936
  1009.5000      7.9428      2.4819      0.1054     10.1905    168.6509     29.3183
  1009.6000      7.9428      2.4896      0.1121      9.7216    168.4796     29.2671
  1009.7000      7.9428      2.4975      0.1176      9.2426    168.4255     29.1260
  1009.8000      7.9255      2.5054      0.1215      8.7628    168.3973     28.8888
  1009.9000      7.9255      2.5132      0.1236      8.2892    168.2889     28.5591
  1010.0000      7.9401      2.5209      0.1238      7.8262    167.9856     28.1502
  1010.1000      7.9401      2.5283      0.1223      7.3760    167.3684     27.6834
  1010.2000      7.9401      2.5355      0.1191      6.9384    166.3300     27.1860
  1010.3000      7.9426      2.5426      0.1146      6.5117    164.7822     26.6871
  1010.4000      7.9426      2.5495      0.1094      6.0935    162.6694     26.2140
  1010.5000      7.9321      2.5563      0.1038      5.6811    159.9753     25.7887
  1010.6000      7.9321      2.5630      0.0982      5.2728    156.7276     25.4263
  1010.7000      7.9321      2.5697      0.0930      4.8680    152.9935     25.1330
  1010.8000      7.9355      2.5763      0.0883      4.4677    148.8747     24.9070
  1010.9000      7.9355      2.5828      0.0841      4.0750    144.4998     24.7395
  1011.0000      7.9327      2.5890      0.0803      3.6943    140.0151     24.6174
  1011.1000      7.9327      2.5950      0.0766      3.3316    135.5752     24.5254
  1011.2000      7.9327      2.6006      0.0729      2.9935    131.3374     24.4491
  1011.3000      7.9076      2.6057      0.0690      2.6870    127.4516     24.3770
  1011.4000      7.9076      2.6101      0.0651      2.4187    124.0583     24.3023
  1011.5000      7.8753      2.6138      0.0611      2.1948    121.2833     24.2228
  1011.6000      7.8753      2.6167      0.0574      2.0200    119.2300     24.1413
  1011.7000      7.8753      2.6187      0.0543      1.8983    117.9741     24.0637
  1011.8000      7.8389      2.6198      0.0519      1.8318    117.5586     23.9984
  1011.9000      7.8389      2.6199      0.0506      1.8221    117.9867     23.9550
  1012.0000      7.8011      2.6192      0.0504      1.8689    119.2178     23.9425
  1012.1000      7.8011      2.6175      0.0511      1.9716    121.1687     23.9696
  1012.2000      7.8011      2.6149      0.0527      2.1279    123.7229     24.0441
  1012.3000      7.7725      2.6115      0.0547      2.3348    126.7379     24.1719
  1012.4000      7.7725      2.6073      0.0568      2.5881    130.0630     24.3573
  1012.5000      7.7547      2.6024      0.0586      2.8823    133.5545     24.6023
  1012.6000      7.7547      2.5970      0.0598      3.2106    137.0928     24.9051
  1012.7000      7.7547      2.5912      0.0603      3.5652    140.5868     25.2598
  1012.8000      7.7476      2.5850      0.0602      3.9371    143.9841     25.6546
  1012.9000      7.7476      2.5788      0.0596      4.3162    147.2626     26.0720
  1013.0000      7.7677      2.5726      0.0588      4.6921    150.4237     26.4901
  1013.1000      7.7677      2.5666      0.0582      5.0543    153.4793     26.8844
