~Version Information
VERS.                      2.0: CWLS Log ASCII Standard - VERSION 2.0
WRAP.                       NO: One line per depth step
~Well Information Block
STRT.FT               275.0000: 
STOP.FT               811.2000: 
STEP.FT                 0.1000: 
NULL.                -999.2500: 
COMP.          Pioneer Natural Resources: COMPANY
WELL.          Barrelman 41-27: WELL
FLD.           Purgatoire River: FIELD
LOC.           371' FNL & 493' FEL--: LOCATION
PROV.                 Colorado: PROVINCE
CNTY.               Las Animas: COUNTRY
SRVC.                Patterson: SERVICE COMPANY
DATE.          Fri May 20 11:50:01 2005: LOG DATE
UWI.           05 071 08334 00: UNIQUE WELL ID
~Curve Information Block
DEPT.FT            0 000 00 00: Depth
DCAL.in                       : CDL Caliper
RHOB.g/cc                     : CDL Bulk Density
RHOC.g/cc                     : CDL Density Correction
DPOR.pu                       : CDL Density Porosity
NPOR.pu                       : Neutron Porosity
GR.GAPI                       : Gamma Ray
~Parameter Information Block
~A  Depth       DCAL        RHOB        RHOC        DPOR        NPOR         GR     
# ...
   678.2000      7.9808      2.5711      0.0678      4.7797     19.8287     86.8535
   678.3000      7.9832      2.5758      0.0347      4.4995     20.0690     88.2085
   678.4000      7.9832      2.5836      0.0951      4.0263     20.3081     82.6405
   678.5000      7.9846      2.5902      0.0603      3.6241     20.5791     74.6084
   678.6000      7.9846      2.5907      0.0724      3.5918     20.9350     74.1211
   678.7000      7.9846      2.5846      0.0894      3.9650     20.8153     85.1615
   678.8000      7.9842      2.5754      0.0507      4.5225     20.1469     96.6935
   678.9000      7.9842      2.5719      0.0218      4.7327     19.5220     94.5581
   679.0000      7.9841      2.5764      0.0559      4.4622     19.0880     82.5386
   679.1000      7.9841      2.5818      0.0339      4.1360     18.6472     74.8196
   679.2000      7.9841      2.5860      0.0461      3.8792     18.5368     76.0300
   679.3000      7.9832      2.5910      0.0476      3.5782     19.1759     80.8547
   679.4000      7.9832      2.5909      0.0601      3.5811     20.1811     83.3290
   679.5000      7.9824      2.5757      0.0536      4.5029     20.9124     82.6310
   679.6000      7.9824      2.5497      0.0065      6.0764     21.2768     81.8264
   679.7000      7.9824      2.5274      0.0349      7.4323     21.2834     81.7360
   679.8000      7.9841      2.5157      0.0064      8.1392     21.0015     79.7736
   679.9000      7.9841      2.5144      0.0311      8.2186     20.9857     78.1183
   680.0000      7.9855      2.5120      0.0220      8.3641     21.4274     80.6316
   680.1000      7.9855      2.5015      0.0074      8.9990     21.9345     86.6580
   680.2000      7.9855      2.4918      0.0160      9.5876     22.2435     92.2937
   680.3000      7.9862      2.4910      0.0179      9.6379     22.2634     93.6799
   680.4000      7.9862      2.5007      0.0328      9.0502     22.1893     91.5709
   680.5000      7.9864      2.5127      0.0449      8.3191     22.1468     87.6248
   680.6000      7.9864      2.5108      0.0538      8.4336     22.0404     84.3669
   680.7000      7.9864      2.4925      0.0519      9.5443     21.9904     83.9581
   680.8000      7.9856      2.4756      0.0217     10.5726     22.2319     83.6387
   680.9000      7.9856      2.4731      0.0551     10.7190     22.8510     82.0745
   681.0000      7.9840      2.4794      0.0675     10.3400     23.4649     78.3840
   681.1000      7.9840      2.4847      0.0575     10.0160     23.8143     72.7486
   681.2000      7.9840      2.4840      0.0736     10.0612     23.9471     71.1642
   681.3000      7.9822      2.4747      0.0458     10.6242     23.6923     74.9783
   681.4000      7.9822      2.4610      0.0350     11.4556     23.2724     78.5477
   681.5000      7.9817      2.4536      0.0104     11.9010     22.9222     78.4186
   681.6000      7.9817      2.4633      0.0158     11.3179     22.4137     73.5852
   681.7000      7.9817      2.4841      0.0728     10.0515     21.7597     66.7826
   681.8000      7.9833      2.4978      0.0568      9.2249     21.1031     63.6241
   681.9000      7.9833      2.4940      0.0724      9.4542     20.5665     65.0368
   682.0000      7.9850      2.4788      0.0303     10.3779     20.5648     68.1975
   682.1000      7.9850      2.4751      0.0455     10.6017     21.1833     73.0293
   682.2000      7.9850      2.4959      0.0441      9.3388     21.6192     80.2999
   682.3000      7.9859      2.5215      0.0982      7.7875     21.3514     88.7235
   682.4000      7.9859      2.5305      0.0487      7.2425     20.9670     94.7257
   682.5000      7.9851      2.5250      0.0780      7.5739     20.9621     94.1256
   682.6000      7.9851      2.5135      0.0367      8.2756     21.2107     91.2691
   682.7000      7.9851      2.5028      0.0342      8.9195     21.4882     90.5186
   682.8000      7.9837      2.4986      0.0257      9.1771     21.4380     88.3259
   682.9000      7.9837      2.4994      0.0517      9.1290     20.8512     84.8693
   683.0000      7.9833      2.5001      0.0507      9.0876     19.9379     84.0081
   683.1000      7.9833      2.4993      0.0738      9.1357     19.0688     87.9686
   683.2000      7.9833      2.4989      0.0531      9.1604     18.5672     93.3488
   683.3000      7.9821      2.5063      0.0219      8.7099     18.5896     95.3079
   683.4000      7.9821      2.5238      0.0615      7.6515     19.0477     94.3719
   683.5000      7.9822      2.5405      0.0805      6.6387     19.4584     90.5636
   683.6000      7.9822      2.5444      0.1010      6.4016     19.4387     83.1521
   683.7000      7.9822      2.5271      0.0866      7.4498     19.3200     76.2073
   683.8000      7.9848      2.4918      0.0473      9.5882     19.5524     74.4370
   683.9000      7.9848      2.4555      0.0138     11.7904     20.0822     74.2914
   684.0000      7.9869      2.4348      0.0013     13.0423     20.5478     70.7527
   684.1000      7.9869      2.4371      0.0099     12.9021     20.9816     67.2616
   684.2000      7.9869      2.4575      0.0159     11.6664     21.6787     67.6560
   684.3000      7.9862      2.4815      0.0724     10.2111     22.2424     72.8373
   684.4000      7.9862      2.4982      0.0552      9.1980     22.3454     82.8205
   684.5000      7.9842      2.5110      0.0330      8.4235     22.6992     95.1319
   684.6000      7.9842      2.5257      0.0671      7.5325     23.5801    103.8635
   684.7000      7.9842      2.5369      0.0921      6.8552     24.1806    104.2070
   684.8000      7.9833      2.5378      0.0778      6.8001     24.2949     99.4188
   684.9000      7.9833      2.5264      0.0723      7.4918     24.5679     97.8654
   685.0000      7.9830      2.5011      0.0536      9.0239     25.1674     99.7815
   685.1000      7.9830      2.4682      0.0262     11.0206     25.5754     97.9964
   685.2000      7.9830      2.4381      0.0354     12.8452     25.3588     90.8410
   685.3000      7.9847      2.4144      0.0155     14.2762     24.7695     83.3774
   685.4000      7.9847      2.3962     -0.0153     15.3840     24.2567     80.3672
   685.5000      7.9881      2.3833     -0.0091     16.1647     24.0796     82.8898
   685.6000      7.9881      2.3771     -0.0016     16.5416     24.1223     85.6636
   685.7000      7.9881      2.3767      0.0017     16.5615     24.0015     84.6082
   685.8000      7.9899      2.3802      0.0178     16.3527     23.7327     83.7521
   685.9000      7.9899      2.3877      0.0165     15.8985     23.6268     87.3101
   686.0000      7.9910      2.3953      0.0757     15.4380     23.7965     93.1960
   686.1000      7.9910      2.3918      0.0713     15.6483     24.0140     94.3008
   686.2000      7.9910      2.3817      0.0430     16.2591     24.0178     87.0479
   686.3000      7.9934      2.3787      0.0568     16.4452     23.8160     78.6678
   686.4000      7.9934      2.3820      0.0802     16.2414     23.8059     75.9896
   686.5000      7.9955      2.3880      0.0695     15.8809     24.3064     76.6238
   686.6000      7.9955      2.3991      0.0708     15.2080     25.0465     75.7309
   686.7000      7.9955      2.4101      0.0730     14.5367     25.5900     74.1791
   686.8000      7.9956      2.4096      0.0688     14.5673     25.7138     77.8576
   686.9000      7.9956      2.3967      0.0548     15.3499     25.5637     85.4578
   687.0000      7.9946      2.3801      0.0485     16.3588     25.5373     91.5483
   687.1000      7.9946      2.3714      0.0404     16.8835     25.6013     96.9493
   687.2000      7.9946      2.3783      0.0484     16.4651     25.4038    100.5402
   687.3000      7.9931      2.3948      0.0803     15.4675     25.0599     99.4019
   687.4000      7.9931      2.4063      0.0819     14.7707     25.0113     96.0072
   687.5000      7.9921      2.4039      0.0832     14.9165     25.4308     92.3914
   687.6000      7.9921      2.3883      0.0755     15.8616     25.8893     88.2659
   687.7000      7.9921      2.3728      0.0109     16.7974     26.2518     87.0233
