~Version Information
VERS.                      2.0: CWLS Log ASCII Standard - VERSION 2.0
WRAP.                       NO: One line per depth step
~Well Information Block
STRT.FT                -4.0000: 
STOP.FT              2464.0000: 
STEP.FT                 0.2500: 
NULL.                -999.2500: 
COMP.          Pioneer Natural Resources: COMPANY
WELL.            Rancher 12-35: WELL
FLD.           Purgatorie River: FIELD
LOC.           2131' FNL & 297' FWL--: LOCATION
PROV.                       CO: PROVINCE
CNTY.               Las Animas: COUNTRY
SRVC.                         : SERVICE COMPANY
DATE.          Wed Oct 20 13:17:53 2004: LOG DATE
UWI.                          : UNIQUE WELL ID
~Curve Information Block
DEPT.FT            0 000 00 00: Depth
GR.GAPI                       : Gamma Ray
CCL.                          : Casing Collar Locator
TT3.usec                      : CBL 3' Travel Time
AMP3.mV                       : CBL 3' Amplitude
~Parameter Information Block
~A  Depth        GR         CCL         TT3         AMP3    
# ...
  1637.5000    154.2022      0.0000    710.5815      5.5165
  1637.7500    149.1324      0.0000    686.3005      5.5088
  1638.0000    146.3813      0.0000    652.4559      5.5113
  1638.2500    144.9190      0.0000    614.0771      5.5157
  1638.5000    142.9311      0.0000    581.1208      5.5387
  1638.7500    139.0656      0.0000    564.1852      5.6088
  1639.0000    133.1421      0.0000    568.9943      5.7390
  1639.2500    126.1835      0.0000    593.0228      5.9127
  1639.5000    119.9711      0.0000    626.8945      6.0948
  1639.7500    115.9447      0.0000    660.2492      6.2547
  1640.0000    114.1824      0.0000    686.7929      6.3861
  1640.2500    113.7921      0.0000    704.2314      6.5079
  1640.5000    114.0694      0.0000    712.1619      6.6353
  1640.7500    114.6700      0.0000    712.4224      6.7496
  1641.0000    114.9714      0.0000    709.5901      6.8105
  1641.2500    114.0555      0.0000    707.7097      6.8021
  1641.5000    111.3496      0.0000    705.8118      6.7541
  1641.7500    106.9066      0.0000    698.6673      6.7107
  1642.0000    101.0627      0.0000    683.6855      6.6888
  1642.2500     94.0919      0.0000    666.7546      6.6693
  1642.5000     86.3761      0.0000    659.0894      6.6230
  1642.7500     78.9466      0.0000    666.6454      6.5392
  1643.0000     73.4867      0.0000    683.8641      6.4330
  1643.2500     71.3639      0.0000    699.1756      6.3305
  1643.5000     72.6867      0.0000    705.0986      6.2530
  1643.7500     76.5181      0.0000    702.2114      6.2084
  1644.0000     81.8718      0.0000    696.0998      6.1887
  1644.2500     88.3508      0.0000    692.6708      6.1720
  1644.5000     95.9977      0.0000    695.2139      6.1385
  1644.7500    104.5220      0.0000    703.7076      6.0888
  1645.0000    112.3486      0.0000    715.8611      6.0452
  1645.2500    116.8678      0.0000    729.0486      6.0306
  1645.5000    116.6439      0.0000    741.7350      6.0487
  1645.7500    113.4494      0.0000    753.3544      6.0824
  1646.0000    111.3321      0.0000    763.0522      6.1106
  1646.2500    113.4350      0.0000    769.1887      6.1277
  1646.5000    119.9244      0.0000    770.3859      6.1474
  1646.7500    128.5414      0.0000    766.8347      6.1842
  1647.0000    136.2906      0.0000    760.3292      6.2349
  1647.2500    140.5954      0.0000    752.9152      6.2849
  1647.5000    140.0479      0.0000    745.4458      6.3344
  1647.7500    135.1718      0.0000    737.4684      6.4093
  1648.0000    128.1816      0.0000    728.6553      6.5357
  1648.2500    121.1682      0.0000    720.3195      6.7067
  1648.5000    114.6901      0.0000    715.1705      6.8802
  1648.7500    108.6332      0.0000    715.0750      7.0089
  1649.0000    103.6781      0.0000    719.0481      7.0677
  1649.2500    100.8672      0.0000    723.8288      7.0546
  1649.5000    100.0265      0.0000    726.4788      6.9782
  1649.7500     99.6430      0.0000    726.3701      6.8516
  1650.0000     98.5063      0.0000    725.2670      6.6955
  1650.2500     97.0398      0.0000    725.8672      6.5337
  1650.5000     96.9416      0.0000    729.5954      6.3839
  1650.7500     99.8649      0.0000    735.3847      6.2513
  1651.0000    106.5619      0.0000    740.8257      6.1298
  1651.2500    116.7053      0.0000    744.2791      6.0094
  1651.5000    128.9013      0.0000    745.5845      5.8868
  1651.7500    141.1460      0.0000    745.2351      5.7725
  1652.0000    151.8947      0.0000    743.4545      5.6811
  1652.2500    160.6407      0.0000    740.0862      5.6161
  1652.5000    167.4115      0.0000    735.3540      5.5672
  1652.7500    172.3289      0.0000    730.7354      5.5252
  1653.0000    175.7800      0.0000    728.4850      5.4957
  1653.2500    178.2558      0.0000    729.5713      5.4988
  1653.5000    179.6953      0.0000    732.4296      5.5537
  1653.7500    179.3979      0.0000    734.4457      5.6650
  1654.0000    176.7213      0.0000    734.4128      5.8190
  1654.2500    171.7398      0.0000    732.9340      5.9891
  1654.5000    165.3677      0.0000    730.7834      6.1415
  1654.7500    159.1441      0.0000    727.5612      6.2392
  1655.0000    154.9157      0.0000    722.1086      6.2538
  1655.2500    154.0608      0.0000    714.1804      6.1794
  1655.5000    156.2887      0.0000    705.8617      6.0348
  1655.7500    159.3786      0.0000    700.7664      5.8503
  1656.0000    160.8344      0.0000    700.9110      5.6559
  1656.2500    160.2141      0.0000    704.8922      5.4824
  1656.5000    159.6991      0.0000    709.9044      5.3627
  1656.7500    162.0736      0.0000    714.6213      5.3183
  1657.0000    167.9158      0.0000    719.3280      5.3449
  1657.2500    174.7025      0.0000    724.5308      5.4182
  1657.5000    178.6423      0.0000    730.4888      5.5145
  1657.7500    177.2133      0.0000    737.1334      5.6271
  1658.0000    170.1645      0.0000    743.5750      5.7636
  1658.2500    159.0728      0.0000    748.3563      5.9277
  1658.5000    146.2890      0.0000    750.8765      6.1039
  1658.7500    133.4911      0.0000    752.1571      6.2600
  1659.0000    120.8964      0.0000    753.7774      6.3684
  1659.2500    108.2129      0.0000    756.0975      6.4230
  1659.5000     96.1217      0.0000    757.5267      6.4371
  1659.7500     86.2707      0.0000    755.2189      6.4332
  1660.0000     79.9917      0.0000    746.8503      6.4360
  1660.2500     77.4457      0.0000    732.6722      6.4643
  1660.5000     77.6471      0.0000    715.9243      6.5177
  1660.7500     78.8022      0.0000    700.3015      6.5755
  1661.0000     78.9734      0.0000    687.1279      6.6142
  1661.2500     77.1635      0.0000    676.1569      6.6285
  1661.5000     73.8598      0.0000    668.5239      6.6306
  1661.7500     70.2400      0.0000    666.8350      6.6338
  1662.0000     66.9397      0.0000    671.8953      6.6400
  1662.2500     63.8064      0.0000    680.8495      6.6438
  1662.5000     60.6898      0.0000    689.5771      6.6427
  1662.7500     58.1139      0.0000    696.4323      6.6359
  1663.0000     57.0499      0.0000    702.7814      6.6172
  1663.2500     58.0839      0.0000    710.0286      6.5751
  1663.5000     60.7736      0.0000    717.0087      6.4986
  1663.7500     63.7785      0.0000    720.8400      6.3757
  1664.0000     65.8226      0.0000    720.1306      6.1911
  1664.2500     66.7888      0.0000    716.9595      5.9420
  1664.5000     67.9052      0.0000    715.4338      5.6642
  1664.7500     70.8445      0.0000    718.0593      5.4228
  1665.0000     76.7663      0.0000    723.7417      5.2635
  1665.2500     86.1315      0.0000    729.3558      5.1815
  1665.5000     98.8563      0.0000    732.5850      5.1490
  1665.7500    113.9911      0.0000    732.9200      5.1535
  1666.0000    129.2153      0.0000    730.7991      5.1902
  1666.2500    141.2997      0.0000    726.9138      5.2400
  1666.5000    147.5591      0.0000    722.5825      5.2812
  1666.7500    146.9832      0.0000    719.8976      5.3198
  1667.0000    140.3857      0.0000    720.0732      5.3950
  1667.2500    129.8814      0.0000    721.2352      5.5539
  1667.5000    117.9453      0.0000    718.9135      5.8042
  1667.7500    106.4987      0.0000    709.8529      6.0753
  1668.0000     96.6654      0.0000    695.6180      6.2507
  1668.2500     89.1155      0.0000    682.3264      6.2763
  1668.5000     84.4780      0.0000    676.4943      6.2172
  1668.7500     83.5038      0.0000    680.5559      6.1778
  1669.0000     86.8653      0.0000    691.7794      6.1946
  1669.2500     94.5876      0.0000    704.7203      6.2312
  1669.5000    105.6882      0.0000    714.5589      6.2404
  1669.7500    118.5684      0.0000    719.2132      6.1957
  1670.0000    131.7885      0.0000    719.7356      6.0869
  1670.2500    144.2751      0.0000    718.8509      5.9200
  1670.5000    154.8097      0.0000    718.5801      5.7242
  1670.7500    161.9529      0.0000    719.3252      5.5450
