~Version Information
VERS.                      2.0: CWLS Log ASCII Standard - VERSION 2.0
WRAP.                       NO: One line per depth step
~Well Information Block
STRT.FT               395.0000: 
STOP.FT              1998.0000: 
STEP.FT                 0.1000: 
NULL.                -999.2500: 
COMP.          Pioneer Natural Resources: COMPANY
WELL.          Easton 12-30 Tr: WELL
FLD.           Purgatoire River: FIELD
LOC.           549' FWL & 2416' FNL--: LOCATION
PROV.                 Colorado: PROVINCE
CNTY.               Las Animas: COUNTRY
SRVC.                Patterson: SERVICE COMPANY
DATE.          Thu Jun 02 09:14:44 2005: LOG DATE
UWI.           05 071 08379 00: UNIQUE WELL ID
~Curve Information Block
DEPT.FT            0 000 00 00: Depth
DCAL.in                       : CDL Caliper
RHOB.g/cc                     : CDL Bulk Density
RHOC.g/cc                     : CDL Density Correction
DPOR.pu                       : CDL Density Porosity
NPOR.pu                       : Neutron Porosity
GR.GAPI                       : Gamma Ray
~Parameter Information Block
~A  Depth       DCAL        RHOB        RHOC        DPOR        NPOR         GR     
# ...
  1758.2000      8.0053      2.5622      0.1516      5.3230     23.6025    148.5268
  1758.3000      8.0038      2.5716      0.1504      4.7515     23.6206    156.3144
  1758.4000      8.0038      2.5610      0.1186      5.3929     24.3868    157.2345
  1758.5000      8.0037      2.5495      0.1224      6.0936     25.1613    156.2108
  1758.6000      8.0037      2.5451      0.1044      6.3585     25.5362    158.1708
  1758.7000      8.0037      2.5507      0.0874      6.0207     25.6333    159.4380
  1758.8000      8.0037      2.5633      0.0998      5.2572     25.1998    156.7291
  1758.9000      8.0037      2.5750      0.0723      4.5456     24.2614    153.8971
  1759.0000      8.0036      2.5816      0.0619      4.1474     23.5236    153.1936
  1759.1000      8.0036      2.5730      0.0666      4.6652     23.0146    149.8942
  1759.2000      8.0036      2.5427      0.0661      6.5053     22.1416    142.6957
  1759.3000      8.0052      2.5108      0.0352      8.4393     20.9198    137.1468
  1759.4000      8.0052      2.5019      0.0693      8.9730     19.9052    136.5898
  1759.5000      8.0058      2.5103      0.1008      8.4654     19.3143    139.8270
  1759.6000      8.0058      2.5175      0.0883      8.0301     18.9947    142.4768
  1759.7000      8.0058      2.5165      0.0910      8.0910     19.0187    140.5192
  1759.8000      8.0011      2.5089      0.0440      8.5494     19.2845    136.8215
  1759.9000      8.0011      2.5050      0.0719      8.7906     19.4500    134.2513
  1760.0000      7.9836      2.5137      0.1092      8.2576     19.5890    130.3397
  1760.1000      7.9836      2.5326      0.0714      7.1171     20.1457    124.5603
  1760.2000      7.9836      2.5480      0.1121      6.1823     21.2976    121.4582
  1760.3000      7.9539      2.5495      0.1000      6.0895     22.7325    121.1024
  1760.4000      7.9539      2.5473      0.0450      6.2226     23.9184    116.4039
  1760.5000      7.9343      2.5549      0.0953      5.7621     24.4844    106.9605
  1760.6000      7.9343      2.5666      0.0690      5.0526     24.4783    100.9003
  1760.7000      7.9343      2.5746      0.0912      4.5726     24.2071    102.1262
  1760.8000      7.9325      2.5816      0.0806      4.1485     23.8317    109.0868
  1760.9000      7.9325      2.5944      0.0881      3.3678     23.3237    116.6182
  1761.0000      7.9392      2.6110      0.0904      2.3629     22.8430    117.4668
  1761.1000      7.9392      2.6144      0.1067      2.1576     22.7237    110.1637
  1761.2000      7.9392      2.5936      0.0384      3.4199     22.8288    102.1117
  1761.3000      7.9461      2.5626      0.0165      5.2992     22.6700    101.1500
  1761.4000      7.9461      2.5416     -0.0138      6.5694     22.2074    104.2132
  1761.5000      7.9498      2.5334      0.0207      7.0645     21.8175    104.5648
  1761.6000      7.9498      2.5300      0.0135      7.2711     21.6880    103.2460
  1761.7000      7.9498      2.5326      0.0306      7.1148     21.7704    104.5523
  1761.8000      7.9507      2.5485      0.0205      6.1494     21.7402    106.7705
  1761.9000      7.9507      2.5738      0.0815      4.6200     21.0686    107.5694
  1762.0000      7.9502      2.5934      0.0953      3.4328     19.8816    108.6630
  1762.1000      7.9502      2.6038      0.0686      2.8021     18.9742    107.6717
  1762.2000      7.9502      2.6164      0.0723      2.0371     18.7659    102.0058
  1762.3000      7.9496      2.6344      0.1022      0.9481     19.0587     95.1798
  1762.4000      7.9496      2.6499      0.1054      0.0066     19.3280     91.2143
  1762.5000      7.9462      2.6589      0.0767     -0.5419     19.2410     90.5147
  1762.6000      7.9462      2.6600      0.0679     -0.6088     19.0536     89.0087
  1762.7000      7.9462      2.6466      0.1153      0.2086     19.2014     84.0944
  1762.8000      7.9381      2.6193      0.0488      1.8624     19.5485     79.4542
  1762.9000      7.9381      2.5967      0.0115      3.2282     19.4815     78.3949
  1763.0000      7.9316      2.5881      0.0451      3.7489     18.9785     78.8936
  1763.1000      7.9316      2.5782      0.0621      4.3503     18.6900     78.1645
  1763.2000      7.9316      2.5577      0.0166      5.5917     18.6854     75.8645
  1763.3000      7.9262      2.5407      0.0227      6.6215     18.4639     70.5990
  1763.4000      7.9262      2.5381      0.0362      6.7808     17.9903     63.9826
  1763.5000      7.9197      2.5453      0.0484      6.3427     17.6627     61.1486
  1763.6000      7.9197      2.5512      0.0776      5.9854     17.6031     62.2678
  1763.7000      7.9197      2.5452      0.0821      6.3541     17.5548     62.4714
  1763.8000      7.9161      2.5355      0.0349      6.9400     17.3774     60.3182
  1763.9000      7.9161      2.5436      0.0567      6.4474     17.1375     59.3326
  1764.0000      7.9182      2.5623      0.1057      5.3161     16.9369     60.7453
  1764.1000      7.9182      2.5641      0.1083      5.2061     16.9580     61.9243
  1764.2000      7.9182      2.5483      0.0662      6.1661     17.2063     62.5965
  1764.3000      7.9232      2.5388      0.0229      6.7420     17.3522     64.3698
  1764.4000      7.9232      2.5472      0.0778      6.2315     17.3448     65.9126
  1764.5000      7.9265      2.5587      0.0596      5.5321     17.4094     67.2977
  1764.6000      7.9265      2.5547      0.0812      5.7737     17.5936     69.6342
  1764.7000      7.9265      2.5351      0.0549      6.9619     17.7984     71.8053
  1764.8000      7.9277      2.5206      0.0033      7.8453     17.9140     72.0541
  1764.9000      7.9277      2.5283      0.0326      7.3751     17.9052     70.2516
  1765.0000      7.9273      2.5451      0.0813      6.3586     17.8940     69.6684
  1765.1000      7.9273      2.5471      0.0651      6.2371     18.1972     70.7184
  1765.2000      7.9273      2.5422      0.0020      6.5330     18.7444     71.8258
  1765.3000      7.9269      2.5552      0.0280      5.7455     19.1093     73.7135
  1765.4000      7.9269      2.5826      0.0801      4.0820     19.3848     75.7801
  1765.5000      7.9270      2.6033      0.0726      2.8319     19.8923     76.4836
  1765.6000      7.9270      2.6011      0.1226      2.9650     20.3880     78.0074
  1765.7000      7.9270      2.5635      0.0868      5.2438     20.7666     81.1855
  1765.8000      7.9276      2.5032      0.0516      8.8961     21.4043     82.5810
  1765.9000      7.9276      2.4556      0.0025     11.7810     22.0868     82.7858
  1766.0000      7.9271      2.4395     -0.0075     12.7572     22.3698     84.0206
  1766.1000      7.9271      2.4512      0.0113     12.0497     22.3504     85.6270
  1766.2000      7.9271      2.4803      0.0596     10.2867     22.0811     88.1362
  1766.3000      7.9265      2.5087      0.1072      8.5649     21.5573     92.9852
  1766.4000      7.9265      2.5165      0.1119      8.0919     20.9853     99.2130
  1766.5000      7.9272      2.5042      0.0692      8.8343     20.7181    105.5547
  1766.6000      7.9272      2.4950      0.0930      9.3959     21.0057    113.4869
  1766.7000      7.9272      2.5048      0.1962      8.7979     21.2437    121.3271
  1766.8000      7.9321      2.5303      0.1707      7.2546     20.8014    124.2460
  1766.9000      7.9321      2.5553      0.1782      5.7387     20.2173    123.7357
  1767.0000      7.9432      2.5612      0.1552      5.3800     20.1084    123.8994
  1767.1000      7.9432      2.5503      0.1185      6.0422     20.2573    124.4614
  1767.2000      7.9432      2.5412      0.1055      6.5964     20.4893    121.6156
  1767.3000      7.9538      2.5410      0.1222      6.6085     20.9602    116.3679
  1767.4000      7.9538      2.5410      0.1216      6.6079     21.4229    118.1684
  1767.5000      7.9607      2.5403      0.0727      6.6481     21.6145    126.7070
  1767.6000      7.9607      2.5502      0.0715      6.0458     21.9565    132.2247
  1767.7000      7.9607      2.5662      0.1136      5.0765     22.6552    132.6027
