~Version Information
VERS.                      2.0: CWLS Log ASCII Standard - VERSION 2.0
WRAP.                       NO: One line per depth step
~Well Information Block
STRT.FT               340.0000: 
STOP.FT              1542.5000: 
STEP.FT                 0.2500: 
NULL.                -999.2500: 
COMP.          Petrogulf Corporation: COMPANY
WELL.            Montoya 7-21R: WELL
FLD.           Purgatorie River: FIELD
LOC.           445' FNL & 1942' FWL: LOCATION
PROV.                 Colorado: PROVINCE
CNTY.               Las Animas: COUNTRY
SRVC.                Patterson: SERVICE COMPANY
DATE.          Thu Sep 15 10:37:42 2005: LOG DATE
UWI.                          : UNIQUE WELL ID
~Curve Information Block
DEPT.FT            0 000 00 00: Depth
SP.mV                         : DIL Spontaneous Potential
RILD.Ohm-m                    : DIL Deep Resistivity
RILM.Ohm-m                    : DIL Medium Resistivity
RLL3.Ohm-m                    : DIL Shallow Resistivity
GR.GAPI                       : Gamma Ray
~Parameter Information Block
~A  Depth        SP         RILD        RILM        RLL3         GR     
# ...
   900.0000    181.2568     19.8731     18.3325     16.0096     95.7662
   900.2500    182.3708     19.3779     18.2306     14.7767     98.7371
   900.5000    183.2788     18.7511     18.0191     14.9485    113.6093
   900.7500    183.8634     18.3840     17.7370     15.7641    128.3812
   901.0000    184.1793     17.6423     17.2661     16.6909    121.2196
   901.2500    184.3418     17.2764     16.9216     17.3985    136.4339
   901.5000    184.3876     16.2839     16.4161     17.5902    131.9675
   901.7500    184.1407     15.5738     15.5788     16.7710    145.3795
   902.0000    183.7212     15.1328     14.9516     16.0089    133.0533
   902.2500    183.2142     14.7309     14.2281     16.0665    133.7449
   902.5000    182.5553     14.5457     13.8613     15.7428    122.3601
   902.7500    181.8853     14.4247     13.4944     14.6195    134.0014
   903.0000    181.3433     14.5808     13.0477     13.5534    145.6987
   903.2500    180.9519     14.6345     12.8068     13.1157    141.0720
   903.5000    180.8516     14.6757     12.7683     12.5404    134.7618
   903.7500    181.0068     14.9189     12.9488     12.0402    133.2156
   904.0000    181.4532     14.6770     13.3061     13.1535    135.1393
   904.2500    182.0638     14.7956     13.8418     17.0428    122.2583
   904.5000    182.8904     15.2149     14.4297     21.9560    134.2498
   904.7500    183.5927     15.3505     14.9755     21.5233    140.8450
   905.0000    183.8271     15.3379     15.3888     18.4196    135.2616
   905.2500    183.4785     15.4901     15.3415     17.8969    142.5985
   905.5000    182.6951     15.5400     15.9704     18.8312    108.2474
   905.7500    181.7326     15.9527     16.3111     21.0067    115.6320
   906.0000    180.6877     16.6013     16.8652     23.3367    138.7416
   906.2500    179.6462     17.1236     17.5757     23.7308    159.7613
   906.5000    178.7527     17.4724     18.0303     22.8069    149.6082
   906.7500    177.9234     17.8291     18.1878     23.3220    146.6114
   907.0000    177.1609     18.2238     17.7612     25.1494    129.6130
   907.2500    176.4052     18.8819     17.5967     22.1068    118.9500
   907.5000    175.7769     19.8955     17.7606     17.7218    128.3881
   907.7500    175.0780     20.4822     17.5788     16.3258    148.9371
   908.0000    174.4330     21.0241     18.3437     16.2603    138.1929
   908.2500    173.7054     21.7642     19.9280     17.3096    150.2592
   908.5000    172.9177     22.3637     21.6157     21.1630    157.6304
   908.7500    172.1357     22.9627     23.7552     28.2736    144.1974
   909.0000    171.3665     23.9532     26.1017     36.8672    146.6946
   909.2500    170.7699     25.0193     28.3328     42.3775    147.8090
   909.5000    170.1100     25.8612     29.6834     44.9753    118.9493
   909.7500    169.4685     26.6838     30.7743     47.1219    107.3218
   910.0000    168.7870     27.2755     33.0325     49.8678    117.9105
   910.2500    168.0145     29.3010     35.9981     51.7606    100.6903
   910.5000    167.0767     29.7498     38.5733     53.5144     84.0342
   910.7500    166.1700     31.1502     39.9428     56.1573     93.8005
   911.0000    165.6008     32.8273     44.2777     58.5325     96.2362
   911.2500    165.5001     31.6956     47.2458     61.5677     91.2007
   911.5000    165.6773     31.9258     46.9092     66.1815    102.2912
   911.7500    166.0559     30.9453     44.0957     69.1566     86.6904
   912.0000    166.5692     30.5868     40.1732     62.7002     67.2617
   912.2500    167.0691     29.0104     35.2608     44.7126     62.5500
   912.5000    167.4356     27.7470     31.0529     29.5552    128.7172
   912.7500    167.5766     26.9824     30.4282     23.3663    129.5658
   913.0000    167.4134     25.5684     27.9842     23.0881    125.6866
   913.2500    167.2150     24.5731     25.5905     23.8804    128.4045
   913.5000    167.0558     23.3847     23.8425     24.5710    125.1805
   913.7500    167.0574     22.7315     22.1115     22.5490    114.6003
   914.0000    167.3010     22.3377     20.8864     18.6261    134.9418
   914.2500    167.6950     21.8142     19.6959     16.9414    129.3877
   914.5000    168.1629     21.3341     19.2922     17.1657    140.0483
   914.7500    168.6864     21.2395     19.2633     17.2094    152.4537
   915.0000    169.1451     20.8481     19.2898     17.2450    163.2933
   915.2500    169.5189     20.0412     19.5212     18.1640    169.7427
   915.5000    169.7539     20.1151     20.1277     19.3430    147.0787
   915.7500    170.0341     19.5600     20.2359     20.0559    123.6432
   916.0000    170.4782     19.0152     20.9810     21.2834    130.1230
   916.2500    170.9922     18.8144     20.8164     24.6742    123.7899
   916.5000    171.5157     18.3982     21.5028     29.5447    105.6674
   916.7500    172.1268     18.4717     20.8085     33.2825    128.7581
   917.0000    172.8641     18.4318     19.7034     30.8701    118.5580
   917.2500    173.5484     18.5473     18.7676     23.0562    111.4739
   917.5000    174.0032     18.8559     17.9164     17.2325    114.0298
   917.7500    174.1873     19.3153     17.9001     15.3269    132.0718
   918.0000    174.1177     19.4289     18.0685     15.1729    157.9121
   918.2500    173.8957     19.3438     18.2253     15.7986    149.2589
   918.5000    173.6060     18.9074     18.9773     18.0007    132.6936
   918.7500    173.4275     18.2151     19.5911     21.7701    141.1285
   919.0000    173.4756     17.5016     19.5132     25.5474    166.8964
   919.2500    173.6979     16.8444     18.9250     26.9038    154.2301
   919.5000    173.9520     16.1719     18.1802     27.0120    147.7415
   919.7500    174.0975     15.7315     16.9265     23.4870    142.7698
   920.0000    174.3414     15.4477     16.0126     18.4331    134.0435
   920.2500    174.9333     15.5235     15.2851     15.5263    139.4911
   920.5000    175.7402     15.7161     14.5642     14.1340    167.0954
   920.7500    176.6625     15.8934     14.3860     14.4072    165.7181
   921.0000    177.5062     15.9610     14.0431     14.6102    171.0152
   921.2500    178.0364     15.9655     14.2238     13.8836    173.0968
   921.5000    178.5434     15.9860     14.6569     13.8337    173.7323
   921.7500    179.0628     16.1435     14.8269     14.7255    169.3267
   922.0000    179.8058     16.2095     15.2263     16.7566    181.0113
   922.2500    180.5199     16.2066     15.8708     17.7441    188.1602
   922.5000    180.9674     16.1795     16.5310     17.5490    173.4686
   922.7500    181.1208     16.3511     17.1785     18.4297    151.8548
   923.0000    181.0313     16.3113     17.9597     20.9247    152.0570
   923.2500    180.7533     16.3844     17.8372     25.7190    144.0930
   923.5000    180.5424     16.6220     18.2190     28.4158    145.2070
   923.7500    180.4809     17.1121     17.7786     23.8009    124.4083
   924.0000    180.4293     17.3191     17.8293     19.1449    132.6355
   924.2500    180.1261     17.6645     17.4993     17.0531    131.6674
   924.5000    179.5458     17.7550     17.5005     16.1487    168.6757
   924.7500    178.8117     17.7854     17.9371     16.0387    150.9124
   925.0000    178.0414     17.8264     18.0040     17.1115    139.4266
   925.2500    177.1173     17.8057     18.1482     18.5755    120.4047
   925.5000    176.0920     17.7655     17.9798     20.0945    128.9931
   925.7500    174.9751     17.2745     17.5360     20.0001    132.7752
   926.0000    173.7841     17.0330     16.9318     18.0587    163.3989
   926.2500    172.6235     16.9115     16.4661     16.7141    177.8935
   926.5000    171.3421     16.8023     16.1102     15.8347    161.0325
   926.7500    170.0727     16.9467     16.1951     15.3976    143.0267
   927.0000    168.9866     17.1185     16.0182     16.0699    131.1391
   927.2500    168.0737     17.0148     15.9272     16.8035    122.9018
   927.5000    167.4047     16.9508     16.0266     17.0554    152.6275
   927.7500    166.9194     17.2699     16.1166     16.3315    152.1039
