~Version Information
VERS.                      2.0: CWLS Log ASCII Standard - VERSION 2.0
WRAP.                       NO: One line per depth step
~Well Information Block
STRT.FT                 8.7500: 
STOP.FT              2723.0000: 
STEP.FT                 0.2500: 
NULL.                -999.2500: 
COMP.          Pioneer Natural Resources: COMPANY
WELL.           Desoto 13-7 Tr: WELL
FLD.           Purgatoire River: FIELD
LOC.           1404' FSL & 1115' FWL: LOCATION
PROV.                 Colorado: PROVINCE
CNTY.               Las Animas: COUNTRY
SRVC.                Patterson: SERVICE COMPANY
DATE.          Wed Mar 16 18:00:51 2005: LOG DATE
UWI.           05 071 08216 00: UNIQUE WELL ID
~Curve Information Block
DEPT.FT            0 000 00 00: Depth
GR.GAPI                       : Gamma Ray
CCL.                          : Casing Collar Locator
TT3.usec                      : CBL 3' Travel Time
AMP3.mV                       : CBL 3' Amplitude
AMP5.mV                       : CBL 5' Amplitude
~Parameter Information Block
~A  Depth        GR         CCL         TT3         AMP3        AMP5    
# ...
  2332.7500    119.8133      0.0000    435.9261      3.3662      0.0963
  2333.0000    124.3278      0.0000    404.7634      3.5400      0.1074
  2333.2500    127.6689      0.0000    387.9901      3.6625      0.1366
  2333.5000    128.8877      0.0000    381.1796      3.7535      0.1805
  2333.7500    128.0352      0.0000    379.5561      3.8218      0.2307
  2334.0000    125.5116      0.0000    380.2509      3.8631      0.2762
  2334.2500    122.0008      0.0000    382.1080      3.8742      0.3068
  2334.5000    118.6290      0.0000    384.7266      3.8658      0.3168
  2334.7500    116.5107      0.0000    387.7924      3.8614      0.3081
  2335.0000    116.1356      0.0000    390.8717      3.8816      0.2900
  2335.2500    117.4924      0.0000    393.5427      3.9296      0.2757
  2335.5000    120.7315      0.0000    395.5941      3.9891      0.2747
  2335.7500    126.1809      0.0000    397.0883      4.0363      0.2868
  2336.0000    133.2934      0.0000    398.3835      4.0541      0.3020
  2336.2500    139.7887      0.0000    400.3021      4.0377      0.3070
  2336.5000    142.5427      0.0000    404.4104      3.9906      0.2953
  2336.7500    139.7504      0.0000    412.6511      3.9171      0.2710
  2337.0000    132.2228      0.0000    425.6342      3.8220      0.2451
  2337.2500    122.5116      0.0000    441.3971      3.7193      0.2265
  2337.5000    113.0758      0.0000    457.5891      3.6344      0.2165
  2337.7500    105.3601      0.0000    475.1747      3.5827      0.2100
  2338.0000     99.7788      0.0000    497.0167      3.5419      0.1997
  2338.2500     95.7747      0.0000    521.0719      3.4582      0.1815
  2338.5000     92.2315      0.0000    537.3903      3.2977      0.1558
  2338.7500     88.4363      0.0000    534.3795      3.0887      0.1284
  2339.0000     84.5654      0.0000    508.6443      2.8993      0.1079
  2339.2500     81.0268      0.0000    468.9194      2.7726      0.1016
  2339.5000     77.7794      0.0000    430.4687      2.6940      0.1107
  2339.7500     74.9732      0.0000    405.6985      2.6126      0.1297
  2340.0000     73.9859      0.0000    400.2972      2.4747      0.1488
  2340.2500     76.7920      0.0000    416.1602      2.2492      0.1586
  2340.5000     84.0361      0.0000    453.6193      1.9538      0.1556
  2340.7500     94.4129      0.0000    508.1320      1.6587      0.1442
  2341.0000    106.2015      0.0000    566.9465      1.4428      0.1340
  2341.2500    118.6488      0.0000    613.8478      1.3412      0.1326
  2341.5000    131.1799      0.0000    639.5803      1.3434      0.1409
  2341.7500    141.8294      0.0000    646.9188      1.4286      0.1527
  2342.0000    147.8215      0.0000    645.5126      1.5834      0.1604
  2342.2500    148.1599      0.0000    643.3200      1.7949      0.1598
  2342.5000    144.9360      0.0000    642.8063      2.0448      0.1533
  2342.7500    141.5927      0.0000    642.7816      2.3105      0.1483
  2343.0000    140.3060      0.0000    641.9420      2.5646      0.1518
  2343.2500    141.1294      0.0000    640.5090      2.7755      0.1650
  2343.5000    142.8461      0.0000    639.1858      2.9185      0.1827
  2343.7500    144.0809      0.0000    637.5613      2.9898      0.1977
  2344.0000    144.0302      0.0000    634.3593      3.0090      0.2063
  2344.2500    142.6206      0.0000    628.7596      3.0015      0.2102
  2344.5000    140.0287      0.0000    620.1316      2.9811      0.2139
  2344.7500    136.3442      0.0000    606.5204      2.9499      0.2197
  2345.0000    131.9774      0.0000    586.0848      2.9106      0.2258
  2345.2500    128.1419      0.0000    562.2341      2.8718      0.2268
  2345.5000    126.5725      0.0000    545.5145      2.8427      0.2182
  2345.7500    128.5476      0.0000    546.4674      2.8273      0.2023
  2346.0000    134.0455      0.0000    565.9390      2.8237      0.1879
  2346.2500    141.7908      0.0000    594.6583      2.8299      0.1844
  2346.5000    150.0261      0.0000    622.0321      2.8492      0.1940
  2346.7500    157.1308      0.0000    642.8389      2.8886      0.2092
  2347.0000    161.8715      0.0000    656.3455      2.9498      0.2190
  2347.2500    163.8052      0.0000    663.0332      3.0244      0.2181
  2347.5000    163.7583      0.0000    663.9039      3.1017      0.2116
  2347.7500    163.4503      0.0000    661.2047      3.1733      0.2084
  2348.0000    164.1950      0.0000    658.1169      3.2275      0.2126
  2348.2500    166.0466      0.0000    657.5186      3.2484      0.2204
  2348.5000    168.2496      0.0000    660.7513      3.2290      0.2247
  2348.7500    170.1133      0.0000    666.9874      3.1836      0.2222
  2349.0000    171.2901      0.0000    673.9063      3.1407      0.2162
  2349.2500    171.6481      0.0000    679.5445      3.1257      0.2138
  2349.5000    171.3681      0.0000    683.7762      3.1546      0.2200
  2349.7500    171.1505      0.0000    688.3276      3.2404      0.2333
  2350.0000    171.8884      0.0000    695.4929      3.3904      0.2464
  2350.2500    173.6990      0.0000    705.9759      3.5916      0.2526
  2350.5000    175.4797      0.0000    717.0128      3.8031      0.2510
  2350.7500    175.8136      0.0000    723.2492      3.9715      0.2471
  2351.0000    174.1594      0.0000    721.0089      4.0585      0.2466
  2351.2500    170.9560      0.0000    711.7817      4.0564      0.2492
  2351.5000    166.9718      0.0000    700.7416      3.9828      0.2491
  2351.7500    162.6568      0.0000    692.3181      3.8656      0.2420
  2352.0000    157.6133      0.0000    687.9030      3.7302      0.2308
  2352.2500    150.7991      0.0000    686.7382      3.5908      0.2233
  2352.5000    142.0128      0.0000    687.0400      3.4467      0.2235
  2352.7500    133.0986      0.0000    685.5320      3.2846      0.2276
  2353.0000    126.9136      0.0000    676.7587      3.0911      0.2278
  2353.2500    124.9312      0.0000    654.8503      2.8698      0.2201
  2353.5000    126.0575      0.0000    618.3902      2.6478      0.2066
  2353.7500    127.4541      0.0000    574.6706      2.4621      0.1931
  2354.0000    126.3276      0.0000    536.8523      2.3369      0.1839
  2354.2500    121.5727      0.0000    513.2888      2.2716      0.1789
  2354.5000    114.5157      0.0000    499.5868      2.2505      0.1755
  2354.7500    108.1698      0.0000    484.3153      2.2599      0.1728
  2355.0000    105.2546      0.0000    462.8289      2.2940      0.1720
  2355.2500    106.2921      0.0000    442.8979      2.3458      0.1743
  2355.5000    109.3079      0.0000    437.1457      2.3997      0.1782
  2355.7500    111.4484      0.0000    452.4442      2.4390      0.1811
  2356.0000    111.0114      0.0000    485.5735      2.4580      0.1830
  2356.2500    108.0765      0.0000    525.9628      2.4634      0.1860
  2356.5000    103.6807      0.0000    562.3345      2.4653      0.1908
  2356.7500     98.8324      0.0000    588.6379      2.4695      0.1941
  2357.0000     94.2695      0.0000    605.0466      2.4770      0.1924
  2357.2500     90.7092      0.0000    614.3655      2.4889      0.1860
  2357.5000     88.9254      0.0000    618.1282      2.5072      0.1780
  2357.7500     89.4185      0.0000    614.9706      2.5316      0.1704
  2358.0000     91.9862      0.0000    601.0507      2.5563      0.1624
  2358.2500     95.6178      0.0000    572.5918      2.5739      0.1539
  2358.5000     98.8075      0.0000    530.2976      2.5817      0.1470
  2358.7500    100.0670      0.0000    481.9522      2.5809      0.1430
  2359.0000     98.5035      0.0000    438.9572      2.5686      0.1399
  2359.2500     94.3727      0.0000    409.1306      2.5338      0.1356
  2359.5000     89.1054      0.0000    393.0024      2.4662      0.1320
  2359.7500     84.4651      0.0000    386.2819      2.3702      0.1328
  2360.0000     81.5867      0.0000    384.3029      2.2672      0.1372
  2360.2500     80.8617      0.0000    384.2475      2.1828      0.1402
  2360.5000     82.4195      0.0000    385.1643      2.1344      0.1397
