~Version Information
VERS.                      2.0: CWLS Log ASCII Standard - VERSION 2.0
WRAP.                       NO: One line per depth step
~Well Information Block
STRT.FT               340.0000: 
STOP.FT              1542.5000: 
STEP.FT                 0.2500: 
NULL.                -999.2500: 
COMP.          Petrogulf Corporation: COMPANY
WELL.            Montoya 7-21R: WELL
FLD.           Purgatorie River: FIELD
LOC.           445' FNL & 1942' FWL: LOCATION
PROV.                 Colorado: PROVINCE
CNTY.               Las Animas: COUNTRY
SRVC.                Patterson: SERVICE COMPANY
DATE.          Thu Sep 15 10:37:42 2005: LOG DATE
UWI.                          : UNIQUE WELL ID
~Curve Information Block
DEPT.FT            0 000 00 00: Depth
SP.mV                         : DIL Spontaneous Potential
RILD.Ohm-m                    : DIL Deep Resistivity
RILM.Ohm-m                    : DIL Medium Resistivity
RLL3.Ohm-m                    : DIL Shallow Resistivity
GR.GAPI                       : Gamma Ray
~Parameter Information Block
~A  Depth        SP         RILD        RILM        RLL3         GR     
# ...
  1432.0000    219.1160     16.1715     22.3151     22.3560    104.7100
  1432.2500    219.1649     15.1330     21.1197     19.7352    114.1929
  1432.5000    219.2140     14.0106     18.8694     18.6170    145.5088
  1432.7500    219.0518     13.0325     16.8517     17.7622    105.8538
  1433.0000    218.7313     12.3068     14.9757     16.3041    119.6219
  1433.2500    218.2586     11.7277     12.9894     15.1842    140.6763
  1433.5000    217.6098     11.2253     11.5733     12.3355    141.7890
  1433.7500    216.9291     10.8388     10.6402      9.5565    134.1553
  1434.0000    216.2811     10.4371      9.9473      8.4957    140.3280
  1434.2500    215.6821     10.2022      9.5285      8.8209    142.4944
  1434.5000    215.1279     10.2110      9.2940      9.4290    169.8103
  1434.7500    214.7780     10.0701      9.2347      9.6904    158.7628
  1435.0000    214.6260      9.9306      9.2423     10.1221    137.8795
  1435.2500    214.5511      9.9313      9.2683     10.9409    144.8271
  1435.5000    214.4752     10.0453      9.4320     11.9794    173.2684
  1435.7500    214.5086     10.2944      9.5681     12.1801    156.6512
  1436.0000    214.7070     10.6586      9.9116     11.8993    150.1868
  1436.2500    215.0343     11.0844     10.2703     11.6246    154.8654
  1436.5000    215.3139     11.6037     11.0999     12.4226    149.7902
  1436.7500    215.3968     12.0148     12.1176     14.5053    162.6999
  1437.0000    215.5049     12.8156     13.3960     17.3014    165.9199
  1437.2500    215.4766     13.6907     15.1653     20.2943    154.1546
  1437.5000    215.4038     14.6606     16.7479     24.8686    142.3564
  1437.7500    215.2655     15.6065     17.9094     31.6118    126.2265
  1438.0000    215.2424     16.5329     20.1341     43.6372    117.7182
  1438.2500    215.3481     17.0856     22.5159     57.3146    120.3637
  1438.5000    215.7001     17.9772     24.1027     45.7276     98.7966
  1438.7500    215.9638     18.2868     25.5719     28.5819     96.1660
  1439.0000    216.1964     18.9077     26.6369     29.2811    100.2428
  1439.2500    216.3346     19.3102     26.4729     42.5357    113.5085
  1439.5000    216.5551     19.7997     26.4701     44.8889    111.2034
  1439.7500    216.7614     19.7845     25.9045     26.9951    113.6826
  1440.0000    216.9749     19.3866     25.2645     17.8518    106.6288
  1440.2500    217.2026     19.0426     24.4238     16.9043    106.1580
  1440.5000    217.3522     18.2264     23.6180     20.6050    119.4078
  1440.7500    217.7555     17.3903     22.7810     26.9841    112.5094
  1441.0000    218.3953     16.5279     22.0304     26.9371    124.9904
  1441.2500    219.2304     15.6105     20.2752     19.8773    130.0109
  1441.5000    220.0609     14.5041     18.5182     15.4916    122.8797
  1441.7500    220.7691     13.5656     17.1232     15.4836    110.1711
  1442.0000    221.3030     12.6265     15.8333     17.2725    116.9067
  1442.2500    221.6970     12.0680     14.3631     18.2264    124.7139
  1442.5000    222.0790     11.4433     13.0325     16.0250    129.2549
  1442.7500    222.3928     10.9967     11.7518     13.1953    119.7034
  1443.0000    222.6957     10.6025     10.8093     11.3796    127.8513
  1443.2500    222.8793     10.2916      9.9984      9.8786    153.6779
  1443.5000    222.9876     10.0432      9.4210      8.6966    160.6938
  1443.7500    222.9588      9.7978      9.0432      8.2585    160.9068
  1444.0000    222.8417      9.6237      8.8469      8.7226    157.8239
  1444.2500    222.6411      9.4444      8.7459      9.6889    149.0512
  1444.5000    222.2496      9.1806      8.6725     10.1417    171.0830
  1444.7500    221.8050      8.9601      8.6154     10.0352    175.1238
  1445.0000    221.3671      8.8386      8.5552     10.2447    181.0688
  1445.2500    220.9820      8.7401      8.4666     10.7040    208.3377
  1445.5000    220.4074      8.7338      8.4642     11.0310    172.9225
  1445.7500    219.7663      8.7622      8.4408     10.9084    176.3822
  1446.0000    219.1712      8.9255      8.4572     10.4784    157.0664
  1446.2500    218.8099      9.1108      8.5429     10.2905    178.7309
  1446.5000    218.5159      9.4301      8.7375     10.3672    184.3954
  1446.7500    218.0611      9.7515      8.9779     10.5276    164.6283
  1447.0000    217.4386     10.0747      9.2970     10.3167    132.0763
  1447.2500    216.6865     10.6620      9.7692     10.2318    147.0392
  1447.5000    216.0748     11.0359     10.3528     11.1044    136.7380
  1447.7500    215.7001     11.5416     11.0683     13.1538    140.1492
  1448.0000    215.4447     11.9697     12.1431     14.8362    154.7622
  1448.2500    215.2923     12.4981     13.2583     17.5460    156.2756
  1448.5000    215.1909     13.0271     14.0225     23.3295    177.2897
  1448.7500    215.0363     13.6098     14.9265     26.0259    171.1753
  1449.0000    214.6468     14.3179     15.9913     25.8890    135.6897
  1449.2500    214.1646     14.9013     17.2500     26.4648    119.4436
  1449.5000    213.6522     15.7415     18.4176     26.5466    110.6673
  1449.7500    213.2475     16.8260     19.2831     27.1680    122.8925
  1450.0000    212.9554     17.5578     20.6084     30.5088    107.2889
  1450.2500    212.7766     18.8663     22.0021     32.8269    109.0127
  1450.5000    212.6602     19.6290     22.7227     31.0282    111.7563
  1450.7500    212.4960     20.3108     23.5839     26.7117    108.9812
  1451.0000    212.3247     21.1054     24.6697     23.5239    111.5145
  1451.2500    212.0418     21.9002     25.9173     25.6843    113.0386
  1451.5000    211.6312     22.3663     27.5761     32.8940    105.2755
  1451.7500    211.0664     23.1889     29.1664     38.0137    121.9701
  1452.0000    210.5394     23.8610     30.9440     36.6260    109.5936
  1452.2500    209.9243     24.3409     32.8639     35.3714    126.9419
  1452.5000    209.3211     25.1337     34.2448     38.9466     95.9274
  1452.7500    208.7555     25.3298     35.9472     41.7104    107.6934
  1453.0000    208.2575     26.1714     36.8009     39.4412    133.8686
  1453.2500    207.9410     26.5216     38.9448     37.8059    118.1878
  1453.5000    207.8445     27.0270     42.2154     40.3057     99.3077
  1453.7500    207.9303     27.2951     44.4734     46.4735     84.7591
  1454.0000    208.1784     27.3095     47.2353     53.0717    113.2003
  1454.2500    208.7860     26.5434     45.5659     57.4477    104.8720
  1454.5000    209.7665     25.2120     46.1988     64.4168     82.5739
  1454.7500    211.2828     24.0946     43.4540     73.5860     96.0664
  1455.0000    213.0855     22.5423     39.9097     77.1591     91.6722
  1455.2500    215.1980     21.4526     34.1960     64.1481     79.9311
  1455.5000    217.1800     20.3380     27.8765     41.8489     74.5418
  1455.7500    219.1320     19.2996     23.6715     24.9614     82.4965
  1456.0000    220.5786     18.5969     20.5894     17.3816     87.5332
  1456.2500    221.5858     17.9687     18.2323     14.6041    109.2065
  1456.5000    222.2031     17.4617     16.9053     13.6082    117.0227
  1456.7500    222.6512     17.1222     16.1000     12.9079    118.2294
  1457.0000    222.9225     16.9201     15.7073     12.8980    123.7158
  1457.2500    223.2365     16.5877     15.3804     13.4671    128.7863
  1457.5000    223.5189     15.9311     15.1618     13.7273    143.8303
  1457.7500    223.8032     15.3123     15.3356     13.6629    134.0463
  1458.0000    224.0555     14.7104     15.2485     14.7145    135.5007
  1458.2500    224.4322     14.1988     15.3254     16.2907    145.2397
  1458.5000    224.8825     13.6954     15.3205     17.5278    119.1517
  1458.7500    225.2967     13.1863     15.1621     18.9631    113.1626
  1459.0000    225.7977     12.8503     15.1488     20.3267    139.0663
  1459.2500    226.3098     12.7459     14.8197     20.4652    138.2302
  1459.5000    226.7805     12.2747     14.1733     18.8656    134.0381
  1459.7500    227.3963     12.2756     13.5667     15.5494    126.1471
