~Version Information
VERS.                      2.0: CWLS Log ASCII Standard - VERSION 2.0
WRAP.                       NO: One line per depth step
~Well Information Block
STRT.FT                -2.7500: 
STOP.FT              2139.2500: 
STEP.FT                 0.2500: 
NULL.                -999.2500: 
COMP.          Petrogulf Corporation: COMPANY
WELL.             State 16-34V: WELL
FLD.           Purgatorie River: FIELD
LOC.           1146' FSL & 1393' FEL: LOCATION
PROV.                 Colorado: PROVINCE
CNTY.               Las Animas: COUNTRY
SRVC.          Patterson Wireline: SERVICE COMPANY
DATE.          Wed Jun 25 13:16:42 2003: LOG DATE
UWI.           05 071 07724 00: UNIQUE WELL ID
~Curve Information Block
DEPT.FT            0 000 00 00: Depth
CCL.                          : Casing Collar Locator
TT3.usec                      : CBL 3' Travel Time
AMP3.mV                       : CBL 3' Amplitude
GR.GAPI                       : Gamma Ray
~Parameter Information Block
~A  Depth       CCL         TT3         AMP3         GR     
# ...
  2107.7500      0.0000    690.6162      1.0051     71.8828
  2108.0000      0.0000    692.0596      0.9303     71.6706
  2108.2500      0.0000    692.7728      0.9241     72.5410
  2108.5000      0.0000    693.4600      0.9552     73.3399
  2108.7500      0.0000    693.7677      0.9258     73.0878
  2109.0000      0.0000    692.4474      0.7853     72.0411
  2109.2500      0.0000    688.4772      0.5813     71.3740
  2109.5000      0.0000    682.2290      0.4045     71.9004
  2109.7500      0.0000    675.6178      0.3114     73.5332
  2110.0000      0.0000    670.9108      0.3053     75.6322
  2110.2500      0.0000    669.2468      0.3663     77.4569
  2110.5000      0.0000    670.4188      0.4801     78.5959
  2110.7500      0.0000    673.9656      0.6506     79.2616
  2111.0000      0.0000    680.0372      0.9048     79.8058
  2111.2500      0.0000    688.8322      1.2722     79.7951
  2111.5000      0.0000    699.0590      1.7343     78.1885
  2111.7500     -2.0000    707.3821      2.2000     74.8045
  2112.0000      0.0000    710.1921      2.5547     71.0503
  2112.2500     -2.0000    706.1681      2.7428     68.8074
  2112.5000      0.0000    696.9312      2.7946     68.9822
  2112.7500      0.0000    685.7867      2.7802     71.2935
  2113.0000      0.0000    676.3050      2.7506     74.8561
  2113.2500      0.0000    671.2148      2.7165     78.6296
  2113.5000      0.0000    671.4092      2.6547     81.6849
  2113.7500      0.0000    675.7868      2.5208     83.4295
  2114.0000      0.0000    681.9941      2.2687     83.7294
  2114.2500      0.0000    686.9948      1.8873     82.8582
  2114.5000      0.0000    687.7074      1.4351     81.2322
  2114.7500      0.0000    682.6748      1.0361     79.1264
  2115.0000      0.0000    673.4662      0.8344     76.7133
  2115.2500      0.0000    663.6635      0.9250     74.3881
  2115.5000      0.0000    656.2169      1.2836     72.8101
  2115.7500      0.0000    651.9280      1.7432     72.3704
  2116.0000      0.0000    649.9765      2.0682     72.7472
  2116.2500      0.0000    649.1785      2.0905     73.2017
  2116.5000      0.0000    648.7101      1.8035     73.1042
  2116.7500      0.0000    648.2209      1.3488     72.0268
  2117.0000      0.0000    647.6769      0.9300     69.7432
  2117.2500      0.0000    647.1895      0.7235     66.5828
  2117.5000      0.0000    646.8845      0.8229     63.6019
  2117.7500      0.0000    646.8362      1.2033     62.0522
  2118.0000      0.0000    647.0558      1.7140     62.5698
  2118.2500      0.0000    647.5255      2.1381     64.7273
  2118.5000      0.0000    648.2360      2.2963     67.2770
  2118.7500      0.0000    649.1749      2.1222     69.0771
  2119.0000      0.0000    650.2659      1.6776     69.9869
  2119.2500      0.0000    651.3309      1.1260     70.6713
  2119.5000      0.0000    652.1536      0.6634     71.5815
  2119.7500      0.0000    652.6238      0.4272     72.5712
  2120.0000      0.0000    652.8541      0.4406     73.4800
  2120.2500      0.0000    653.2828      0.6221     74.4650
  2120.5000      0.0000    654.6320      0.8492     75.5885
  2120.7500      0.0000    657.5306      1.0480     76.5341
  2121.0000      0.0000    661.3854      1.2414     77.0298
  2121.2500      0.0000    663.5172      1.4965     77.3312
  2121.5000      0.0000    660.9008      1.8246     77.9007
  2121.7500      0.0000    654.1309      2.1411     78.5932
  2122.0000      0.0000    648.1522      2.3175     78.5617
  2122.2500      0.0000    647.0853      2.2799     77.1958
  2122.5000      0.0000    649.8300      2.0802     74.9389
  2122.7500      0.0000    652.4824      1.8653     72.9979
  2123.0000      0.0000    652.8999      1.7404     72.2660
  2123.2500      0.0000    651.0287      1.6698     72.4034
  2123.5000      0.0000    646.2368      1.5513     72.0126
  2123.7500      0.0000    636.4174      1.3760     70.0219
  2124.0000      0.0000    620.3362      1.2586     66.8985
  2124.2500      0.0000    601.0306      1.3013     64.1231
  2124.5000      0.0000    586.2884      1.4633     62.4993
  2124.7500      0.0000    584.3640      1.5902     61.2194
  2125.0000      0.0000    597.9330      1.5693     58.3595
  2125.2500      0.0000    621.7102      1.4474     52.0234
  2125.5000      0.0000    645.8079      1.3740     41.6249
  2125.7500      0.0000    661.9516      1.4276     28.7853
  2126.0000      0.0000    667.3264      1.5352     16.6796
  2126.2500      0.0000    663.7208      1.5872      7.9144
  2126.5000      0.0000    654.0064      1.5887      3.0267
  2126.7500      0.0000    639.7296      1.6369      0.9225
  2127.0000      0.0000    622.2439      1.7697      0.2223
  2127.2500      0.0000    605.8231      1.9103      0.0419
  2127.5000      0.0000    597.3968      1.9642      0.0058
  2127.7500      0.0000    601.1262      1.8989      0.0000
  2128.0000      0.0000    613.9859      1.7158   -999.2500
  2128.2500      0.0000    628.4942      1.4271   -999.2500
  2128.5000      0.0000    639.0710      1.1028   -999.2500
  2128.7500      0.0000    644.7490      0.8707   -999.2500
  2129.0000      0.0000    647.1819      0.8144   -999.2500
  2129.2500      0.0000    647.9026      0.8990   -999.2500
  2129.5000      0.0000    646.8640      1.0272   -999.2500
  2129.7500      0.0000    641.2875      1.1249   -999.2500
  2130.0000      0.0000    623.7458      1.1415   -999.2500
  2130.2500      0.0000    581.6889      1.0166   -999.2500
  2130.5000      0.0000    503.1898      0.7085   -999.2500
  2130.7500      0.0000    389.0023      0.2549   -999.2500
  2131.0000      0.0000    259.6124     -0.2249   -999.2500
  2131.2500      0.0000    145.4266     -0.6076   -999.2500
  2131.5000      0.0000     66.9522     -0.8420   -999.2500
  2131.7500      0.0000     24.9520     -0.9533   -999.2500
  2132.0000      0.0000      7.4457     -0.9944   -999.2500
  2132.2500      0.0000      1.7629     -1.0063   -999.2500
  2132.5000      0.0000      0.3262     -1.0090   -999.2500
  2132.7500      0.0000      0.0434     -1.0095   -999.2500
  2133.0000      0.0000   -999.2500   -999.2500   -999.2500
  2133.2500      0.0000   -999.2500   -999.2500   -999.2500
  2133.5000      0.0000   -999.2500   -999.2500   -999.2500
  2133.7500      0.0000   -999.2500   -999.2500   -999.2500
  2134.0000      0.0000   -999.2500   -999.2500   -999.2500
  2134.2500      0.0000   -999.2500   -999.2500   -999.2500
  2134.5000      0.0000   -999.2500   -999.2500   -999.2500
  2134.7500     -2.0000   -999.2500   -999.2500   -999.2500
  2135.0000      2.0000   -999.2500   -999.2500   -999.2500
  2135.2500     -2.0000   -999.2500   -999.2500   -999.2500
  2135.5000   -999.2500   -999.2500   -999.2500   -999.2500
  2135.7500   -999.2500   -999.2500   -999.2500   -999.2500
  2136.0000   -999.2500   -999.2500   -999.2500   -999.2500
  2136.2500   -999.2500   -999.2500   -999.2500   -999.2500
  2136.5000   -999.2500   -999.2500   -999.2500   -999.2500
  2136.7500   -999.2500   -999.2500   -999.2500   -999.2500
  2137.0000   -999.2500   -999.2500   -999.2500   -999.2500
  2137.2500   -999.2500   -999.2500   -999.2500   -999.2500
  2137.5000   -999.2500   -999.2500   -999.2500   -999.2500
  2137.7500   -999.2500   -999.2500   -999.2500   -999.2500
  2138.0000   -999.2500   -999.2500   -999.2500   -999.2500
  2138.2500   -999.2500   -999.2500   -999.2500   -999.2500
  2138.5000   -999.2500   -999.2500   -999.2500   -999.2500
  2138.7500   -999.2500   -999.2500   -999.2500   -999.2500
  2139.0000   -999.2500   -999.2500   -999.2500   -999.2500
  2139.2500   -999.2500   -999.2500   -999.2500   -999.2500
