~Version Information
 VERS.                                  2.0 : CWLS LAS VERSION
 WRAP.                                   NO : WRAPING MODE
 SWARE .                 MController 2.5.0J : SOFTWARE VERSION
~Well Information
 WELL.                        Montoya 1-44R : WELL
 COMP.                       Petrogulf Corp : COMPANY
 FLD.                      Purgatoire River : FIELD
 LOC.                 SE/SE Sec 1 T33S R68W : LOCATION
 DATE.                             11/15/04 : DATE(S) LOGGED
 SRVC.       Blanco Geological Services LLC : SERVICE COMPANY
 STAT.                                   CO : STATE
 CNTY.                           Las Animas : COUNTY
 CTRY.                                  USA : COUNTRY
 API.                       05-071-08239-00 : API NUMBER
 STRT.FT                             615.00 : START DEPTH
 STOP.FT                            2140.00 : STOP DEPTH
 STEP.FT                               1.00 : DEPTH INCREMENT
 NULL.                                -9999 : NULL VALUE
~Curve information
 DEPTH.FT                                   :
 ROP.MIN/FT                                 :
 GAS.UNITS                                  :
~ASCII Log data
# ...
      1615.0         0.23          7.4 
      1616.0         0.33          7.5 
      1617.0         0.78          8.1 
      1618.0         0.47          7.5 
      1619.0         0.30          7.9 
      1620.0         0.43          8.0 
      1621.0         0.50          7.3 
      1622.0         0.43          6.7 
      1623.0         0.30          7.4 
      1624.0         0.30          7.5 
      1625.0         0.42          8.0 
      1626.0         0.53          7.9 
      1627.0         0.40          7.2 
      1628.0         0.33          8.2 
      1629.0         0.40          7.8 
      1630.0         0.27          8.0 
      1631.0         0.27          7.8 
      1632.0         0.27          7.8 
      1633.0         0.23          2.7 
      1634.0         0.43         10.5 
      1635.0         0.32        -11.7 
      1636.0         0.20        -11.7 
      1637.0         0.20         -8.1 
      1638.0         0.30          2.0 
      1639.0         0.33         -7.7 
      1640.0         0.23          7.3 
      1641.0         0.27        -11.7 
      1642.0         0.23        -11.7 
      1643.0         0.17        -11.7 
      1644.0         0.53         -2.9 
      1645.0         0.77         -6.1 
      1646.0         0.27          0.5 
      1647.0         0.10        -11.6 
      1648.0         0.43        -11.5 
      1649.0         0.52        -11.4 
      1650.0         0.40        -11.5 
      1651.0         0.40          8.9 
      1652.0         0.43          8.3 
      1653.0         0.33          3.8 
      1654.0         0.43          7.7 
      1655.0         0.27          7.4 
      1656.0         0.30          7.9 
      1657.0         0.23          7.4 
      1658.0         0.27          7.8 
      1659.0         0.25          8.0 
      1660.0         0.27          8.2 
      1661.0         0.13          8.4 
      1662.0         0.23          8.1 
      1663.0         0.47          8.2 
      1664.0         0.20          8.3 
      1665.0         0.23          8.4 
      1666.0         0.37         12.2 
      1667.0         0.30          9.1 
      1668.0         0.13          9.1 
      1669.0         0.23         12.9 
      1670.0         0.27         12.8 
      1671.0         0.27          9.1 
      1672.0         0.35          8.9 
      1673.0         0.30          9.3 
      1674.0         0.30         10.6 
      1675.0         0.23         11.9 
      1676.0         0.33         13.0 
      1677.0         0.20         12.8 
      1678.0         0.50         11.5 
      1679.0         0.40         10.7 
      1680.0         0.37          9.3 
      1681.0         0.35          9.8 
      1682.0         0.33         13.8 
      1683.0         0.33          9.2 
      1684.0         0.37          9.1 
      1685.0         0.37          9.4 
      1686.0         0.27          9.5 
      1687.0         0.23          8.7 
      1688.0         0.27          8.6 
      1689.0         0.23          8.9 
      1690.0         0.27          9.1 
      1691.0         0.27          8.6 
      1692.0         0.25         13.0 
      1693.0         0.27          9.3 
      1694.0         0.23          9.0 
      1695.0         0.20          9.3 
      1696.0         0.30          8.7 
      1697.0         0.13        -11.5 
      1698.0         0.20         44.2 
      1699.0         0.23         44.1 
      1700.0         0.20         38.1 
      1701.0         0.23         34.3 
      1702.0         0.27          9.3 
      1703.0         0.27          9.0 
      1704.0         0.20         18.2 
      1705.0         0.20          9.4 
      1706.0         0.23         11.3 
      1707.0         0.97         15.6 
      1708.0         0.10         13.7 
      1709.0         0.07         13.7 
      1710.0         0.23         13.0 
      1711.0         0.48         11.7 
      1712.0         0.57         11.0 
      1713.0         0.40         10.8 
      1714.0         0.43         10.8 
      1715.0         0.43         10.2 
      1716.0         0.43         10.5 
      1717.0         0.33         10.3 
      1718.0         0.33         10.0 
      1719.0         0.32         10.1 
      1720.0         0.30          9.7 
      1721.0         0.30          9.7 
      1722.0         0.33         10.2 
      1723.0         0.43         10.5 
      1724.0         0.33         10.1 
      1725.0         0.27          9.8 
      1726.0         0.27          9.9 
      1727.0         0.27         10.4 
      1728.0         0.27          9.7 
      1729.0         0.23         10.4 
      1730.0         0.23          9.0 
      1731.0         0.32          9.8 
      1732.0         0.27         10.9 
      1733.0         0.20         11.0 
      1734.0         0.23         12.6 
      1735.0         0.27         16.4 
      1736.0         0.37         18.8 
      1737.0         0.27         17.7 
      1738.0         0.23         17.3 
      1739.0         0.23         14.6 
      1740.0         0.33         13.1 
      1741.0         0.30         12.9 
      1742.0         0.37         12.8 
      1743.0         0.27         11.0 
      1744.0         0.32         10.8 
      1745.0         0.33         10.7 
      1746.0         0.37         10.1 
      1747.0         0.33         10.2 
      1748.0         0.33         10.5 
      1749.0         0.27         11.0 
      1750.0         0.47         10.8 
      1751.0         0.30         11.1 
      1752.0         0.30          9.9 
      1753.0         0.30         10.3 
      1754.0         0.48         10.5 
      1755.0         0.30         10.4 
      1756.0         0.30         10.4 
      1757.0         0.37         10.3 
      1758.0         0.30          9.8 
      1759.0         0.30          9.5 
      1760.0         0.33         12.8 
      1761.0         0.30         12.8 
      1762.0         0.37         18.2 
      1763.0         0.33         22.4 
      1764.0         0.23         19.5 
      1765.0         0.28         18.3 
      1766.0         0.23         15.9 
      1767.0         0.23         14.6 
      1768.0         0.33         13.1 
      1769.0         0.30         13.0 
      1770.0         0.23         11.3 
      1771.0         0.23         11.1 
      1772.0         0.33         10.5 
      1773.0         0.33         10.5 
      1774.0         0.33         10.9 
      1775.0         0.35         11.0 
      1776.0         0.33         10.8 
      1777.0         0.40         10.8 
      1778.0         0.30         10.6 
      1779.0         0.40         10.8 
      1780.0         0.30         10.4 
      1781.0         0.23         10.9 
      1782.0         0.27         11.1 
      1783.0         0.33         10.5 
      1784.0         0.37         10.7 
      1785.0         0.35         11.2 
      1786.0         0.17         11.2 
      1787.0         0.23         11.7 
      1788.0         0.37         12.1 
      1789.0         0.43         13.6 
      1790.0         0.20         13.6 
      1791.0         0.20         15.9 
      1792.0         0.23         22.1 
      1793.0         0.23         23.9 
      1794.0         0.23         28.4 
      1795.0         0.27         28.3 
      1796.0         0.30         24.5 
      1797.0         0.23         19.5 
      1798.0         0.50         18.3 
      1799.0         0.28         13.6 
      1800.0         0.27         13.6 
      1801.0         0.30         12.9 
      1802.0         0.30         12.1 
      1803.0         0.40         12.2 
      1804.0         0.40         11.8 
      1805.0         0.40         11.8 
      1806.0         0.40         12.2 
      1807.0         0.37         12.2 
      1808.0         0.33         11.8 
      1809.0         0.35         12.3 
      1810.0         0.33         12.3 
      1811.0         0.33         11.7 
      1812.0         0.30         11.9 
      1813.0         0.33         12.1 
      1814.0         0.27         13.0 
