~Version Information
VERS.                      2.0: CWLS Log ASCII Standard - VERSION 2.0
WRAP.                       NO: One line per depth step
~Well Information Block
STRT.FT               910.3000: 
STOP.FT              1932.5000: 
STEP.FT                 0.1000: 
NULL.                -999.2500: 
COMP.          Petrogulf Corporation: COMPANY
WELL.             State 16-34R: WELL
FLD.           Purgatorie River: FIELD
LOC.           1095' FSL & 1498' FEL: LOCATION
CNTY.               Las Animas: COUNTY
SRVC.                         : SERVICE COMPANY
DATE.          Thu May 06 14:28:18 2004: LOG DATE
UWI.           05 071 08032 00: UNIQUE WELL ID
STAT.                 Colorado: STATE
~Curve Information Block
DEPT.FT            0 000 00 00: Depth
DCAL.in                       : CDL Caliper
RHOB.g/cc                     : CDL Bulk Density
RHOC.g/cc                     : CDL Density Correction
DPOR.pu                       : CDL Density Porosity
NPOR.pu                       : Neutron Porosity
GR.GAPI                       : Gamma Ray
~Parameter Information Block
~A  Depth       DCAL        RHOB        RHOC        DPOR        NPOR         GR     
# ...
  1438.3000      7.9311      2.4788     -0.0120     10.3767     20.1361     85.1201
  1438.4000      7.9311      2.4905      0.0144      9.6649     19.3834     85.6682
  1438.5000      7.9291      2.4906      0.0022      9.6626     18.9394     83.2791
  1438.6000      7.9291      2.4898      0.0267      9.7102     18.9346     78.1313
  1438.7000      7.9291      2.4946     -0.0021      9.4168     19.0956     75.0099
  1438.8000      7.9280      2.4999      0.0516      9.0945     19.2751     76.1985
  1438.9000      7.9280      2.5005      0.0596      9.0577     19.2151     80.0510
  1439.0000      7.9306      2.4972      0.0263      9.2602     18.5842     83.5475
  1439.1000      7.9306      2.4881      0.0638      9.8102     17.5288     84.2360
  1439.2000      7.9306      2.4702      0.0269     10.8942     16.7177     84.3831
  1439.3000      7.9297      2.4583      0.0039     11.6196     16.6971     86.1794
  1439.4000      7.9297      2.4599      0.0467     11.5241     17.1763     86.6809
  1439.5000      7.9429      2.4561      0.0588     11.7517     17.3709     84.4729
  1439.6000      7.9429      2.4419      0.0077     12.6105     17.1283     82.6736
  1439.7000      7.9429      2.4367      0.0346     12.9247     16.7728     81.6994
  1439.8000      7.9461      2.4485      0.0265     12.2139     16.5728     80.1824
  1439.9000      7.9461      2.4684      0.0398     11.0087     16.7585     79.5551
  1440.0000      7.9471      2.4809      0.0554     10.2474     17.1832     79.7874
  1440.1000      7.9471      2.4726      0.0586     10.7526     17.5672     79.9190
  1440.2000      7.9471      2.4483      0.0146     12.2238     17.6911     78.9371
  1440.3000      7.9438      2.4238      0.0344     13.7113     17.3011     77.4085
  1440.4000      7.9438      2.4100     -0.0049     14.5482     16.7266     79.4017
  1440.5000      7.9460      2.4140      0.0030     14.3016     16.6031     85.2497
  1440.6000      7.9460      2.4325     -0.0149     13.1828     16.8245     91.3324
  1440.7000      7.9460      2.4539      0.0214     11.8846     17.0561     94.0649
  1440.8000      7.9490      2.4656      0.0375     11.1769     17.3885     92.8008
  1440.9000      7.9490      2.4621      0.0290     11.3868     17.7369     91.1228
  1441.0000      7.9603      2.4565      0.0104     11.7258     17.9286     90.3246
  1441.1000      7.9603      2.4612      0.0147     11.4405     18.3530     90.0513
  1441.2000      7.9603      2.4714      0.0442     10.8247     19.1947     90.9522
  1441.3000      7.9671      2.4841      0.0314     10.0570     19.7854     90.7010
  1441.4000      7.9671      2.5023      0.0657      8.9494     19.7641     88.3906
  1441.5000      7.9613      2.5173      0.0423      8.0403     19.5222     86.7788
  1441.6000      7.9613      2.5154      0.0838      8.1560     19.3663     87.6589
  1441.7000      7.9613      2.4971      0.0406      9.2668     19.4599     89.8253
  1441.8000      7.9632      2.4748      0.0431     10.6209     19.7677     90.7676
  1441.9000      7.9632      2.4584     -0.0291     11.6137     19.7774     90.9088
  1442.0000      7.9651      2.4494      0.0276     12.1568     19.2618     92.1297
  1442.1000      7.9651      2.4416      0.0197     12.6292     18.8049     92.2223
  1442.2000      7.9651      2.4324      0.0105     13.1871     18.7774     88.4563
  1442.3000      7.9624      2.4265     -0.0055     13.5484     18.8571     81.5446
  1442.4000      7.9624      2.4257      0.0171     13.5909     18.6433     74.4117
  1442.5000      7.9598      2.4294     -0.0349     13.3694     18.1477     71.6644
  1442.6000      7.9598      2.4385      0.0281     12.8198     17.9654     73.1028
  1442.7000      7.9598      2.4454      0.0354     12.3999     18.2434     74.0532
  1442.8000      7.9664      2.4439      0.0201     12.4891     18.3370     73.7781
  1442.9000      7.9664      2.4420      0.0105     12.6049     18.0315     74.4318
  1443.0000      7.9671      2.4436      0.0445     12.5081     17.6536     76.3679
  1443.1000      7.9671      2.4406      0.0225     12.6923     17.4415     78.0475
  1443.2000      7.9671      2.4363     -0.0218     12.9531     17.2618     78.9770
  1443.3000      7.9652      2.4416      0.0176     12.6276     16.7965     79.4818
  1443.4000      7.9652      2.4504      0.0387     12.0967     16.1781     79.3376
  1443.5000      7.9639      2.4517      0.0438     12.0182     15.8973     79.2414
  1443.6000      7.9639      2.4462      0.0557     12.3502     16.0659     79.4216
  1443.7000      7.9639      2.4434      0.0162     12.5183     16.3821     79.4308
  1443.8000      7.9512      2.4496      0.0524     12.1480     16.6347     80.0592
  1443.9000      7.9512      2.4551      0.0460     11.8111     16.6474     81.8502
  1444.0000      7.9497      2.4487      0.0552     12.1996     16.4356     83.3544
  1444.1000      7.9497      2.4344     -0.0007     13.0656     16.5883     83.6982
  1444.2000      7.9497      2.4252      0.0233     13.6272     17.3573     84.5278
  1444.3000      7.9513      2.4236      0.0125     13.7200     17.9664     86.0939
  1444.4000      7.9513      2.4318     -0.0140     13.2249     17.7858     86.1072
  1444.5000      7.9494      2.4533      0.0002     11.9235     17.3496     83.1547
  1444.6000      7.9494      2.4755      0.0472     10.5767     17.2803     78.4131
  1444.7000      7.9494      2.4884     -0.0245      9.7947     17.4113     75.6188
  1444.8000      7.9469      2.4976      0.0251      9.2353     17.4649     76.4618
  1444.9000      7.9469      2.4990      0.0407      9.1516     17.5883     77.4310
  1445.0000      7.9448      2.4865      0.0502      9.9108     17.8992     75.5759
  1445.1000      7.9448      2.4719      0.0264     10.7911     18.2515     72.8283
  1445.2000      7.9448      2.4699     -0.0036     10.9128     18.4527     73.5395
  1445.3000      7.9490      2.4812      0.0037     10.2283     18.4658     77.9365
  1445.4000      7.9490      2.4980      0.0314      9.2116     18.5444     81.6858
  1445.5000      7.9431      2.5146      0.0359      8.2068     19.0386     81.6041
  1445.6000      7.9431      2.5267      0.0684      7.4720     19.9355     79.8835
  1445.7000      7.9431      2.5310      0.0327      7.2108     20.8868     81.0401
  1445.8000      7.9571      2.5309      0.0160      7.2180     21.6296     83.9013
  1445.9000      7.9571      2.5291      0.0383      7.3268     22.3953     86.4827
  1446.0000      7.9474      2.5221      0.0126      7.7531     23.5781     91.9216
  1446.1000      7.9474      2.5105     -0.0254      8.4528     24.7706    100.0528
  1446.2000      7.9474      2.5004     -0.0161      9.0682     25.5438    106.1391
  1446.3000      7.9395      2.4991     -0.0023      9.1479     26.3095    109.7311
  1446.4000      7.9395      2.5161     -0.0205      8.1122     27.2009    113.8518
  1446.5000      7.9489      2.5492      0.0368      6.1089     27.8275    119.0435
  1446.6000      7.9489      2.5824      0.0107      4.0990     28.0803    123.7478
  1446.7000      7.9489      2.6044      0.0479      2.7660     28.0280    126.1283
  1446.8000      7.9554      2.6075      0.0897      2.5760     27.9945    126.7294
  1446.9000      7.9554      2.5961      0.0417      3.2661     28.0852    128.6082
  1447.0000      7.9516      2.5887      0.0837      3.7136     27.8872    132.2394
  1447.1000      7.9516      2.5897      0.0986      3.6573     27.5982    133.0293
  1447.2000      7.9516      2.5900      0.0739      3.6336     27.7891    130.4746
  1447.3000      7.9508      2.5893      0.0905      3.6792     28.2298    129.5747
  1447.4000      7.9508      2.5912      0.0443      3.5630     28.3020    130.5075
  1447.5000      7.9539      2.5892      0.0803      3.6844     27.8868    130.8027
  1447.6000      7.9539      2.5671      0.0167      5.0236     27.3334    132.1354
  1447.7000      7.9539      2.5296     -0.0042      7.2982     27.0789    136.3501
  1447.8000      7.9540      2.5080     -0.0369      8.6089     27.1419    142.0861
