~Version Information
VERS.                      2.0: CWLS Log ASCII Standard - VERSION 2.0
WRAP.                       NO: One line per depth step
~Well Information Block
STRT.FT               528.0000: 
STOP.FT              2250.0000: 
STEP.FT                 0.1000: 
NULL.                -999.2500: 
COMP.          Pioneer Natural Resources: COMPANY
WELL.           Parklane 43-34: WELL
FLD.           Purgatorie River: FIELD
LOC.           1704' FSL & 1119' FEL: LOCATION
PROV.                 Colorado: PROVINCE
CNTY.               Las Animas: COUNTRY
SRVC.                         : SERVICE COMPANY
DATE.          Thu Oct 07 08:21:17 2004: LOG DATE
UWI.           05 071 08162 00: UNIQUE WELL ID
~Curve Information Block
DEPT.FT            0 000 00 00: Depth
LTEN.lb                       : Surface Line Tension
DCAL.in                       : CDL Caliper
RHOB.g/cc                     : CDL Bulk Density
RHOC.g/cc                     : CDL Density Correction
DPOR.pu                       : CDL Density Porosity
GR.GAPI                       : Gamma Ray
NPOR.pu                       : Neutron Porosity
~Parameter Information Block
~A  Depth       LTEN        DCAL        RHOB        RHOC        DPOR         GR         NPOR    
# ...
  1099.2000    939.0540      7.9593      2.4833      0.3517     10.1012    125.6143     26.2138
  1099.3000    964.9706      7.9506      2.5579      0.4328      5.5799    131.0878     25.8376
  1099.4000    964.9706      7.9506      2.5967      0.3924      3.2316    135.5112     25.2213
  1099.5000    910.8141      7.9495      2.6124      0.3764      2.2797    140.0322     24.5076
  1099.6000    910.8141      7.9495      2.6172      0.4026      1.9891    145.6233     24.0420
  1099.7000    910.8141      7.9495      2.6081      0.2912      2.5366    149.9557     24.2055
  1099.8000    977.3979      7.9509      2.5911      0.2665      3.5689    154.0000     24.8921
  1099.9000    977.3979      7.9509      2.5604      0.3430      5.4304    154.6744     25.3460
  1100.0000    973.0051      7.9519      2.4992      0.2197      9.1420    148.6642     25.2803
  1100.1000    973.0051      7.9519      2.4197      0.1115     13.9568    141.8129     25.3252
  1100.2000    973.0051      7.9519      2.3469      0.1233     18.3698    140.4945     25.7860
  1100.3000    940.4401      7.9502      2.2829      0.1179     22.2472    147.0054     26.7407
  1100.4000    940.4401      7.9502      2.2254      0.0744     25.7359    155.8936     28.1580
  1100.5000    982.5612      7.9484      2.2048     -0.0039     26.9835    155.8367     29.4745
  1100.6000    982.5612      7.9484      2.2670      0.0502     23.2101    146.1489     30.3100
  1100.7000    982.5612      7.9484      2.4241      0.1670     13.6922    136.4113     30.8153
  1100.8000    985.5552      7.9478      2.6533      0.2548     -0.1985    131.8684     30.9017
  1100.9000    985.5552      7.9478      2.9122      0.4211    -15.8905    131.5950     30.4436
  1101.0000   1008.1681      7.9472      3.1318      0.5824    -29.1988    134.4570     29.6168
  1101.1000   1008.1681      7.9472      3.2473      0.6077    -36.1990    134.9304     28.6306
  1101.2000   1008.1681      7.9472      3.2560      0.5246    -36.7288    129.0968     27.8247
  1101.3000   1022.3961      7.9496      3.2010      0.3842    -33.3943    123.2425     27.0469
  1101.4000   1022.3961      7.9496      3.0983      0.2867    -27.1698    123.9626     25.6725
  1101.5000    962.4304      7.9571      2.9304      0.1112    -16.9937    130.4251     24.1781
  1101.6000    962.4304      7.9571      2.7205     -0.1776     -4.2747    136.2565     23.5678
  1101.7000    962.4304      7.9571      2.5374     -0.1487      6.8224    137.6129     23.6257
  1101.8000   1016.7755      7.9707      2.4172     -0.1599     14.1116    135.6388     23.6376
  1101.9000   1016.7755      7.9707      2.3617     -0.1278     17.4755    130.6880     23.5197
  1102.0000    984.3256      7.9923      2.3649      0.0617     17.2774    126.4906     23.4382
  1102.1000    984.3256      7.9923      2.4056      0.1221     14.8096    129.9746     23.4965
  1102.2000    984.3256      7.9923      2.4610      0.2220     11.4529    138.6185     23.9438
  1102.3000    932.7375      8.0131      2.5123      0.3343      8.3472    144.7636     24.7387
  1102.4000    932.7375      8.0131      2.5441      0.3611      6.4170    148.6745     25.4395
  1102.5000   1007.9343      8.0209      2.5597      0.3450      5.4743    151.1384     25.8643
  1102.6000   1007.9343      8.0209      2.5731      0.3043      4.6579    150.0533     26.0956
  1102.7000   1007.9343      8.0209      2.5832      0.2961      4.0476    149.7016     26.5632
  1102.8000    980.8270      7.9950      2.5790      0.2080      4.3041    156.2810     27.5248
  1102.9000    980.8270      7.9950      2.5704      0.1726      4.8224    163.1925     28.2838
  1103.0000    965.5036      7.9352      2.5695      0.1882      4.8772    158.6002     28.4399
  1103.1000    965.5036      7.9352      2.5650      0.2087      5.1506    145.7058     28.5964
  1103.2000    965.5036      7.9352      2.5523      0.1138      5.9223    139.5593     28.8905
  1103.3000   1013.5187      7.8843      2.5448      0.1333      6.3750    145.9842     29.0187
  1103.4000   1013.5187      7.8843      2.5456      0.0968      6.3280    152.9276     29.2665
  1103.5000    991.9850      7.8644      2.5454      0.1246      6.3402    149.3917     29.9741
  1103.6000    991.9850      7.8644      2.5409      0.0705      6.6121    141.5532     30.8998
  1103.7000    991.9850      7.8644      2.5372      0.1057      6.8384    136.7538     31.3986
  1103.8000    988.7291      7.8615      2.5309      0.1242      7.2203    136.1945     31.1049
  1103.9000    988.7291      7.8615      2.5168      0.1014      8.0731    138.5291     30.3494
  1104.0000    982.5836      7.8611      2.5010      0.0848      9.0322    140.4670     29.7541
  1104.1000    982.5836      7.8611      2.4973      0.0672      9.2531    141.4135     29.8574
  1104.2000    982.5836      7.8611      2.5211      0.0745      7.8130    144.5957     30.7602
  1104.3000   1021.0579      7.8592      2.5658      0.1709      5.1028    149.3773     31.8194
  1104.4000   1021.0579      7.8592      2.6050      0.1688      2.7269    150.3152     32.2737
  1104.5000   1007.1063      7.8578      2.6258      0.1794      1.4685    145.2837     32.3332
  1104.6000   1007.1063      7.8578      2.6245      0.2412      1.5429    136.6858     32.7777
  1104.7000   1007.1063      7.8578      2.6018      0.1501      2.9228    130.7162     33.6111
  1104.8000    933.2802      7.8570      2.5703      0.1353      4.8308    132.3203     34.2430
  1104.9000    933.2802      7.8570      2.5369      0.1026      6.8551    135.7111     34.3465
  1105.0000   1008.0186      7.8540      2.5091      0.0274      8.5404    133.7977     34.1186
  1105.1000   1008.0186      7.8540      2.4999      0.0394      9.0984    128.5026     33.7945
  1105.2000   1008.0186      7.8540      2.5064      0.0760      8.7060    123.0515     33.2239
  1105.3000    966.2492      7.8508      2.5183      0.0993      7.9820    118.3961     32.3795
  1105.4000    966.2492      7.8508      2.5276      0.1585      7.4157    116.3985     31.4434
  1105.5000    924.2574      7.8506      2.5278      0.1382      7.4087    114.6136     30.3827
  1105.6000    924.2574      7.8506      2.5315      0.1473      7.1816    109.4801     29.2781
  1105.7000    924.2574      7.8506      2.5618      0.1551      5.3454    106.9044     28.3850
  1105.8000   1019.7865      7.8536      2.6174      0.2326      1.9783    112.8956     27.7432
  1105.9000   1019.7865      7.8536      2.6808      0.2501     -1.8639    120.2196     27.2993
  1106.0000    984.6027      7.8686      2.7383      0.2952     -5.3531    119.1576     27.1091
  1106.1000    984.6027      7.8686      2.7727      0.2848     -7.4381    112.8723     27.0245
  1106.2000    984.6027      7.8686      2.7754      0.2584     -7.5983    112.8179     26.7187
  1106.3000    990.8867      7.8974      2.7547      0.2254     -6.3432    122.2156     26.2819
  1106.4000    990.8867      7.8974      2.7181      0.2358     -4.1274    132.0944     26.0306
  1106.5000   1001.3104      7.9166      2.6761      0.1769     -1.5821    137.6839     26.0571
  1106.6000   1001.3104      7.9166      2.6469      0.1043      0.1872    146.3895     26.1512
  1106.7000   1001.3104      7.9166      2.6385      0.0868      0.6947    156.4038     26.0637
  1106.8000    966.3630      7.9215      2.6419      0.0808      0.4904    156.2760     25.9671
  1106.9000    966.3630      7.9215      2.6417      0.0950      0.5036    148.3535     26.1955
  1107.0000    930.1573      7.9226      2.6242      0.1380      1.5628    142.4794     26.5577
  1107.1000    930.1573      7.9226      2.5869      0.0749      3.8212    139.9740     26.3613
  1107.2000    930.1573      7.9226      2.5446      0.0875      6.3891    136.3030     25.6479
  1107.3000    977.3905      7.9237      2.5170      0.0173      8.0635    128.8538     25.0390
  1107.4000    977.3905      7.9237      2.5122      0.0388      8.3539    124.2148     24.4577
  1107.5000    986.7706      7.9241      2.5186      0.0436      7.9616    129.8288     24.0210
