~Version Information
VERS.                      2.0: CWLS Log ASCII Standard - VERSION 2.0
WRAP.                       NO: One line per depth step
~Well Information Block
STRT.FT               -16.0000: 
STOP.FT              2454.2500: 
STEP.FT                 0.2500: 
NULL.                -999.2500: 
COMP.                         : COMPANY
WELL.                         : WELL
FLD.                          : FIELD
LOC.                          : LOCATION
CNTY.                         : COUNTY
SRVC.                         : SERVICE COMPANY
DATE.          Tue Aug 31 08:09:44 2004: LOG DATE
UWI.                          : UNIQUE WELL ID
STAT.                         : STATE
~Curve Information Block
DEPT.FT            0 000 00 00: Depth
GR.GAPI                       : Gamma Ray
CCL.                          : Casing Collar Locator
TT3.usec                      : CBL 3' Travel Time
AMP3.mV                       : CBL 3' Amplitude
~Parameter Information Block
~A  Depth        GR         CCL         TT3         AMP3    
# ...
   955.5000     55.9243      0.0000    313.0001     70.7722
   955.7500     55.9449      0.0000    313.0011     70.6802
   956.0000     56.4054      0.0000    313.0087     70.6578
   956.2500     56.3050      0.0000    313.0447     70.4147
   956.5000     55.2046      0.0000    313.1541     69.8147
   956.7500     53.5123      0.0000    313.3669     68.9432
   957.0000     52.2106      0.0000    313.6320     68.0379
   957.2500     52.2393      0.0000    313.8383     67.3536
   957.5000     53.5942      0.0000    313.9193     66.9923
   957.7500     54.8955      0.0000    313.8819     66.8800
   958.0000     54.3546      0.0000    313.7848     66.9226
   958.2500     51.3780      0.0000    313.7252     67.1047
   958.5000     46.9409      0.0000    313.7423     67.4052
   958.7500     42.5052      0.0000    313.7366     67.6667
   959.0000     39.0452      0.0000    313.5970     67.6258
   959.2500     37.0067      0.0000    313.3594     67.1673
   959.5000     36.5022      0.0000    313.1530     66.4777
   959.7500     37.2002      0.0000    313.0446     65.8248
   960.0000     38.2225      0.0000    313.0087     65.3172
   960.2500     38.5634      0.0000    313.0011     64.9427
   960.5000     37.9260      0.0000    313.0002     64.6673
   960.7500     37.0167      0.0000    313.0011     64.4679
   961.0000     36.7303      0.0000    313.0087     64.3329
   961.2500     37.2625      0.0000    313.0447     64.2333
   961.5000     38.3008      0.0000    313.1541     64.1705
   961.7500     39.6662      0.0000    313.3670     64.2115
   962.0000     41.2646      0.0000    313.6330     64.3877
   962.2500     42.7158      0.0000    313.8459     64.7004
   962.5000     43.5665      0.0000    313.9553     65.1637
   962.7500     43.7919      0.0000    313.9913     65.6844
   963.0000     43.8768      0.0000    313.9989     66.1193
   963.2500     44.6390      0.0000    313.9999     66.4746
   963.5000     47.0596      0.0000    314.0000     66.8288
   963.7500     51.8974      0.0000    314.0000     67.1400
   964.0000     59.1704      0.0000    314.0000     67.2821
   964.2500     67.9930      0.0000    314.0000     67.1946
   964.5000     76.9827      0.0000    314.0000     66.9110
   964.7500     84.9406      0.0000    314.0000     66.5579
   965.0000     91.3389      0.0000    314.0000     66.3854
   965.2500     96.2940      0.0000    314.0000     66.6412
   965.5000     99.9705      0.0000    314.0000     67.3927
   965.7500    101.9280      0.0000    314.0000     68.5958
   966.0000    101.4430      0.0000    314.0000     70.1728
   966.2500     98.7546      0.0000    314.0000     71.8254
   966.5000     95.4256      0.0000    314.0000     73.0721
   966.7500     93.0072      0.0000    314.0000     73.6625
   967.0000     91.8254      0.0000    314.0000     73.7311
   967.2500     91.3363      0.0000    314.0000     73.5249
   967.5000     91.0364      0.0000    314.0000     73.1799
   967.7500     90.7174      0.0000    314.0000     72.8126
   968.0000     90.3978      0.0000    314.0000     72.6069
   968.2500     90.5193      0.0000    314.0000     72.6728
   968.5000     91.9542      0.0000    314.0000     73.0164
   968.7500     95.2197      0.0000    314.0000     73.6686
   969.0000     99.4740      0.0000    314.0000     74.5921
   969.2500    102.6740      0.0000    314.0000     75.5134
   969.5000    103.0881      0.0000    314.0000     76.1194
   969.7500    100.6393      0.0000    314.0000     76.3743
   970.0000     96.7711      0.0000    314.0000     76.4627
   970.2500     93.2506      0.0000    314.0000     76.5074
   970.5000     91.2348      0.0000    314.0000     76.5031
   970.7500     91.1039      0.0000    314.0000     76.4625
   971.0000     92.6367      0.0000    314.0000     76.4333
   971.2500     95.2437      0.0000    314.0000     76.3837
   971.5000     98.3088      0.0000    314.0000     76.2465
   971.7500    101.3987      0.0000    314.0000     76.0487
   972.0000    104.1125      0.0000    314.0000     75.9130
   972.2500    105.9168      0.0000    314.0000     75.9567
   972.5000    106.3547      0.0000    314.0000     76.1574
   972.7500    105.4722      0.0000    314.0000     76.3628
   973.0000    103.8619      0.0000    314.0000     76.4742
   973.2500    102.1311      0.0000    314.0000     76.4753
   973.5000    100.3002      0.0000    314.0000     76.3518
   973.7500     97.8605      0.0000    314.0000     76.1322
   974.0000     94.4998      0.0000    314.0000     75.8847
   974.2500     90.6935      0.0000    314.0000     75.6436
   974.5000     87.6031      0.0000    314.0000     75.4269
   974.7500     86.4284      0.0000    314.0000     75.2823
   975.0000     87.6473      0.0000    314.0000     75.2798
   975.2500     90.6848      0.0000    314.0004     75.4232
   975.5000     94.3190      0.0000    314.0046     75.5555
   975.7500     97.4378      0.0000    314.0371     75.3621
   976.0000     99.4532      0.0000    314.1968     74.2119
   976.2500    100.1845      0.0000    314.7120     70.9485
   976.5000     99.6066      0.0000    315.8240     64.9276
   976.7500     97.9640      0.0000    317.4995     58.0417
   977.0000     96.0072      0.0000    319.3963     53.4186
   977.2500     94.5823      0.0000    321.1066     51.1655
   977.5000     93.6479      0.0000    322.2415     49.2808
   977.7500     92.1464      0.0000    322.6312     47.6172
   978.0000     89.3354      0.0000    322.5583     46.8030
   978.2500     85.9506      5.0000    322.3967     46.4689
   978.5000     83.4157      0.0000    322.2914     46.2178
   978.7500     82.0113      0.0000    322.4837     45.9576
   979.0000     80.5769      0.0000    323.7827     45.4406
   979.2500     78.2404      0.0000    327.2540     44.5294
   979.5000     75.8043      0.0000    331.9476     44.2124
   979.7500     75.0034      0.0000    333.5420     46.2079
   980.0000     76.6392      0.0000    329.2029     50.4137
   980.2500     79.6929      0.0000    322.1305     55.3202
   980.5000     82.0819      0.0000    316.9851     60.7886
   980.7500     82.2224      0.0000    314.7075     66.5339
   981.0000     80.0650      0.0000    313.9642     70.6944
   981.2500     76.7637      0.0000    313.7097     72.4525
   981.5000     73.4273      0.0000    313.5588     72.8953
   981.7500     70.3960      0.0000    313.4144     73.1813
   982.0000     67.6796      0.0000    313.2568     73.6697
   982.2500     65.6352      0.0000    313.1180     74.2158
   982.5000     64.8491      0.0000    313.0371     74.6086
   982.7500     65.4704      0.0000    313.0077     74.8571
   983.0000     66.9101      0.0000    313.0010     75.1195
   983.2500     68.3061      0.0000    313.0001     75.4354
   983.5000     69.3102      0.0000    313.0000     75.7011
   983.7500     70.4469      0.0000    313.0000     75.8802
   984.0000     72.5836      0.0000    313.0000     76.0462
   984.2500     75.8683      0.0000    313.0000     76.2277
   984.5000     79.1732      0.0000    313.0000     76.3745
   984.7500     80.8371      0.0000    313.0000     76.4780
   985.0000     80.1963      0.0000    313.0000     76.5985
   985.2500     78.3873      0.0000    313.0000     76.7687
   985.5000     77.3980      0.0000    313.0000     76.9755
   985.7500     78.1495      0.0000    313.0000     77.2273
   986.0000     79.6301      0.0000    313.0000     77.5377
   986.2500     80.0635      0.0000    313.0000     77.8596
   986.5000     78.7398      0.0000    313.0000     78.1126
   986.7500     76.5542      0.0000    313.0000     78.2521
   987.0000     74.9806      0.0000    313.0000     78.3015
   987.2500     74.6759      0.0000    313.0000     78.3277
   987.5000     74.9898      0.0000    313.0000     78.3891
   987.7500     74.7249      0.0000    313.0000     78.5192
   988.0000     73.3488      0.0000    313.0001     78.7201
   988.2500     71.4905      0.0000    313.0010     78.9384
   988.5000     70.3504      0.0000    313.0077     79.0817
   988.7500     70.6665      0.0000    313.0370     79.0948
