~Version Information
VERS.                      2.0: CWLS Log ASCII Standard - VERSION 2.0
WRAP.                       NO: One line per depth step
~Well Information Block
STRT.FT               362.0000: 
STOP.FT               983.0000: 
STEP.FT                 0.1000: 
NULL.                -999.2500: 
COMP.          Pioneer Natural Resources: COMPANY
WELL.             Tomcat 32-10: WELL
FLD.           Purgatoire River: FIELD
LOC.           2286' FNL & 2463' FEL: LOCATION
PROV.                 Colorado: PROVINCE
CNTY.               Las Animas: COUNTRY
SRVC.                Patterson: SERVICE COMPANY
DATE.          Tue Mar 22 11:24:45 2005: LOG DATE
UWI.           05 071 08301 00: UNIQUE WELL ID
~Curve Information Block
DEPT.FT            0 000 00 00: Depth
DCAL.in                       : CDL Caliper
RHOB.g/cc                     : CDL Bulk Density
RHOC.g/cc                     : CDL Density Correction
DPOR.pu                       : CDL Density Porosity
GR.GAPI                       : Gamma Ray
NPOR.pu                       : Neutron Porosity
~Parameter Information Block
~A  Depth       DCAL        RHOB        RHOC        DPOR         GR         NPOR    
# ...
   842.0000      8.0082      2.4205      0.0141     13.9116    107.0966     23.7384
   842.1000      8.0082      2.3725     -0.0423     16.8166    108.2421     23.8114
   842.2000      8.0082      2.3261     -0.0832     19.6288    107.2030     24.0256
   842.3000      8.0087      2.3060     -0.0873     20.8463    105.8982     24.2245
   842.4000      8.0087      2.3169     -0.0514     20.1870    105.9209     24.3537
   842.5000      8.0147      2.3494     -0.0403     18.2189    105.7191     24.4010
   842.6000      8.0147      2.3859      0.0127     16.0037    102.5279     24.3247
   842.7000      8.0147      2.4012      0.0714     15.0784     97.5784     24.3325
   842.8000      8.0014      2.3883      0.0234     15.8605     94.9981     24.5519
   842.9000      8.0014      2.3768      0.0009     16.5557     94.1365     24.7133
   843.0000      7.9886      2.3869      0.0266     15.9432     92.5248     24.5953
   843.1000      7.9886      2.4005      0.0439     15.1184     91.8096     24.2775
   843.2000      7.9886      2.4119      0.0058     14.4324     94.6595     23.8549
   843.3000      7.9732      2.4368      0.0735     12.9185     97.7248     23.4861
   843.4000      7.9732      2.4700      0.0990     10.9101     96.1862     23.1821
   843.5000      7.9569      2.4899      0.1426      9.7045     92.2761     22.9397
   843.6000      7.9569      2.4852      0.1203      9.9906     89.2622     22.9151
   843.7000      7.9569      2.4604      0.0801     11.4906     85.5894     22.9325
   843.8000      7.9270      2.4272      0.0529     13.5009     79.6044     22.6975
   843.9000      7.9270      2.4044     -0.0683     14.8830     73.4382     22.2493
   844.0000      7.9180      2.4149     -0.0181     14.2459     71.6757     21.8869
   844.1000      7.9180      2.4499      0.0432     12.1243     73.1103     21.7842
   844.2000      7.9180      2.4665      0.0725     11.1207     71.9103     21.7446
   844.3000      7.9213      2.4455     -0.0038     12.3916     68.0017     21.5647
   844.4000      7.9213      2.4129      0.0079     14.3719     65.7058     21.5637
   844.5000      7.9339      2.3860      0.0659     15.9978     66.0431     21.9001
   844.6000      7.9339      2.3650     -0.0399     17.2699     67.6019     22.2960
   844.7000      7.9339      2.3573     -0.0529     17.7399     71.0078     22.5062
   844.8000      7.9565      2.3611     -0.0303     17.5098     75.5714     22.3877
   844.9000      7.9565      2.3714     -0.0074     16.8822     77.5412     22.0836
   845.0000      7.9624      2.3874     -0.0107     15.9149     76.2690     21.8830
   845.1000      7.9624      2.3957      0.0226     15.4133     75.1596     21.9492
   845.2000      7.9624      2.3838      0.0203     16.1337     74.5177     22.3714
   845.3000      7.9460      2.3604      0.0168     17.5488     72.0029     22.8044
   845.4000      7.9460      2.3427     -0.0234     18.6222     69.0239     22.7021
   845.5000      7.9547      2.3387      0.0062     18.8646     69.9810     22.0925
   845.6000      7.9547      2.3394      0.0292     18.8263     73.6871     21.5630
   845.7000      7.9547      2.3368     -0.0112     18.9828     75.2813     21.5832
   845.8000      7.9512      2.3431      0.0541     18.6004     75.2203     22.0052
   845.9000      7.9512      2.3701      0.0311     16.9623     76.5823     22.3459
   846.0000      7.9139      2.4118      0.0885     14.4363     79.0989     22.3306
   846.1000      7.9139      2.4525      0.0763     11.9697     78.3657     22.0388
   846.2000      7.9139      2.4788      0.1548     10.3775     73.2455     21.7999
   846.3000      7.9033      2.4831      0.0874     10.1141     68.1246     21.8253
   846.4000      7.9033      2.4697      0.1113     10.9281     67.6938     22.1236
   846.5000      7.9034      2.4462      0.0722     12.3519     72.4850     22.4352
   846.6000      7.9034      2.4188      0.0119     14.0119     77.3635     22.3451
   846.7000      7.9034      2.3938     -0.0444     15.5244     78.1911     21.9150
   846.8000      7.9129      2.3817     -0.0522     16.2631     76.5704     21.7096
   846.9000      7.9129      2.3885     -0.0038     15.8466     75.0885     21.9977
   847.0000      7.9422      2.4032      0.0356     14.9560     74.4666     22.4396
   847.1000      7.9422      2.4090      0.0067     14.6087     76.5666     22.8886
   847.2000      7.9422      2.4008     -0.0208     15.1025     81.1567     23.3744
   847.3000      7.9690      2.3891     -0.0102     15.8146     86.0815     23.5989
   847.4000      7.9690      2.3934     -0.0107     15.5503     90.2823     23.4412
   847.5000      7.9692      2.4239      0.0015     13.7011     89.2705     23.1784
   847.6000      7.9692      2.4627      0.0521     11.3522     81.2633     22.9903
   847.7000      7.9692      2.4841      0.0922     10.0553     74.8307     22.9065
   847.8000      7.9534      2.4930      0.0311      9.5144     74.9107     22.9567
   847.9000      7.9534      2.5041      0.0729      8.8408     77.2353     23.0967
   848.0000      7.9475      2.5056      0.1120      8.7521     79.1347     23.1685
   848.1000      7.9475      2.4892      0.0310      9.7465     80.3245     23.2723
   848.2000      7.9475      2.4655      0.0830     11.1794     82.7516     23.5015
   848.3000      7.9520      2.4381      0.0292     12.8441     87.8489     23.6776
   848.4000      7.9520      2.4160     -0.0249     14.1813     90.6422     23.8539
   848.5000      7.9536      2.4145     -0.0036     14.2703     89.9992     24.0268
   848.6000      7.9536      2.4191      0.0171     13.9926     92.4466     23.9195
   848.7000      7.9536      2.4063      0.0236     14.7705     95.5504     23.6386
   848.8000      7.9930      2.3917     -0.1009     15.6569     91.9163     23.5615
   848.9000      7.9930      2.4012     -0.0120     15.0774     84.4166     23.5563
   849.0000      8.0423      2.4186      0.0573     14.0267     78.9572     23.2594
   849.1000      8.0423      2.4186     -0.0052     14.0244     77.4296     22.8914
   849.2000      8.0423      2.4157     -0.0022     14.1993     78.7448     22.8191
   849.3000      8.0692      2.4267      0.0261     13.5337     81.1790     22.8890
   849.4000      8.0692      2.4334      0.0802     13.1251     82.2053     22.9611
   849.5000      8.0447      2.4234     -0.0224     13.7311     79.2539     23.2956
   849.6000      8.0447      2.4211     -0.0216     13.8711     75.8677     24.0181
   849.7000      8.0447      2.4461      0.0228     12.3551     77.9328     24.9686
   849.8000      8.0588      2.4858      0.0341      9.9541     83.9600     25.9167
   849.9000      8.0588      2.5207      0.0748      7.8356     91.3459     26.5833
   850.0000      8.0752      2.5427      0.0922      6.5006    100.0950     26.7634
   850.1000      8.0752      2.5554      0.0748      5.7343    104.3216     26.6310
   850.2000      8.0752      2.5647      0.1141      5.1668    100.9845     26.7612
   850.3000      8.0283      2.5712      0.1064      4.7787    100.0440     27.5093
   850.4000      8.0283      2.5753      0.1118      4.5286    105.9255     28.4885
   850.5000      7.9702      2.5786      0.0830      4.3280    112.3962     29.1008
   850.6000      7.9702      2.5810      0.0673      4.1826    118.7428     29.3161
   850.7000      7.9702      2.5848      0.0791      3.9511    123.4519     29.4522
   850.8000      7.9381      2.5931      0.0376      3.4512    122.2062     29.5673
   850.9000      7.9381      2.6043      0.0662      2.7674    118.0401     29.5039
   851.0000      7.9613      2.6091      0.0552      2.4758    117.1218     29.2206
   851.1000      7.9613      2.5968      0.0655      3.2263    118.3664     28.8262
   851.2000      7.9613      2.5692      0.0684      4.8955    116.3601     28.5609
   851.3000      7.9692      2.5449      0.0219      6.3680    111.3583     28.4442
   851.4000      7.9692      2.5409      0.0152      6.6102    107.6537     28.4793
   851.5000      7.9516      2.5498      0.0823      6.0714    105.4912     28.7385
