~Version Information
VERS.                      2.0: CWLS Log ASCII Standard - VERSION 2.0
WRAP.                       NO: One line per depth step
~Well Information Block
STRT.FT               801.5000: 
STOP.FT              2513.0000: 
STEP.FT                 0.2500: 
NULL.                -999.2500: 
COMP.          Petrogulf Corporation: COMPANY
WELL.               YWAM 7-32V: WELL
FLD.           Purgatoire River: FIELD
LOC.           2423' FNL & 2412' FEL: LOCATION
PROV.                 Colorado: PROVINCE
CNTY.               Las Animas: COUNTRY
SRVC.                Patterson: SERVICE COMPANY
DATE.          Sun Dec 14 06:58:17 2003: LOG DATE
UWI.                          : UNIQUE WELL ID
~Curve Information Block
DEPT.FT            0 000 00 00: Depth
SP.mV                         : DIL Spontaneous Potential
RILD.Ohm-m                    : DIL Deep Resistivity
RILM.Ohm-m                    : DIL Medium Resistivity
RLL3.Ohm-m                    : DIL Shallow Resistivity
GR.GAPI                       : Gamma Ray
~Parameter Information Block
~A  Depth        SP         RILD        RILM        RLL3         GR     
# ...
  1809.5000   -365.0089     13.2336     13.7984     15.7804    143.5504
  1809.7500   -365.6717     13.1732     13.9005     16.5661    142.5165
  1810.0000   -366.2646     13.0844     13.9763     17.1923    141.6726
  1810.2500   -366.7898     12.9773     13.9930     17.5021    142.0192
  1810.5000   -367.2578     12.8657     13.9340     17.5484    144.3524
  1810.7500   -367.6602     12.7569     13.8015     17.3937    146.7479
  1811.0000   -367.9775     12.6477     13.6123     16.9951    149.9828
  1811.2500   -368.2116     12.5269     13.3904     16.3065    151.1256
  1811.5000   -368.4034     12.3812     13.1598     15.4225    151.6416
  1811.7500   -368.6142     12.1998     12.9384     14.5696    152.2121
  1812.0000   -368.8917     11.9790     12.7330     13.9722    154.9132
  1812.2500   -369.2387     11.7228     12.5374     13.7387    157.7734
  1812.5000   -369.5932     11.4422     12.3358     13.8376    161.5191
  1812.7500   -369.8269     11.1536     12.1103     14.1349    162.2822
  1813.0000   -369.7697     10.8766     11.8515     14.4543    160.2072
  1813.2500   -369.2433     10.6306     11.5651     14.6282    157.4559
  1813.5000   -368.0808     10.4296     11.2704     14.5342    153.0433
  1813.7500   -366.1371     10.2782     10.9934     14.1371    150.4269
  1814.0000   -363.3328     10.1722     10.7574     13.5272    147.0279
  1814.2500   -359.7583     10.1017     10.5768     12.9017    145.0776
  1814.5000   -355.7738     10.0548     10.4566     12.4739    142.7944
  1814.7500   -351.9654     10.0210     10.3942     12.3709    141.7950
  1815.0000   -348.9102      9.9927     10.3832     12.5813    141.1287
  1815.2500   -346.8991      9.9660     10.4160     12.9791    141.2653
  1815.5000   -345.8346      9.9414     10.4852     13.4124    142.3348
  1815.7500   -345.3629      9.9250     10.5835     13.7949    143.5029
  1816.0000   -345.1052      9.9286     10.7019     14.1184    145.5174
  1816.2500   -344.8208      9.9679     10.8290     14.3858    146.7262
  1816.5000   -344.4385     10.0557     10.9537     14.5774    147.7117
  1816.7500   -343.9939     10.1964     11.0726     14.6934    147.4747
  1817.0000   -343.5381     10.3859     11.1953     14.7823    145.6160
  1817.2500   -343.0695     10.6199     11.3426     14.8958    143.6514
  1817.5000   -342.5121     10.9032     11.5386     15.0464    140.4478
  1817.7500   -341.7459     11.2543     11.8042     15.2359    138.5583
  1818.0000   -340.6789     11.6991     12.1552     15.5109    136.5066
  1818.2500   -339.3279     12.2575     12.6043     15.9761    135.7517
  1818.5000   -337.8464     12.9270     13.1622     16.7577    135.1393
  1818.7500   -336.4554     13.6676     13.8379     17.9536    134.3129
  1819.0000   -335.3161     14.4054     14.6364     19.6127    130.8257
  1819.2500   -334.4520     15.0653     15.5559     21.7474    126.7149
  1819.5000   -333.7832     15.6188     16.5844     24.3368    119.3569
  1819.7500   -333.2329     16.1044     17.6948     27.2584    115.1727
  1820.0000   -332.8062     16.5978     18.8408     30.2070    111.6806
  1820.2500   -332.5848     17.1631     19.9544     32.7916    110.9592
  1820.5000   -332.6683     17.8170     20.9521     34.8716    110.4133
  1820.7500   -333.1242     18.5218     21.7509     36.8119    109.5236
  1821.0000   -333.9674     19.2068     22.2853     39.2046    107.3440
  1821.2500   -335.1473     19.8053     22.5183     42.0999    105.9005
  1821.5000   -336.5349     20.2842     22.4451     44.4837    104.9747
  1821.7500   -337.9382     20.6498     22.0985     44.7397    105.8341
  1822.0000   -339.1651     20.9305     21.5556     41.8911    110.0251
  1822.2500   -340.0980     21.1581     20.9308     36.4943    114.7193
  1822.5000   -340.7280     21.3585     20.3516     30.3146    123.7572
  1822.7500   -341.1314     21.5538     19.9290     25.1620    130.2243
  1823.0000   -341.4181     21.7676     19.7393     22.0143    138.7673
  1823.2500   -341.6855     22.0269     19.8236     21.0475    142.8479
  1823.5000   -341.9822     22.3545     20.1971     22.2484    145.9929
  1823.7500   -342.2837     22.7604     20.8588     25.9369    146.0662
  1824.0000   -342.4914     23.2384     21.7953     32.7955    142.8435
  1824.2500   -342.4633     23.7679     22.9786     43.3902    138.3232
  1824.5000   -342.0610     24.3136     24.3586     57.4582    128.6943
  1824.7500   -341.1936     24.8292     25.8572     73.4333    121.3315
  1825.0000   -339.8452     25.2669     27.3680     88.6088    110.3757
  1825.2500   -338.0791     25.5897     28.7651     99.9799    103.6275
  1825.5000   -336.0204     25.7720     29.9189    105.4321     94.9311
  1825.7500   -333.8261     25.7872     30.7106    104.6729     90.5028
  1826.0000   -331.6525     25.6004     31.0409     99.1564     86.6187
  1826.2500   -329.6284     25.1821     30.8366     90.8006     86.0918
  1826.5000   -327.8380     24.5396     30.0692     80.6396     88.3255
  1826.7500   -326.3183     23.7384     28.7839     68.9165     91.5287
  1827.0000   -325.0686     22.8849     27.1163     56.3215     98.0034
  1827.2500   -324.0565     22.0770     25.2652     44.4879    102.8446
  1827.5000   -323.2220     21.3664     23.4331     35.0387    110.4108
  1827.7500   -322.4969     20.7613     21.7746     28.5193    115.9728
  1828.0000   -321.8484     20.2571     20.3816     24.3965    126.3026
  1828.2500   -321.2994     19.8578     19.2950     21.7808    134.8730
  1828.5000   -320.8978     19.5697     18.5252     20.0447    149.1827
  1828.7500   -320.6721     19.3846     18.0663     19.0882    158.3030
  1829.0000   -320.6179     19.2786     17.9038     19.4003    168.9053
  1829.2500   -320.7040     19.2284     18.0143     21.9768    172.8054
  1829.5000   -320.8751     19.2250     18.3597     27.9201    172.7077
  1829.7500   -321.0683     19.2703     18.8799     37.4846    168.7029
  1830.0000   -321.2474     19.3605     19.4938     48.9069    158.4882
  1830.2500   -321.4189     19.4781     20.1153     58.3414    150.6031
  1830.5000   -321.6017     19.5978     20.6807     61.9832    140.2918
  1830.7500   -321.7829     19.6950     21.1666     59.2088    135.6548
  1831.0000   -321.9052     19.7501     21.5786     53.7431    132.0490
  1831.2500   -321.8972     19.7507     21.9202     51.2031    130.6240
  1831.5000   -321.7198     19.7030     22.1643     54.6721    127.1882
  1831.7500   -321.3950     19.6372     22.2519     61.8993    123.2652
  1832.0000   -321.0048     19.5893     22.1228     66.7632    116.2906
  1832.2500   -320.6654     19.5683     21.7604     64.1974    112.9220
  1832.5000   -320.4864     19.5393     21.2159     54.2356    113.2847
  1832.7500   -320.5273     19.4429     20.5864     41.4010    118.0434
  1833.0000   -320.7682     19.2327     19.9641     30.6363    130.2886
  1833.2500   -321.1107     18.8965     19.3960     24.1774    139.1866
  1833.5000   -321.4127     18.4469     18.8766     21.5122    148.5348
  1833.7500   -321.5367     17.9044     18.3693     20.9911    150.5806
  1834.0000   -321.3964     17.2946     17.8376     21.1245    148.7152
  1834.2500   -320.9891     16.6522     17.2673     21.0543    146.4499
  1834.5000   -320.4047     16.0179     16.6700     20.5354    145.1821
  1834.7500   -319.7988     15.4271     16.0714     19.7215    146.7777
  1835.0000   -319.3316     14.9001     15.4972     18.9214    152.2740
  1835.2500   -319.1009     14.4405     14.9638     18.3873    156.6751
  1835.5000   -319.1051     14.0372     14.4773     18.1415    161.7246
  1835.7500   -319.2516     13.6715     14.0375     17.9313    163.0787
  1836.0000   -319.4056     13.3246     13.6419     17.4160    161.8985
  1836.2500   -319.4704     12.9842     13.2883     16.4684    159.4642
  1836.5000   -319.4549     12.6470     12.9749     15.2919    154.6189
  1836.7500   -319.4601     12.3153     12.6998     14.2456    151.3456
  1837.0000   -319.5817     11.9931     12.4601     13.5844    147.2215
  1837.2500   -319.8252     11.6840     12.2504     13.3483    145.1508
