~Version Information
VERS.                      2.0: CWLS Log ASCII Standard - VERSION 2.0
WRAP.                       NO: One line per depth step
~Well Information Block
STRT.FT               846.6000: 
STOP.FT              2609.1000: 
STEP.FT                 0.1000: 
NULL.                -999.2500: 
COMP.          Petrogulf Corporation: COMPANY
WELL.            Lavedure 7-44: WELL
FLD.           Purgatoire River: FIELD
LOC.           969' FSL & 501' FEL: LOCATION
PROV.                 Colorado: PROVINCE
CNTY.               Las Animas: COUNTRY
SRVC.                Patterson: SERVICE COMPANY
DATE.          Sun Dec 07 14:55:17 2003: LOG DATE
UWI.                          : UNIQUE WELL ID
~Curve Information Block
DEPT.FT            0 000 00 00: Depth
DCAL.in                       : CDL Caliper
RHOB.g/cc                     : CDL Bulk Density
RHOC.g/cc                     : CDL Density Correction
DPOR.pu                       : CDL Density Porosity
GR.GAPI                       : Gamma Ray
NPOR.pu                       : Neutron Porosity
~Parameter Information Block
~A  Depth       DCAL        RHOB        RHOC        DPOR         GR         NPOR    
# ...
  1912.2000      8.1714      2.5876      0.1338      3.7833    118.2358     23.2649
  1912.3000      8.1971      2.5914      0.1353      3.5502    119.0710     22.8413
  1912.4000      8.1971      2.5950      0.1352      3.3312    120.1477     22.3773
  1912.5000      8.2171      2.5983      0.1333      3.1346    121.3922     21.8922
  1912.6000      8.2171      2.6010      0.1295      2.9676    122.7305     21.4096
  1912.7000      8.2171      2.6032      0.1239      2.8359    124.0919     20.9552
  1912.8000      8.1882      2.6047      0.1167      2.7433    125.4112     20.5536
  1912.9000      8.1882      2.6056      0.1084      2.6917    126.6333     20.2267
  1913.0000      8.1568      2.6058      0.0993      2.6815    127.7079     19.9918
  1913.1000      8.1568      2.6053      0.0902      2.7114    128.5990     19.8603
  1913.2000      8.1568      2.6041      0.0813      2.7794    129.2849     19.8372
  1913.3000      8.1488      2.6024      0.0733      2.8828    129.7644     19.9214
  1913.4000      8.1488      2.6002      0.0662      3.0194    130.0608     20.1062
  1913.5000      8.1487      2.5974      0.0601      3.1868    130.2215     20.3800
  1913.6000      8.1487      2.5942      0.0551      3.3836    130.3142     20.7281
  1913.7000      8.1487      2.5905      0.0509      3.6089    130.4175     21.1335
  1913.8000      8.1398      2.5863      0.0473      3.8621    130.6096     21.5786
  1913.9000      8.1398      2.5816      0.0441      4.1430    130.9570     22.0465
  1914.0000      8.1266      2.5766      0.0411      4.4511    131.5066     22.5221
  1914.1000      8.1266      2.5710      0.0382      4.7857    132.2854     22.9933
  1914.2000      8.1266      2.5651      0.0353      5.1453    133.2945     23.4512
  1914.3000      8.1140      2.5588      0.0324      5.5278    134.5212     23.8901
  1914.4000      8.1140      2.5521      0.0298      5.9304    135.9453     24.3072
  1914.5000      8.1057      2.5452      0.0275      6.3496    137.5425     24.7022
  1914.6000      8.1057      2.5381      0.0258      6.7817    139.2922     25.0757
  1914.7000      8.1057      2.5308      0.0248      7.2230    141.1768     25.4290
  1914.8000      8.1090      2.5234      0.0248      7.6698    143.1824     25.7631
  1914.9000      8.1090      2.5160      0.0259      8.1188    145.2977     26.0783
  1915.0000      8.1191      2.5087      0.0280      8.5667    147.5070     26.3748
  1915.1000      8.1191      2.5013      0.0311      9.0104    149.7901     26.6519
  1915.2000      8.1191      2.4941      0.0352      9.4465    152.1272     26.9087
  1915.3000      8.1317      2.4871      0.0399      9.8709    154.4963     27.1448
  1915.4000      8.1317      2.4804      0.0451     10.2785    156.8778     27.3597
  1915.5000      8.1441      2.4741      0.0507     10.6627    159.2605     27.5531
  1915.6000      8.1441      2.4682      0.0566     11.0154    161.6354     27.7247
  1915.7000      8.1441      2.4631      0.0629     11.3268    163.9938     27.8734
  1915.8000      8.1436      2.4588      0.0698     11.5862    166.3178     27.9973
  1915.9000      8.1436      2.4556      0.0775     11.7822    168.5675     28.0933
  1916.0000      8.1325      2.4536      0.0863     11.9036    170.6780     28.1567
  1916.1000      8.1325      2.4530      0.0965     11.9406    172.5542     28.1822
  1916.2000      8.1325      2.4539      0.1083     11.8857    174.0753     28.1639
  1916.3000      8.1276      2.4564      0.1214     11.7344    175.1113     28.0962
  1916.4000      8.1276      2.4605      0.1356     11.4861    175.5418     27.9754
  1916.5000      8.1490      2.4661      0.1504     11.1444    175.2741     27.7998
  1916.6000      8.1490      2.4732      0.1649     10.7170    174.2651     27.5705
  1916.7000      8.1490      2.4814      0.1785     10.2154    172.5270     27.2916
  1916.8000      8.2219      2.4907      0.1904      9.6539    170.1295     26.9695
  1916.9000      8.2219      2.5007      0.2003      9.0489    167.1903     26.6122
  1917.0000      8.3132      2.5111      0.2076      8.4174    163.8607     26.2284
  1917.1000      8.3132      2.5217      0.2124      7.7762    160.3035     25.8259
  1917.2000      8.3132      2.5322      0.2148      7.1405    156.6756     25.4110
  1917.3000      8.3052      2.5424      0.2150      6.5236    153.1134     24.9878
  1917.4000      8.3052      2.5521      0.2135      5.9359    149.7173     24.5579
  1917.5000      8.2113      2.5612      0.2106      5.3848    146.5533     24.1210
  1917.6000      8.2113      2.5696      0.2068      4.8752    143.6498     23.6754
  1917.7000      8.2113      2.5772      0.2022      4.4094    141.0066     23.2190
  1917.8000      8.1890      2.5842      0.1971      3.9876    138.6041     22.7501
  1917.9000      8.1890      2.5905      0.1915      3.6088    136.4094     22.2690
  1918.0000      8.2420      2.5960      0.1854      3.2710    134.3861     21.7777
  1918.1000      8.2420      2.6010      0.1787      2.9721    132.4970     21.2810
  1918.2000      8.2420      2.6053      0.1714      2.7096    130.7042     20.7859
  1918.3000      8.2512      2.6091      0.1633      2.4817    128.9657     20.3010
  1918.4000      8.2512      2.6123      0.1546      2.2866    127.2308     19.8359
  1918.5000      8.1812      2.6150      0.1452      2.1231    125.4382     19.3990
  1918.6000      8.1812      2.6172      0.1354      1.9903    123.5201     18.9977
  1918.7000      8.1812      2.6189      0.1253      1.8877    121.4063     18.6358
  1918.8000      8.0727      2.6201      0.1152      1.8149    119.0371     18.3137
  1918.9000      8.0727      2.6208      0.1054      1.7719    116.3712     18.0283
  1919.0000      8.0157      2.6210      0.0961      1.7590    113.3974     17.7723
  1919.1000      8.0157      2.6207      0.0876      1.7767    110.1406     17.5360
  1919.2000      8.0157      2.6199      0.0799      1.8262    106.6574     17.3082
  1919.3000      8.0175      2.6185      0.0731      1.9089    103.0264     17.0777
  1919.4000      8.0175      2.6166      0.0670      2.0268     99.3387     16.8348
  1919.5000      8.0124      2.6140      0.0615      2.1821     95.6795     16.5723
  1919.6000      8.0124      2.6108      0.0566      2.3771     92.1155     16.2868
  1919.7000      8.0124      2.6069      0.0521      2.6138     88.6894     15.9786
  1919.8000      8.0112      2.6023      0.0479      2.8938     85.4119     15.6513
  1919.9000      8.0112      2.5969      0.0440      3.2177     82.2680     15.3114
  1920.0000      8.0354      2.5909      0.0405      3.5847     79.2267     14.9670
  1920.1000      8.0354      2.5841      0.0374      3.9927     76.2500     14.6266
  1920.2000      8.0354      2.5768      0.0348      4.4378     73.3050     14.2979
  1920.3000      8.0466      2.5689      0.0326      4.9142     70.3727     13.9870
  1920.4000      8.0466      2.5607      0.0309      5.4146     67.4516     13.6970
  1920.5000      8.0495      2.5521      0.0296      5.9304     64.5589     13.4280
  1920.6000      8.0495      2.5435      0.0287      6.4517     61.7281     13.1774
  1920.7000      8.0495      2.5350      0.0283      6.9680     58.9975     12.9395
  1920.8000      8.0829      2.5268      0.0283      7.4685     56.4078     12.7076
  1920.9000      8.0829      2.5189      0.0287      7.9429     53.9925     12.4747
  1921.0000      8.1109      2.5117      0.0297      8.3816     51.7738     12.2351
  1921.1000      8.1109      2.5052      0.0312      8.7762     49.7608     11.9858
  1921.2000      8.1109      2.4995      0.0333      9.1198     47.9517     11.7273
  1921.3000      8.1077      2.4948      0.0361      9.4074     46.3337     11.4635
  1921.4000      8.1077      2.4910      0.0394      9.6359     44.8879     11.2017
  1921.5000      8.0948      2.4882      0.0432      9.8043     43.5963     10.9514
  1921.6000      8.0948      2.4864      0.0475      9.9134     42.4392     10.7228
  1921.7000      8.0948      2.4856      0.0520      9.9660     41.4038     10.5255
