~Version Information
VERS.                      2.0: CWLS Log ASCII Standard - VERSION 2.0
WRAP.                       NO: One line per depth step
~Well Information Block
STRT.FT                -9.7500: 
STOP.FT              2566.5000: 
STEP.FT                 0.2500: 
NULL.                -999.2500: 
COMP.          Petrogulf Corporation: COMPANY
WELL.             Valejo 8-12V: WELL
FLD.           Purgatorie River: FIELD
LOC.           1510' FNL & 1460' FWL: LOCATION
CNTY.               Las Animas: COUNTY
SRVC.                         : SERVICE COMPANY
DATE.          Tue Nov 18 14:36:15 2003: LOG DATE
UWI.                          : UNIQUE WELL ID
STAT.                 Colorado: STATE
~Curve Information Block
DEPT.FT            0 000 00 00: Depth
CCL.                          : Casing Collar Locator
TT3.usec                      : CBL 3' Travel Time
AMP3.mV                       : CBL 3' Amplitude
GR.GAPI                       : Gamma Ray
~Parameter Information Block
~A  Depth       CCL         TT3         AMP3         GR     
# ...
  1531.2500      0.0000    790.6334      5.3777    107.7455
  1531.5000      0.0000    781.5995      5.6617    110.5782
  1531.7500      0.0000    774.3674      5.8910    112.1188
  1532.0000      0.0000    769.3983      6.0443    112.1503
  1532.2500      0.0000    767.8288      6.1442    112.6923
  1532.5000      0.0000    771.3862      6.2085    116.0491
  1532.7500      0.0000    779.2886      6.2057    122.6541
  1533.0000      0.0000    788.0812      6.1085    130.6541
  1533.2500      0.0000    795.3570      5.9465    137.2394
  1533.5000      0.0000    801.9811      5.7642    140.4523
  1533.7500      0.0000    809.7369      5.5722    140.1554
  1534.0000      0.0000    817.9453      5.3735    137.8374
  1534.2500      0.0000    823.7249      5.1902    135.7179
  1534.5000      0.0000    825.4006      5.0318    135.5913
  1534.7500      0.0000    824.1540      4.8770    137.9536
  1535.0000      0.0000    821.6677      4.7006    142.0842
  1535.2500      0.0000    817.7861      4.4897    146.8627
  1535.5000      0.0000    812.0646      4.2408    151.2142
  1535.7500      0.0000    806.4810      3.9716    154.0811
  1536.0000      0.0000    804.7438      3.7207    154.8980
  1536.2500      0.0000    808.7214      3.5128    154.3877
  1536.5000      0.0000    815.9127      3.3512    154.0835
  1536.7500      0.0000    820.4886      3.2447    154.6008
  1537.0000      0.0000    817.4872      3.1969    154.9478
  1537.2500      0.0000    807.3311      3.1747    153.8638
  1537.5000      0.0000    796.9860      3.1300    151.2034
  1537.7500      0.0000    795.8394      3.0425    147.5825
  1538.0000      0.0000    808.5499      2.9201    143.3225
  1538.2500      0.0000    830.2523      2.7853    138.4553
  1538.5000      0.0000    849.0581      2.6784    133.6410
  1538.7500      0.0000    854.7585      2.6371    130.3101
  1539.0000      0.0000    845.8699      2.6612    129.3505
  1539.2500      0.0000    828.6707      2.7160    129.9966
  1539.5000      0.0000    810.7084      2.7597    130.6041
  1539.7500      0.0000    796.0856      2.7577    130.2057
  1540.0000      0.0000    785.8727      2.7001    128.7738
  1540.2500      0.0000    780.4534      2.6200    126.6082
  1540.5000      0.0000    779.7495      2.5725    124.3127
  1540.7500      0.0000    782.0127      2.5965    123.0808
  1541.0000      0.0000    784.2787      2.7039    124.0994
  1541.2500      0.0000    784.3705      2.8776    127.3524
  1541.5000      0.0000    782.0127      3.0691    131.3210
  1541.7500      0.0000    778.4760      3.2229    134.1002
  1542.0000      0.0000    775.6671      3.3128    134.7867
  1542.2500      0.0000    774.7192      3.3388    133.8897
  1542.5000      0.0000    774.7673      3.3056    132.7072
  1542.7500      0.0000    773.2911      3.2282    132.4424
  1543.0000      0.0000    768.0928      3.1483    133.7406
  1543.2500      0.0000    759.2944      3.1250    136.6589
  1543.5000      0.0000    749.5383      3.2010    140.9060
  1543.7500      0.0000    742.1116      3.3646    146.0446
  1544.0000      0.0000    739.0222      3.5406    151.3064
  1544.2500      0.0000    740.6472      3.6334    155.4441
  1544.5000      0.0000    746.1084      3.5920    157.2964
  1544.7500      0.0000    753.5692      3.4463    156.5613
  1545.0000      0.0000    761.5775      3.2929    153.7934
  1545.2500      0.0000    771.1902      3.2427    149.6777
  1545.5000      0.0000    785.1244      3.3575    144.3773
  1545.7500      0.0000    803.2160      3.6176    137.5250
  1546.0000      0.0000    820.1846      3.9310    128.8739
  1546.2500      0.0000    829.7408      4.1752    119.0168
  1546.5000      0.0000    830.3290      4.2614    109.4654
  1546.7500      0.0000    825.6543      4.1936    102.0386
  1547.0000      0.0000    820.4894      4.0672     98.0042
  1547.2500      0.0000    817.8167      4.0056     97.3907
  1547.5000      0.0000    819.6014      4.0782     98.9789
  1547.7500      0.0000    827.1311      4.2462    101.0624
  1548.0000      0.0000    839.0492      4.3822    102.2059
  1548.2500      0.0000    851.0483      4.3779    101.4127
  1548.5000      0.0000    858.9790      4.2368     98.2144
  1548.7500      0.0000    861.5341      4.0550     92.9728
  1549.0000      2.0000    860.1318      3.9421     86.9338
  1549.2500      2.0000    857.5905      3.9730     81.9424
  1549.5000      0.0000    856.8273      4.1582     80.0245
  1549.7500      0.0000    859.4824      4.4358     82.4667
  1550.0000      0.0000    864.7629      4.7165     88.6918
  1550.2500      0.0000    869.4273      4.9437     96.3536
  1550.5000      0.0000    869.5931      5.0969    103.0903
  1550.7500      0.0000    863.6422      5.1654    108.3651
  1551.0000      0.0000    853.8677      5.1579    113.6800
  1551.2500      0.0000    844.8462      5.1208    120.8540
  1551.5000      0.0000    839.8644      5.1115    129.7751
  1551.7500      0.0000    838.9846      5.1532    137.9594
  1552.0000      0.0000    840.2180      5.2304    142.7286
  1552.2500      0.0000    841.5452      5.3128    143.6565
  1552.5000      0.0000    841.5785      5.3733    142.4724
  1552.7500      0.0000    839.4953      5.4061    140.8711
  1553.0000      0.0000    835.5351      5.4296    139.0944
  1553.2500      0.0000    831.1533      5.4445    136.5307
  1553.5000      0.0000    827.5068      5.3978    132.8671
  1553.7500      0.0000    824.0158      5.2206    128.3400
  1554.0000      0.0000    819.4881      4.9116    123.5215
  1554.2500      0.0000    814.3557      4.5638    119.4055
  1554.5000      0.0000    810.6285      4.2884    117.2394
  1554.7500      0.0000    809.6846      4.1106    117.5109
  1555.0000      0.0000    810.7263      3.9600    119.1193
  1555.2500      0.0000    811.1293      3.7661    119.8998
  1555.5000      0.0000    808.1611      3.5386    117.9656
  1555.7500      0.0000    801.0970      3.3426    112.5796
  1556.0000      0.0000    792.1247      3.2178    104.2659
  1556.2500      0.0000    784.7521      3.1430     94.5188
  1556.5000      0.0000    781.1546      3.0698     85.2179
  1556.7500      0.0000    781.1513      2.9687     77.7507
  1557.0000      0.0000    783.3853      2.8536     72.3471
  1557.2500      0.0000    786.7174      2.7784     68.3397
  1557.5000      0.0000    790.0338      2.7951     65.2337
  1557.7500      0.0000    791.6875      2.8999     63.4912
  1558.0000      0.0000    790.5347      3.0266     64.1352
  1558.2500      0.0000    787.0837      3.0934     67.5413
  1558.5000      0.0000    782.2425      3.0525     72.7265
  1558.7500      0.0000    775.6521      2.9147     78.0108
  1559.0000      0.0000    766.7267      2.7376     82.3556
  1559.2500      0.0000    756.8408      2.5873     85.8259
  1559.5000      0.0000    749.2631      2.5002     88.9119
  1559.7500      0.0000    746.9050      2.4703     92.0125
  1560.0000      0.0000    750.3740      2.4634     95.5486
  1560.2500      0.0000    757.8435      2.4469     99.6944
  1560.5000      0.0000    766.4317      2.4108    103.5938
  1560.7500      0.0000    773.4811      2.3691    105.4746
  1561.0000      0.0000    776.8313      2.3442    104.2632
  1561.2500      0.0000    775.1273      2.3451    101.1842
  1561.5000      0.0000    768.9875      2.3635     99.2833
  1561.7500      0.0000    761.6613      2.3991    100.8750
  1562.0000      0.0000    757.4780      2.4767    105.3372
  1562.2500      0.0000    759.1591      2.6278    109.6806
  1562.5000      0.0000    766.4904      2.8605    111.4100
  1562.7500      0.0000    777.0301      3.1544    110.7729
  1563.0000      0.0000    787.7727      3.4821    110.3293
  1563.2500      0.0000    796.5884      3.8235    112.5281
  1563.5000      0.0000    802.4667      4.1535    117.7051
  1563.7500      0.0000    804.8631      4.4374    124.4409
  1564.0000      0.0000    803.7388      4.6512    131.5806
  1564.2500      0.0000    800.2910      4.7944    139.1358
  1564.5000      0.0000    796.4985      4.8676    147.0048
