~Version Information
VERS.                      2.0: CWLS Log ASCII Standard - VERSION 2.0
WRAP.                       NO: One line per depth step
~Well Information Block
STRT.FT               830.0000: 
STOP.FT              3122.7000: 
STEP.FT                 0.1000: 
NULL.                -999.2500: 
COMP.          Pioneer Natural Resources: COMPANY
WELL.              Stones 24-8: WELL
FLD.           Purgatoire River: FIELD
LOC.           648' FSL & 2264' FWL: LOCATION
PROV.                 Colorado: PROVINCE
CNTY.               Las Animas: COUNTRY
SRVC.                Patterson: SERVICE COMPANY
DATE.          Wed Jan 19 15:33:00 2005: LOG DATE
UWI.           05 071 07945 00: UNIQUE WELL ID
~Curve Information Block
DEPT.FT            0 000 00 00: Depth
DCAL.in                       : CDL Caliper
RHOB.g/cc                     : CDL Bulk Density
RHOC.g/cc                     : CDL Density Correction
DPOR.pu                       : CDL Density Porosity
NPOR.pu                       : Neutron Porosity
GR.GAPI                       : Gamma Ray
~Parameter Information Block
~A  Depth       DCAL        RHOB        RHOC        DPOR        NPOR         GR     
# ...
  2039.6000      8.0260      1.9974      0.3021     39.5504     29.6561     75.4351
  2039.7000      8.0260      2.1343      0.3366     31.2570     29.5264     89.3940
  2039.8000      8.0163      2.2672      0.3513     23.1972     29.2652    106.8105
  2039.9000      8.0163      2.3755      0.3431     16.6378     29.0526    121.2538
  2040.0000      8.0034      2.4462      0.3012     12.3523     28.9386    127.1697
  2040.1000      8.0034      2.4878      0.2402      9.8283     28.5701    124.9133
  2040.2000      8.0034      2.5200      0.1875      7.8771     28.1322    120.7559
  2040.3000      7.9859      2.5475      0.1697      6.2142     28.0931    120.9830
  2040.4000      7.9859      2.5594      0.1109      5.4925     28.3637    126.8813
  2040.5000      7.9746      2.5546      0.1007      5.7808     28.4243    137.9713
  2040.6000      7.9746      2.5500      0.0737      6.0616     28.2709    149.9497
  2040.7000      7.9746      2.5556      0.0943      5.7224     28.2054    156.0053
  2040.8000      7.9713      2.5585      0.0974      5.5478     28.0402    158.3612
  2040.9000      7.9713      2.5520      0.0506      5.9407     27.5615    157.8561
  2041.0000      7.9712      2.5370      0.0991      6.8477     26.9559    149.4055
  2041.1000      7.9712      2.4986      0.0676      9.1731     26.7845    137.4837
  2041.2000      7.9712      2.4363      0.0183     12.9486     27.5920    133.6544
  2041.3000      7.9697      2.3621      0.0222     17.4499     28.8894    140.4747
  2041.4000      7.9697      2.2697     -0.0161     23.0469     29.6498    147.9810
  2041.5000      7.9662      2.1587     -0.0737     29.7736     29.8406    147.0331
  2041.6000      7.9662      2.0524     -0.1215     36.2159     29.8983    138.8805
  2041.7000      7.9662      1.9741     -0.1110     40.9663     29.9507    129.7623
  2041.8000      7.9603      1.9275     -0.0954     43.7889     30.2026    124.0095
  2041.9000      7.9603      1.9010     -0.0352     45.3929     30.6738    120.2139
  2042.0000      7.9572      1.8847     -0.0278     46.3819     30.9337    116.0200
  2042.1000      7.9572      1.8774      0.0270     46.8242     30.2447    114.6896
  2042.2000      7.9572      1.8738      0.0686     47.0398     28.6833    116.5336
  2042.3000      7.9630      1.8713      0.0762     47.1950     27.1413    116.7308
  2042.4000      7.9630      1.8762      0.1039     46.8977     26.2876    112.6116
  2042.5000      7.9717      1.8877      0.1272     46.1984     26.3649    106.4027
  2042.6000      7.9717      1.8991      0.1063     45.5103     27.1718    100.5901
  2042.7000      7.9717      1.9149      0.1006     44.5532     28.0957     94.0191
  2042.8000      7.9758      1.9479      0.0850     42.5532     28.3664     85.3557
  2042.9000      7.9758      2.0028      0.1151     39.2266     28.1852     79.9546
  2043.0000      7.9735      2.0712      0.1423     35.0805     28.1783     85.4998
  2043.1000      7.9735      2.1427      0.1593     30.7435     28.1961     97.3210
  2043.2000      7.9735      2.2127      0.1980     26.5028     27.9130    103.8527
  2043.3000      7.9687      2.2760      0.2229     22.6694     27.1330    102.1294
  2043.4000      7.9687      2.3192      0.2378     20.0511     26.2185     99.3471
  2043.5000      7.9629      2.3239      0.2383     19.7607     26.3885    102.6836
  2043.6000      7.9629      2.2857      0.1423     22.0813     27.6587    111.0656
  2043.7000      7.9629      2.2178      0.0701     26.1958     28.4482    117.9017
  2043.8000      7.9543      2.1283      0.0308     31.6206     28.4089    119.1197
  2043.9000      7.9543      2.0254     -0.0541     37.8558     28.6640    115.7284
  2044.0000      7.9468      1.9349     -0.1124     43.3373     29.3330    110.5051
  2044.1000      7.9468      1.8692     -0.0588     47.3200     29.6474    104.0482
  2044.2000      7.9468      1.8143     -0.0819     50.6497     29.2193     92.9743
  2044.3000      7.9427      1.7749     -0.0718     53.0356     28.1375     76.3235
  2044.4000      7.9427      1.7816     -0.0265     52.6286     27.2134     60.6264
  2044.5000      7.9418      1.8430      0.0935     48.9069     26.9696     51.5990
  2044.6000      7.9418      1.9306      0.1707     43.6000     27.0296     48.2125
  2044.7000      7.9418      2.0100      0.1932     38.7865     27.1995     47.1155
  2044.8000      7.9418      2.0600      0.2142     35.7585     27.5695     45.7779
  2044.9000      7.9418      2.0753      0.1866     34.8280     28.0654     43.8161
  2045.0000      7.9438      2.0736      0.1591     34.9326     28.1973     41.3750
  2045.1000      7.9438      2.0831      0.1335     34.3592     27.9264     38.1373
  2045.2000      7.9438      2.1199      0.1134     32.1272     27.8319     35.6185
  2045.3000      7.9456      2.1751      0.1095     28.7799     27.4686     37.0656
  2045.4000      7.9456      2.2222      0.1081     25.9270     26.2625     43.0251
  2045.5000      7.9436      2.2436      0.0963     24.6320     25.0299     48.7850
  2045.6000      7.9436      2.2486      0.0599     24.3251     24.6270     49.9245
  2045.7000      7.9436      2.2643      0.0532     23.3765     25.0076     45.7786
  2045.8000      7.9427      2.3001      0.1851     21.2057     25.6055     38.5603
  2045.9000      7.9427      2.3474      0.1770     18.3398     25.7312     32.2549
  2046.0000      7.9462      2.4121      0.1468     14.4199     25.1974     30.5187
  2046.1000      7.9462      2.4916      0.1991      9.6024     24.5841     34.7070
  2046.2000      7.9462      2.5481      0.2197      6.1740     24.2149     42.3873
  2046.3000      7.9494      2.5612      0.0877      5.3788     23.6846     50.7936
  2046.4000      7.9494      2.5650      0.0535      5.1539     22.6962     59.0900
  2046.5000      7.9489      2.5912      0.1195      3.5631     21.8697     65.9329
  2046.6000      7.9489      2.6274      0.1596      1.3689     21.2841     70.4160
  2046.7000      7.9489      2.6497      0.1536      0.0161     20.2587     72.7401
  2046.8000      7.9469      2.6588      0.1044     -0.5308     19.2069     72.0371
  2046.9000      7.9469      2.6716      0.1049     -1.3098     18.7610     68.8633
  2047.0000      7.9462      2.7016      0.0792     -3.1251     18.4858     66.1728
  2047.1000      7.9462      2.7420      0.1294     -5.5755     18.2159     65.0788
  2047.2000      7.9462      2.7707      0.1139     -7.3172     18.3015     65.4483
  2047.3000      7.9470      2.7827      0.0973     -8.0425     18.3891     67.5602
  2047.4000      7.9470      2.7802      0.1418     -7.8889     18.1092     69.8516
  2047.5000      7.9484      2.7577      0.0621     -6.5243     17.7315     70.0648
  2047.6000      7.9484      2.7287      0.0333     -4.7701     17.5962     69.0671
  2047.7000      7.9484      2.7145      0.0405     -3.9094     17.7209     69.2148
  2047.8000      7.9507      2.7171      0.0043     -4.0679     17.7244     67.2584
  2047.9000      7.9507      2.7324      0.0073     -4.9951     17.2817     60.5647
  2048.0000      7.9506      2.7593      0.0350     -6.6213     16.6232     55.4470
  2048.1000      7.9506      2.7952      0.0452     -8.8005     15.9979     55.3675
  2048.2000      7.9506      2.8303      0.1001    -10.9296     15.3179     55.5412
  2048.3000      7.9468      2.8447      0.0945    -11.8019     14.6149     54.9072
  2048.4000      7.9468      2.8289      0.0361    -10.8434     14.1201     57.1887
  2048.5000      7.9434      2.8012      0.0556     -9.1641     14.0184     64.2730
  2048.6000      7.9434      2.7895      0.0316     -8.4559     14.2999     71.6740
  2048.7000      7.9434      2.7971      0.0263     -8.9122     14.7918     72.6427
  2048.8000      7.9455      2.7992      0.0415     -9.0412     15.3910     69.4931
  2048.9000      7.9455      2.7808      0.0390     -7.9254     16.0200     69.7743
  2049.0000      7.9475      2.7625     -0.0117     -6.8177     16.6696     75.0248
  2049.1000      7.9475      2.7661      0.0630     -7.0334     17.3948     78.9754
