~Version Information
VERS.                      2.0: CWLS Log ASCII Standard - VERSION 2.0
WRAP.                       NO: One line per depth step
~Well Information Block
STRT.FT                -7.2500: 
STOP.FT               862.2500: 
STEP.FT                 0.2500: 
NULL.                -999.2500: 
COMP.          Pioneer Natural Resources: COMPANY
WELL.          Santisteven 13-22: WELL
FLD.           Purgatorie River: FIELD
LOC.           1861' FSL & 992' FWL--: LOCATION
PROV.                       CO: PROVINCE
CNTY.               Las Animas: COUNTRY
SRVC.          Patterson Wireline: SERVICE COMPANY
DATE.          Thu Apr 07 09:08:11 2005: LOG DATE
UWI.           05 071 08337 00: UNIQUE WELL ID
~Curve Information Block
DEPT.FT            0 000 00 00: Depth
CCL.                          : Casing Collar Locator
TT3.usec                      : CBL 3' Travel Time
AMP3.mV                       : CBL 3' Amplitude
GR.GAPI                       : Gamma Ray
~Parameter Information Block
~A  Depth       CCL         TT3         AMP3         GR     
    -7.2500   -999.2500   -999.2500   -999.2500   -999.2500
    -7.0000   -999.2500   -999.2500   -999.2500     88.0460
    -6.7500   -999.2500   -999.2500   -999.2500     85.9915
    -6.5000   -999.2500   -999.2500   -999.2500     86.4261
    -6.2500   -999.2500   -999.2500   -999.2500     89.4622
    -6.0000   -999.2500   -999.2500   -999.2500     93.6205
    -5.7500   -999.2500   -999.2500   -999.2500     96.7455
    -5.5000   -999.2500   -999.2500   -999.2500     97.3549
    -5.2500   -999.2500   -999.2500   -999.2500     95.5105
    -5.0000   -999.2500   -999.2500   -999.2500     92.5630
    -4.7500   -999.2500   -999.2500   -999.2500     89.8658
    -4.5000   -999.2500   -999.2500   -999.2500     87.5860
    -4.2500   -999.2500   -999.2500   -999.2500     85.0742
    -4.0000   -999.2500   -999.2500   -999.2500     82.3911
    -3.7500   -999.2500   -999.2500   -999.2500     80.7613
    -3.5000   -999.2500   -999.2500   -999.2500     81.0608
    -3.2500   -999.2500   -999.2500   -999.2500     82.4811
    -3.0000   -999.2500   -999.2500   -999.2500     83.4079
    -2.7500   -999.2500   -999.2500   -999.2500     83.2590
    -2.5000   -999.2500   -999.2500   -999.2500     82.7435
    -2.2500   -999.2500   -999.2500   -999.2500     82.6257
    -2.0000   -999.2500   1167.0000      1.2717     82.9399
    -1.7500   -999.2500   1167.0000      1.2774     83.2246
    -1.5000   -999.2500   1167.0000      1.2780     83.0060
    -1.2500   -999.2500   1167.0000      1.2691     82.1377
    -1.0000   -999.2500   1167.0000      1.2506     80.8285
    -0.7500   -999.2500   1167.0000      1.2284     79.2236
    -0.5000   -999.2500   1167.0000      1.2113     77.0417
    -0.2500   -999.2500   1167.0000      1.2074     73.8732
     0.0000   -999.2500   1167.0000      1.2208     69.7834
     0.2500   -999.2500   1167.0000      1.2467     65.4521
     0.5000   -999.2500   1167.0000      1.2723     61.6770
     0.7500   -999.2500   1167.0000      1.2859     55.7331
     1.0000   -999.2500   1167.0000      1.2865     51.7376
     1.2500   -999.2500   1167.0000      1.2822     46.3406
     1.5000   -999.2500   1167.0000      1.2805     40.6040
     1.7500   -999.2500   1167.0000      1.2836     36.3822
     2.0000   -999.2500   1167.0000      1.2914     35.0675
     2.2500   -999.2500   1167.0000      1.3030     36.8915
     2.5000   -999.2500   1167.0000      1.3145     41.1684
     2.7500   -999.2500   1167.0000      1.3204     46.8726
     3.0000   -999.2500   1167.0000      1.3192     52.9390
     3.2500   -999.2500   1167.0000      1.3162     58.4306
     3.5000      0.0000   1167.0000      1.3189     62.8568
     3.7500      0.0000   1166.9424      1.3327     66.2687
     4.0000      0.0000   1166.5636      1.3668     68.7553
     4.2500      0.0000   1164.6362      1.4687     69.9502
     4.5000      0.0000   1156.9929      1.8228     69.4686
     4.7500      0.0000   1133.3705      2.9270     68.0079
     5.0000      0.0000   1076.4570      5.7298     67.6006
     5.2500      0.0000    969.5375     11.3939     70.0749
     5.5000      0.0000    812.8641     20.4653     75.1679
     5.7500      0.0000    633.7155     31.9730     80.6140
     6.0000      2.0000    473.7812     43.5446     84.2320
     6.2500     -2.0000    362.2305     52.7955     85.5991
     6.5000      0.0000    301.3914     58.7350     85.6628
     6.7500      0.0000    275.4210     61.8861     85.2595
     7.0000      0.0000    266.7617     63.3017     84.4897
     7.2500      0.0000    264.6310     63.5965     83.2489
     7.5000     -2.0000    264.6766     62.6848     81.6821
     7.7500      0.0000    266.0330     60.1599     80.0885
     8.0000      0.0000    269.3204     55.8793     78.8450
     8.2500      0.0000    275.8237     50.2634     78.2928
     8.5000      0.0000    287.7388     44.1009     78.1805
     8.7500      0.0000    309.7609     38.1174     77.4803
     9.0000      0.0000    351.0554     32.7135     75.4532
     9.2500      0.0000    423.3421     27.9960     72.7841
     9.5000      0.0000    532.2671     23.9347     71.0281
     9.7500      0.0000    667.8733     20.4650     70.9290
    10.0000      0.0000    805.1390     17.5099     71.7299
    10.2500      0.0000    916.8526     14.9836     72.0657
    10.5000      0.0000    988.2892     12.8158     71.2397
    10.7500      0.0000   1022.3828     10.9825     69.7951
    11.0000      0.0000   1033.1304      9.5085     69.1450
    11.2500      0.0000   1033.7346      8.4272     70.5134
    11.5000      0.0000   1029.5796      7.7297     73.8997
    11.7500      0.0000   1021.2841      7.3493     78.0131
    12.0000      0.0000   1012.0898      7.1928     81.3631
    12.2500      0.0000   1008.7575      7.1783     83.3314
    12.5000      0.0000   1014.1859      7.2471     83.9657
    12.7500      0.0000   1022.2097      7.3576     83.0898
    13.0000      0.0000   1022.9387      7.4791     80.3438
    13.2500      0.0000   1013.8784      7.5947     76.1377
    13.5000      0.0000   1004.6691      7.7040     71.9427
    13.7500      0.0000   1009.6238      7.8226     69.4662
    14.0000      0.0000   1034.8712      7.9733     69.6832
    14.2500      0.0000   1072.2834      8.1678     72.3233
    14.5000      0.0000   1104.9150      8.3916     75.9767
    14.7500      0.0000   1117.5985      8.6072     79.0121
    15.0000      0.0000   1104.0626      8.7760     80.6726
    15.2500      0.0000   1068.4573      8.8762     81.1610
    15.5000      0.0000   1022.8155      8.9037     80.8046
    15.7500      0.0000    980.9003      8.8653     79.5859
    16.0000      0.0000    951.2187      8.7736     77.5480
    16.2500      0.0000    934.5743      8.6418     75.1955
    16.5000      0.0000    927.0353      8.4793     73.2170
    16.7500      0.0000    923.6588      8.2967     71.9650
    17.0000      0.0000    920.2693      8.1101     71.4352
    17.2500      0.0000    914.8218      7.9414     71.6733
    17.5000      0.0000    908.5322      7.8099     72.8772
    17.7500      0.0000    904.6238      7.7236     75.0176
    18.0000      0.0000    904.9897      7.6722     77.6211
    18.2500      0.0000    908.3813      7.6326     80.0402
    18.5000      0.0000    911.9678      7.5842     81.9148
    18.7500      0.0000    914.0496      7.5242     83.4255
    19.0000      0.0000    914.6951      7.4686     85.1163
    19.2500      0.0000    914.1320      7.4384     87.3254
    19.5000      0.0000    911.6163      7.4433     89.6781
    19.7500      0.0000    906.4352      7.4777     91.1680
    20.0000      0.0000    899.4730      7.5266     90.9170
    20.2500      0.0000    893.1142      7.5729     88.9648
    20.5000      0.0000    889.6192      7.6017     86.1715
    20.7500      0.0000    889.7112      7.6058     83.2605
    21.0000      0.0000    892.3082      7.5878     80.1677
    21.2500      0.0000    895.2285      7.5558     76.3517
    21.5000      0.0000    896.3856      7.5172     71.4140
    21.7500      0.0000    894.8732      7.4772     65.3283
    22.0000      0.0000    891.3092      7.4403     58.5463
    22.2500      0.0000    887.2485      7.4082     52.1230
    22.5000      0.0000    884.1024      7.3785     47.3328
    22.7500      0.0000    882.3752      7.3483     44.8454
    23.0000      0.0000    881.6993      7.3207     44.4739
    23.2500      0.0000    881.3157      7.3070     45.6586
    23.5000      0.0000    880.4115      7.3239     47.8624
    23.7500      0.0000    878.1454      7.3856     50.7065
    24.0000      0.0000    873.8334      7.4929     54.2534
    24.2500      0.0000    867.8207      7.6298     59.0396
    24.5000      0.0000    862.4011      7.7736     65.3216
    24.7500      0.0000    861.0762      7.9063     72.2938
    25.0000      0.0000    865.8864      8.0161     78.4027
    25.2500      0.0000    875.4362      8.0981     82.4007
    25.5000      0.0000    885.7788      8.1575     83.9189
    25.7500      0.0000    893.0336      8.2075     83.2862
    26.0000      0.0000    895.4869      8.2600     81.2743
