~Version Information
VERS.                      2.0: CWLS Log ASCII Standard - VERSION 2.0
WRAP.                       NO: One line per depth step
~Well Information Block
STRT.FT               523.0000: 
STOP.FT              1709.0000: 
STEP.FT                 0.1000: 
NULL.                -999.2500: 
COMP.          Evergreen Operating Corporation: COMPANY
WELL.            Rimrock 14-29: WELL
FLD.           Purgatorie River: FIELD
LOC.           945' FSL & 604' FWL: LOCATION
PROV.                 Colorado: PROVINCE
CNTY.               Las Animas: COUNTRY
SRVC.                         : SERVICE COMPANY
DATE.          Tue Sep 21 04:15:40 2004: LOG DATE
UWI.           05 071 08136 00: UNIQUE WELL ID
~Curve Information Block
DEPT.FT            0 000 00 00: Depth
DCAL.in                       : CDL Caliper
RHOB.g/cc                     : CDL Bulk Density
RHOC.g/cc                     : CDL Density Correction
DPOR.pu                       : CDL Density Porosity
GR.GAPI                       : Gamma Ray
NPOR.pu                       : Neutron Porosity
~Parameter Information Block
~A  Depth       DCAL        RHOB        RHOC        DPOR         GR         NPOR    
# ...
  1223.8000      7.8379      2.5893      0.0417      3.6766    125.8072     24.5161
  1223.9000      7.8379      2.6010      0.0629      2.9692    128.2323     24.3768
  1224.0000      7.8213      2.5847      0.0381      3.9565    127.0073     24.5049
  1224.1000      7.8213      2.5578      0.0063      5.5853    121.9816     24.4637
  1224.2000      7.8213      2.5482      0.0050      6.1676    115.1532     24.4700
  1224.3000      7.8424      2.5630      0.0173      5.2746    110.1366     24.6414
  1224.4000      7.8424      2.5814      0.0501      4.1600    109.4847     24.5568
  1224.5000      7.8491      2.5849      0.0149      3.9474    112.2475     24.2737
  1224.6000      7.8491      2.5753      0.0252      4.5262    114.4327     24.2939
  1224.7000      7.8491      2.5595      0.0299      5.4875    113.3592     24.6917
  1224.8000      7.8443      2.5407      0.0009      6.6235    112.8119     25.1560
  1224.9000      7.8443      2.5245     -0.0065      7.6077    118.0976     25.4670
  1225.0000      7.8365      2.5213     -0.0291      7.7982    125.1675     25.7111
  1225.1000      7.8365      2.5361      0.0128      6.9016    125.4320     26.0094
  1225.2000      7.8365      2.5552      0.0567      5.7439    121.8530     26.1435
  1225.3000      7.8322      2.5633      0.0019      5.2541    121.7399     25.8604
  1225.4000      7.8322      2.5624      0.0173      5.3101    121.9622     25.3401
  1225.5000      7.8457      2.5608      0.0157      5.4088    119.3369     25.1441
  1225.6000      7.8457      2.5614      0.0193      5.3697    116.4155     25.3290
  1225.7000      7.8457      2.5595      0.0536      5.4853    115.1049     25.5751
  1225.8000      7.8405      2.5492      0.0369      6.1067    115.1228     25.9823
  1225.9000      7.8405      2.5356      0.0072      6.9350    114.5145     26.4888
  1226.0000      7.8683      2.5298      0.0045      7.2858    113.8785     26.7631
  1226.1000      7.8683      2.5382     -0.0115      6.7759    114.5917     26.8522
  1226.2000      7.8683      2.5542      0.0340      5.8075    115.1762     26.9896
  1226.3000      7.8708      2.5602      0.0677      5.4413    116.4559     27.0668
  1226.4000      7.8708      2.5483      0.0259      6.1657    119.3547     26.8940
  1226.5000      7.8401      2.5292      0.0037      7.3241    120.8909     26.4741
  1226.6000      7.8401      2.5198      0.0145      7.8919    119.0098     26.2170
  1226.7000      7.8401      2.5303      0.0120      7.2529    115.3191     26.5733
  1226.8000      7.8503      2.5561      0.0601      5.6916    111.0866     26.9860
  1226.9000      7.8503      2.5827      0.0263      4.0787    106.6507     26.6439
  1227.0000      7.8459      2.6003      0.0236      3.0100    104.3470     25.7706
  1227.1000      7.8459      2.6054      0.0641      2.7049    103.8976     24.9810
  1227.2000      7.8459      2.6000      0.0728      3.0333    102.8699     24.5152
  1227.3000      7.8248      2.5916      0.0404      3.5392    101.6782     24.1666
  1227.4000      7.8248      2.5825      0.0103      4.0894    101.5802     23.6521
  1227.5000      7.8570      2.5699      0.0206      4.8519    101.7568     22.9733
  1227.6000      7.8570      2.5531      0.0004      5.8753    100.6636     22.3407
  1227.7000      7.8570      2.5339     -0.0426      7.0372    100.1134     22.0733
  1227.8000      7.8735      2.5118     -0.0028      8.3737    103.2365     22.3887
  1227.9000      7.8735      2.4790      0.0354     10.3637    108.6134     23.1213
  1228.0000      7.8470      2.4412     -0.0323     12.6557    112.5881     23.8476
  1228.1000      7.8470      2.4181     -0.0067     14.0562    115.3252     24.3377
  1228.2000      7.8470      2.4112     -0.0039     14.4704    119.5947     24.7028
  1228.3000      7.8440      2.4125     -0.0370     14.3929    124.6937     24.9993
  1228.4000      7.8440      2.4284     -0.0368     13.4296    127.0360     25.1951
  1228.5000      7.8711      2.4611      0.0269     11.4508    126.5016     25.3002
  1228.6000      7.8711      2.4902      0.0954      9.6830    125.5971     25.3262
  1228.7000      7.8711      2.5073      0.1005      8.6471    123.9888     25.2636
  1228.8000      7.8514      2.5303      0.1561      7.2516    122.7474     25.1328
  1228.9000      7.8514      2.5665      0.2014      5.0612    122.9958     24.9150
  1229.0000      7.8504      2.5998      0.2147      3.0423    124.0844     24.5820
  1229.1000      7.8504      2.6144      0.2285      2.1605    127.9772     24.3585
  1229.2000      7.8504      2.6118      0.1785      2.3138    132.6063     24.3236
  1229.3000      7.8559      2.6064      0.1637      2.6416    130.3513     24.4241
  1229.4000      7.8559      2.6045      0.1324      2.7584    122.6132     24.8588
  1229.5000      7.8539      2.6007      0.1274      2.9856    119.6871     25.4732
  1229.6000      7.8539      2.5853      0.1234      3.9227    122.8690     25.7452
  1229.7000      7.8539      2.5532      0.0604      5.8655    123.0087     25.8426
  1229.8000      7.8559      2.5145      0.0291      8.2140    118.0933     26.0924
  1229.9000      7.8559      2.4868      0.0646      9.8893    114.1207     26.1163
  1230.0000      7.8731      2.4822      0.0399     10.1675    115.5368     25.4936
  1230.1000      7.8731      2.4984      0.0771      9.1857    119.7658     24.5061
  1230.2000      7.8731      2.5192      0.0969      7.9291    121.6231     23.8629
  1230.3000      7.8383      2.5386      0.0657      6.7489    121.3109     23.7906
  1230.4000      7.8383      2.5650      0.0741      5.1498    119.2516     23.8286
  1230.5000      7.8405      2.5907      0.1579      3.5928    115.2335     23.6964
  1230.6000      7.8405      2.5990      0.1097      3.0915    109.7096     23.6807
  1230.7000      7.8405      2.5960      0.1134      3.2740    102.4328     23.8063
  1230.8000      7.8442      2.6021      0.0871      2.9020     96.3173     23.6547
  1230.9000      7.8442      2.6172      0.1532      1.9893     94.4895     23.2631
  1231.0000      7.8291      2.6209      0.1173      1.7628     96.0011     22.8579
  1231.1000      7.8291      2.6083      0.1119      2.5285     97.7613     22.3061
  1231.2000      7.8291      2.5892      0.0650      3.6844     94.7505     21.5997
  1231.3000      7.8496      2.5755      0.0613      4.5134     84.3461     20.9786
  1231.4000      7.8496      2.5713      0.0725      4.7694     72.4153     20.7900
  1231.5000      7.8738      2.5661      0.0849      5.0871     67.9869     21.0173
  1231.6000      7.8738      2.5505      0.0612      6.0276     72.8625     21.0881
  1231.7000      7.8738      2.5301      0.0249      7.2690     77.6455     20.6852
  1231.8000      7.8556      2.5132      0.0333      8.2901     76.2598     20.3219
  1231.9000      7.8556      2.5028     -0.0068      8.9190     72.8166     20.4998
  1232.0000      7.8961      2.5010      0.0182      9.0305     70.4741     20.9063
  1232.1000      7.8961      2.5069      0.0079      8.6741     68.7080     20.9036
  1232.2000      7.8961      2.5123      0.0347      8.3435     68.1981     20.4785
  1232.3000      7.8836      2.5073      0.0158      8.6502     68.2109     19.9990
  1232.4000      7.8836      2.4945      0.0169      9.4212     68.8815     19.5344
  1232.5000      7.8763      2.4897      0.0233      9.7140     72.7683     19.2135
  1232.6000      7.8763      2.4987      0.0203      9.1706     77.1545     19.2519
  1232.7000      7.8763      2.5101      0.0675      8.4809     77.5021     19.5055
  1232.8000      7.8592      2.5149      0.0503      8.1852     74.3399     19.6961
  1232.9000      7.8592      2.5157      0.0688      8.1365     70.9740     19.7701
  1233.0000      7.8687      2.5119      0.0551      8.3708     67.7447     19.6425
  1233.1000      7.8687      2.5068      0.0081      8.6797     62.6227     19.1540
  1233.2000      7.8687      2.5088      0.0385      8.5584     56.9052     18.7126
  1233.3000      7.8516      2.5123      0.0853      8.3480     53.6578     18.8264
