~Version Information
VERS.                      2.0: CWLS Log ASCII Standard - VERSION 2.0
WRAP.                       NO: One line per depth step
~Well Information Block
STRT.FT               546.0000: 
STOP.FT              1771.5000: 
STEP.FT                 0.1000: 
NULL.                -999.2500: 
COMP.          Petrogulf Corporation: COMPANY
WELL.             McLeod 9-42R: WELL
FLD.           Purgatorie River: FIELD
LOC.           1748' FNL & 372' FEL: LOCATION
PROV.                 Colorado: PROVINCE
CNTY.               Las Animas: COUNTRY
SRVC.                Patterson: SERVICE COMPANY
DATE.          Tue Aug 16 11:11:38 2005: LOG DATE
UWI.                071 08092 : UNIQUE WELL ID
~Curve Information Block
DEPT.FT            0 000 00 00: Depth
DCAL.in                       : CDL Caliper
RHOB.g/cc                     : CDL Bulk Density
RHOC.g/cc                     : CDL Density Correction
DPOR.pu                       : CDL Density Porosity
GR.GAPI                       : Gamma Ray
NPOR.pu                       : Neutron Porosity
~Parameter Information Block
~A  Depth       DCAL        RHOB        RHOC        DPOR         GR         NPOR    
# ...
   862.8000      8.0160      2.4459      0.0543     12.3692     55.3728     19.8316
   862.9000      8.0160      2.4559      0.0677     11.7632     58.8216     19.5244
   863.0000      8.0149      2.4759      0.0701     10.5514     61.5136     19.4796
   863.1000      8.0149      2.4856      0.1308      9.9613     62.9596     19.9320
   863.2000      8.0149      2.4724      0.0964     10.7612     63.4266     20.5610
   863.3000      8.0053      2.4486      0.0892     12.2053     63.8791     20.7022
   863.4000      8.0053      2.4326      0.0487     13.1739     64.1826     20.4161
   863.5000      7.9864      2.4310      0.0609     13.2701     62.8407     20.3101
   863.6000      7.9864      2.4360      0.0973     12.9689     59.8311     20.4312
   863.7000      7.9864      2.4383      0.0670     12.8307     57.0903     20.2278
   863.8000      7.9901      2.4418      0.0396     12.6179     55.8746     19.5291
   863.9000      7.9901      2.4468      0.0835     12.3164     55.9995     19.1921
   864.0000      8.0156      2.4439      0.0465     12.4890     56.9337     19.6631
   864.1000      8.0156      2.4380      0.0047     12.8477     57.9126     20.3445
   864.2000      8.0156      2.4348      0.0609     13.0403     58.6562     20.6435
   864.3000      8.0138      2.4289      0.0541     13.4010     60.5674     20.5651
   864.4000      8.0138      2.4268      0.0053     13.5302     63.0330     20.4873
   864.5000      8.0297      2.4391      0.0184     12.7791     63.4908     20.3582
   864.6000      8.0297      2.4541      0.0771     11.8715     62.6139     20.0527
   864.7000      8.0297      2.4590      0.0408     11.5740     62.4878     19.9429
   864.8000      8.0206      2.4627      0.0332     11.3541     63.2989     20.1248
   864.9000      8.0206      2.4678      0.0713     11.0443     64.2337     20.2531
   865.0000      8.0110      2.4673      0.0423     11.0722     64.3178     20.3673
   865.1000      8.0110      2.4686      0.0303     10.9943     64.1651     20.4919
   865.2000      8.0110      2.4776      0.0492     10.4466     64.8306     20.0087
   865.3000      8.0103      2.4832      0.0349     10.1095     66.4071     19.1072
   865.4000      8.0103      2.4764      0.0417     10.5209     67.5851     18.9919
   865.5000      8.0321      2.4626      0.0478     11.3573     66.5309     19.5539
   865.6000      8.0321      2.4522      0.0253     11.9870     64.6516     19.6973
   865.7000      8.0321      2.4481      0.0334     12.2370     64.3910     19.1672
   865.8000      8.0339      2.4440      0.0526     12.4829     64.1207     18.7076
   865.9000      8.0339      2.4358      0.0285     12.9843     60.9956     18.9610
   866.0000      8.0344      2.4262      0.0126     13.5657     55.8681     19.2263
   866.1000      8.0344      2.4178      0.0637     14.0744     52.2836     18.5431
   866.2000      8.0344      2.4128      0.0349     14.3747     51.2852     17.4415
   866.3000      8.0275      2.4176      0.0454     14.0863     51.5034     17.0520
   866.4000      8.0275      2.4318      0.0496     13.2259     51.9959     17.4214
   866.5000      8.0141      2.4463      0.0781     12.3441     51.7887     17.5885
   866.6000      8.0141      2.4572      0.0659     11.6869     51.0993     17.1500
   866.7000      8.0141      2.4668      0.0877     11.1048     51.3530     16.7270
   866.8000      8.0158      2.4706      0.1022     10.8739     52.4572     16.7415
   866.9000      8.0158      2.4618      0.1062     11.4042     52.4368     17.1301
   867.0000      8.0191      2.4417      0.0871     12.6235     51.1221     17.7177
   867.1000      8.0191      2.4163      0.0528     14.1607     50.2237     18.1221
   867.2000      8.0191      2.3961      0.0436     15.3865     49.2876     18.3101
   867.3000      7.9956      2.3907      0.0116     15.7141     47.0137     18.5263
   867.4000      7.9956      2.4001      0.0585     15.1472     44.3623     18.4118
   867.5000      8.0064      2.4169      0.0414     14.1293     42.9159     17.5676
   867.6000      8.0064      2.4361      0.0222     12.9661     42.4383     16.7184
   867.7000      8.0064      2.4470      0.0943     12.3037     42.4457     16.5988
   867.8000      8.0170      2.4377      0.0827     12.8640     43.5264     16.8359
   867.9000      8.0170      2.4226      0.0387     13.7841     44.6769     17.0334
   868.0000      8.0160      2.4266      0.0397     13.5408     44.2123     17.4210
   868.1000      8.0160      2.4496      0.0552     12.1468     42.1596     17.7661
   868.2000      8.0160      2.4712      0.1134     10.8383     40.6046     17.5507
   868.3000      8.0175      2.4737      0.0853     10.6830     41.5911     17.1497
   868.4000      8.0175      2.4552      0.1022     11.8072     44.7763     17.1369
   868.5000      8.0132      2.4273      0.0552     13.4994     47.3971     17.4464
   868.6000      8.0132      2.4053      0.0392     14.8276     46.7607     17.8578
   868.7000      8.0132      2.3997      0.0049     15.1705     44.6560     18.5870
   868.8000      8.0174      2.4110      0.0348     14.4861     45.7133     19.3602
   868.9000      8.0174      2.4290      0.0610     13.3942     50.7656     19.2941
   869.0000      8.0242      2.4452      0.0555     12.4124     55.6533     18.5307
   869.1000      8.0242      2.4578      0.0741     11.6469     58.0789     18.0559
   869.2000      8.0242      2.4655      0.0492     11.1838     59.4923     18.3079
   869.3000      8.0133      2.4683      0.0545     11.0115     60.9204     18.6834
   869.4000      8.0133      2.4734      0.0676     10.7006     61.7070     18.3923
   869.5000      8.0110      2.4884      0.0689      9.7921     61.8581     18.0559
   869.6000      8.0110      2.5084      0.0942      8.5803     62.7252     18.7223
   869.7000      8.0110      2.5212      0.0930      7.8050     64.7528     19.9692
   869.8000      8.0156      2.5205      0.0849      7.8460     66.6776     20.9099
   869.9000      8.0156      2.5063      0.0826      8.7065     66.3851     21.6403
   870.0000      8.0206      2.4825      0.0742     10.1505     64.1803     22.2145
   870.1000      8.0206      2.4604      0.0287     11.4905     62.6000     22.1920
   870.2000      8.0206      2.4503      0.0163     12.1019     62.0576     21.7192
   870.3000      8.0057      2.4455      0.0579     12.3952     60.2159     21.3463
   870.4000      8.0057      2.4354      0.0232     13.0072     55.3569     21.2700
   870.5000      8.0064      2.4232      0.0399     13.7470     49.2415     21.0690
   870.6000      8.0064      2.4119      0.0456     14.4307     45.7112     20.4946
   870.7000      8.0064      2.4038      0.0261     14.9185     45.9380     19.7330
   870.8000      8.0251      2.4088      0.0158     14.6187     47.6098     18.9393
   870.9000      8.0251      2.4240      0.0615     13.6968     48.8912     18.3494
   871.0000      8.0112      2.4313      0.0585     13.2539     49.4300     17.9591
   871.1000      8.0112      2.4252      0.0632     13.6236     49.3949     17.4408
   871.2000      8.0112      2.4158      0.0554     14.1955     49.3852     16.8854
   871.3000      8.0139      2.4097      0.0693     14.5638     49.1089     16.4942
   871.4000      8.0139      2.4070      0.0314     14.7300     48.3482     16.1912
   871.5000      8.0306      2.4071      0.0630     14.7192     48.4287     16.2304
   871.6000      8.0306      2.4134      0.0272     14.3368     49.4247     16.6919
   871.7000      8.0306      2.4332      0.0351     13.1409     49.9195     17.2348
   871.8000      8.0251      2.4625      0.0761     11.3648     49.1527     17.6785
   871.9000      8.0251      2.4804      0.1368     10.2778     47.9454     17.8442
   872.0000      8.0057      2.4775      0.0650     10.4573     47.2669     17.8979
   872.1000      8.0057      2.4721      0.0562     10.7828     47.0783     18.2842
   872.2000      8.0057      2.4743      0.0926     10.6482     47.1982     18.7256
   872.3000      8.0029      2.4728      0.0871     10.7421     48.7732     18.4686
