~Version Information
VERS.                      2.0: CWLS Log ASCII Standard - VERSION 2.0
WRAP.                       NO: One line per depth step
~Well Information Block
STRT.FT               506.1000: 
STOP.FT              2140.0000: 
STEP.FT                 0.1000: 
NULL.                -999.2500: 
COMP.          Petrogulf Corporation: COMPANY
WELL.            Montoya 1-44R: WELL
FLD.           Purgatorie River: FIELD
LOC.           658' FSL & 1052' FWL: LOCATION
CNTY.               Las Animas: COUNTY
SRVC.                         : SERVICE COMPANY
DATE.          Tue Nov 16 04:33:40 2004: LOG DATE
UWI.           05 071 08239 00: UNIQUE WELL ID
STAT.                 Colorado: STATE
~Curve Information Block
DEPT.FT            0 000 00 00: Depth
DCAL.in                       : CDL Caliper
RHOB.g/cc                     : CDL Bulk Density
RHOC.g/cc                     : CDL Density Correction
DPOR.pu                       : CDL Density Porosity
GR.GAPI                       : Gamma Ray
NPOR.pu                       : Neutron Porosity
~Parameter Information Block
~A  Depth       DCAL        RHOB        RHOC        DPOR         GR         NPOR    
# ...
  1821.3000      7.8793      2.4740      0.0502     10.6656     59.7098     17.6781
  1821.4000      7.8793      2.4655      0.0349     11.1820     63.5102     17.6202
  1821.5000      7.8910      2.4608      0.0560     11.4673     69.4126     17.5090
  1821.6000      7.8910      2.4598      0.0588     11.5253     72.7332     17.5610
  1821.7000      7.8910      2.4682      0.0548     11.0157     72.1831     17.8353
  1821.8000      7.9077      2.4897      0.1108      9.7174     70.0591     18.4020
  1821.9000      7.9077      2.5125      0.1251      8.3354     66.7903     18.3815
  1822.0000      7.9114      2.5221      0.1257      7.7508     62.9460     17.6032
  1822.1000      7.9114      2.5177      0.1085      8.0188     62.5748     17.2228
  1822.2000      7.9114      2.5171      0.0817      8.0519     66.6410     17.4974
  1822.3000      7.9002      2.5338      0.1025      7.0408     70.0794     17.7348
  1822.4000      7.9002      2.5554      0.1194      5.7344     70.1707     17.5536
  1822.5000      7.8860      2.5647      0.1154      5.1726     69.9890     17.2238
  1822.6000      7.8860      2.5580      0.1140      5.5750     71.1675     17.2122
  1822.7000      7.8860      2.5451      0.0692      6.3586     71.0834     17.8315
  1822.8000      7.8779      2.5371      0.0486      6.8395     68.8016     18.7904
  1822.9000      7.8779      2.5300      0.0966      7.2725     67.3804     19.5019
  1823.0000      7.8739      2.5194      0.0542      7.9179     70.7093     19.9293
  1823.1000      7.8739      2.5173      0.0437      8.0399     78.8449     20.2529
  1823.2000      7.8739      2.5241      0.0925      7.6299     87.2934     20.4801
  1823.3000      7.8631      2.5212      0.0736      7.8068     93.0588     20.2913
  1823.4000      7.8631      2.5060      0.0435      8.7271     96.7363     19.4412
  1823.5000      7.8511      2.4939     -0.0008      9.4626     98.3362     18.4258
  1823.6000      7.8511      2.4883      0.0828      9.8024     97.4890     17.8907
  1823.7000      7.8511      2.4817      0.0585     10.2015     97.5704     17.8347
  1823.8000      7.8527      2.4786      0.0724     10.3865     99.4157     17.8765
  1823.9000      7.8527      2.4872      0.0649      9.8690    100.4621     18.1424
  1824.0000      7.8616      2.5058      0.0833      8.7398     99.9970     19.1031
  1824.1000      7.8616      2.5287      0.0885      7.3524    100.1566     20.4538
  1824.2000      7.8616      2.5490      0.1027      6.1213    105.8669     21.2108
  1824.3000      7.8766      2.5613      0.1149      5.3735    114.4955     21.3541
  1824.4000      7.8766      2.5703      0.0615      4.8327    120.0960     21.3494
  1824.5000      7.9042      2.5783      0.0653      4.3476    125.5369     21.2672
  1824.6000      7.9042      2.5736      0.1213      4.6309    132.2073     20.9451
  1824.7000      7.9042      2.5571      0.0510      5.6323    135.0572     20.1613
  1824.8000      7.9251      2.5463      0.0517      6.2832    134.2555     18.7592
  1824.9000      7.9251      2.5461      0.0325      6.2996    132.9355     17.1991
  1825.0000      7.9253      2.5560      0.0108      5.6977    128.6973     16.4110
  1825.1000      7.9253      2.5844      0.0491      3.9734    120.6581     16.2830
  1825.2000      7.9253      2.6246      0.0589      1.5402    113.0257     16.3069
  1825.3000      7.9064      2.6507      0.1148     -0.0436    106.3754     16.5539
  1825.4000      7.9064      2.6534      0.1079     -0.2055    100.9445     16.9470
  1825.5000      7.8750      2.6481      0.0925      0.1171    101.5336     17.0247
  1825.6000      7.8750      2.6463      0.1044      0.2226    104.7141     16.6640
  1825.7000      7.8750      2.6482      0.1085      0.1071    106.2379     16.0602
  1825.8000      7.8503      2.6489      0.1259      0.0693    110.7316     15.2360
  1825.9000      7.8503      2.6360      0.0950      0.8462    120.2951     14.5960
  1826.0000      7.8507      2.6067      0.0454      2.6260    126.3087     14.8561
  1826.1000      7.8507      2.5805      0.0090      4.2101    122.2437     15.7646
  1826.2000      7.8507      2.5752      0.0680      4.5309    116.9420     16.5356
  1826.3000      7.8672      2.5874      0.0522      3.7963    118.1156     17.1324
  1826.4000      7.8672      2.6030      0.0824      2.8472    119.8888     17.3379
  1826.5000      7.8884      2.6037      0.1117      2.8084    116.4962     16.9603
  1826.6000      7.8884      2.5853      0.0364      3.9211    111.0796     16.4907
  1826.7000      7.8884      2.5658      0.0395      5.1006    108.4686     16.1825
  1826.8000      7.9032      2.5570      0.0157      5.6357    111.9010     16.2184
  1826.9000      7.9032      2.5552      0.0303      5.7483    117.9539     16.7700
  1827.0000      7.9072      2.5571      0.0532      5.6308    118.4179     17.3724
  1827.1000      7.9072      2.5669      0.0290      5.0365    112.0826     17.8383
  1827.2000      7.9072      2.5789      0.1025      4.3104    106.5234     18.2752
  1827.3000      7.9117      2.5781      0.0895      4.3559    106.6488     18.2760
  1827.4000      7.9117      2.5698      0.0388      4.8576    109.6470     17.6636
  1827.5000      7.9154      2.5671      0.0642      5.0217    111.6003     16.8615
  1827.6000      7.9154      2.5657      0.0617      5.1076    109.9682     16.2439
  1827.7000      7.9154      2.5650      0.0231      5.1533    105.1590     15.6954
  1827.8000      7.9098      2.5767      0.0459      4.4442    101.3370     15.2403
  1827.9000      7.9098      2.6004      0.0979      3.0070    100.9917     15.2682
  1828.0000      7.9006      2.6233      0.0560      1.6153    101.0666     15.9311
  1828.1000      7.9006      2.6370      0.0754      0.7851     98.4944     16.8465
  1828.2000      7.9006      2.6352      0.0729      0.8993     95.3704     17.4535
  1828.3000      7.8995      2.6166      0.0717      2.0253     95.6009     17.7227
  1828.4000      7.8995      2.5946      0.0103      3.3567     98.3671     17.9205
  1828.5000      7.9099      2.5872      0.0224      3.8089    100.7937     18.1424
  1828.6000      7.9099      2.5940      0.0425      3.3967    104.5765     17.9643
  1828.7000      7.9099      2.6025      0.0462      2.8770    113.4845     17.0984
  1828.8000      7.9212      2.6028      0.0537      2.8585    125.2756     16.5599
  1828.9000      7.9212      2.5898      0.0555      3.6455    133.6844     17.1472
  1829.0000      7.9400      2.5746      0.0175      4.5713    138.4878     18.3639
  1829.1000      7.9400      2.5770      0.0070      4.4270    142.1192     19.1821
  1829.2000      7.9400      2.5861      0.0656      3.8702    145.1810     19.0381
  1829.3000      7.9583      2.5760      0.0195      4.4851    146.2824     18.5315
  1829.4000      7.9583      2.5530      0.0303      5.8800    143.0333     18.5921
  1829.5000      7.9589      2.5385      0.0333      6.7605    138.8645     19.2720
  1829.6000      7.9589      2.5373      0.0602      6.8276    139.7824     20.6519
  1829.7000      7.9589      2.5365      0.0478      6.8767    143.3980     22.5867
  1829.8000      7.9526      2.5251      0.0221      7.5680    142.2983     24.0941
  1829.9000      7.9526      2.5114     -0.0152      8.4022    139.5153     24.7309
  1830.0000      7.9419      2.5115      0.0161      8.3965    143.1230     24.7393
  1830.1000      7.9419      2.5257      0.0459      7.5331    150.1156     24.5724
  1830.2000      7.9419      2.5437      0.0120      6.4396    151.8481     24.5622
  1830.3000      7.9247      2.5654      0.0613      5.1261    147.1024     24.5186
  1830.4000      7.9247      2.5857      0.1166      3.8957    142.1467     24.3574
  1830.5000      7.9138      2.5893      0.0959      3.6770    139.9230     24.4308
  1830.6000      7.9138      2.5807      0.0831      4.1983    139.2887     24.6152
  1830.7000      7.9138      2.5804      0.0799      4.2180    140.8488     24.0844
  1830.8000      7.9249      2.5852      0.1262      3.9273    143.1768     23.0599
