~Version Information
VERS.                      2.0: CWLS Log ASCII Standard - VERSION 2.0
WRAP.                       NO: One line per depth step
~Well Information Block
STRT.FT               770.0000: 
STOP.FT              1718.7000: 
STEP.FT                 0.1000: 
NULL.                -999.2500: 
COMP.          Pioneer Natural Resources: COMPANY
WELL.            Salty 42-6 Tr: WELL
FLD.           Purgatoire River: FIELD
LOC.           2409' FNL & 599' FEL: LOCATION
PROV.                 Colorado: PROVINCE
CNTY.               Las Animas: COUNTRY
SRVC.                Patterson: SERVICE COMPANY
DATE.          Thu Dec 16 09:30:36 2004: LOG DATE
UWI.           05 071 08238 00: UNIQUE WELL ID
~Curve Information Block
DEPT.FT            0 000 00 00: Depth
DCAL.in                       : CDL Caliper
RHOB.g/cc                     : CDL Bulk Density
RHOC.g/cc                     : CDL Density Correction
DPOR.pu                       : CDL Density Porosity
NPOR.pu                       : Neutron Porosity
GR.GAPI                       : Gamma Ray
~Parameter Information Block
~A  Depth       DCAL        RHOB        RHOC        DPOR        NPOR         GR     
# ...
  1077.2000      8.2792      2.4959      0.3589      9.3378     12.6342     80.6175
  1077.3000      8.1422      2.5757      0.3129      4.5032     14.6068     81.5194
  1077.4000      8.1422      2.5843      0.3070      3.9827     17.1347     84.0568
  1077.5000      8.0425      2.5296      0.0899      7.2939     19.5741     86.9610
  1077.6000      8.0425      2.4717      0.0367     10.8070     21.6757     89.2803
  1077.7000      8.0425      2.4489      0.0709     12.1908     23.2397     92.7681
  1077.8000      8.0044      2.4485      0.0685     12.2150     24.0363     97.2876
  1077.9000      8.0044      2.4512      0.0419     12.0467     24.2323     98.6715
  1078.0000      7.9995      2.4527      0.0397     11.9552     24.4899     96.8707
  1078.1000      7.9995      2.4534      0.0364     11.9181     25.2530     98.1251
  1078.2000      7.9995      2.4587      0.0280     11.5932     25.9475    104.4897
  1078.3000      8.0018      2.4784      0.0496     10.4023     25.8218    112.5611
  1078.4000      8.0018      2.5077      0.0980      8.6244     25.4144    120.9932
  1078.5000      8.0046      2.5260      0.1136      7.5133     25.5120    128.4054
  1078.6000      8.0046      2.5211      0.1060      7.8133     25.7556    132.4104
  1078.7000      8.0046      2.4982      0.0547      9.2014     25.9039    132.9974
  1078.8000      8.0078      2.4575      0.0980     11.6697     26.3184    129.2266
  1078.9000      8.0078      2.3958      0.0402     15.4080     26.6875    121.9983
  1079.0000      8.0110      2.3401     -0.0197     18.7817     26.4830    118.4040
  1079.1000      8.0110      2.3300     -0.0151     19.3918     25.9153    122.4865
  1079.2000      8.0110      2.3660      0.0460     17.2093     25.1866    128.5872
  1079.3000      8.0106      2.4098      0.0739     14.5553     24.3276    132.9084
  1079.4000      8.0106      2.4337      0.0433     13.1083     23.6055    135.9538
  1079.5000      8.0042      2.4454      0.0459     12.3987     23.1398    135.0749
  1079.6000      8.0042      2.4632      0.0837     11.3242     22.8355    129.6202
  1079.7000      8.0042      2.4946      0.1189      9.4164     22.5350    122.9351
  1079.8000      7.9972      2.5364      0.1825      6.8848     22.2413    119.8288
  1079.9000      7.9972      2.5742      0.2009      4.5960     22.2719    122.5017
  1080.0000      7.9912      2.6007      0.1531      2.9885     22.8221    127.1682
  1080.1000      7.9912      2.6176      0.1329      1.9632     23.8202    126.9362
  1080.2000      7.9912      2.6225      0.1247      1.6696     24.7037    119.9636
  1080.3000      7.9890      2.6225      0.0667      1.6678     24.8155    111.8849
  1080.4000      7.9890      2.6326      0.0580      1.0525     24.5923    106.7582
  1080.5000      7.9929      2.6622      0.0086     -0.7382     24.9350    103.4928
  1080.6000      7.9929      2.7008      0.1271     -3.0791     25.7259    101.0243
  1080.7000      7.9929      2.7124      0.1281     -3.7823     26.2859     98.3332
  1080.8000      7.9972      2.6862      0.0635     -2.1951     26.5532     96.6275
  1080.9000      7.9972      2.6616      0.0085     -0.7051     26.8883     96.6729
  1081.0000      7.9992      2.6677      0.0636     -1.0699     27.4196     96.1944
  1081.1000      7.9992      2.6855      0.0929     -2.1519     27.9084     96.1972
  1081.2000      7.9992      2.6928      0.0774     -2.5938     28.0419     99.0831
  1081.3000      7.9978      2.6931      0.0741     -2.6147     27.8499    101.1162
  1081.4000      7.9978      2.6976      0.0656     -2.8864     27.5672     98.2916
  1081.5000      7.9937      2.7041      0.1110     -3.2816     27.2860     96.0371
  1081.6000      7.9937      2.6952      0.1140     -2.7411     27.2591    100.2762
  1081.7000      7.9937      2.6646      0.0731     -0.8819     27.7585    106.0903
  1081.8000      7.9819      2.6326      0.0488      1.0537     28.2061    106.4082
  1081.9000      7.9819      2.6150      0.0500      2.1211     27.9096    102.2896
  1082.0000      7.9733      2.5987      0.0697      3.1076     27.1768     99.7191
  1082.1000      7.9733      2.5706      0.0032      4.8115     26.6495    100.9305
  1082.2000      7.9733      2.5422      0.0023      6.5309     26.3770    102.5562
  1082.3000      7.9839      2.5268      0.0069      7.4670     26.0346    103.2685
  1082.4000      7.9839      2.5195      0.0463      7.9095     25.5317    104.8288
  1082.5000      7.9945      2.5116      0.0695      8.3898     25.1380    107.0614
  1082.6000      7.9945      2.5059      0.0548      8.7331     25.0774    107.7219
  1082.7000      7.9945      2.5055      0.1138      8.7600     25.0460    106.3160
  1082.8000      7.9968      2.5115      0.0933      8.3935     24.7005    105.8540
  1082.9000      7.9968      2.5383      0.0808      6.7689     24.4822    109.6877
  1083.0000      8.0023      2.5860      0.1537      3.8813     24.7911    118.3191
  1083.1000      8.0023      2.6215      0.1819      1.7277     25.1632    126.6445
  1083.2000      8.0023      2.6173      0.1959      1.9800     25.0424    127.3647
  1083.3000      8.0150      2.5828      0.1261      4.0745     24.5143    122.8804
  1083.4000      8.0150      2.5414      0.1016      6.5822     24.0454    119.1335
  1083.5000      8.0320      2.4915      0.1035      9.6034     23.8871    118.2379
  1083.6000      8.0320      2.4267      0.0432     13.5304     24.1514    119.2731
  1083.7000      8.0320      2.3667     -0.0121     17.1672     24.6079    120.2327
  1083.8000      8.0490      2.3184      0.0085     20.0941     24.6837    120.4119
  1083.9000      8.0490      2.2536      0.0046     24.0221     24.2805    120.7426
  1084.0000      8.0641      2.1653     -0.0492     29.3729     23.5409    124.0806
  1084.1000      8.0641      2.0883     -0.0835     34.0432     22.5895    131.4918
  1084.2000      8.0641      2.0464     -0.0566     36.5806     21.6360    138.1783
  1084.3000      8.0833      2.0336     -0.0342     37.3566     20.5361    138.1052
  1084.4000      8.0833      2.0394      0.0276     37.0080     19.2359    133.6837
  1084.5000      8.1068      2.0610      0.0404     35.6971     18.1058    131.4253
  1084.6000      8.1068      2.0867      0.1844     34.1409     17.2227    133.7931
  1084.7000      8.1068      2.0915      0.1932     33.8495     16.4646    138.2010
  1084.8000      8.1193      2.0732      0.1386     34.9596     15.9049    139.5836
  1084.9000      8.1193      2.0536      0.1082     36.1433     15.5710    135.8218
  1085.0000      8.1183      2.0415      0.0973     36.8770     15.2465    129.3011
  1085.1000      8.1183      2.0296      0.0863     37.5974     15.0132    123.1056
  1085.2000      8.1183      2.0175      0.0266     38.3318     15.3089    120.4206
  1085.3000      8.1152      2.0115      0.0409     38.6953     15.8980    123.6391
  1085.4000      8.1152      2.0132      0.0334     38.5959     16.1286    128.3783
  1085.5000      8.1163      2.0209      0.0780     38.1247     15.9844    129.2430
  1085.6000      8.1163      2.0398      0.0766     36.9817     15.9223    130.2530
  1085.7000      8.1163      2.0779      0.1296     34.6757     16.1840    135.1745
  1085.8000      8.1173      2.1305      0.1745     31.4848     16.6340    138.3516
  1085.9000      8.1173      2.1803      0.1741     28.4643     17.0608    133.9416
  1086.0000      8.1138      2.2139      0.1292     26.4306     17.3775    126.7663
  1086.1000      8.1138      2.2337      0.1116     25.2288     17.7274    124.8769
  1086.2000      8.1138      2.2529      0.0988     24.0675     18.1541    127.3175
  1086.3000      8.1091      2.2793      0.0991     22.4640     18.4225    127.3549
  1086.4000      8.1091      2.3069      0.1250     20.7917     18.6030    122.1994
  1086.5000      8.1086      2.3289      0.1123     19.4576     19.0116    115.7713
  1086.6000      8.1086      2.3518      0.0830     18.0741     19.6244    113.2256
  1086.7000      8.1086      2.3768      0.1230     16.5588     20.0515    115.7211
