~Version Information
VERS.                      2.0: CWLS Log ASCII Standard - VERSION 2.0
WRAP.                       NO: One line per depth step
~Well Information Block
STRT.FT               456.0000: 
STOP.FT              1703.0000: 
STEP.FT                 0.2500: 
NULL.                -999.2500: 
COMP.          Pioneer Natural Resources: COMPANY
WELL.                Mead 11-9: WELL
FLD.           Purgatoire River: FIELD
LOC.           1127' FNL & 668' FWL: LOCATION
PROV.                 Colorado: PROVINCE
CNTY.               Las Animas: COUNTRY
SRVC.                Patterson: SERVICE COMPANY
DATE.          Fri Feb 18 16:14:34 2005: LOG DATE
UWI.           05 071 08160 00: UNIQUE WELL ID
~Curve Information Block
DEPT.FT            0 000 00 00: Depth
SN.Ohm-m                      : IEL Short Normal
SP.mV                         : IEL Spontaneous Potential
DIR.Ohm-m                     : IEL Induction Resistivity
GR.GAPI                       : Gamma Ray
~Parameter Information Block
~A  Depth        SN          SP         DIR          GR     
# ...
   858.0000     13.5672   -218.3998     11.3548    113.0552
   858.2500     12.8378   -218.3520     10.7825    117.8212
   858.5000     12.1303   -218.3550     10.2484    124.5409
   858.7500     11.4267   -218.3905      9.7561    128.7330
   859.0000     10.7677   -218.4388      9.3077    134.1691
   859.2500     10.1935   -218.4893      8.9040    136.6583
   859.5000      9.7370   -218.5440      8.5446    138.0927
   859.7500      9.4227   -218.6131      8.2276    137.8470
   860.0000      9.2233   -218.7097      7.9478    137.0441
   860.2500      9.0820   -218.8495      7.6976    136.8274
   860.5000      8.9743   -219.0549      7.4699    136.9658
   860.7500      8.8933   -219.3490      7.2611    136.9588
   861.0000      8.8112   -219.7386      7.0717    136.3975
   861.2500      8.7042   -220.2004      6.9040    135.9097
   861.5000      8.5852   -220.6878      6.7602    135.8707
   861.7500      8.4881   -221.1534      6.6422    136.5250
   862.0000      8.4314   -221.5653      6.5523    138.1116
   862.2500      8.3964   -221.9043      6.4938    139.2835
   862.5000      8.3549   -222.1551      6.4701    141.1989
   862.7500      8.3259   -222.3112      6.4843    142.6442
   863.0000      8.3476   -222.3889      6.5373    144.7952
   863.2500      8.3926   -222.4253      6.6286    145.8434
   863.5000      8.3836   -222.4571      6.7567    146.0273
   863.7500      8.2775   -222.4932      6.9200    144.8272
   864.0000      8.0829   -222.5060      7.1158    141.0194
   864.2500      7.8445   -222.4454      7.3391    137.5993
   864.5000      7.6344   -222.2678      7.5820    132.2350
   864.7500      7.5246   -221.9610      7.8372    129.0174
   865.0000      7.5926   -221.5526      8.1034    125.3022
   865.2500      7.9840   -221.0981      8.3911    123.7890
   865.5000      8.9015   -220.6578      8.7213    123.2829
   865.7500     10.4385   -220.2736      9.1205    124.3490
   866.0000     12.3904   -219.9570      9.6130    128.3148
   866.2500     14.3196   -219.6963     10.2174    132.1055
   866.5000     15.8937   -219.4803     10.9453    136.9572
   866.7500     17.0875   -219.3190     11.7982    137.5151
   867.0000     18.0401   -219.2439     12.7620    131.9117
   867.2500     18.8519   -219.2877     13.7996    124.0796
   867.5000     19.5780   -219.4585     14.8516    108.7924
   867.7500     20.3389   -219.7267     15.8518     98.1711
   868.0000     21.3519   -220.0351     16.7537     84.4705
   868.2500     22.8586   -220.3263     17.5511     78.0576
   868.5000     25.0020   -220.5695     18.2775     73.4852
   868.7500     27.6466   -220.7698     18.9893     73.4510
   869.0000     30.3426   -220.9580     19.7476     75.9899
   869.2500     32.6157   -221.1696     20.6098     78.0338
   869.5000     34.2667   -221.4236     21.6195     79.8136
   869.7500     35.3678   -221.7120     22.7850     79.6568
   870.0000     36.0808   -222.0004     24.0472     77.6403
   870.2500     36.5381   -222.2415     25.2639     75.7480
   870.5000     36.8576   -222.3940     26.2443     73.3799
   870.7500     37.1798   -222.4412     26.8330     72.5370
   871.0000     37.6125   -222.3972     26.9860     72.2840
   871.2500     38.1273   -222.2990     26.7782     72.5423
   871.5000     38.5081   -222.1886     26.3473     73.3875
   871.7500     38.4269   -222.0964     25.8320     74.3801
   872.0000     37.6424   -222.0337     25.3377     77.0870
   872.2500     36.1986   -221.9960     24.9228     80.0937
   872.5000     34.4498   -221.9701     24.5936     86.3366
   872.7500     32.8425   -221.9384     24.3092     90.7628
   873.0000     31.6144   -221.8823     24.0001     95.1770
   873.2500     30.6671   -221.7899     23.6036     95.2950
   873.5000     29.7076   -221.6562     23.1003     90.7726
   873.7500     28.5116   -221.4731     22.5251     85.6650
   874.0000     27.1043   -221.2201     21.9475     78.0789
   874.2500     25.7778   -220.8739     21.4348     74.9461
   874.5000     24.9352   -220.4316     21.0229     74.8395
   874.7500     24.8016   -219.9218     20.7055     77.5660
   875.0000     25.2095   -219.3948     20.4421     83.8826
   875.2500     25.7205   -218.9030     20.1792     88.3640
   875.5000     25.9789   -218.4868     19.8756     94.2910
   875.7500     25.8820   -218.1639     19.5205     97.4302
   876.0000     25.4958   -217.9190     19.1371    100.6828
   876.2500     24.9382   -217.7119     18.7714    101.9319
   876.5000     24.3211   -217.5069     18.4719    103.0479
   876.7500     23.7167   -217.2977     18.2721    103.7593
   877.0000     23.1511   -217.1030     18.1792    105.2084
   877.2500     22.6294   -216.9476     18.1730    106.4055
   877.5000     22.1629   -216.8520     18.2160    108.2666
   877.7500     21.7795   -216.8273     18.2721    109.3515
   878.0000     21.5135   -216.8722     18.3269    110.4884
   878.2500     21.3777   -216.9724     18.3983    110.8833
   878.5000     21.3486   -217.1049     18.5226    110.9968
   878.7500     21.3852   -217.2445     18.7249    110.7938
   879.0000     21.4570   -217.3690     18.9956    110.0773
   879.2500     21.5597   -217.4634     19.2921    109.2591
   879.5000     21.7144   -217.5197     19.5665    107.3139
   879.7500     21.9319   -217.5380     19.7959    105.5483
   880.0000     22.1678   -217.5308     19.9837    102.8179
   880.2500     22.3787   -217.5184     20.1336    101.4562
   880.5000     22.5935   -217.5127     20.2231    100.1996
   880.7500     22.8101   -217.5025     20.2048     99.2915
   881.0000     22.9055   -217.4570     20.0387     96.8677
   881.2500     22.7800   -217.3434     19.7219     94.8330
   881.5000     22.4822   -217.1426     19.2862     93.0057
   881.7500     22.1273   -216.8563     18.7663     93.5540
   882.0000     21.7737   -216.5096     18.1733     96.9557
   882.2500     21.3797   -216.1455     17.4957    100.0392
   882.5000     20.8280   -215.8061     16.7191    104.4502
   882.7500     20.0260   -215.5099     15.8456    107.1781
   883.0000     19.0227   -215.2471     14.9003    111.9349
   883.2500     17.9799   -214.9980     13.9269    115.9985
   883.5000     17.0028   -214.7571     12.9788    122.9722
   883.7500     16.0708   -214.5430     12.1057    127.4516
   884.0000     15.1294   -214.3848     11.3442    132.9333
   884.2500     14.1594   -214.2971     10.7120    135.6222
   884.5000     13.1577   -214.2666     10.2103    138.3317
   884.7500     12.1309   -214.2626      9.8301    139.4202
   885.0000     11.1554   -214.2618      9.5609    140.5949
   885.2500     10.3983   -214.2592      9.3963    141.5525
   885.5000     10.0299   -214.2637      9.3334    143.4846
   885.7500     10.1285   -214.2899      9.3674    144.5552
   886.0000     10.6480   -214.3536      9.4855    144.1528
   886.2500     11.4175   -214.4651      9.6658    141.6943
   886.5000     12.1924   -214.6185      9.8821    133.9844
   886.7500     12.7903   -214.7884     10.1130    126.1285
   887.0000     13.2374   -214.9397     10.3514    111.1395
   887.2500     13.8041   -215.0440     10.6073    100.2697
   887.5000     14.9026   -215.0924     10.9051     85.5910
   887.7500     16.9290   -215.0868     11.2734     78.3024
   888.0000     20.0082   -215.0189     11.7351     71.9257
   888.2500     23.5913   -214.8661     12.3018     70.3612
   888.5000     26.4360   -214.6185     12.9728     71.2199
   888.7500     27.4878   -214.3023     13.7338     73.7572
   889.0000     26.7967   -213.9736     14.5525     80.3754
   889.2500     25.2777   -213.6861     15.3727     86.2817
   889.5000     23.7833   -213.4640     16.1204     96.1971
   889.7500     22.6439   -213.2984     16.7235    102.7168
   890.0000     21.8179   -213.1652     17.1335    110.9631
   890.2500     21.1707   -213.0449     17.3346    114.6532
   890.5000     20.6192   -212.9296     17.3404    116.7560
   890.7500     20.1488   -212.8178     17.1903    116.1996
   891.0000     19.7697   -212.7082     16.9478    114.1317
   891.2500     19.4697   -212.5947     16.6879    112.9665
