~Version Information
VERS.                      2.0: CWLS Log ASCII Standard - VERSION 2.0
WRAP.                       NO: One line per depth step
~Well Information Block
STRT.FT                -4.0000: 
STOP.FT              2464.0000: 
STEP.FT                 0.2500: 
NULL.                -999.2500: 
COMP.          Pioneer Natural Resources: COMPANY
WELL.            Rancher 12-35: WELL
FLD.           Purgatorie River: FIELD
LOC.           2131' FNL & 297' FWL--: LOCATION
PROV.                       CO: PROVINCE
CNTY.               Las Animas: COUNTRY
SRVC.                         : SERVICE COMPANY
DATE.          Wed Oct 20 13:17:53 2004: LOG DATE
UWI.                          : UNIQUE WELL ID
~Curve Information Block
DEPT.FT            0 000 00 00: Depth
GR.GAPI                       : Gamma Ray
CCL.                          : Casing Collar Locator
TT3.usec                      : CBL 3' Travel Time
AMP3.mV                       : CBL 3' Amplitude
~Parameter Information Block
~A  Depth        GR         CCL         TT3         AMP3    
# ...
   163.5000    109.5246      0.0000    817.3008      4.2186
   163.7500    108.3737      0.0000    821.4304      4.3112
   164.0000    110.8770      0.0000    824.0022      4.4357
   164.2500    115.5898      0.0000    824.5457      4.5385
   164.5000    119.2886      0.0000    822.9553      4.5918
   164.7500    119.0052      0.0000    819.9138      4.5968
   165.0000    113.8520      0.0000    817.4249      4.5655
   165.2500    105.1572      0.0000    818.0195      4.5103
   165.5000     95.1774      0.0000    821.8825      4.4429
   165.7500     85.9349      0.0000    825.6080      4.3754
   166.0000     78.9779      0.0000    825.9157      4.3170
   166.2500     75.3099      0.0000    824.0749      4.2685
   166.5000     74.8249      0.0000    824.3157      4.2167
   166.7500     75.9938      0.0000    828.1454      4.1417
   167.0000     76.7690      0.0000    832.4393      4.0355
   167.2500     76.2764      0.0000    833.3736      3.9116
   167.5000     75.5785      0.0000    830.8094      3.7918
   167.7500     76.5632      0.0000    828.4192      3.6869
   168.0000     80.0256      0.0000    829.6981      3.5924
   168.2500     84.9415      0.0000    833.7680      3.4983
   168.5000     89.5407      0.0000    835.7650      3.3982
   168.7500     92.8648      0.0000    831.8158      3.2958
   169.0000     95.1208      0.0000    822.0773      3.2023
   169.2500     96.5934      0.0000    808.3723      3.1226
   169.5000     96.6304      0.0000    791.7850      3.0468
   169.7500     94.3443      0.0000    774.4515      2.9599
   170.0000     90.3545      0.0000    760.9294      2.8563
   170.2500     86.9304      0.0000    754.8688      2.7425
   170.5000     85.8149      0.0000    755.1282      2.6310
   170.7500     86.3422      0.0000    757.4058      2.5354
   171.0000     86.0778      0.0000    760.1861      2.4675
   171.2500     83.1639      0.0000    767.7795      2.4462
   171.5000     77.9938      0.0000    786.0927      2.5100
   171.7500     72.8094      0.0000    815.2714      2.6972
   172.0000     69.7052      0.0000    846.9702      2.9892
   172.2500     69.0006      0.0000    869.0502      3.2951
   172.5000     69.4090      0.0000    873.3551      3.5205
   172.7500     69.4683      0.0000    860.3770      3.6402
   173.0000     68.6569      0.0000    838.1554      3.6884
   173.2500     67.3697     -2.0000    817.0724      3.7069
   173.5000     66.1678      0.0000    804.6857      3.7206
   173.7500     65.1425      0.0000    803.9671      3.7427
   174.0000     63.8253      0.0000    813.9659      3.7885
   174.2500     61.7208      0.0000    830.2663      3.8830
   174.5000     59.0654      0.0000    845.8694      4.0356
   174.7500     56.9297      0.0000    854.9096      4.1887
   175.0000     56.1767      0.0000    857.1927      4.2294
   175.2500     56.2424      0.0000    858.3583      4.1028
   175.5000     55.3690      0.0000    864.7356      3.8895
   175.7500     52.3451      0.0000    877.7820      3.7216
   176.0000     47.8040      0.0000    893.2145      3.6537
   176.2500     43.7237      0.0000    904.9730      3.6532
   176.5000     41.8678      0.0000    909.5127      3.6745
   176.7500     42.7095      0.0000    907.0549      3.6964
   177.0000     45.6188      0.0000    900.5653      3.7110
   177.2500     49.8605      0.0000    893.9048      3.7174
   177.5000     55.3620      0.0000    889.2571      3.7253
   177.7500     62.6140      0.0000    885.5416      3.7478
   178.0000     71.8438      0.0000    880.1560      3.7825
   178.2500     82.1057      0.0000    872.5839      3.8019
   178.5000     91.2141      0.0000    865.3181      3.7690
   178.7500     97.1624      0.0000    861.3411      3.6726
   179.0000     99.9165      0.0000    861.3405      3.5481
   179.2500    101.2602      0.0000    862.9320      3.4560
   179.5000    102.5542      0.0000    862.1540      3.4383
   179.7500    103.3603      0.0000    856.8621      3.4925
   180.0000    102.5974      0.0000    849.6223      3.5826
   180.2500    100.3163      0.0000    846.3825      3.6730
   180.5000     97.8277      0.0000    850.9385      3.7580
   180.7500     96.5089      0.0000    860.8561      3.8640
   181.0000     96.7956      0.0000    869.6816      4.0196
   181.2500     98.0921      0.0000    872.7061      4.2276
   181.5000     99.3512      0.0000    869.8041      4.4666
   181.7500     99.7123      0.0000    864.2476      4.7069
   182.0000     98.9523      0.0000    860.7849      4.9192
   182.2500     97.7016      0.0000    863.7641      5.0827
   182.5000     97.0737      0.0000    874.3680      5.1924
   182.7500     97.7775      0.0000    889.2980      5.2516
   183.0000     99.6566      0.0000    903.1438      5.2563
   183.2500    102.0775      0.0000    912.0901      5.2015
   183.5000    104.2084      0.0000    915.1478      5.1008
   183.7500    104.8949      0.0000    913.0457      4.9905
   184.0000    103.2776      0.0000    907.5118      4.9120
   184.2500    100.0042      0.0000    901.6226      4.8898
   184.5000     97.0355      0.0000    899.0777      4.9137
   184.7500     95.7290      0.0000    901.6574      4.9371
   185.0000     95.5624      0.0000    907.7061      4.9071
   185.2500     95.0408      0.0000    913.8843      4.8077
   185.5000     93.5046      0.0000    918.0337      4.6669
   185.7500     91.8220      0.0000    920.0370      4.5241
   186.0000     91.3832      0.0000    920.7430      4.4077
   186.2500     92.5657      0.0000    920.8639      4.3435
   186.5000     94.4827      0.0000    920.5447      4.3606
   186.7500     96.1747      0.0000    919.2213      4.4767
   187.0000     97.4602      0.0000    915.4910      4.6840
   187.2500     98.6099      0.0000    907.6369      4.9478
   187.5000     99.7782      0.0000    895.4235      5.2119
   187.7500    100.7087      0.0000    881.8096      5.4159
   188.0000    100.5279      0.0000    871.5226      5.5268
   188.2500     98.1158      0.0000    866.9836      5.5534
   188.5000     93.2144      0.0000    866.8596      5.5221
   188.7500     86.8582      0.0000    869.1589      5.4494
   189.0000     80.5040      0.0000    873.7455      5.3452
   189.2500     75.1630      0.0000    880.9359      5.2335
   189.5000     71.3974      0.0000    889.3410      5.1548
   189.7500     69.5610      0.0000    895.6392      5.1428
   190.0000     69.6795      0.0000    895.9413      5.1996
   190.2500     71.3240      0.0000    888.3047      5.2975
   190.5000     73.9030      0.0000    875.3129      5.4096
   190.7500     76.8878      0.0000    863.7698      5.5333
   191.0000     79.6189      0.0000    860.4730      5.6828
   191.2500     81.4007      0.0000    867.6556      5.8578
   191.5000     82.1058      0.0000    882.0224      6.0292
   191.7500     82.3295      0.0000    897.5721      6.1574
   192.0000     82.7551      0.0000    909.5040      6.2179
   192.2500     83.5936      0.0000    916.2792      6.2078
   192.5000     84.5448      0.0000    918.8586      6.1379
   192.7500     84.9689      0.0000    918.7058      6.0250
   193.0000     84.2935      0.0000    916.5871      5.8980
   193.2500     82.5660      0.0000    912.4819      5.8036
   193.5000     80.5427      0.0000    906.1224      5.7865
   193.7500     79.1766      0.0000    898.0871      5.8478
   194.0000     79.0974      0.0000    891.0173      5.9377
   194.2500     80.4253      0.0000    888.8212      5.9982
   194.5000     82.7434      0.0000    893.3510      6.0075
   194.7500     85.2644      0.0000    902.2402      5.9822
   195.0000     87.4178      0.0000    911.0201      5.9452
   195.2500     89.3022      0.0000    916.8416      5.8961
   195.5000     91.1688      0.0000    919.5880      5.8121
   195.7500     92.5031      0.0000    920.3062      5.6792
   196.0000     92.2556      0.0000    919.4858      5.5183
   196.2500     90.2435      0.0000    916.3164      5.3740
   196.5000     87.8309      0.0000    908.8876      5.2780
   196.7500     86.7830      0.0000    895.3806      5.2326
