~Version Information
VERS.                      2.0: CWLS Log ASCII Standard - VERSION 2.0
WRAP.                       NO: One line per depth step
~Well Information Block
STRT.FT               550.0000: 
STOP.FT              1577.7500: 
STEP.FT                 0.2500: 
NULL.                -999.2500: 
COMP.          Pioneer Natural Resources: COMPANY
WELL.          Kristin 22-23 Tr: WELL
FLD.           Purgatoire River: FIELD
LOC.           2273' FNL & 2029' FWL: LOCATION
PROV.                 Colorado: PROVINCE
CNTY.               Las Animas: COUNTRY
SRVC.                Patterson: SERVICE COMPANY
DATE.          Thu Jan 20 21:18:23 2005: LOG DATE
UWI.           05 071 08259 00: UNIQUE WELL ID
~Curve Information Block
DEPT.FT            0 000 00 00: Depth
SN.Ohm-m                      : IEL Short Normal
SP.mV                         : IEL Spontaneous Potential
DIR.Ohm-m                     : IEL Induction Resistivity
GR.GAPI                       : Gamma Ray
~Parameter Information Block
~A  Depth        SN          SP         DIR          GR     
# ...
  1287.0000     10.4732   -104.0376     11.3627    144.6139
  1287.2500     10.2904   -103.8208     11.2745    145.4192
  1287.5000     10.0801   -103.6428     11.0686    144.8870
  1287.7500      9.8905   -103.4950     10.7749    143.9944
  1288.0000      9.7488   -103.3667     10.4429    143.3291
  1288.2500      9.6519   -103.2500     10.1192    144.0017
  1288.5000      9.5753   -103.1417      9.8348    146.8065
  1288.7500      9.4925   -103.0441      9.6045    149.4149
  1289.0000      9.3883   -102.9623      9.4308    153.6029
  1289.2500      9.2610   -102.8994      9.3073    156.3729
  1289.5000      9.1170   -102.8540      9.2212    160.2285
  1289.7500      8.9653   -102.8191      9.1559    162.2337
  1290.0000      8.8162   -102.7842      9.0960    163.5782
  1290.2500      8.6840   -102.7388      9.0330    163.0435
  1290.5000      8.5892   -102.6748      8.9683    160.2171
  1290.7500      8.5551   -102.5886      8.9124    157.6825
  1291.0000      8.5932   -102.4816      8.8793    155.0829
  1291.2500      8.6861   -102.3614      8.8806    155.3616
  1291.5000      8.7918   -102.2425      8.9224    159.3946
  1291.7500      8.8762   -102.1475      9.0050    163.7876
  1292.0000      8.9404   -102.1051      9.1253    170.6463
  1292.2500      9.0120   -102.1445      9.2797    174.0019
  1292.5000      9.1184   -102.2878      9.4659    175.4831
  1292.7500      9.2798   -102.5419      9.6833    173.7184
  1293.0000      9.5190   -102.8949      9.9344    167.4382
  1293.2500      9.8635   -103.3185     10.2264    161.5595
  1293.5000     10.3306   -103.7764     10.5704    151.3557
  1293.7500     10.9163   -104.2362     10.9798    143.8895
  1294.0000     11.6024   -104.6787     11.4662    131.5864
  1294.2500     12.3711   -105.1008     12.0350    122.7294
  1294.5000     13.2123   -105.5107     12.6845    109.7408
  1294.7500     14.1216   -105.9184     13.4059    102.7554
  1295.0000     15.0954   -106.3263     14.1848     97.3134
  1295.2500     16.1233   -106.7266     14.9996     97.4558
  1295.5000     17.1738   -107.1047     15.8184    101.2577
  1295.7500     18.1809   -107.4466     16.5967    103.8925
  1296.0000     19.0527   -107.7441     17.2833    104.5228
  1296.2500     19.7118   -107.9932     17.8341    102.0886
  1296.5000     20.1381   -108.1854     18.2256     95.7912
  1296.7500     20.3737   -108.2963     18.4590     91.5337
  1297.0000     20.4807   -108.2814     18.5512     87.3534
  1297.2500     20.4875   -108.0847     18.5216     86.5644
  1297.5000     20.3677   -107.6578     18.3860     88.0667
  1297.7500     20.0637   -106.9832     18.1538     90.1830
  1298.0000     19.5377   -106.0863     17.8284     93.7339
  1298.2500     18.8111   -105.0305     17.4075     96.1571
  1298.5000     17.9623   -103.8981     16.8906    101.1736
  1298.7500     17.0907   -102.7665     16.2903    106.6961
  1299.0000     16.2759   -101.6935     15.6396    119.2657
  1299.2500     15.5570   -100.7145     14.9863    129.6274
  1299.5000     14.9360    -99.8508     14.3779    144.4230
  1299.7500     14.4022    -99.1195     13.8490    151.3798
  1300.0000     13.9556    -98.5394     13.4160    155.2026
  1300.2500     13.6131    -98.1301     13.0828    153.6837
  1300.5000     13.3974    -97.9071     12.8500    147.8900
  1300.7500     13.3264    -97.8766     12.7222    143.3409
  1301.0000     13.4123    -98.0341     12.7095    137.1519
  1301.2500     13.6682    -98.3663     12.8226    133.6171
  1301.5000     14.1115    -98.8548     13.0687    128.6977
  1301.7500     14.7562    -99.4786     13.4498    125.2938
  1302.0000     15.6040   -100.2156     13.9634    119.6161
  1302.2500     16.6392   -101.0426     14.6024    115.3990
  1302.5000     17.8361   -101.9359     15.3548    108.4343
  1302.7500     19.1710   -102.8731     16.2028    103.3544
  1303.0000     20.6257   -103.8349     17.1253     95.1858
  1303.2500     22.1757   -104.8065     18.1003     89.6221
  1303.5000     23.7791   -105.7777     19.1056     81.7951
  1303.7500     25.3841   -106.7411     20.1158     77.3714
  1304.0000     26.9407   -107.6884     21.0979     72.5978
  1304.2500     28.3981   -108.6022     22.0123     70.9011
  1304.5000     29.6884   -109.4449     22.8215     70.5634
  1304.7500     30.7214   -110.1468     23.4993     71.5711
  1305.0000     31.3943   -110.6016     24.0263     74.3046
  1305.2500     31.6070   -110.6799     24.3680     76.5331
  1305.5000     31.2758   -110.2595     24.4508     80.1701
  1305.7500     30.3506   -109.2670     24.1690     83.1378
  1306.0000     28.8475   -107.7110     23.4401     89.5103
  1306.2500     26.8799   -105.6924     22.2769     95.2516
  1306.5000     24.6527   -103.3829     20.8084    105.1191
  1306.7500     22.4037   -100.9826     19.2251    111.7691
  1307.0000     20.3249    -98.6735     17.7008    121.6981
  1307.2500     18.5153    -96.5860     16.3477    128.8707
  1307.5000     16.9878    -94.7876     15.2115    141.0015
  1307.7500     15.7079    -93.2922     14.2868    149.2621
  1308.0000     14.6245    -92.0802     13.5344    159.1950
  1308.2500     13.6861    -91.1190     12.9002    162.6579
  1308.5000     12.8552    -90.3756     12.3369    161.9415
  1308.7500     12.1243    -89.8199     11.8217    157.9742
  1309.0000     11.5191    -89.4227     11.3612    149.7859
  1309.2500     11.0822    -89.1537     10.9805    145.4494
  1309.5000     10.8525    -88.9835     10.7052    143.8635
  1309.7500     10.8470    -88.8903     10.5499    145.8253
  1310.0000     11.0482    -88.8671     10.5150    149.7749
  1310.2500     11.4041    -88.9244     10.5903    151.0680
  1310.5000     11.8438    -89.0877     10.7598    150.1682
  1310.7500     12.3064    -89.3908     11.0056    148.4487
  1311.0000     12.7642    -89.8655     11.3116    145.4548
  1311.2500     13.2256    -90.5331     11.6661    143.0330
  1311.5000     13.7217    -91.3948     12.0635    137.1475
  1311.7500     14.2893    -92.4228     12.5039    130.8668
  1312.0000     14.9605    -93.5519     12.9917    118.4427
  1312.2500     15.7573    -94.6762     13.5332    109.7857
  1312.5000     16.6796    -95.6560     14.1313     99.2979
  1312.7500     17.6830    -96.3380     14.7743     94.7118
  1313.0000     18.6594    -96.5873     15.4234     90.9000
  1313.2500     19.4426    -96.3207     16.0045     89.8873
  1313.5000     19.8549    -95.5287     16.4137     90.2767
  1313.7500     19.7808    -94.2767     16.5448     91.7463
  1314.0000     19.2181    -92.6873     16.3307     95.8551
  1314.2500     18.2720    -90.9105     15.7769    100.1948
  1314.5000     17.1008    -89.0947     14.9628    109.9338
  1314.7500     15.8606    -87.3653     14.0060    118.7870
  1315.0000     14.6720    -85.8146     13.0185    134.7165
  1315.2500     13.6097    -84.5004     12.0806    145.7295
  1315.5000     12.7057    -83.4489     11.2356    159.6663
  1315.7500     11.9565    -82.6608     10.5005    165.8290
  1316.0000     11.3338    -82.1162      9.8771    170.3003
  1316.2500     10.7972    -81.7814      9.3616    171.2801
  1316.5000     10.3083    -81.6152      8.9478    171.9951
  1316.7500      9.8418    -81.5759      8.6278    172.6318
  1317.0000      9.3911    -81.6259      8.3911    174.0476
  1317.2500      8.9657    -81.7325      8.2246    175.3116
  1317.5000      8.5821    -81.8659      8.1131    177.5704
  1317.7500      8.2514    -81.9947      8.0423    178.9790
  1318.0000      7.9739    -82.0864      8.0012    180.3071
  1318.2500      7.7465    -82.1109      7.9838    180.7052
  1318.5000      7.5761    -82.0487      7.9887    181.1572
  1318.7500      7.4822    -81.8988      8.0170    181.4690
  1319.0000      7.4799    -81.6802      8.0688    181.5180
  1319.2500      7.5515    -81.4270      8.1403    181.0018
  1319.5000      7.6398    -81.1766      8.2234    179.0753
  1319.7500      7.6817    -80.9574      8.3078    176.6463
  1320.0000      7.6649    -80.7807      8.3854    170.4058
  1320.2500      7.6583    -80.6392      8.4548    164.4352
