~Version Information
 VERS.                                  2.0 : CWLS LAS VERSION
 WRAP.                                   NO : WRAPING MODE
 SWARE .                 MController 2.5.0N : SOFTWARE VERSION
~Well Information
 WELL.                        Paradise 13-8 : WELL
 COMP.        Pioneer Natural Resources Inc : COMPANY
 FLD.                      Purgatoire River : FIELD
 LOC.                 NW/SW Sec 8 T32S R66W : LOCATION
 DATE.                           1/21-22/05 : DATE(S) LOGGED
 SRVC.       Blanco Geological Services LLC : SERVICE COMPANY
 STAT.                                   CO : STATE
 CNTY.                           Las Animas : COUNTY
 CTRY.                                  USA : COUNTRY
 API.                       05-071-07946-00 : API NUMBER
 STRT.FT                             855.00 : START DEPTH
 STOP.FT                            3151.00 : STOP DEPTH
 STEP.FT                               1.00 : DEPTH INCREMENT
 NULL.                                -9999 : NULL VALUE
~Curve information
 DEPTH.FT                                   :
 ROP.MIN/FT                                 :
 GAS.UNITS                                  :
~ASCII Log data
# ...
      1655.0         0.53         16.8 
      1656.0         0.33         14.8 
      1657.0         0.25         12.9 
      1658.0         0.23         11.6 
      1659.0         0.23         10.9 
      1660.0         0.23          9.3 
      1661.0         0.27          8.3 
      1662.0         0.23          7.5 
      1663.0         0.27          7.1 
      1664.0         0.30          7.4 
      1665.0         0.33          8.8 
      1666.0         0.40         10.6 
      1667.0         0.33         11.7 
      1668.0         0.37         12.9 
      1669.0         0.38         21.7 
      1670.0         0.33         29.1 
      1671.0         0.37         29.4 
      1672.0         0.33         29.0 
      1673.0         0.33         26.1 
      1674.0         0.20         24.5 
      1675.0         0.30         23.0 
      1676.0         0.33         20.5 
      1677.0         0.33         17.8 
      1678.0         0.30         16.7 
      1679.0         0.17         16.7 
      1680.0         0.18         16.7 
      1681.0         0.23         15.3 
      1682.0         0.20         14.9 
      1683.0         0.40         14.3 
      1684.0         6.37         26.5 
      1685.0         0.77         20.4 
      1686.0         0.50         16.8 
      1687.0         0.60         14.7 
      1688.0         0.43         10.7 
      1689.0         0.37         10.7 
      1690.0         0.38         11.6 
      1691.0         0.27         12.0 
      1692.0         0.27         12.2 
      1693.0         0.37         12.7 
      1694.0         0.40         14.0 
      1695.0         0.27         15.1 
      1696.0         0.17         16.1 
      1697.0         0.27         18.3 
      1698.0         0.47         18.7 
      1699.0         0.68         18.5 
      1700.0         0.43         13.8 
      1701.0         0.33         10.3 
      1702.0         0.20          9.9 
      1703.0         0.27          9.7 
      1704.0         0.40          9.6 
      1705.0         0.50          9.3 
      1706.0         0.57          8.8 
      1707.0         0.47          8.3 
      1708.0         0.42          9.0 
      1709.0         0.30          9.7 
      1710.0         0.40         12.0 
      1711.0         0.40         14.6 
      1712.0         0.47         16.4 
      1713.0         0.33         18.3 
      1714.0         5.60         66.0 
      1715.0         0.67         16.6 
      1716.0         0.50         18.1 
      1717.0         0.43         20.1 
      1718.0         0.37         23.0 
      1719.0         0.48         23.6 
      1720.0         0.43         21.1 
      1721.0         0.43         19.6 
      1722.0         0.33         15.6 
      1723.0         0.20         12.1 
      1724.0         0.23         11.5 
      1725.0         0.33          9.3 
      1726.0         0.27          7.6 
      1727.0         0.30          7.5 
      1728.0         0.37          7.2 
      1729.0         0.42          7.2 
      1730.0         0.40          7.4 
      1731.0         0.43          8.2 
      1732.0         0.40          9.4 
      1733.0         0.53         11.3 
      1734.0         0.60         13.3 
      1735.0         0.67         15.5 
      1736.0         0.58         15.3 
      1737.0         0.47         13.3 
      1738.0         0.23         10.0 
      1739.0         0.27          8.7 
      1740.0         0.23          7.7 
      1741.0         0.27          7.4 
      1742.0         0.23          7.0 
      1743.0         0.17          7.8 
      1744.0         8.38         42.5 
      1745.0         0.37         27.3 
      1746.0         0.30         25.5 
      1747.0         0.37         18.5 
      1748.0         0.30         11.4 
      1749.0         0.20          9.5 
      1750.0         0.20          7.9 
      1751.0         0.40          7.1 
      1752.0         0.55          6.7 
      1753.0         0.77          7.0 
      1754.0         0.73          8.9 
      1755.0         0.40         11.2 
      1756.0         0.30         11.4 
      1757.0         0.50         11.4 
      1758.0         0.47         10.8 
      1759.0         0.52         10.4 
      1760.0         0.50         11.5 
      1761.0         0.50         15.8 
      1762.0         0.43         19.3 
      1763.0         0.40         20.9 
      1764.0         0.37         19.9 
      1765.0         0.40         19.7 
      1766.0         0.42         15.3 
      1767.0         0.37          8.8 
      1768.0         0.40          7.9 
      1769.0         0.40          6.4 
      1770.0         0.40          6.6 
      1771.0         0.43          8.6 
      1772.0         0.37         12.3 
      1773.0         0.80         20.1 
      1774.0         6.60         53.2 
      1775.0         0.25         29.8 
      1776.0         0.53         27.8 
      1777.0         0.47         21.5 
      1778.0         0.40         16.1 
      1779.0         0.37         13.8 
      1780.0         0.30         12.7 
      1781.0         0.33         12.7 
      1782.0         0.33         13.3 
      1783.0         0.40         12.7 
      1784.0         0.45         12.1 
      1785.0         0.47         10.9 
      1786.0         0.50          7.7 
      1787.0         0.47          7.1 
      1788.0         0.47          9.7 
      1789.0         0.50         12.4 
      1790.0         0.50         15.8 
      1791.0         0.52         17.1 
      1792.0         0.53         16.1 
      1793.0         0.53         12.6 
      1794.0         0.50          9.1 
      1795.0         0.33          8.7 
      1796.0         0.30          8.9 
      1797.0         0.30          8.8 
      1798.0         0.33          8.6 
      1799.0         0.38          9.5 
      1800.0         0.30         10.7 
      1801.0         0.30         11.6 
      1802.0         0.23         13.0 
      1803.0         0.20         14.0 
      1804.0         6.70         48.8 
      1805.0         0.20         31.0 
      1806.0         0.47         32.9 
      1807.0         0.37         31.5 
      1808.0         0.33         31.3 
      1809.0         0.23         27.3 
      1810.0         0.33         26.8 
      1811.0         0.28         17.1 
      1812.0         0.20         13.1 
      1813.0         0.23         12.0 
      1814.0         0.20          9.0 
      1815.0         0.33          8.4 
      1816.0         0.57          8.1 
      1817.0         0.50          7.2 
      1818.0         0.27          6.4 
      1819.0         0.27          6.1 
      1820.0         0.23          5.9 
      1821.0         0.40          5.6 
      1822.0         0.28          5.6 
      1823.0         0.40          6.0 
      1824.0         0.43          6.4 
      1825.0         0.53          6.9 
      1826.0         0.50          7.2 
      1827.0         0.43          6.2 
      1828.0         0.33          6.0 
      1829.0         0.55          5.9 
      1830.0         0.47          6.1 
      1831.0         0.47          6.6 
      1832.0         0.27          8.4 
      1833.0         0.33         10.7 
      1834.0         6.07         46.3 
      1835.0         0.57         29.2 
      1836.0         0.47         26.8 
      1837.0         0.30         25.5 
      1838.0         0.23         17.4 
      1839.0         0.20         17.6 
      1840.0         0.40         12.3 
      1841.0         0.38          7.3 
      1842.0         0.30          6.8 
      1843.0         0.37          6.8 
      1844.0         0.37          7.7 
      1845.0         0.37          8.2 
      1846.0         0.33          8.9 
      1847.0         0.37          9.7 
      1848.0         0.20          9.7 
      1849.0         0.33          9.3 
      1850.0         0.37          8.3 
      1851.0         0.48          7.2 
      1852.0         0.43          6.5 
      1853.0         0.47         10.2 
      1854.0         0.50         15.6 
