~Version Information
VERS.                      2.0: CWLS Log ASCII Standard - VERSION 2.0
WRAP.                       NO: One line per depth step
~Well Information Block
STRT.FT               294.0000: 
STOP.FT              1958.0000: 
STEP.FT                 0.1000: 
NULL.                -999.2500: 
COMP.          Pioneer Natural Resources: COMPANY
WELL.          Commander 43-26 Tr: WELL
FLD.           Purgatoire River: FIELD
LOC.           2439' FSL & 446' FEL: LOCATION
PROV.                 Colorado: PROVINCE
CNTY.               Las Animas: COUNTRY
SRVC.                Patterson: SERVICE COMPANY
DATE.          Fri Apr 15 07:31:08 2005: LOG DATE
UWI.           05 071 08341 00: UNIQUE WELL ID
~Curve Information Block
DEPT.FT            0 000 00 00: Depth
DCAL.in                       : CDL Caliper
RHOB.g/cc                     : CDL Bulk Density
RHOC.g/cc                     : CDL Density Correction
DPOR.pu                       : CDL Density Porosity
GR.GAPI                       : Gamma Ray
NPOR.pu                       : Neutron Porosity
~Parameter Information Block
~A  Depth       DCAL        RHOB        RHOC        DPOR         GR         NPOR    
# ...
   841.2000      8.0954      2.4963      0.0283      9.3134    142.7747     25.0901
   841.3000      8.0446      2.4803      0.0625     10.2843    145.9293     24.8378
   841.4000      8.0446      2.4570      0.0454     11.6988    149.6176     24.8759
   841.5000      8.0071      2.4320      0.0817     13.2140    150.4088     24.9875
   841.6000      8.0071      2.4062      0.0202     14.7785    145.2731     24.6191
   841.7000      8.0071      2.3780      0.0277     16.4835    137.3076     23.6825
   841.8000      8.0170      2.3517     -0.0914     18.0779    132.0074     22.8739
   841.9000      8.0170      2.3366      0.0285     18.9955    133.4433     22.8614
   842.0000      8.0384      2.3308      0.0143     19.3458    140.4115     23.4712
   842.1000      8.0384      2.3351      0.0193     19.0827    144.3574     23.8867
   842.2000      8.0384      2.3576      0.0117     17.7233    143.4259     23.8315
   842.3000      8.0729      2.3910      0.0986     15.6960    139.7807     23.9497
   842.4000      8.0729      2.4170      0.1391     14.1242    127.8459     24.6529
   842.5000      8.1039      2.4380      0.1377     12.8464    112.0624     25.5793
   842.6000      8.1039      2.4726      0.2090     10.7509    103.6722     26.2026
   842.7000      8.1039      2.5177      0.2744      8.0158    103.3163     26.3643
   842.8000      8.0783      2.5518      0.3017      5.9487    106.3864     26.1971
   842.9000      8.0783      2.5715      0.2250      4.7604    106.7721     26.0531
   843.0000      8.0779      2.5815      0.2268      4.1522    101.7748     26.4949
   843.1000      8.0779      2.5754      0.1328      4.5201     95.2209     27.2254
   843.2000      8.0779      2.5631      0.1344      5.2641     91.5247     27.2117
   843.3000      8.0251      2.5649      0.1098      5.1597     90.2944     26.3002
   843.4000      8.0251      2.5796      0.1368      4.2678     89.1314     25.1988
   843.5000      8.0464      2.5824      0.1548      4.0967     87.9009     24.5762
   843.6000      8.0464      2.5607      0.0613      5.4143     89.7522     24.3700
   843.7000      8.0464      2.5389      0.0259      6.7331     94.3799     24.0858
   843.8000      8.0399      2.5415      0.0184      6.5775     95.4159     23.7758
   843.9000      8.0399      2.5568      0.0948      5.6494     89.7583     23.6433
   844.0000      8.0777      2.5666      0.0235      5.0519     83.6428     23.4920
   844.1000      8.0777      2.5807      0.0215      4.1975     83.2037     23.2617
   844.2000      8.0777      2.6075      0.0876      2.5730     87.2066     23.1495
   844.3000      8.0939      2.6296      0.1105      1.2363     91.3717     23.1207
   844.4000      8.0939      2.6295      0.0791      1.2403     91.5960     23.0334
   844.5000      8.0643      2.6166      0.0337      2.0220     86.7184     22.6716
   844.6000      8.0643      2.5991      0.1142      3.0844     82.4214     21.9816
   844.7000      8.0643      2.5649      0.0964      5.1570     82.7978     21.6215
   844.8000      8.0190      2.5303     -0.0056      7.2530     84.8845     22.0168
   844.9000      8.0190      2.5321      0.0684      7.1479     85.8918     22.7134
   845.0000      8.0137      2.5629      0.1672      5.2817     84.7895     23.3051
   845.1000      8.0137      2.5944      0.1283      3.3691     82.5198     23.8235
   845.2000      8.0137      2.6206      0.1253      1.7818     82.1561     24.1240
   845.3000      7.9895      2.6398      0.0981      0.6156     83.4419     24.0352
   845.4000      7.9895      2.6542      0.1305     -0.2539     85.4996     23.7843
   845.5000      7.9624      2.6705      0.1710     -1.2449     89.1289     23.8653
   845.6000      7.9624      2.6876      0.1848     -2.2810     92.1299     24.2440
   845.7000      7.9624      2.6962      0.1857     -2.8005     90.8591     24.2802
   845.8000      7.9452      2.6909      0.1544     -2.4768     87.7383     23.6902
   845.9000      7.9452      2.6779      0.1109     -1.6910     90.3870     22.8289
   846.0000      7.9322      2.6581      0.0837     -0.4894    100.7875     22.2983
   846.1000      7.9322      2.6263      0.0511      1.4384    110.7561     22.1505
   846.2000      7.9322      2.5904      0.0842      3.6127    114.8807     21.8180
   846.3000      7.9513      2.5592      0.0900      5.5042    118.7504     21.2381
   846.4000      7.9513      2.5259      0.1532      7.5229    127.7302     20.8870
   846.5000      7.9645      2.4903      0.0483      9.6786    141.0052     20.7903
   846.6000      7.9645      2.4635      0.0487     11.3020    152.0700     20.4793
   846.7000      7.9645      2.4403      0.0915     12.7085    156.9583     19.9338
   846.8000      7.9999      2.4243      0.0088     13.6795    160.4632     19.9342
   846.9000      7.9999      2.4395      0.0514     12.7574    163.5551     20.8317
   847.0000      8.0003      2.4746      0.1703     10.6316    163.5765     21.9680
   847.1000      8.0003      2.4962      0.1295      9.3210    161.0965     22.6942
   847.2000      8.0003      2.5058      0.1080      8.7369    157.4853     22.9794
   847.3000      8.0552      2.5070      0.1868      8.6668    154.4284     23.2123
   847.4000      8.0552      2.4779      0.1224     10.4288    152.2774     23.5168
   847.5000      8.1062      2.4145      0.0529     14.2724    150.8613     23.6263
   847.6000      8.1062      2.3307      0.0441     19.3544    148.4670     23.5033
   847.7000      8.1062      2.2375      0.0302     24.9998    144.6443     23.3645
   847.8000      8.0996      2.1610     -0.0700     29.6370    143.4014     23.2574
   847.9000      8.0996      2.1290     -0.0413     31.5767    143.0334     23.1631
   848.0000      8.1034      2.1415     -0.0136     30.8189    140.2941     23.1842
   848.1000      8.1034      2.1884      0.0126     27.9754    137.4085     23.3164
   848.2000      8.1034      2.2704      0.0784     23.0042    134.5755     23.5731
   848.3000      8.1043      2.3825      0.1915     16.2132    128.6965     24.0831
   848.4000      8.1043      2.4954      0.3014      9.3696    121.3560     24.7501
   848.5000      8.1067      2.5794      0.3522      4.2785    115.8982     25.3808
   848.6000      8.1067      2.6330      0.3943      1.0292    111.5235     25.7668
   848.7000      8.1067      2.6643      0.3008     -0.8680    109.4044     26.0549
   848.8000      8.1180      2.6654      0.3042     -0.9358    111.9958     26.7264
   848.9000      8.1180      2.6369      0.1838      0.7965    115.8342     27.2300
   849.0000      8.1231      2.6122      0.1306      2.2920    118.1626     26.8246
   849.1000      8.1231      2.6071      0.1302      2.5990    121.0082     26.1745
   849.2000      8.1231      2.5930      0.1543      3.4558    127.2061     25.9265
   849.3000      8.1207      2.5554      0.0855      5.7312    133.5850     25.8565
   849.4000      8.1207      2.5169      0.0562      8.0680    131.2989     25.8575
   849.5000      8.0525      2.4971      0.0371      9.2657    121.1763     26.0903
   849.6000      8.0525      2.4903      0.0928      9.6793    113.8556     26.2884
   849.7000      8.0525      2.4810      0.0498     10.2435    113.9105     26.1032
   849.8000      8.0414      2.4774      0.0073     10.4600    118.3890     25.6701
   849.9000      8.0414      2.4970      0.0287      9.2743    123.2255     25.1031
   850.0000      8.0357      2.5226      0.1127      7.7241    122.6030     24.4330
   850.1000      8.0357      2.5227      0.0648      7.7157    112.8873     24.1080
   850.2000      8.0357      2.5004      0.0804      9.0679    101.6189     24.4222
   850.3000      8.0451      2.4823      0.0380     10.1639     97.6930     24.9589
   850.4000      8.0451      2.4847      0.0678     10.0161     97.4238     25.2727
   850.5000      8.0634      2.5036      0.0222      8.8698     93.4582     25.4173
   850.6000      8.0634      2.5263      0.0432      7.4974     87.6196     25.5180
   850.7000      8.0634      2.5356      0.0580      6.9320     86.6061     25.5528
