~Version Information
VERS.                      2.0: CWLS Log ASCII Standard - VERSION 2.0
WRAP.                       NO: One line per depth step
~Well Information Block
STRT.FT                -7.0000: 
STOP.FT              1863.5000: 
STEP.FT                 0.2500: 
NULL.                -999.2500: 
COMP.          Pioneer Natural Resources: COMPANY
WELL.            Formula 23-11: WELL
FLD.           Purgatorie River: FIELD
LOC.           1976' FSL & 1935' FWL--: LOCATION
PROV.                       CO: PROVINCE
CNTY.               Las Animas: COUNTRY
SRVC.          Patterson Wireline: SERVICE COMPANY
DATE.          Wed Jun 15 14:44:40 2005: LOG DATE
UWI.           05 071 08399 00: UNIQUE WELL ID
~Curve Information Block
DEPT.FT            0 000 00 00: Depth
CCL.                          : Casing Collar Locator
TT3.usec                      : CBL 3' Travel Time
AMP3.mV                       : CBL 3' Amplitude
GR.GAPI                       : Gamma Ray
~Parameter Information Block
~A  Depth       CCL         TT3         AMP3         GR     
# ...
  1467.0000      0.0000    830.8568      4.5416     64.4654
  1467.2500      0.0000    839.2563      4.5303     64.3353
  1467.5000      0.0000    844.0724      4.4782     64.0793
  1467.7500      0.0000    844.4297      4.4342     63.6238
  1468.0000      0.0000    840.3976      4.4652     63.2083
  1468.2500      0.0000    832.8705      4.5646     62.8540
  1468.5000      0.0000    823.6659      4.6401     62.1424
  1468.7500      0.0000    814.9812      4.6080     60.8174
  1469.0000      0.0000    808.2816      4.4919     59.3401
  1469.2500      0.0000    803.7632      4.4063     58.7609
  1469.5000      0.0000    800.8458      4.4358     60.1603
  1469.7500      0.0000    798.9851      4.5430     64.0295
  1470.0000      0.0000    798.1649      4.6059     69.8257
  1470.2500      0.0000    799.0820      4.5461     76.1610
  1470.5000      0.0000    803.0788      4.4103     81.7106
  1470.7500      0.0000    811.4230      4.3243     85.9190
  1471.0000      0.0000    823.6307      4.3652     88.7114
  1471.2500      0.0000    836.0223      4.4876     89.9078
  1471.5000      0.0000    842.8688      4.5854     89.2679
  1471.7500      0.0000    840.4468      4.6126     86.8473
  1472.0000      0.0000    830.2815      4.6132     83.0493
  1472.2500      0.0000    817.7876      4.6345     78.5913
  1472.5000      0.0000    807.7504      4.6520     74.4944
  1472.7500      0.0000    801.4365      4.6097     71.6530
  1473.0000      0.0000    797.3661      4.5147     70.1449
  1473.2500      0.0000    793.7224      4.4483     69.2796
  1473.5000      0.0000    789.9142      4.4724     68.5100
  1473.7500      0.0000    786.5991      4.5530     68.0163
  1474.0000      0.0000    784.7159      4.6033     68.2939
  1474.2500      0.0000    784.7476      4.5874     69.5559
  1474.5000      0.0000    786.9768      4.5422     71.8155
  1474.7500      0.0000    791.9309      4.5031     75.2866
  1475.0000      0.0000    799.0875      4.4483     80.2838
  1475.2500      0.0000    804.3454      4.3441     86.6848
  1475.5000      0.0000    800.5651      4.2164     93.7429
  1475.7500      0.0000    783.3654      4.1356    100.6194
  1476.0000      0.0000    756.6973      4.1317    106.9373
  1476.2500      0.0000    731.0892      4.1649    112.5814
  1476.5000      0.0000    716.0347      4.1970    117.1033
  1476.7500      0.0000    714.5513      4.2619    119.7192
  1477.0000      0.0000    723.7792      4.4290    119.9336
  1477.2500      0.0000    738.4326      4.7063    117.8270
  1477.5000      0.0000    753.4437      5.0038    113.7586
  1477.7500      0.0000    765.4732      5.1923    108.3923
  1478.0000      0.0000    773.6899      5.1971    103.1580
  1478.2500      0.0000    779.1686      5.0506     99.9580
  1478.5000      0.0000    783.1462      4.8702     99.8499
  1478.7500      0.0000    786.0405      4.7641    102.2036
  1479.0000      0.0000    787.8741      4.7339    105.4442
  1479.2500      0.0000    788.9088      4.6760    108.5521
  1479.5000      0.0000    789.7590      4.4977    111.5866
  1479.7500      0.0000    791.1654      4.2312    114.7764
  1480.0000      0.0000    793.4785      4.0173    117.5244
  1480.2500      0.0000    796.2160      3.9696    118.5798
  1480.5000      0.0000    798.3073      4.0596    117.0560
  1480.7500      0.0000    798.6707      4.1443    113.3957
  1481.0000      0.0000    796.3414      4.1036    109.5044
  1481.2500      0.0000    790.4845      3.9371    107.4465
  1481.5000      0.0000    781.1116      3.7234    107.5515
  1481.7500      0.0000    769.8807      3.5063    108.2035
  1482.0000      0.0000    759.5336      3.2513    107.8586
  1482.2500      0.0000    752.2179      2.9168    106.7946
  1482.5000      0.0000    748.8349      2.5382    106.4050
  1482.7500      0.0000    749.7273      2.2150    107.0945
  1483.0000      0.0000    754.4860      2.0175    107.3668
  1483.2500      0.0000    760.5953      1.9214    104.9669
  1483.5000      0.0000    764.0988      1.8413     98.7948
  1483.7500      0.0000    763.4482      1.7247     89.8927
  1484.0000      0.0000    762.1725      1.6056     80.7351
  1484.2500      0.0000    766.2068      1.5647     73.5920
  1484.5000      0.0000    778.2987      1.6416     69.6436
  1484.7500      0.0000    795.2339      1.7898     69.5167
  1485.0000      0.0000    809.8958      1.9136     73.8941
  1485.2500      0.0000    815.6339      1.9399     83.0477
  1485.5000      0.0000    810.1504      1.8694     95.9959
  1485.7500      0.0000    797.3735      1.7801    110.4868
  1486.0000      0.0000    785.5872      1.7867    123.7483
  1486.2500      0.0000    781.6532      1.9765    133.5696
  1486.5000      0.0000    786.2178      2.3641    139.4483
  1486.7500      0.0000    794.8904      2.8924    142.7859
  1487.0000      0.0000    803.0481      3.4624    145.3225
  1487.2500      0.0000    808.3191      3.9697    147.2524
  1487.5000      0.0000    809.9042      4.3518    147.2470
  1487.7500      0.0000    807.8231      4.6219    144.2875
  1488.0000      0.0000    802.8360      4.8364    139.2508
  1488.2500      0.0000    796.2185      5.0159    134.7500
  1488.5000      0.0000    789.6928      5.1105    133.2880
  1488.7500      0.0000    785.3412      5.0625    135.1640
  1489.0000      0.0000    784.6084      4.8981    138.1955
  1489.2500      0.0000    787.2014      4.7402    139.7630
  1489.5000      0.0000    791.2938      4.7181    138.8718
  1489.7500      0.0000    794.3537      4.8598    136.1940
  1490.0000      0.0000    793.6111      5.0750    133.0107
  1490.2500      0.0000    786.8280      5.2349    130.8388
  1490.5000      0.0000    773.9407      5.2700    131.2422
  1490.7500      0.0000    758.0744      5.2103    134.6508
  1491.0000      0.0000    744.2406      5.1485    139.2118
  1491.2500      0.0000    736.4191      5.1554    141.7537
  1491.5000      0.0000    735.3928      5.2125    140.3441
  1491.7500      0.0000    738.7610      5.2287    135.5116
  1492.0000      0.0000    742.9477      5.1329    128.9826
  1492.2500      0.0000    746.0656      4.9366    121.9422
  1492.5000      0.0000    749.5195      4.6930    114.7084
  1492.7500      0.0000    756.4681      4.4266    107.4372
  1493.0000      0.0000    767.7987      4.1506    100.6048
  1493.2500      0.0000    779.1330      3.9338     94.6064
  1493.5000      0.0000    782.3256      3.8723     89.0715
  1493.7500      0.0000    771.3003      3.9680     83.2618
  1494.0000      0.0000    747.8799      4.0913     77.5097
  1494.2500     -2.0000    722.1899      4.1012     73.5739
  1494.5000      0.0000    705.8495      3.9870     72.9203
  1494.7500      0.0000    703.2830      3.8761     74.9562
  1495.0000      0.0000    710.0364      3.9140     77.2838
  1495.2500      0.0000    719.2930      4.1371     77.5467
  1495.5000      0.0000    727.7221      4.4433     75.1511
  1495.7500      0.0000    734.5673      4.6709     71.5517
  1496.0000      0.0000    738.5545      4.7225     68.7680
  1496.2500      0.0000    738.3650      4.6362     67.4403
  1496.5000      0.0000    734.7255      4.5438     66.4982
  1496.7500      0.0000    729.9185      4.5462     64.6735
  1497.0000      0.0000    725.6215      4.6208     61.9411
  1497.2500      0.0000    722.3273      4.6580     59.3573
  1497.5000      0.0000    720.5593      4.5901     57.7769
  1497.7500      0.0000    721.7498      4.4747     56.9681
  1498.0000      0.0000    727.6271      4.4354     56.0192
  1498.2500      0.0000    738.9000      4.5276     54.3783
  1498.5000      0.0000    754.3959      4.6881     52.3604
  1498.7500      0.0000    771.3226      4.8289     50.9192
  1499.0000      0.0000    786.6982      4.9446     51.1166
  1499.2500      0.0000    798.8788      5.0930     53.4420
  1499.5000      0.0000    807.6899      5.2875     57.2259
  1499.7500      0.0000    813.3709      5.4601     60.8835
  1500.0000      0.0000    816.0352      5.5434     63.2477
  1500.2500      0.0000    816.2535      5.5497     64.9204
