~Version Information
 VERS.                                  2.0 : CWLS LAS VERSION
 WRAP.                                   NO : WRAPING MODE
 SWARE .                 MController 2.5.0J : SOFTWARE VERSION
~Well Information
 WELL.                       Montoya 01-41V : WELL
 COMP.                Petrogulf Corporation : COMPANY
 FLD.                      Purgatoire River : FIELD
 LOC.                NE/NE Sec 01 T33S R68W : LOCATION
 DATE.                             08/21/05 : DATE(S) LOGGED
 SRVC.       BLANCO Geological Services LLC : SERVICE COMPANY
 STAT.                                   CO : STATE
 CNTY.                           Las Animas : COUNTY
 CTRY.                                  USA : COUNTRY
 API.                       05-071-08144-00 : API NUMBER
 STRT.FT                             719.00 : START DEPTH
 STOP.FT                            2945.00 : STOP DEPTH
 STEP.FT                               1.00 : DEPTH INCREMENT
 NULL.                                -9999 : NULL VALUE
~Curve information
 DEPTH.FT                                   :
 ROP.MIN/FT                                 :
 GAS.UNITS                                  :
~ASCII Log data
# ...
      1119.0         0.13          3.5 
      1120.0         0.17          4.2 
      1121.0         0.17          3.6 
      1122.0         0.17          3.5 
      1123.0         0.20          3.5 
      1124.0         0.17          3.9 
      1125.0         0.20          3.6 
      1126.0         0.17          3.4 
      1127.0         0.22          3.4 
      1128.0         0.20          2.6 
      1129.0         0.17          2.3 
      1130.0         0.23          2.3 
      1131.0         0.20          2.7 
      1132.0         0.27          3.5 
      1133.0         0.30          5.7 
      1134.0         0.27         11.7 
      1135.0         0.23         19.6 
      1136.0         0.17         23.1 
      1137.0         0.20         23.1 
      1138.0         2.12         21.4 
      1139.0         0.40          4.0 
      1140.0         0.27          4.0 
      1141.0         0.20          3.6 
      1142.0         0.23          3.6 
      1143.0         0.20          3.9 
      1144.0         0.13          3.6 
      1145.0         0.27          3.9 
      1146.0         0.20          3.9 
      1147.0         0.20          3.7 
      1148.0         0.22          3.9 
      1149.0         0.17          3.9 
      1150.0         0.13          3.5 
      1151.0         0.27          3.9 
      1152.0         0.13          3.6 
      1153.0         0.13          3.6 
      1154.0         0.17          3.6 
      1155.0         0.17          2.8 
      1156.0         0.17          2.8 
      1157.0         0.20          2.9 
      1158.0         0.20          2.5 
      1159.0         0.27          3.2 
      1160.0         0.23          5.9 
      1161.0         0.17          5.9 
      1162.0         0.20         10.2 
      1163.0         0.20         14.9 
      1164.0         0.27         22.7 
      1165.0         0.25         22.6 
      1166.0         0.13         22.6 
      1167.0         0.13         19.9 
      1168.0         1.47         18.3 
      1169.0         0.27          5.9 
      1170.0         0.43          5.1 
      1171.0         0.33          4.1 
      1172.0         0.33          4.5 
      1173.0         0.25          4.1 
      1174.0         0.27          4.2 
      1175.0         0.23          4.3 
      1176.0         0.23          4.1 
      1177.0         0.23          4.0 
      1178.0         0.17          4.7 
      1179.0         0.20          4.1 
      1180.0         0.20          3.9 
      1181.0         0.17          4.0 
      1182.0         0.13          4.0 
      1183.0         0.13          3.6 
      1184.0         0.13          3.6 
      1185.0         0.23          3.8 
      1186.0         0.20          3.0 
      1187.0         0.20          3.0 
      1188.0         0.20          2.7 
      1189.0         0.23          2.7 
      1190.0         0.18          3.3 
      1191.0         0.20          3.6 
      1192.0         0.23          5.8 
      1193.0         0.23          9.2 
      1194.0         0.20         10.8 
      1195.0         0.17         20.3 
      1196.0         0.20         29.7 
      1197.0         0.20         30.3 
      1198.0         0.27         26.2 
      1199.0         0.27         26.7 
      1200.0         1.45         19.7 
      1201.0         0.43          5.3 
      1202.0         0.23          5.7 
      1203.0         0.27          5.8 
      1204.0         0.23          6.0 
      1205.0         0.20          6.1 
      1206.0         0.20          6.2 
      1207.0         0.17          6.2 
      1208.0         0.13          5.3 
      1209.0         0.13          5.3 
      1210.0         0.10          4.9 
      1211.0         0.13          4.9 
      1212.0         0.10          4.8 
      1213.0         0.10          4.8 
      1214.0         0.17          4.4 
      1215.0         0.13          4.4 
      1216.0         0.10          4.5 
      1217.0         0.20          4.5 
      1218.0         0.22          4.5 
      1219.0         0.20          4.7 
      1220.0         0.17          4.4 
      1221.0         0.20          3.8 
      1222.0         0.20          3.8 
      1223.0         0.17          3.7 
      1224.0         0.13          4.4 
      1225.0         0.10          4.4 
      1226.0         0.17          5.1 
      1227.0         0.17          7.4 
      1228.0         0.27         12.3 
      1229.0         0.23         13.7 
      1230.0         2.22         14.7 
      1231.0         0.37          5.9 
      1232.0         0.30          5.8 
      1233.0         0.37          4.7 
      1234.0         0.27          4.5 
      1235.0         0.23          4.7 
      1236.0         0.27          4.8 
      1237.0         0.23          5.0 
      1238.0         0.20          4.6 
      1239.0         0.22          5.3 
      1240.0         0.13          5.0 
      1241.0         0.13          4.7 
      1242.0         0.13          4.7 
      1243.0         0.17          4.8 
      1244.0         0.30          4.4 
      1245.0         0.30          4.8 
      1246.0         0.17          4.8 
      1247.0         0.23          3.9 
      1248.0         0.20          3.0 
      1249.0         0.20          2.8 
      1250.0         0.20          2.5 
      1251.0         0.23          2.7 
      1252.0         0.20          3.7 
      1253.0         0.23          5.6 
      1254.0         0.17          7.2 
      1255.0         0.17          7.2 
      1256.0         0.25         14.4 
      1257.0         0.20         21.0 
      1258.0         0.13         22.3 
      1259.0         0.20         23.3 
      1260.0         2.07         21.7 
      1261.0         0.47         11.0 
      1262.0         0.25         11.8 
      1263.0         0.20         11.7 
      1264.0         0.17         11.3 
      1265.0         0.13         11.3 
      1266.0         0.13         12.4 
      1267.0         0.10         11.4 
      1268.0         0.10         11.3 
      1269.0         0.10         11.3 
      1270.0         0.10         12.0 
      1271.0         0.17         12.3 
      1272.0         0.13         11.6 
      1273.0         0.20         12.9 
      1274.0         0.20         11.8 
      1275.0         0.17         12.0 
      1276.0         0.20         13.2 
      1277.0         0.20         13.4 
      1278.0         0.20         12.9 
      1279.0         0.27         10.5 
      1280.0         0.23          9.7 
      1281.0         0.28          9.2 
      1282.0         0.23          7.5 
      1283.0         0.30          4.7 
      1284.0         0.20          4.7 
      1285.0         0.17          6.1 
      1286.0         0.17          6.3 
      1287.0         0.13          8.4 
      1288.0         0.13          9.2 
      1289.0         0.13         11.5 
      1290.0         2.05         13.6 
      1291.0         0.20          5.4 
      1292.0         0.23          5.0 
      1293.0         0.27          5.8 
      1294.0         0.27          5.6 
      1295.0         0.27          6.1 
      1296.0         0.27          5.2 
      1297.0         0.27          5.4 
      1298.0         0.20          5.3 
      1299.0         0.17          5.0 
      1300.0         0.20          5.7 
      1301.0         0.17          5.4 
      1302.0         0.20          5.0 
      1303.0         0.20          4.6 
      1304.0         0.22          5.0 
      1305.0         0.20          4.7 
      1306.0         0.20          4.7 
      1307.0         0.17          4.5 
      1308.0         0.17          3.5 
      1309.0         0.17          3.5 
      1310.0         0.20          3.3 
      1311.0         0.17          2.8 
      1312.0         0.17          2.8 
      1313.0         0.17          3.2 
      1314.0         0.13          3.4 
      1315.0         0.17          3.4 
      1316.0         0.20          4.4 
      1317.0         0.17          5.0 
      1318.0         0.17          6.2 
