~Version Information
VERS.                      2.0: CWLS Log ASCII Standard - VERSION 2.0
WRAP.                       NO: One line per depth step
~Well Information Block
STRT.FT                -9.0000: 
STOP.FT              2518.0000: 
STEP.FT                 0.2500: 
NULL.                -999.2500: 
COMP.          Petrogulf Corporation: COMPANY
WELL.            Montoya 7-12V: WELL
FLD.           Purgatorie River: FIELD
LOC.           1764' FNL & 728' FWL: LOCATION
CNTY.               Las Animas: COUNTY
SRVC.                         : SERVICE COMPANY
DATE.          Mon Mar 08 16:11:04 2004: LOG DATE
UWI.           05-071-07887-00: UNIQUE WELL ID
STAT.                 Colorado: STATE
~Curve Information Block
DEPT.FT            0 000 00 00: Depth
GR.GAPI                       : Gamma Ray
CCL.                          : Casing Collar Locator
TT3.usec                      : CBL 3' Travel Time
AMP3.mV                       : CBL 3' Amplitude
~Parameter Information Block
~A  Depth        GR         CCL         TT3         AMP3    
# ...
  1632.5000    156.3818      0.0000    626.7573      1.4907
  1632.7500    147.6184      0.0000    626.7428      1.4487
  1633.0000    142.3865      0.0000    626.2803      1.4365
  1633.2500    140.6892      0.0000    625.4167      1.4659
  1633.5000    141.2654      0.0000    623.4897      1.5278
  1633.7500    143.0660      0.0000    618.6657      1.6197
  1634.0000    145.7109      0.0000    609.7816      1.7349
  1634.2500    148.5714      0.0000    599.6188      1.8485
  1634.5000    150.1620      0.0000    593.9504      1.9160
  1634.7500    148.8829      0.0000    595.3881      1.9008
  1635.0000    144.1423      0.0000    600.9035      1.8079
  1635.2500    136.6759      0.0000    606.2803      1.6904
  1635.5000    128.0345      0.0000    608.8376      1.6173
  1635.7500    119.7292      0.0000    607.9356      1.6165
  1636.0000    112.6081      0.0000    607.6573      1.6672
  1636.2500    107.0330      0.0000    612.2561      1.7435
  1636.5000    103.4446      0.0000    619.6428      1.8214
  1636.7500    102.3253      0.0000    627.2316      1.8760
  1637.0000    103.5381      0.0000    636.0452      1.9132
  1637.2500    106.0620      0.0000    644.8680      1.9675
  1637.5000    108.6221      0.0000    648.4413      2.0546
  1637.7500    110.3366      0.0000    640.8901      2.1575
  1638.0000    110.4922      0.0000    616.9031      2.2604
  1638.2500    108.1554      0.0000    575.0457      2.3652
  1638.5000    102.7520      0.0000    525.8383      2.4780
  1638.7500     95.0265      0.0000    489.1727      2.6134
  1639.0000     86.8737      0.0000    477.9874      2.7968
  1639.2500     80.1617      0.0000    490.6095      3.0296
  1639.5000     76.0363      0.0000    512.0046      3.2791
  1639.7500     75.0595      0.0000    517.2589      3.5140
  1640.0000     77.2368      0.0000    491.6846      3.7120
  1640.2500     81.6747      0.0000    449.3502      3.8467
  1640.5000     86.6668      0.0000    417.5276      3.9165
  1640.7500     90.5020      0.0000    410.2129      3.9708
  1641.0000     92.1691      0.0000    423.7672      4.0670
  1641.2500     91.4284      0.0000    443.9245      4.2067
  1641.5000     88.7510      0.0000    453.4749      4.3382
  1641.7500     85.2243      0.0000    444.7377      4.4146
  1642.0000     81.8942      0.0000    427.1130      4.4250
  1642.2500     79.0572      0.0000    418.5434      4.3774
  1642.5000     76.7141      0.0000    428.3699      4.2938
  1642.7500     75.5867      0.0000    449.6168      4.2203
  1643.0000     76.7986      0.0000    468.4441      4.2012
  1643.2500     80.3106      0.0000    478.2248      4.2371
  1643.5000     84.2814      0.0000    481.3444      4.2916
  1643.7500     86.3879      0.0000    481.9387      4.3314
  1644.0000     85.6698      0.0000    481.9842      4.3453
  1644.2500     83.1579      0.0000    481.9131      4.3371
  1644.5000     81.1245      0.0000    481.6403      4.3282
  1644.7500     81.6857      0.0000    480.6447      4.3659
  1645.0000     85.6085      0.0000    477.0557      4.4772
  1645.2500     92.1219      0.0000    466.9085      4.6111
  1645.5000     99.8252      0.0000    447.7942      4.6767
  1645.7500    107.7638      0.0000    426.0110      4.6284
  1646.0000    115.6552      0.0000    414.3305      4.4812
  1646.2500    123.1989      0.0000    418.1425      4.2862
  1646.5000    129.4570      0.0000    430.7892      4.1166
  1646.7500    133.2782      0.0000    445.3428      4.0304
  1647.0000    134.0648      0.0000    460.2677      4.0284
  1647.2500    131.4752      0.0000    472.5499      4.0639
  1647.5000    124.8005      0.0000    477.4050      4.1043
  1647.7500    113.8741      0.0000    473.3572      4.1631
  1648.0000    100.5927      0.0000    464.3428      4.2502
  1648.2500     88.5277      0.0000    459.3194      4.3324
  1648.5000     80.7877      0.0000    463.7518      4.3723
  1648.7500     78.3801      0.0000    472.4572      4.3727
  1649.0000     80.1032      0.0000    478.0207      4.3661
  1649.2500     83.4560      0.0000    479.4634      4.3731
  1649.5000     85.9638      0.0000    479.2822      4.3762
  1649.7500     86.2845      0.0000    479.0495      4.3404
  1650.0000     84.4655      0.0000    479.1305      4.2562
  1650.2500     81.3684      0.0000    479.4661      4.1499
  1650.5000     77.9807      0.0000    479.8821      4.0603
  1650.7500     75.1985      0.0000    480.2416      4.0141
  1651.0000     73.8109      0.0000    480.4626      4.0187
  1651.2500     74.0805      0.0000    480.4768      4.0728
  1651.5000     75.1806      0.0000    480.3221      4.1570
  1651.7500     75.5512      0.0000    480.1452      4.2145
  1652.0000     74.2593      0.0000    480.0415      4.1951
  1652.2500     71.9604      0.0000    479.9935      4.1245
  1652.5000     70.3334      0.0000    479.9301      4.0799
  1652.7500     70.5617      0.0000    479.7890      4.1044
  1653.0000     72.4352      0.0000    479.6099      4.1718
  1653.2500     74.7725      0.0000    479.5752      4.2264
  1653.5000     76.4157      0.0000    479.7729      4.2313
  1653.7500     76.8431      0.0000    479.9994      4.1797
  1654.0000     76.3133      0.0000    480.1577      4.0902
  1654.2500     75.6793      0.0000    481.0340      3.9987
  1654.5000     75.7493      0.0000    484.5747      3.9427
  1654.7500     76.6491      0.0000    492.2929      3.9470
  1655.0000     78.0181      0.0000    502.5518      4.0056
  1655.2500     79.7035      0.0000    511.2924      4.0765
  1655.5000     81.7123      0.0000    516.0618      4.1105
  1655.7500     83.4666      0.0000    516.8708      4.0977
  1656.0000     83.7116      0.0000    513.6339      4.0776
  1656.2500     81.4999      0.0000    505.9445      4.0985
  1656.5000     77.1996      0.0000    495.7557      4.1771
  1656.7500     72.5094      0.0000    487.1673      4.2827
  1657.0000     69.4179      0.0000    482.4660      4.3515
  1657.2500     68.8772      0.0000    480.7853      4.3482
  1657.5000     70.2727      0.0000    480.3693      4.3111
  1657.7500     72.1605      0.0000    480.2186      4.3090
  1658.0000     73.5975      0.0000    480.0661      4.3781
  1658.2500     74.7672      0.0000    479.8844      4.5074
  1658.5000     76.3475      0.0000    479.6588      4.6552
  1658.7500     78.4415      0.0000    479.4636      4.7755
  1659.0000     80.3211      0.0000    479.4979      4.8505
  1659.2500     81.2531      0.0000    479.9581      4.8992
  1659.5000     81.3514      0.0000    481.1790      4.9329
  1659.7500     81.4014      0.0000    484.4320      4.9047
  1660.0000     81.8515      0.0000    491.6883      4.7909
  1660.2500     82.1177      0.0000    501.5730      4.7049
  1660.5000     81.0106      0.0000    507.0039      4.7541
  1660.7500     77.9423      0.0000    503.3246      4.8937
  1661.0000     73.8891      0.0000    495.5786      5.0560
  1661.2500     71.1145     -5.0000    492.5448      5.2107
  1661.5000     71.5571     -5.0000    501.1862      5.3173
  1661.7500     75.0687      0.0000    525.8058      5.3789
  1662.0000     79.2322      0.0000    557.8413      5.4548
  1662.2500     81.1389      0.0000    569.5015      5.6082
  1662.5000     79.5869      0.0000    540.8806      5.9402
  1662.7500     75.8027      0.0000    492.0745      6.4724
  1663.0000     72.3123      0.0000    464.9538      6.8884
  1663.2500     71.0994      0.0000    476.9844      6.9158
  1663.5000     72.4856      0.0000    511.3162      6.8549
  1663.7500     75.3278      0.0000    548.2725      7.0524
  1664.0000     77.9017      0.0000    582.9685      7.3643
  1664.2500     78.6236      0.0000    611.2100      7.5332
  1664.5000     76.6288      0.0000    624.7860      7.5557
  1664.7500     72.3349      0.0000    623.9030      7.5718
  1665.0000     67.3786      0.0000    619.8260      7.6671
  1665.2500     63.5978      0.0000    622.2631      7.8243
  1665.5000     61.9566      0.0000    628.9352      7.9779
  1665.7500     62.2470      0.0000    631.0132      8.0728
