~Version Information
VERS.                      2.0: CWLS Log ASCII Standard - VERSION 2.0
WRAP.                       NO: One line per depth step
~Well Information Block
STRT.FT                -2.0000: 
STOP.FT              1016.0000: 
STEP.FT                 0.2500: 
NULL.                -999.2500: 
COMP.          Evergreen Operating Corp.: COMPANY
WELL.              Sunset 24-3: WELL
FLD.           Purgatorie River: FIELD
LOC.           467' FSL & 2262' FWL--: LOCATION
PROV.                       CO: PROVINCE
CNTY.               Las Animas: COUNTRY
SRVC.                         : SERVICE COMPANY
DATE.          Mon Sep 27 13:40:22 2004: LOG DATE
UWI.           005 071 08158  : UNIQUE WELL ID
~Curve Information Block
DEPT.FT            0 000 00 00: Depth
GR.GAPI                       : Gamma Ray
CCL.                          : Casing Collar Locator
TT3.usec                      : CBL 3' Travel Time
AMP3.mV                       : CBL 3' Amplitude
~Parameter Information Block
~A  Depth        GR         CCL         TT3         AMP3    
# ...
   333.0000    113.5483      0.0000    812.9835      2.9371
   333.2500    112.3761      0.0000    826.4268      2.6718
   333.5000    112.6198      0.0000    835.2538      2.3253
   333.7500    114.4545      0.0000    838.4656      1.9534
   334.0000    117.6666      0.0000    836.0321      1.6261
   334.2500    120.7128      0.0000    828.3052      1.3952
   334.5000    120.8815      0.0000    816.9590      1.2735
   334.7500    115.9194      0.0000    805.8700      1.2400
   335.0000    105.6268      0.0000    799.6637      1.2599
   335.2500     92.0766      0.0000    800.4302      1.2973
   335.5000     78.5459      0.0000    805.7570      1.3170
   335.7500     68.0756      0.0000    810.1000      1.2906
   336.0000     62.3996      0.0000    808.6180      1.2110
   336.2500     61.5937      0.0000    800.6825      1.1073
   336.5000     64.2662      0.0000    790.1362      1.0458
   336.7500     68.1464      0.0000    781.7139      1.1083
   337.0000     71.1906      0.0000    776.8593      1.3421
   337.2500     72.6691      0.0000    772.8562      1.7103
   337.5000     73.1710      0.0000    765.8969      2.1060
   337.7500     73.5796      0.0000    755.0401      2.4314
   338.0000     74.2891      0.0000    743.1708      2.6611
   338.2500     75.2376      0.0000    734.3585      2.8314
   338.5000     76.2120      0.0000    731.0172      2.9920
   338.7500     76.8854      0.0000    733.3718      3.1756
   339.0000     76.6772      0.0000    740.2398      3.3946
   339.2500     75.1782      0.0000    749.6026      3.6392
   339.5000     73.1502      0.0000    759.2057      3.8735
   339.7500     72.6584      0.0000    767.3143      4.0416
   340.0000     75.5597      0.0000    772.9972      4.0924
   340.2500     81.9611      0.0000    776.0590      4.0107
   340.5000     90.3205      0.0000    777.3154      3.8319
   340.7500     98.5830      0.0000    778.5266      3.6217
   341.0000    104.9925      0.0000    780.9835      3.4365
   341.2500    108.5100      0.0000    783.8570      3.2987
   341.5000    109.2376      0.0000    784.6242      3.2039
   341.7500    108.3567      0.0000    781.4738      3.1365
   342.0000    107.0692      0.0000    774.7642      3.0765
   342.2500    105.6227      0.0000    766.0695      3.0063
   342.5000    103.8286      0.0000    756.6104      2.9221
   342.7500    102.1401      0.0000    746.8654      2.8345
   343.0000    101.3804      0.0000    737.0089      2.7512
   343.2500    101.6175      0.0000    727.7370      2.6632
   343.5000    102.1779      0.0000    720.8400      2.5540
   343.7500    102.7848      0.0000    717.7800      2.4225
   344.0000    103.8677      0.0000    716.9099      2.2939
   344.2500    105.3940      0.0000    713.8550      2.2031
   344.5000    106.0911      0.0000    706.4182      2.1679
   344.7500    104.6402      0.0000    697.7807      2.1794
   345.0000    101.5121      0.0000    693.3390      2.2180
   345.2500     98.9107      0.0000    695.6270      2.2709
   345.5000     98.8713      0.0000    703.6419      2.3300
   345.7500    101.7857      0.0000    715.4831      2.3810
   346.0000    106.6382      0.0000    729.4380      2.4055
   346.2500    111.9912      0.0000    742.9853      2.4043
   346.5000    116.5077      0.0000    753.2286      2.4157
   346.7500    119.2707      0.0000    760.0143      2.4953
   347.0000    120.1771      0.0000    768.0331      2.6565
   347.2500    119.6164      0.0000    784.0582      2.8405
   347.5000    117.4712      0.0000    810.6377      2.9693
   347.7500    113.0518      0.0000    842.2079      3.0177
   348.0000    106.4376      0.0000    868.4074      3.0147
   348.2500     99.3990      0.0000    882.3149      2.9935
   348.5000     94.6023     -2.0000    885.3445      2.9682
   348.7500     93.9306      0.0000    883.4686      2.9465
   349.0000     97.3603      0.0000    878.5521      2.9503
   349.2500    103.1212      0.0000    864.7719      3.0187
   349.5000    108.9849      0.0000    835.8829      3.1685
   349.7500    113.4310      0.0000    796.5923      3.3348
   350.0000    115.7150      0.0000    764.2084      3.3903
   350.2500    115.4605      0.0000    756.0662      3.2711
   350.5000    112.6767      0.0000    775.2726      3.0500
   350.7500    107.8537      0.0000    808.9865      2.8470
   351.0000    101.7420      0.0000    838.1132      2.7079
   351.2500     95.2682      0.0000    848.1558      2.6010
   351.5000     89.7300      0.0000    835.5333      2.4886
   351.7500     86.7769      0.0000    808.1581      2.3629
   352.0000     87.6646      0.0000    780.3302      2.2343
   352.2500     92.0015      0.0000    764.6675      2.1123
   352.5000     97.2837      0.0000    765.8459      1.9998
   352.7500    100.3447      0.0000    778.8367      1.8938
   353.0000     99.7095      0.0000    791.2624      1.7882
   353.2500     96.4861      0.0000    789.4340      1.6730
   353.5000     93.1496      0.0000    766.7829      1.5385
   353.7500     91.6721      0.0000    730.7755      1.3857
   354.0000     92.4299      0.0000    701.5930      1.2356
   354.2500     94.2481      0.0000    699.1428      1.1189
   354.5000     95.3808      0.0000    726.4183      1.0490
   354.7500     94.7756      0.0000    764.1063      1.0061
   355.0000     92.7331      0.0000    782.8715      0.9595
   355.2500     90.4020      0.0000    764.1308      0.9045
   355.5000     88.4955      0.0000    713.2486      0.8728
   355.7500     86.5241      0.0000    655.6657      0.9052
   356.0000     83.5276      0.0000    619.6603      1.0212
   356.2500     79.5555      0.0000    618.9133      1.2089
   356.5000     75.9318      0.0000    647.0574      1.4315
   356.7500     73.8475      0.0000    686.0118      1.6411
   357.0000     73.2420      0.0000    719.9150      1.8025
   357.2500     73.4157      0.0000    743.7265      1.9114
   357.5000     74.0624      0.0000    760.6487      1.9893
   357.7500     75.0231      0.0000    773.1639      2.0616
   358.0000     75.5441      0.0000    778.6653      2.1430
   358.2500     74.7267      0.0000    773.9020      2.2399
   358.5000     72.7325      0.0000    759.9189      2.3539
   358.7500     70.8869      0.0000    740.1636      2.4786
   359.0000     70.3462      0.0000    716.4678      2.6015
   359.2500     70.9516      0.0000    690.1623      2.7154
   359.5000     71.7112      0.0000    665.8963      2.8272
   359.7500     72.2098      0.0000    651.5637      2.9487
   360.0000     73.0023      0.0000    653.8173      3.0758
   360.2500     74.6896      0.0000    673.2542      3.1807
   360.5000     77.3285      0.0000    703.0422      3.2283
   360.7500     80.7892      0.0000    732.7892      3.2019
   361.0000     84.8697      0.0000    754.7874      3.1128
   361.2500     88.8731      0.0000    766.9253      2.9930
   361.5000     91.9102      0.0000    771.2830      2.8838
   361.7500     93.9760      0.0000    772.2642      2.8268
   362.0000     96.1062      0.0000    775.5522      2.8546
   362.2500     99.0626      0.0000    785.5737      2.9831
   362.5000    102.2675      0.0000    801.3900      3.1996
   362.7500    104.3807      0.0000    815.7573      3.4561
   363.0000    104.5892      0.0000    820.1824      3.6885
   363.2500    103.0263      0.0000    811.7706      3.8608
   363.5000    100.3193      0.0000    795.1003      3.9918
   363.7500     97.1854      0.0000    778.0842      4.1279
   364.0000     94.3054      0.0000    766.5178      4.2964
   364.2500     92.1914      0.0000    761.6031      4.4901
   364.5000     91.0958      0.0000    761.1404      4.6829
   364.7500     91.0505      0.0000    762.3812      4.8426
   365.0000     91.8689      0.0000    764.2665      4.9431
   365.2500     93.1980      0.0000    768.0908      4.9802
   365.5000     94.7621      0.0000    776.5562      4.9741
   365.7500     96.4908      0.0000    791.5627      4.9462
   366.0000     98.2975      0.0000    811.9877      4.9022
   366.2500     99.8577      0.0000    833.5368      4.8424
