~Version Information
VERS.                      2.0: CWLS Log ASCII Standard - VERSION 2.0
WRAP.                       NO: One line per depth step
~Well Information Block
STRT.FT               390.0000: 
STOP.FT              2770.2500: 
STEP.FT                 0.2500: 
NULL.                -999.2500: 
COMP.          Pioneer Natural Resources: COMPANY
WELL.              Lynch 43-30: WELL
FLD.           Purgatoire River: FIELD
LOC.           1438' FSL & 429' FEL: LOCATION
PROV.                 Colorado: PROVINCE
CNTY.               Las Animas: COUNTRY
SRVC.                Patterson: SERVICE COMPANY
DATE.          Wed Oct 27 08:06:51 2004: LOG DATE
UWI.           05 071 08170 00: UNIQUE WELL ID
~Curve Information Block
DEPT.FT            0 000 00 00: Depth
DIR.Ohm-m                     : IEL Induction Resistivity
SN.Ohm-m                      : IEL Short Normal
SP.mV                         : IEL Spontaneous Potential
GR.GAPI                       : Gamma Ray
~Parameter Information Block
~A  Depth       DIR          SN          SP          GR     
# ...
  1328.0000     15.1353     21.8475    181.4888    124.9254
  1328.2500     15.1630     22.0452    181.3504    126.2075
  1328.5000     15.2597     22.1331    181.2633    128.4130
  1328.7500     15.4173     22.1003    181.2196    129.6282
  1329.0000     15.6126     21.9223    181.2020    130.1378
  1329.2500     15.8093     21.5974    181.1924    129.1266
  1329.5000     15.9667     21.1712    181.1781    125.0983
  1329.7500     16.0535     20.7279    181.1539    120.9007
  1330.0000     16.0609     20.3515    181.1216    113.9320
  1330.2500     16.0067     20.0811    181.0847    110.4141
  1330.5000     15.9251     19.8979    181.0454    109.3080
  1330.7500     15.8499     19.7532    181.0022    111.7973
  1331.0000     15.7966     19.6021    180.9519    118.7913
  1331.2500     15.7543     19.4134    180.8925    123.7762
  1331.5000     15.6894     19.1670    180.8274    128.6698
  1331.7500     15.5666     18.8631    180.7652    129.2732
  1332.0000     15.3750     18.5324    180.7181    126.4066
  1332.2500     15.1439     18.2303    180.6978    122.7925
  1332.5000     14.9315     18.0148    180.7118    116.5196
  1332.7500     14.7992     17.9231    180.7624    112.7359
  1333.0000     14.7873     17.9553    180.8475    108.9754
  1333.2500     14.9057     18.0705    180.9636    108.0297
  1333.5000     15.1317     18.1999    181.1074    108.4700
  1333.7500     15.4103     18.2727    181.2761    109.5715
  1334.0000     15.6575     18.2439    181.4665    112.1862
  1334.2500     15.7786     18.1038    181.6731    114.5425
  1334.5000     15.7041     17.8600    181.8895    118.4062
  1334.7500     15.4282     17.5104    182.1100    120.6386
  1335.0000     15.0160     17.0442    182.3323    123.2040
  1335.2500     14.5671     16.4746    182.5577    124.8960
  1335.5000     14.1649     15.8591    182.7896    128.4228
  1335.7500     13.8455     15.2729    183.0304    131.3552
  1336.0000     13.6003     14.7674    183.2797    135.0674
  1336.2500     13.3972     14.3633    183.5339    135.9743
  1336.5000     13.2052     14.0662    183.7868    134.3378
  1336.7500     13.0067     13.8680    184.0310    131.9282
  1337.0000     12.7989     13.7312    184.2584    128.2558
  1337.2500     12.5923     13.5947    184.4619    126.4358
  1337.5000     12.4075     13.4153    184.6375    124.4207
  1337.7500     12.2685     13.1997    184.7872    123.0249
  1338.0000     12.1934     12.9947    184.9216    120.4378
  1338.2500     12.1849     12.8481    185.0588    118.7788
  1338.5000     12.2295     12.7776    185.2207    117.8747
  1338.7500     12.3026     12.7644    185.4273    119.1691
  1339.0000     12.3769     12.7666    185.6899    124.3103
  1339.2500     12.4282     12.7426    186.0075    129.1480
  1339.5000     12.4378     12.6688    186.3665    136.2260
  1339.7500     12.3954     12.5480    186.7451    139.6494
  1340.0000     12.3036     12.4085    187.1191    142.2976
  1340.2500     12.1821     12.2983    187.4679    142.9779
  1340.5000     12.0651     12.2714    187.7773    143.9366
  1340.7500     11.9912     12.3700    188.0401    145.0543
  1341.0000     11.9923     12.6128    188.2558    146.7766
  1341.2500     12.0861     12.9950    188.4286    146.9315
  1341.5000     12.2752     13.4987    188.5670    144.5377
  1341.7500     12.5508     14.1013    188.6824    141.5031
  1342.0000     12.9008     14.7798    188.7873    136.3074
  1342.2500     13.3181     15.5200    188.8927    133.0041
  1342.5000     13.8085     16.3312    189.0060    128.0373
  1342.7500     14.3943     17.2598    189.1305    124.1791
  1343.0000     15.1112     18.3906    189.2671    117.2465
  1343.2500     16.0000     19.8244    189.4187    112.3553
  1343.5000     17.0909     21.6245    189.5945    105.9059
  1343.7500     18.3843     23.7634    189.8116    102.5528
  1344.0000     19.8343     26.1174    190.0924     98.5813
  1344.2500     21.3534     28.5240    190.4576     96.2616
  1344.5000     22.8483     30.8615    190.9191     93.0111
  1344.7500     24.2635     33.0958    191.4754     91.1102
  1345.0000     25.5901     35.2707    192.1128     88.9784
  1345.2500     26.8365     37.4563    192.8116     88.1028
  1345.5000     28.0102     39.6923    193.5551     87.5056
  1345.7500     29.1328     41.9766    194.3365     87.5082
  1346.0000     30.2564     44.3000    195.1641     87.6895
  1346.2500     31.4398     46.6781    196.0584     87.2795
  1346.5000     32.6992     49.1447    197.0451     84.6764
  1346.7500     33.9834     51.7369    198.1443     81.6738
  1347.0000     35.2031     54.5028    199.3600     77.0341
  1347.2500     36.2979     57.5043    200.6738     74.9640
  1347.5000     37.2867     60.7774    202.0451     73.4593
  1347.7500     38.2510     64.2712    203.4171     72.4591
  1348.0000     39.2649     67.8284    204.7262     69.2194
  1348.2500     40.3469     71.2393    205.9124     65.8409
  1348.5000     41.4826     74.3288    206.9288     60.1975
  1348.7500     42.6824     77.0172    207.7484     56.8218
  1349.0000     43.9806     79.3211    208.3678     52.9634
  1349.2500     45.3522     81.3052    208.8070     51.3034
  1349.5000     46.6355     83.0268    209.1044     50.3940
  1349.7500     47.5800     84.5120    209.3067     50.9024
  1350.0000     48.0031     85.7692    209.4576     52.7692
  1350.2500     47.9187     86.8051    209.5874     54.0488
  1350.5000     47.5107     87.6270    209.7073     55.0330
  1350.7500     47.0077     88.2504    209.8124     54.9603
  1351.0000     46.5805     88.7169    209.8904     54.1737
  1351.2500     46.3146     89.1029    209.9334     53.5532
  1351.5000     46.2285     89.4933    209.9481     53.1761
  1351.7500     46.2967     89.9436    209.9577     53.6889
  1352.0000     46.4658     90.4689    209.9957     55.8037
  1352.2500     46.6813     91.0665    210.0937     57.7663
  1352.5000     46.9063     91.7335    210.2679     60.4943
  1352.7500     47.1215     92.4576    210.5118     61.6493
  1353.0000     47.2820     93.2094    210.7965     62.0250
  1353.2500     47.2755     93.9591    211.0794     61.5397
  1353.5000     46.9640     94.7026    211.3160     60.5800
  1353.7500     46.3306     95.4560    211.4698     60.3209
  1354.0000     45.6077     96.2153    211.5171     60.6058
  1354.2500     45.2241     96.9216    211.4444     60.7314
  1354.5000     45.5852     97.4645    211.2446     59.8703
  1354.7500     46.8438     97.7224    210.9146     58.5641
  1355.0000     48.7637     97.6161    210.4566     56.3601
  1355.2500     50.7460     97.1458    209.8821     55.2336
  1355.5000     52.1009     96.3829    209.2141     54.2063
  1355.7500     52.4607     95.4189    208.4858     53.7363
  1356.0000     51.9334     94.3097    207.7361     53.1125
  1356.2500     50.8741     93.0566    207.0019     52.9026
  1356.5000     49.6108     91.6229    206.3126     53.4965
  1356.7500     48.3598     89.9506    205.6884     54.8039
  1357.0000     47.2449     87.9571    205.1417     58.2474
  1357.2500     46.2900     85.5307    204.6816     61.3337
  1357.5000     45.3853     82.5410    204.3150     66.5841
  1357.7500     44.3098     78.8600    204.0450     70.1719
  1358.0000     42.8366     74.3941    203.8641     75.1717
  1358.2500     40.8777     69.1400    203.7471     78.0204
  1358.5000     38.5375     63.2500    203.6484     81.5901
  1358.7500     36.0266     57.0517    203.5057     83.9148
  1359.0000     33.5247     50.9773    203.2525     88.4891
  1359.2500     31.1134     45.4273    202.8328     92.8522
  1359.5000     28.8064     40.6462    202.2167    101.6024
  1359.7500     26.6148     36.6719    201.4103    108.4687
  1360.0000     24.5772     33.3771    200.4573    118.8032
  1360.2500     22.7378     30.5741    199.4310    124.6905
  1360.5000     21.1125     28.1163    198.4176    130.7956
  1360.7500     19.6840     25.9424    197.4964    133.0064
  1361.0000     18.4229     24.0593    196.7222    134.5692
  1361.2500     17.3113     22.4965    196.1175    135.1656
