~Version Information
VERS.                      2.0: CWLS Log ASCII Standard - VERSION 2.0
WRAP.                       NO: One line per depth step
~Well Information Block
STRT.FT                -3.2500: 
STOP.FT              1637.5000: 
STEP.FT                 0.2500: 
NULL.                -999.2500: 
COMP.          Pioneer Natural Resources: COMPANY
WELL.            Mad Dog 42-31: WELL
FLD.           Purgatorie River: FIELD
LOC.           2064' FNL & 479' FEL--: LOCATION
PROV.                       CO: PROVINCE
CNTY.               Las Animas: COUNTRY
SRVC.                         : SERVICE COMPANY
DATE.          Fri Oct 15 16:13:39 2004: LOG DATE
UWI.          005 071 08195   : UNIQUE WELL ID
~Curve Information Block
DEPT.FT            0 000 00 00: Depth
HVOLTA.V                      : Head Voltage Apparent
GR.GAPI                       : Gamma Ray
CCL.                          : Casing Collar Locator
TT3.usec                      : CBL 3' Travel Time
AMP3.mV                       : CBL 3' Amplitude
~Parameter Information Block
~A  Depth      HVOLTA        GR         CCL         TT3         AMP3    
# ...
   332.7500     97.1422     89.6172      0.0000    839.0714      7.5044
   333.0000     97.3954     85.3663      0.0000    861.1618      7.5231
   333.2500     97.2246     82.0363      0.0000    881.9049      7.4889
   333.5000     97.4600     79.4166      0.0000    895.6771      7.4626
   333.7500     97.3202     78.6740      0.0000    900.0507      7.5031
   334.0000     97.2246     80.5919      0.0000    896.6229      7.6222
   334.2500     97.0705     84.3190      0.0000    889.8597      7.7883
   334.5000     97.1183     88.2563      0.0000    884.6635      7.9581
   334.7500     97.1732     91.5682      0.0000    883.5546      8.0997
   335.0000     97.2617     94.2110      0.0000    884.9437      8.1920
   335.2500     97.2378     96.0371      0.0000    884.4179      8.2164
   335.5000     97.3380     96.7146      0.0000    878.6359      8.1607
   335.7500     97.1386     96.2650      0.0000    868.0865      8.0397
   336.0000     97.3273     95.0319      0.0000    856.0010      7.9095
   336.2500     97.1697     93.1940      0.0000    845.3177      7.8470
   336.5000     97.2556     90.6143      0.0000    836.8857      7.9011
   336.7500     97.3608     87.1710      0.0000    830.0481      8.0616
   337.0000     97.2175     83.1985      0.0000    824.6766      8.2798
   337.2500     97.2927     79.5043      0.0000    822.3530      8.5134
   337.5000     97.1255     76.9314      0.0000    825.4233      8.7460
   337.7500     97.2103     75.9407      0.0000    834.9767      8.9730
   338.0000     97.2831     76.5338      0.0000    848.9332      9.1863
   338.2500     97.2007     78.4201      0.0000    861.3419      9.3809
   338.5000     97.0812     81.1713      0.0000    865.3535      9.5665
   338.7500     97.1290     84.0615      0.0000    858.9383      9.7641
   339.0000     97.2963     85.7981      0.0000    846.7244      9.9869
   339.2500     97.2043     85.0723      0.0000    834.2349     10.2155
   339.5000     97.2892     81.7221      0.0000    821.4086     10.3944
   339.7500     97.3858     76.9315      0.0000    804.1938     10.4655
   340.0000     97.1732     72.1095      0.0000    781.5926     10.4136
   340.2500     97.2795     68.1543      0.0000    758.3366     10.2745
   340.5000     97.1051     65.9446      0.0000    740.7341     10.1051
   340.7500     97.1840     66.8103      0.0000    732.0421      9.9554
   341.0000     97.1529     71.8867      0.0000    731.7959      9.8591
   341.2500     97.2592     80.9676      0.0000    737.4525      9.8324
   341.5000     97.2927     91.9276      0.0000    745.7463      9.8666
   341.7500     97.2856    101.3425      0.0000    753.6513      9.9263
   342.0000     97.2521    106.2983      0.0000    759.3342      9.9635
   342.2500     97.2592    106.2854      0.0000    762.5040      9.9389
   342.5000     97.3334    103.4611      0.0000    763.8366      9.8384
   342.7500     97.0741    100.7624      0.0000    764.1044      9.6701
   343.0000     97.1529     99.5629      0.0000    763.7196      9.4491
   343.2500     97.0049     99.2776      0.0000    762.7039      9.1856
   343.5000     97.1458     98.9402      0.0000    760.9076      8.8889
   343.7500     97.0598     98.3179      0.0000    758.4738      8.5836
   344.0000     97.1051     97.4308      0.0000    756.2839      8.3150
   344.2500     97.1219     95.9728      0.0000    755.6719      8.1307
   344.5000     97.2795     93.6390      0.0000    757.3201      8.0540
   344.7500     97.1971     90.6783      0.0000    760.6502      8.0781
   345.0000     97.2425     88.1537      0.0000    764.6895      8.1855
   345.2500     97.1804     87.7498      0.0000    769.4800      8.3609
   345.5000     97.1732     90.6364      0.0000    776.1176      8.5793
   345.7500     97.1732     96.0052      0.0000    784.8215      8.7893
   346.0000     97.1971    101.1596      0.0000    792.9363      8.9268
   346.2500     97.2318    103.5544      0.0000    795.9658      8.9592
   346.5000     97.2892    102.7601      0.0000    791.6564      8.9148
   346.7500     97.3106    100.4463      0.0000    782.4299      8.8665
   347.0000     97.0741     98.5641      0.0000    772.9398      8.8873
   347.2500     97.2963     97.6443      0.0000    765.9587      9.0097
   347.5000     97.2068     96.9289      0.0000    761.3018      9.2109
   347.7500     97.1757     95.9284      0.0000    757.7935      9.4290
   348.0000     97.3202     95.2840      0.0000    755.2209      9.6040
   348.2500     97.2150     95.9820      0.0000    754.3726      9.7104
   348.5000     97.2999     98.2768      0.0000    755.6919      9.7582
   348.7500     97.1971    101.5794      0.0000    758.4042      9.7661
   349.0000     97.0741    104.8474      0.0000    761.0938      9.7418
   349.2500     97.2139    106.9160      0.0000    762.8488      9.6883
   349.5000     97.2353    107.1297      0.0000    763.6283      9.6189
   349.7500     97.2485    106.0914      0.0000    763.8421      9.5567
   350.0000     97.2867    105.2336      0.0000    763.8582      9.5239
   350.2500     97.1911    105.1231      0.0000    763.8228      9.5294
   350.5000     97.3823    104.5938      0.0000    763.7241      9.5565
   350.7500     97.2175    102.1219      0.0000    763.5182      9.5615
   351.0000     97.1971     97.8461      0.0000    763.1716      9.5010
   351.2500     97.3166     93.6468      0.0000    762.5816      9.3684
   351.5000     97.1900     91.0974      0.0000    761.4855      9.2000
   351.7500     97.2784     89.7749      0.0000    759.5718      9.0459
   352.0000     97.2617     87.8724      0.0000    756.9238      8.9377
   352.2500     97.2963     84.2969      0.0000    754.4417      8.8791
   352.5000     97.3644     80.0014      0.0000    753.5013      8.8539
   352.7500     97.2449     77.2611      0.0000    754.8147      8.8401
   353.0000     97.1255     77.6824      0.0000    757.7087      8.8233
   353.2500     97.2963     80.9900      0.0000    760.7335      8.8033
   353.5000     97.1554     85.6249      0.0000    762.8348      8.7899
   353.7500     97.2556     90.0511      0.0000    763.8412      8.7886
   354.0000     97.2043     93.2129      0.0000    764.1412      8.7923
   354.2500     97.1016     94.4577      0.0000    764.2067      8.7808
   354.5000     97.4600     93.9694      0.0000    764.3787      8.7199
   354.7500     97.4875     93.0219      0.0000    764.9041      8.5580
   355.0000     97.1326     92.7588      0.0000    766.1005      8.2326
   355.2500     97.3273     92.7084      0.0000    768.6521      7.7151
   355.5000     97.1971     91.3880      0.0000    773.9477      7.0830
   355.7500     97.1804     88.3867      0.0000    784.0783      6.5279
   356.0000     97.2246     85.1317      0.0000    800.9490      6.2236
   356.2500     97.2760     83.4779      0.0000    824.6008      6.1794
   356.5000     97.2485     83.9415      0.0000    851.9040      6.2694
   356.7500     97.3716     85.4021      0.0000    877.1632      6.3860
   357.0000     97.2246     86.2660      0.0000    894.6605      6.5055
   357.2500     97.1900     85.7348      0.0000    901.4762      6.6333
   357.5000     97.1697     84.2504      2.0000    898.9352      6.7569
   357.7500     97.1087     83.1232      0.0000    892.0275      6.8584
   358.0000     97.1183     83.6747      0.0000    886.2324      6.9495
   358.2500     97.0766     86.3385      0.0000    883.2654      7.0822
   358.5000     97.2653     90.3422      0.0000    880.2988      7.3133
   358.7500     97.2664     94.2966      0.0000    874.4050      7.6401
   359.0000     97.2342     97.1255      0.0000    866.7063      7.9838
   359.2500     97.3309     98.4820      0.0000    860.7809      8.2501
   359.5000     97.2556     98.6641      0.0000    857.7851      8.3922
   359.7500     97.1793     98.4068      0.0000    854.8895      8.4136
   360.0000     97.2210     98.3934      0.0000    849.0327      8.3425
   360.2500     97.2617     98.5862      0.0000    841.1237      8.2131
   360.5000     97.2927     98.2427      0.0000    835.0450      8.0516
