~Version Information
VERS.                      2.0: CWLS Log ASCII Standard - VERSION 2.0
WRAP.                       NO: One line per depth step
~Well Information Block
STRT.FT                 0.0000: 
STOP.FT              2025.0000: 
STEP.FT                 0.2500: 
NULL.                -999.2500: 
COMP.          Petrogulf Corporation: COMPANY
WELL.          Robinson 15-12V: WELL
FLD.           Purgatorie River: FIELD
LOC.           1788' FNL & 466' FWL: LOCATION
PROV.                 Colorado: PROVINCE
CNTY.               Las Animas: COUNTRY
SRVC.                Patterson: SERVICE COMPANY
DATE.          Tue Oct 04 11:57:31 2005: LOG DATE
UWI.                          : UNIQUE WELL ID
~Curve Information Block
DEPT.FT            0 000 00 00: Depth
GR.GAPI                       : Gamma Ray
CCL.                          : Casing Collar Locator
TT3.usec                      : CBL 3' Travel Time
AMP3.mV                       : CBL 3' Amplitude
~Parameter Information Block
~A  Depth        GR         CCL         TT3         AMP3    
# ...
   938.0000    138.2954      0.0000    806.2763     12.1564
   938.2500    142.0472      0.0000    806.4210     12.1303
   938.5000    145.7277      0.0000    806.6914     12.1169
   938.7500    148.1317      0.0000    807.0388     12.0948
   939.0000    147.9289      0.0000    807.3178     12.0862
   939.2500    144.9077      0.0000    807.1868     12.1118
   939.5000    140.2690      0.0000    805.9254     12.1409
   939.7500    135.6608      0.0000    802.7865     12.1284
   940.0000    131.9970      0.0000    798.3744     12.0878
   940.2500    129.1841      0.0000    794.9212     12.0734
   940.5000    126.7886      0.0000    792.8463     12.0980
   940.7500    124.8017      0.0000    789.8026     12.1183
   941.0000    123.8055      0.0000    786.5592     12.1070
   941.2500    124.4371      0.0000    787.7315     12.0883
   941.5000    126.6751      0.0000    794.0311     12.0999
   941.7500    129.6122      0.0000    800.8206     12.1548
   942.0000    131.7905      0.0000    804.7103     12.2395
   942.2500    131.8710      0.0000    806.1383     12.3339
   942.5000    129.5620      0.0000    806.6577     12.4252
   942.7500    126.2966      0.0000    807.0956     12.5052
   943.0000    124.4788      0.0000    807.6600     12.5584
   943.2500    125.4199      0.0000    808.3141     12.5711
   943.5000    128.2502      0.0000    808.9500     12.5592
   943.7500    131.0933      0.0000    809.4230     12.5555
   944.0000    132.7694      0.0000    809.3777     12.5633
   944.2500    133.1715      0.0000    808.0160     12.5682
   944.5000    132.6699      0.0000    804.3119     12.5760
   944.7500    131.6295      0.0000    798.3096     12.5816
   945.0000    130.2847      0.0000    791.8687     12.5530
   945.2500    128.8262      0.0000    786.8550     12.4828
   945.5000    127.4138      0.0000    784.9050     12.3727
   945.7500    125.9781      0.0000    788.8310     12.1660
   946.0000    124.2009      0.0000    800.7463     11.8202
   946.2500    121.8607      0.0000    823.4689     11.4715
   946.5000    118.9461      0.0000    861.9054     11.2701
   946.7500    115.4060      0.0000    906.3854     11.0204
   947.0000    111.2611      0.0000    922.6294     10.5216
   947.2500    107.1385      0.0000    889.4398     10.0394
   947.5000    104.2933      0.0000    830.9744      9.8358
   947.7500    103.7561     -2.0000    784.2471      9.7989
   948.0000    105.6046     -2.0000    763.0231      9.7843
   948.2500    109.1393      0.0000    763.7845      9.7992
   948.5000    113.5031      0.0000    777.3614      9.8590
   948.7500    117.8658      0.0000    790.3986      9.9833
   949.0000    121.2326      0.0000    794.4259     10.3468
   949.2500    122.6380      0.0000    794.6392     11.0618
   949.5000    121.8668      0.0000    801.0367     11.7376
   949.7500    119.9244      0.0000    813.3343     11.9421
   950.0000    118.4838      0.0000    821.0411     11.9042
   950.2500    118.6745      0.0000    818.8590     11.9871
   950.5000    120.4451      0.0000    812.2869     12.1440
   950.7500    122.9737      0.0000    807.4733     12.2259
   951.0000    125.3174      0.0000    805.3226     12.2121
   951.2500    126.6411      0.0000    804.4260     12.1329
   951.5000    126.3044      0.0000    803.8937     12.0128
   951.7500    124.0356      0.0000    803.5112     11.8768
   952.0000    119.9880      0.0000    803.2485     11.7407
   952.2500    114.6960      0.0000    803.1323     11.5862
   952.5000    109.1121      0.0000    803.1901     11.3962
   952.7500    104.4180      0.0000    803.3451     11.2004
   953.0000    101.4977      0.0000    803.4669     11.0387
   953.2500    100.5051      0.0000    803.5000     10.9066
   953.5000    100.7994      0.0000    803.4839     10.7591
   953.7500    101.1552      0.0000    803.4391     10.5609
   954.0000    100.2261      0.0000    803.2889     10.3367
   954.2500     97.2844      0.0000    802.9940     10.1510
   954.5000     93.0070      0.0000    802.6824     10.0370
   954.7500     89.5872      0.0000    802.5156      9.9934
   955.0000     89.5468      0.0000    802.5234     10.0153
   955.2500     94.0350      0.0000    802.6381     10.0811
   955.5000    102.1917      0.0000    802.8130     10.1625
   955.7500    111.9196      0.0000    803.1108     10.2579
   956.0000    121.0084      0.0000    803.7536     10.3692
   956.2500    127.9502      0.0000    804.9485     10.4807
   956.5000    132.4265      0.0000    806.2575     10.5808
   956.7500    135.0136      0.0000    805.9946     10.6699
   957.0000    135.9888      0.0000    801.7606     10.7647
   957.2500    134.6671      0.0000    792.7477     10.8900
   957.5000    130.3718      0.0000    782.1917     11.0446
   957.7500    123.7104      0.0000    775.6118     11.2043
   958.0000    116.2093      0.0000    774.6184     11.3539
   958.2500    108.9515      0.0000    774.7161     11.4949
   958.5000    102.3648      0.0000    771.6626     11.6306
   958.7500     96.9961      0.0000    766.6766     11.7434
   959.0000     93.3339      0.0000    762.8533     11.8183
   959.2500     90.8860      0.0000    760.9621     11.8805
   959.5000     88.4796      0.0000    760.2771     11.9645
   959.7500     85.7649      0.0000    760.1879     12.0634
   960.0000     83.7967      0.0000    760.4103     12.1329
   960.2500     83.8885      0.0000    760.7233     12.1394
   960.5000     86.1473      0.0000    760.8008     12.0849
   960.7500     89.2948      0.0000    760.3953     11.9971
   961.0000     91.9123      0.0000    759.6498     11.9121
   961.2500     93.7265      0.0000    759.0070     11.8507
   961.5000     95.5092      0.0000    759.0012     11.8076
   961.7500     97.9668      0.0000    760.6297     11.7647
   962.0000    101.1307      0.0000    765.7034     11.7095
   962.2500    104.5107      0.0000    775.3366     11.6471
   962.5000    107.2471      0.0000    787.2344     11.5952
   962.7500    108.3176      0.0000    796.8300     11.5643
   963.0000    107.2452      0.0000    802.0759     11.5484
   963.2500    104.6427      0.0000    804.4540     11.5523
   963.5000    101.7492      0.0000    806.0809     11.6047
   963.7500     99.5756      0.0000    809.1704     11.7154
   964.0000     98.7247      0.0000    819.3754     11.8459
   964.2500     99.6033      0.0000    847.9108     11.9298
   964.5000    102.1655      0.0000    901.6852     11.9074
   964.7500    105.5773      0.0000    965.5487     11.7831
   965.0000    108.7651      0.0000   1009.6792     11.6418
   965.2500    111.4144      0.0000   1024.5374     11.5521
   965.5000    114.0266      0.0000   1028.8541     11.4978
   965.7500    116.9345      0.0000   1032.6379     11.4577
   966.0000    119.7269      0.0000   1022.6359     11.4640
   966.2500    121.9232      0.0000   1004.9647     11.5313
   966.5000    123.8657      0.0000   1013.0525     11.6233
   966.7500    126.3777      0.0000   1048.5214     11.7177
   967.0000    129.6313      0.0000   1073.9141     11.8153
   967.2500    132.8121      0.0000   1069.5936     11.8969
   967.5000    134.9507      0.0000   1043.9657     11.9444
   967.7500    135.8275      0.0000   1003.9437     11.9665
   968.0000    136.0570      0.0000    954.0186     11.9610
   968.2500    136.3840      0.0000    907.8881     11.9121
   968.5000    136.9137      0.0000    879.9093     11.8337
   968.7500    137.0271      0.0000    870.6699     11.7552
   969.0000    136.0305      0.0000    868.8124     11.6763
   969.2500    134.0054      0.0000    866.6211     11.5874
   969.5000    132.1778      0.0000    870.2282     11.5144
   969.7500    132.1398      0.0000    891.5324     11.4964
   970.0000    134.2558      0.0000    926.1524     11.5221
   970.2500    137.1187      0.0000    945.5375     11.5339
   970.5000    139.0569      0.0000    933.2888     11.5020
   970.7500    139.7600      0.0000    914.2457     11.4526
   971.0000    139.9455      0.0000    913.9884     11.4308
   971.2500    140.0071      0.0000    919.7335     11.4631
