~Version Information
VERS.                      2.0: CWLS Log ASCII Standard - VERSION 2.0
WRAP.                       NO: One line per depth step
~Well Information Block
STRT.FT               580.0000: 
STOP.FT              2729.7000: 
STEP.FT                 0.1000: 
NULL.                -999.2500: 
COMP.          Pioneer Natural Resources: COMPANY
WELL.          Sand Pebbles 13-33: WELL
FLD.           Purgatoire River: FIELD
LOC.           1883' FSL & 63' FWL----: LOCATION
PROV.                 Colorado: PROVINCE
CNTY.               Las Animas: COUNTRY
SRVC.                Patterson: SERVICE COMPANY
DATE.          Mon Mar 14 07:33:33 2005: LOG DATE
UWI.           05 071 08224 00: UNIQUE WELL ID
~Curve Information Block
DEPT.FT            0 000 00 00: Depth
DCAL.in                       : CDL Caliper
RHOB.g/cc                     : CDL Bulk Density
RHOC.g/cc                     : CDL Density Correction
DPOR.pu                       : CDL Density Porosity
NPOR.pu                       : Neutron Porosity
GR.GAPI                       : Gamma Ray
~Parameter Information Block
~A  Depth       DCAL        RHOB        RHOC        DPOR        NPOR         GR     
# ...
  1290.4000      8.1732      2.5831      0.0349      4.0518     26.1848    110.4573
  1290.5000      8.1727      2.5803      0.0810      4.2222     26.2188    112.2688
  1290.6000      8.1727      2.5824      0.0227      4.0976     26.7390    118.6413
  1290.7000      8.1727      2.5863      0.0921      3.8584     27.1397    127.1793
  1290.8000      8.1729      2.5895      0.0304      3.6677     26.9888    132.6569
  1290.9000      8.1729      2.5972      0.0534      3.2026     26.9849    136.2655
  1291.0000      8.1742      2.6063      0.0156      2.6498     27.7099    140.1561
  1291.1000      8.1742      2.6036      0.0593      2.8141     28.7646    142.0278
  1291.2000      8.1742      2.5878      0.0580      3.7680     29.4422    140.4507
  1291.3000      8.1748      2.5756      0.0510      4.5108     29.8135    137.0594
  1291.4000      8.1748      2.5808      0.0396      4.1919     30.1278    135.4281
  1291.5000      8.1762      2.5998      0.0501      3.0419     30.0540    136.1875
  1291.6000      8.1762      2.6131      0.1355      2.2342     29.7969    136.6968
  1291.7000      8.1762      2.6124      0.0157      2.2809     29.9011    135.8460
  1291.8000      8.1790      2.6190      0.0359      1.8775     29.9250    131.2814
  1291.9000      8.1790      2.6443      0.0402      0.3454     29.2158    121.6104
  1292.0000      8.1802      2.6659      0.0544     -0.9649     28.1709    111.2952
  1292.1000      8.1802      2.6612      0.0375     -0.6816     27.6344    105.9720
  1292.2000      8.1802      2.6412     -0.0095      0.5350     27.8288    106.9542
  1292.3000      8.1788      2.6333      0.0184      1.0094     28.1248    110.2970
  1292.4000      8.1788      2.6418      0.0817      0.4946     27.8602    111.5077
  1292.5000      8.1778      2.6531      0.0637     -0.1909     27.2911    108.7310
  1292.6000      8.1778      2.6645      0.0478     -0.8803     27.2026    104.8644
  1292.7000      8.1778      2.6823      0.0579     -1.9550     27.6674    104.0097
  1292.8000      8.1788      2.7061      0.0542     -3.4007     27.9955    107.0710
  1292.9000      8.1788      2.7268      0.0854     -4.6572     27.7700    112.0987
  1293.0000      8.1802      2.7356      0.1004     -5.1869     27.1265    115.3129
  1293.1000      8.1802      2.7315      0.1110     -4.9404     26.4140    114.3274
  1293.2000      8.1802      2.7213      0.0642     -4.3197     25.8974    110.9917
  1293.3000      8.1791      2.7195      0.0529     -4.2113     25.5105    106.2891
  1293.4000      8.1791      2.7391      0.0655     -5.4008     25.1553    103.0165
  1293.5000      8.1805      2.7751      0.1004     -7.5816     24.9986    102.6687
  1293.6000      8.1805      2.8017      0.1909     -9.1921     25.0999    101.5295
  1293.7000      8.1805      2.7987      0.1321     -9.0128     25.0921    100.7842
  1293.8000      8.1921      2.7770      0.0890     -7.6982     24.8910    103.6818
  1293.9000      8.1921      2.7580      0.0533     -6.5452     25.0998    107.0184
  1294.0000      8.2070      2.7442      0.0645     -5.7069     25.8945    107.9938
  1294.1000      8.2070      2.7255      0.0514     -4.5742     26.6779    106.4928
  1294.2000      8.2070      2.7011      0.0415     -3.0995     27.1272    104.4246
  1294.3000      8.2163      2.6766      0.0100     -1.6120     27.2423    105.4816
  1294.4000      8.2163      2.6514     -0.0087     -0.0857     26.9534    109.7645
  1294.5000      8.2233      2.6302     -0.0011      1.1983     26.6252    114.8472
  1294.6000      8.2233      2.6184      0.0045      1.9181     26.8801    121.0435
  1294.7000      8.2233      2.6051      0.0514      2.7237     27.6374    126.8276
  1294.8000      8.2342      2.5885     -0.0262      3.7244     28.0465    127.3621
  1294.9000      8.2342      2.5920     -0.0438      3.5140     27.5030    121.8372
  1295.0000      8.2486      2.6180      0.0608      1.9416     26.7220    115.1057
  1295.1000      8.2486      2.6423      0.0395      0.4667     26.7126    112.6628
  1295.2000      8.2486      2.6550      0.1057     -0.3005     27.3467    115.8897
  1295.3000      8.2532      2.6601      0.0645     -0.6119     28.0071    118.6491
  1295.4000      8.2532      2.6531      0.0803     -0.1861     28.3474    118.2806
  1295.5000      8.2417      2.6139      0.0652      2.1875     28.4966    121.1933
  1295.6000      8.2417      2.5449     -0.0089      6.3672     29.3171    130.5158
  1295.7000      8.2417      2.4815     -0.0433     10.2107     31.0632    141.9567
  1295.8000      8.2262      2.4353     -0.0302     13.0150     32.4306    149.1389
  1295.9000      8.2262      2.3817     -0.0081     16.2635     32.6044    149.0720
  1296.0000      8.2212      2.3161     -0.0754     20.2385     32.5975    144.1355
  1296.1000      8.2212      2.2501     -0.0691     24.2367     33.0782    136.0164
  1296.2000      8.2212      2.1549      0.0039     30.0067     33.6634    127.8616
  1296.3000      8.2600      2.0078     -0.0942     38.9199     34.3103    124.3782
  1296.4000      8.2600      1.8622     -0.1561     47.7463     35.3048    124.2568
  1296.5000      8.4308      1.7714     -0.0723     53.2501     36.2775    123.7989
  1296.6000      8.4308      1.7125      0.0412     56.8190     36.5760    119.6902
  1296.7000      8.4308      1.6517      0.0288     60.5034     36.2701    111.5749
  1296.8000      8.7856      1.6189     -0.0124     62.4919     35.8953    108.1528
  1296.9000      8.7856      1.6599      0.1093     60.0041     35.6515    117.8967
  1297.0000      9.1986      1.7640      0.2315     53.6943     35.2871    135.3957
  1297.1000      9.1986      1.8909      0.2673     46.0090     34.5179    146.6614
  1297.2000      9.1986      2.0182      0.3319     38.2911     33.4245    145.1715
  1297.3000      9.4070      2.1371      0.3630     31.0825     32.5855    135.8416
  1297.4000      9.4070      2.2464      0.3442     24.4582     32.0923    127.8376
  1297.5000      9.1501      2.3550      0.3319     17.8784     31.3433    127.8952
  1297.6000      9.1501      2.4605      0.3468     11.4877     30.3901    135.1563
  1297.7000      9.1501      2.5337      0.3365      7.0483     29.7148    141.8024
  1297.8000      8.6038      2.5553      0.2454      5.7420     29.3308    142.5018
  1297.9000      8.6038      2.5410      0.1296      6.6086     28.9789    139.7174
  1298.0000      8.2724      2.5155      0.0807      8.1536     28.7014    139.2102
  1298.1000      8.2724      2.5013      0.0443      9.0112     28.5399    139.2530
  1298.2000      8.2724      2.5172      0.0327      8.0508     27.9090    135.4091
  1298.3000      8.1959      2.5535      0.0533      5.8511     26.5976    132.9155
  1298.4000      8.1959      2.5842      0.0873      3.9853     25.2870    133.9775
  1298.5000      8.1876      2.6036      0.0495      2.8118     24.5915    131.3486
  1298.6000      8.1876      2.6219      0.0704      1.7023     24.1271    122.8176
  1298.7000      8.1876      2.6431      0.0631      0.4197     23.2016    115.0100
  1298.8000      8.1865      2.6568      0.1102     -0.4120     22.1428    110.6099
  1298.9000      8.1865      2.6512      0.1017     -0.0752     21.3624    108.3033
  1299.0000      8.1872      2.6294      0.0714      1.2488     20.5326    112.7890
  1299.1000      8.1872      2.6045      0.0568      2.7553     19.7786    124.9160
  1299.2000      8.1872      2.5893      0.0523      3.6776     19.6563    132.5185
  1299.3000      8.1893      2.5813      0.0442      4.1629     20.4828    127.2652
  1299.4000      8.1893      2.5734      0.0177      4.6412     22.1328    114.9858
  1299.5000      8.1901      2.5736      0.0008      4.6285     23.7096    105.4433
  1299.6000      8.1901      2.5892      0.0462      3.6864     24.7427    102.5161
  1299.7000      8.1901      2.6060      0.0813      2.6694     25.5177    104.5311
  1299.8000      8.1900      2.6073      0.0173      2.5871     26.1548    110.7766
  1299.9000      8.1900      2.6011      0.0175      2.9612     26.7284    118.1891
