~Version Information
VERS.                      2.0: CWLS Log ASCII Standard - VERSION 2.0
WRAP.                       NO: One line per depth step
~Well Information Block
STRT.FT                -2.2500: 
STOP.FT              1676.7500: 
STEP.FT                 0.2500: 
NULL.                -999.2500: 
COMP.          Pioneer Natural Resources: COMPANY
WELL.              Patten 22-2: WELL
FLD.           Purgatoire River: FIELD
LOC.           2157' FNL & 1528' FWL: LOCATION
PROV.                 Colorado: PROVINCE
CNTY.               Las Animas: COUNTRY
SRVC.                Patterson: SERVICE COMPANY
DATE.          Tue Dec 14 11:45:47 2004: LOG DATE
UWI.           05 071 08168 00: UNIQUE WELL ID
~Curve Information Block
DEPT.FT            0 000 00 00: Depth
GR.GAPI                       : Gamma Ray
CCL.                          : Casing Collar Locator
TT3.usec                      : CBL 3' Travel Time
AMP3.mV                       : CBL 3' Amplitude
~Parameter Information Block
~A  Depth        GR         CCL         TT3         AMP3    
# ...
  1203.7500    112.7603      0.0000    715.9510      5.6734
  1204.0000    104.5680      0.0000    713.7882      5.8457
  1204.2500     96.3519      0.0000    709.3248      6.0048
  1204.5000     90.7987      0.0000    704.7341      6.1336
  1204.7500     89.1227      0.0000    701.1998      6.2209
  1205.0000     90.6260      0.0000    698.8010      6.2613
  1205.2500     94.2446      0.0000    697.5362      6.2521
  1205.5000     99.8803      0.0000    697.0015      6.1938
  1205.7500    107.7439      0.0000    694.5640      6.0989
  1206.0000    117.0899      0.0000    685.3481      5.9961
  1206.2500    126.4125      0.0000    666.3292      5.9209
  1206.5000    134.6059      0.0000    641.1355      5.9000
  1206.7500    141.2981      0.0000    619.7011      5.9383
  1207.0000    146.2901      0.0000    611.6355      6.0170
  1207.2500    149.5014      0.0000    618.9430      6.1022
  1207.5000    151.4797      0.0000    635.1339      6.1641
  1207.7500    152.9467      0.0000    651.6450      6.1918
  1208.0000    153.4571      0.0000    664.1276      6.1915
  1208.2500    151.4633      0.0000    672.1971      6.1724
  1208.5000    146.4466      0.0000    676.3181      6.1377
  1208.7500    140.5757      0.0000    677.9401      6.0867
  1209.0000    137.6047      0.0000    680.5403      6.0214
  1209.2500    139.9176      0.0000    686.9555      5.9482
  1209.5000    146.5250      0.0000    696.1012      5.8752
  1209.7500    153.7870      0.0000    704.1149      5.8065
  1210.0000    158.1445      0.0000    708.1108      5.7420
  1210.2500    158.4738      0.0000    707.9084      5.6818
  1210.5000    156.1867      0.0000    705.1306      5.6290
  1210.7500    153.4944      0.0000    701.6964      5.5874
  1211.0000    151.6982      0.0000    698.8253      5.5571
  1211.2500    150.7348      0.0000    696.8615      5.5347
  1211.5000    149.9706      0.0000    695.7974      5.5179
  1211.7500    149.1484      0.0000    695.7143      5.5081
  1212.0000    148.3627      0.0000    696.3574      5.5090
  1212.2500    147.3848      0.0000    696.5911      5.5232
  1212.5000    145.6951      0.0000    695.0409      5.5492
  1212.7500    143.3733      0.0000    691.5050      5.5810
  1213.0000    141.4821      0.0000    687.2385      5.6124
  1213.2500    141.2735      0.0000    683.7150      5.6405
  1213.5000    143.1768      0.0000    681.5003      5.6676
  1213.7500    146.5628      0.0000    680.3052      5.6994
  1214.0000    150.2343      0.0000    679.6476      5.7380
  1214.2500    152.9334      0.0000    679.2405      5.7744
  1214.5000    153.3750      0.0000    678.9744      5.7929
  1214.7500    150.3268      0.0000    678.7607      5.7850
  1215.0000    143.4637      0.0000    678.4630      5.7561
  1215.2500    134.2993      0.0000    677.9685      5.7174
  1215.5000    125.7344      0.0000    677.2931      5.6757
  1215.7500    120.2578      0.0000    676.5763      5.6339
  1216.0000    118.6381      0.0000    675.9216      5.5966
  1216.2500    120.3229      0.0000    675.1674      5.5674
  1216.5000    124.5684      0.0000    673.7350      5.5377
  1216.7500    130.6622      0.0000    670.7652      5.4840
  1217.0000    137.4413      0.0000    665.7905      5.3774
  1217.2500    143.4700      0.0000    659.7248      5.2003
  1217.5000    147.9506      0.0000    655.1191      4.9549
  1217.7500    150.9822      0.0000    654.7940      4.6643
  1218.0000    152.6044      0.0000    659.7623      4.3654
  1218.2500    151.9411      0.0000    668.5193      4.0938
  1218.5000    147.8942      0.0000    678.4125      3.8675
  1218.7500    140.6193      0.0000    687.6470      3.6830
  1219.0000    131.7013      0.0000    696.1059      3.5288
  1219.2500    122.8062      0.0000    704.5610      3.4014
  1219.5000    114.6500      0.0000    713.4293      3.3089
  1219.7500    107.2746      0.0000    722.3481      3.2606
  1220.0000    100.8970      0.0000    730.5240      3.2558
  1220.2500     96.4834      0.0000    737.1926      3.2838
  1220.5000     95.6709      0.0000    742.1320      3.3360
  1220.7500     99.5551      0.0000    746.3111      3.4152
  1221.0000    106.8669      0.0000    751.7318      3.5346
  1221.2500    113.6957      0.0000    759.7925      3.7073
  1221.5000    116.0448      0.0000    769.3228      3.9381
  1221.7500    113.0455      0.0000    776.4537      4.2204
  1222.0000    107.2912      0.0000    776.9619      4.5383
  1222.2500    101.8973      0.0000    769.4116      4.8716
  1222.5000     97.8033      0.0000    756.6011      5.2018
  1222.7500     94.2036      0.0000    743.5983      5.5117
  1223.0000     90.8376      0.0000    733.4816      5.7786
  1223.2500     88.9868      0.0000    725.0832      5.9770
  1223.5000     90.3107      0.0000    715.4194      6.0960
  1223.7500     95.2513      0.0000    703.7285      6.1519
  1224.0000    102.5298      0.0000    692.2421      6.1772
  1224.2500    109.6608      0.0000    683.5116      6.1989
  1224.5000    114.1125      0.0000    678.1044      6.2254
  1224.7500    114.8216      0.0000    674.7444      6.2492
  1225.0000    113.0283      0.0000    671.6777      6.2620
  1225.2500    111.4063      0.0000    667.7036      6.2691
  1225.5000    112.1911      0.0000    662.4482      6.2846
  1225.7500    115.9553      0.0000    655.8791      6.3170
  1226.0000    121.5787      0.0000    647.4888      6.3643
  1226.2500    126.9162      0.0000    636.5255      6.4210
  1226.5000    129.7791      0.0000    624.1336      6.4828
  1226.7500    128.9965      0.0000    615.3470      6.5461
  1227.0000    125.0449      0.0000    617.3538      6.6078
  1227.2500    119.7086      0.0000    633.6452      6.6683
  1227.5000    114.9371      0.0000    658.9445      6.7344
  1227.7500    111.7495      0.0000    680.9337      6.8160
  1228.0000    109.9586      0.0000    688.8400      6.9092
  1228.2500    108.7645      0.0000    681.7662      6.9768
  1228.5000    107.6059      0.0000    668.7323      6.9601
  1228.7500    106.5075      0.0000    660.7566      6.8309
  1229.0000    105.8313      0.0000    663.3514      6.6317
  1229.2500    105.9285      0.0000    675.5587      6.4473
  1229.5000    106.9680     -2.0000    693.4771      6.3387
  1229.7500    108.6341      2.0000    713.1457      6.3129
  1230.0000    109.7396      2.0000    731.5272      6.3470
  1230.2500    108.5876     -2.0000    746.6992      6.4250
  1230.5000    104.2401      0.0000    757.0159      6.5581
  1230.7500     97.3575      0.0000    759.7083      6.7719
  1231.0000     89.5560      0.0000    752.0584      7.0539
  1231.2500     82.1694      0.0000    735.2059      7.3102
  1231.5000     75.8895      0.0000    715.2068      7.4088
  1231.7500     71.2246      0.0000    698.8179      7.2936
  1232.0000     68.8029      0.0000    688.9108      7.0379
  1232.2500     69.2452      0.0000    684.3782      6.7746
  1232.5000     72.9209      0.0000    682.8552      6.5922
  1232.7500     79.6866      0.0000    682.6505      6.5020
  1233.0000     88.6387      0.0000    682.9161      6.4700
  1233.2500     98.1139      0.0000    683.2225      6.4580
  1233.5000    106.0329      0.0000    683.3719      6.4450
  1233.7500    110.4108      0.0000    683.5192      6.4287
  1234.0000    110.1126      0.0000    684.4462      6.4153
  1234.2500    105.7592      0.0000    687.7422      6.4050
  1234.5000     99.8854      0.0000    695.5328      6.3831
  1234.7500     95.7499      0.0000    708.9877      6.3282
  1235.0000     95.6462      0.0000    726.0081      6.2368
  1235.2500     99.9882      0.0000    740.8956      6.1370
  1235.5000    107.3215      0.0000    748.1920      6.0686
  1235.7500    115.0066      0.0000    747.4445      6.0500
  1236.0000    120.6438      0.0000    743.3580      6.0706
  1236.2500    123.3994      0.0000    741.4097      6.1130
  1236.5000    123.8191      0.0000    743.9724      6.1706
  1236.7500    122.5667      0.0000    749.7925      6.2460
  1237.0000    119.8864      0.0000    756.0787      6.3396
