~Version Information
VERS.                      2.0: CWLS Log ASCII Standard - VERSION 2.0
WRAP.                       NO: One line per depth step
~Well Information Block
STRT.FT                 5.0000: 
STOP.FT              1874.2500: 
STEP.FT                 0.2500: 
NULL.                -999.2500: 
COMP.          Pioneer Natural Resources: COMPANY
WELL.           Stampede 42-18: WELL
FLD.           Purgatoire River: FIELD
LOC.           2479' FNL & 160' FEL--: LOCATION
CNTY.               Las Animas: COUNTY
SRVC.          Superior Well Services: SERVICE COMPANY
DATE.          Mon Jun 25 12:19:16 2007: LOG DATE
UWI.                          : UNIQUE WELL ID
STAT.                 Colorado: STATE
~Curve Information Block
DEPT.FT            0 000 00 00: Depth
GR.GAPI                       : Gamma Ray
CCL.                          : Casing Collar Locator
TT3.usec                      : CBL 3' Travel Time
AMP3.mV                       : CBL 3' Amplitude
AMP5.mV                       : CBL 5' Amplitude
~Parameter Information Block
~A  Depth        GR         CCL         TT3         AMP3        AMP5    
# ...
   369.0000     98.7481      0.0000    361.0976      5.3018      2.6864
   369.2500    100.4594      0.0000    365.9542      5.3800      2.6260
   369.5000    100.0132      0.0000    369.1830      5.4551      2.5685
   369.7500     97.5515      0.0000    369.2255      5.5108      2.5172
   370.0000     93.5667      0.0000    366.2326      5.5465      2.4697
   370.2500     88.8812      0.0000    362.1485      5.5767      2.4233
   370.5000     84.3550      0.0000    359.4897      5.6164      2.3824
   370.7500     80.6560      0.0000    360.2408      5.6652      2.3579
   371.0000     78.1121      0.0000    365.5511      5.7064      2.3582
   371.2500     76.4721      0.0000    375.5822      5.7198      2.3793
   371.5000     75.0091      0.0000    389.0674      5.6978      2.4047
   371.7500     73.2244      0.0000    403.2863      5.6550      2.4167
   372.0000     71.3606      0.0000    415.5600      5.6231      2.4075
   372.2500     69.8739      0.0000    425.8620      5.6327      2.3823
   372.5000     68.5736      0.0000    437.9633      5.6911      2.3522
   372.7500     66.9070      0.0000    456.7086      5.7754      2.3265
   373.0000     65.2880      0.0000    483.1791      5.8443      2.3102
   373.2500     65.5856      0.0000    512.6873      5.8630      2.3064
   373.5000     69.8160      0.0000    538.1721      5.8232      2.3163
   373.7500     78.2572      0.0000    555.6327      5.7461      2.3405
   374.0000     88.6772      0.0000    566.0504      5.6675      2.3803
   374.2500     97.3623      0.0000    572.5864      5.6188      2.4391
   374.5000    101.4055      0.0000    577.0951      5.6176      2.5199
   374.7500    100.5914      0.0000    578.6243      5.6702      2.6203
   375.0000     97.1135      0.0000    573.6554      5.7747      2.7307
   375.2500     93.3916      0.0000    558.7235      5.9171      2.8345
   375.5000     90.3005      0.0000    534.6860      6.0679      2.9148
   375.7500     87.3289      0.0000    507.3331      6.1963      2.9628
   376.0000     83.8347      0.0000    483.1935      6.3021      2.9814
   376.2500     79.7725      0.0000    466.7065      6.4200      2.9787
   376.5000     75.4416      0.0000    460.2582      6.5837      2.9613
   376.7500     71.0305      0.0000    462.5598      6.7919      2.9349
   377.0000     66.7772      0.0000    467.1105      7.0183      2.9066
   377.2500     63.5634     -0.5890    466.2340      7.2394      2.8838
   377.5000     62.9934      0.0000    457.3713      7.4457      2.8700
   377.7500     66.3927      0.0000    444.4196      7.6430      2.8628
   378.0000     73.5425      0.0000    434.2925      7.8456      2.8569
   378.2500     82.4875      0.0000    433.0554      8.0498      2.8492
   378.5000     90.6899      0.0000    442.9382      8.2132      2.8417
   378.7500     96.4531      0.0000    460.8535      8.2832      2.8379
   379.0000     99.5497      0.0000    480.8161      8.2437      2.8362
   379.2500    100.9596      0.0000    499.7117      8.1176      2.8280
   379.5000    102.0892      0.0000    520.6647      7.9395      2.8021
   379.7500    103.7908      0.0000    548.3423      7.7428      2.7556
   380.0000    105.7332      0.0000    580.4612      7.5572      2.6969
   380.2500    106.8522      0.0000    607.3484      7.3977      2.6357
   380.5000    106.5539      0.0000    621.3130      7.2594      2.5733
   380.7500    105.3782      0.0000    623.4248      7.1314      2.5070
   381.0000    104.5157      0.0000    620.2825      7.0130      2.4393
   381.2500    104.8223      0.0000    617.4477      6.9101      2.3778
   381.5000    106.1399      0.0000    617.2172      6.8210      2.3297
   381.7500    107.3847      0.0000    620.2202      6.7289      2.2989
   382.0000    107.4117      0.0000    626.6545      6.6135      2.2858
   382.2500    105.9205      0.0000    635.8352      6.4729      2.2871
   382.5000    103.4965      0.0000    645.6205      6.3330      2.2958
   382.7500    100.8390      0.0000    653.5391      6.2326      2.3048
   383.0000     98.1480      0.0000    658.8815      6.1955      2.3113
   383.2500     95.1503      0.0000    663.0504      6.2150      2.3177
   383.5000     91.4875      0.0000    667.4910      6.2634      2.3268
   383.7500     87.3101      0.0000    671.8335      6.3114      2.3376
   384.0000     83.7070      0.0000    674.4220      6.3381      2.3451
   384.2500     82.1084      0.0000    674.1360      6.3339      2.3457
   384.5000     82.8151      0.0000    671.3139      6.3020      2.3419
   384.7500     84.5158      0.0000    667.2978      6.2567      2.3387
   385.0000     85.7331      0.0000    663.4890      6.2129      2.3371
   385.2500     86.4630      0.0000    660.6384      6.1744      2.3332
   385.5000     87.8510      0.0000    658.5388      6.1320      2.3250
   385.7500     90.4224      0.0000    656.1807      6.0730      2.3151
   386.0000     93.2118      0.0000    652.5671      5.9966      2.3077
   386.2500     94.8060      0.0000    647.6417      5.9189      2.3057
   386.5000     94.8599      0.0000    642.2599      5.8611      2.3107
   386.7500     94.3219      0.0000    636.8931      5.8329      2.3220
   387.0000     94.4222      0.0000    630.3593      5.8285      2.3370
   387.2500     95.8216      0.0000    620.4270      5.8357      2.3508
   387.5000     98.5374      0.0000    606.4381      5.8443      2.3589
   387.7500    102.0213      0.0000    591.1827      5.8488      2.3589
   388.0000    105.0609      0.0000    579.3542      5.8497      2.3517
   388.2500    106.0819      0.0000    573.9568      5.8514      2.3413
   388.5000    104.0760      0.0000    574.5692      5.8550      2.3325
   388.7500     99.3439      0.0000    578.6541      5.8555      2.3285
   389.0000     93.3714      0.0000    583.5344      5.8467      2.3297
   389.2500     88.1312      0.0000    587.2988      5.8256      2.3340
   389.5000     85.2198      0.0000    589.2331      5.7910      2.3372
   389.7500     85.0710      0.0000    590.3251      5.7412      2.3358
   390.0000     86.7487      0.0000    593.1765      5.6777      2.3288
   390.2500     88.7058      0.0000    601.0818      5.6110      2.3184
   390.5000     89.9364      0.0000    616.8936      5.5574      2.3088
   390.7500     90.4190      0.0000    641.6335      5.5270      2.3041
   391.0000     90.6258      0.0000    672.4193      5.5141      2.3071
   391.2500     91.1023      0.0000    701.5539      5.5025      2.3167
   391.5000     92.4931      0.0000    719.9132      5.4813      2.3285
   391.7500     95.2793      0.0000    723.4120      5.4531      2.3370
   392.0000     99.0558      0.0000    716.1526      5.4268      2.3371
   392.2500    102.4342      0.0000    706.1284      5.4035      2.3261
   392.5000    104.1175      0.0000    697.5781      5.3703      2.3070
   392.7500    104.1225      0.0000    687.4952      5.3092      2.2897
   393.0000    103.7640      0.0000    669.2349      5.2120      2.2866
   393.2500    104.3871      0.0000    639.9576      5.0893      2.3026
   393.5000    106.1700      0.0000    605.4159      4.9640      2.3303
   393.7500    108.0167      0.0000    576.9249      4.8570      2.3559
   394.0000    108.4328      0.0000    562.6030      4.7807      2.3702
   394.2500    106.7115      0.0000    561.7488      4.7409      2.3742
   394.5000    103.5480      0.0000    567.4805      4.7385      2.3752
   394.7500    100.4216      0.0000    573.0550      4.7656      2.3783
   395.0000     98.2952      0.0000    575.1665      4.8058      2.3821
   395.2500     96.9852      0.0000    573.6943      4.8400      2.3812
   395.5000     95.5968      0.0000    570.7734      4.8561      2.3706
   395.7500     93.3879      0.0000    570.0864      4.8528      2.3479
   396.0000     90.4602      0.0000    575.6763      4.8362      2.3166
   396.2500     87.8423      0.0000    590.2977      4.8149      2.2865
   396.5000     86.6567      0.0000    614.0284      4.7959      2.2679
   396.7500     86.9597      0.0000    643.7059      4.7832      2.2629
