~Version Information
VERS.                      2.0: CWLS Log ASCII Standard - VERSION 2.0
WRAP.                       NO: One line per depth step
~Well Information Block
STRT.FT                12.0000: 
STOP.FT              1671.7500: 
STEP.FT                 0.2500: 
NULL.                -999.2500: 
COMP.          Pioneer Natural Resources: COMPANY
WELL.          Scott Canyon 11-18 Tr: WELL
FLD.           Purgatoire River: FIELD
LOC.           411' FNL & 580' FWL: LOCATION
PROV.                 Colorado: PROVINCE
CNTY.               Las Animas: COUNTRY
SRVC.                Patterson: SERVICE COMPANY
DATE.          Tue Feb 22 09:52:18 2005: LOG DATE
UWI.           05 071 08286 00: UNIQUE WELL ID
~Curve Information Block
DEPT.FT            0 000 00 00: Depth
GR.GAPI                       : Gamma Ray
CCL.                          : Casing Collar Locator
TT3.usec                      : CBL 3' Travel Time
AMP3.mV                       : CBL 3' Amplitude
~Parameter Information Block
~A  Depth        GR         CCL         TT3         AMP3    
# ...
  1117.5000     97.6146      0.0000    886.6196     10.0161
  1117.7500    102.3166      0.0000    888.1005      9.9355
  1118.0000    109.1588      0.0000    893.2267      9.9515
  1118.2500    118.6525      0.0000    907.7070     10.0540
  1118.5000    129.8167      0.0000    934.5342     10.1988
  1118.7500    139.8787      0.0000    970.8024     10.3332
  1119.0000    145.9436      0.0000   1008.6642     10.4277
  1119.2500    147.3640      0.0000   1038.4034     10.4935
  1119.5000    145.9471      0.0000   1052.1879     10.5707
  1119.7500    143.6452      0.0000   1049.4108     10.6908
  1120.0000    140.7845      0.0000   1039.3621     10.8470
  1120.2500    137.0083      0.0000   1035.8246     11.0022
  1120.5000    133.2565      0.0000   1047.3552     11.1205
  1120.7500    131.7587      0.0000   1072.1073     11.1930
  1121.0000    133.8541      0.0000   1100.8583     11.2439
  1121.2500    138.3425      0.0000   1124.6655     11.3140
  1121.5000    142.3119      0.0000   1140.0519     11.4208
  1121.7500    143.4364      0.0000   1147.9271     11.5350
  1122.0000    141.2933      0.0000   1149.3788     11.6047
  1122.2500    136.7980      0.0000   1144.5096     11.5989
  1122.5000    130.9532      0.0000   1135.5531     11.5161
  1122.7500    124.4491      0.0000   1129.0278     11.3649
  1123.0000    118.2288      0.0000   1132.0891     11.1595
  1123.2500    113.8628      0.0000   1146.8616     10.9328
  1123.5000    112.8679      0.0000   1170.5955     10.7334
  1123.7500    115.5369      0.0000   1201.2759     10.5784
  1124.0000    120.5224      0.0000   1239.4645     10.3865
  1124.2500    125.7331      0.0000   1282.0791      9.9834
  1124.5000    129.7274      0.0000   1316.6349      9.2444
  1124.7500    132.1374      0.0000   1326.9600      8.2582
  1125.0000    132.8961      0.0000   1308.4714      7.2956
  1125.2500    131.8309      0.0000   1277.3142      6.5927
  1125.5000    129.4314      0.0000   1260.7924      6.1947
  1125.7500    127.2528      0.0000   1275.4811      6.0084
  1126.0000    126.7641      3.0000   1313.3679      5.9418
  1126.2500    128.1152      0.0000   1349.4550      5.9774
  1126.5000    130.4468      0.0000   1363.1289      6.1503
  1126.7500    132.9328      0.0000   1352.2257      6.4786
  1127.0000    134.9639      0.0000   1328.3345      6.9099
  1127.2500    135.6623      0.0000   1303.0062      7.3614
  1127.5000    133.9432      0.0000   1281.3295      7.8232
  1127.7500    129.4021      0.0000   1263.6150      8.3618
  1128.0000    123.1429      0.0000   1247.1750      8.9884
  1128.2500    117.4408      0.0000   1230.9932      9.5931
  1128.5000    114.2157      0.0000   1223.9591     10.0449
  1128.7500    113.8531      0.0000   1240.4785     10.3034
  1129.0000    115.5576      0.0000   1280.4285     10.4095
  1129.2500    118.2582      0.0000   1320.1012     10.4198
  1129.5000    120.7712      0.0000   1329.7505     10.3781
  1129.7500    121.8393      0.0000   1298.2567     10.3250
  1130.0000    120.7881      0.0000   1239.5894     10.3034
  1130.2500    117.9794      0.0000   1178.1414     10.3480
  1130.5000    114.3845      0.0000   1128.2751     10.4699
  1130.7500    111.0062      0.0000   1087.4839     10.6517
  1131.0000    108.7876      0.0000   1049.0366     10.8565
  1131.2500    108.5383      0.0000   1015.7235     11.0458
  1131.5000    110.5701      0.0000    994.9085     11.1941
  1131.7500    114.5777      0.0000    984.0156     11.2924
  1132.0000    119.9100      0.0000    970.0739     11.3424
  1132.2500    125.5755      0.0000    943.8757     11.3516
  1132.5000    129.9918      0.0000    908.6828     11.3348
  1132.7500    131.4358      0.0000    874.4368     11.3149
  1133.0000    129.2302      0.0000    847.8023     11.3174
  1133.2500    124.3793      0.0000    829.4290     11.3590
  1133.5000    118.9649      0.0000    817.7905     11.4389
  1133.7500    114.9797      0.0000    813.1191     11.5394
  1134.0000    113.4582      0.0000    817.7106     11.6325
  1134.2500    114.2814      0.0000    833.1932     11.6880
  1134.5000    116.5478      0.0000    856.5838     11.6801
  1134.7500    119.0685      0.0000    878.5352     11.5961
  1135.0000    120.7903      0.0000    887.4633     11.4456
  1135.2500    121.1360      0.0000    877.9197     11.2616
  1135.5000    120.1092      0.0000    855.0424     11.0886
  1135.7500    117.9376      0.0000    829.9908     10.9613
  1136.0000    114.5360      0.0000    811.3975     10.8895
  1136.2500    109.5200      0.0000    801.2915     10.8585
  1136.5000    102.9897      0.0000    797.2360     10.8425
  1136.7500     96.2591      0.0000    796.2422     10.8191
  1137.0000     91.6021      0.0000    796.8258     10.7764
  1137.2500     91.0594      0.0000    798.9846     10.7156
  1137.5000     95.1775      0.0000    803.0856     10.6501
  1137.7500    102.6793      0.0000    808.5974     10.5954
  1138.0000    111.2547      0.0000    813.6818     10.5574
  1138.2500    118.6334      0.0000    816.1902     10.5315
  1138.5000    123.1127      0.0000    815.0932     10.5193
  1138.7500    123.7635      0.0000    810.9503     10.5428
  1139.0000    120.9730      0.0000    805.3382     10.6344
  1139.2500    116.7621      0.0000    800.0054     10.8104
  1139.5000    113.7525      0.0000    796.1505     11.0566
  1139.7500    113.3416      0.0000    794.0580     11.3393
  1140.0000    114.8448      0.0000    793.3077     11.6199
  1140.2500    116.1480      0.0000    793.3323     11.8616
  1140.5000    115.1813      0.0000    793.8876     12.0361
  1140.7500    111.3785      0.0000    795.2861     12.1350
  1141.0000    106.1645      0.0000    798.3504     12.1781
  1141.2500    101.8246      0.0000    803.9103     12.2028
  1141.5000     99.5834      0.0000    811.9028     12.2451
  1141.7500     98.8773      0.0000    820.8813     12.3250
  1142.0000     98.5758      0.0000    828.6849     12.4421
  1142.2500     98.5289      0.0000    833.7308     12.5837
  1142.5000     99.4841      0.0000    835.5236     12.7383
  1142.7500    101.6566      0.0000    834.0861     12.9018
  1143.0000    103.9336      0.0000    829.4904     13.0679
  1143.2500    104.6081      0.0000    822.2746     13.2127
  1143.5000    102.6243      0.0000    813.9661     13.3014
  1143.7500     98.2459      0.0000    806.5944     13.3145
  1144.0000     92.8918      0.0000    801.4932     13.2651
  1144.2500     88.2782      0.0000    798.7048     13.1859
  1144.5000     85.4337      0.0000    797.4490     13.1041
  1144.7500     84.3797      0.0000    796.9147     13.0275
  1145.0000     84.4911      0.0000    796.6469     12.9494
  1145.2500     84.8900      0.0000    796.4958     12.8677
  1145.5000     84.7947      0.0000    796.4175     12.8013
  1145.7500     84.1941      0.0000    796.3179     12.7881
  1146.0000     84.4203      0.0000    795.9890     12.8685
  1146.2500     87.6857      0.0000    795.1149     13.0690
  1146.5000     95.4760      0.0000    793.4183     13.3918
  1146.7500    107.1501      0.0000    791.0426     13.8116
  1147.0000    120.2446      0.0000    788.8735     14.2905
  1147.2500    132.1016      0.0000    788.1570     14.8069
  1147.5000    141.0073      0.0000    789.4463     15.3643
  1147.7500    146.3402      0.0000    792.0391     15.9720
  1148.0000    148.5545      0.0000    794.6943     16.6309
  1148.2500    148.8102      0.0000    796.7657     17.3475
  1148.5000    147.6917      0.0000    798.5400     18.1433
  1148.7500    144.4225      0.0000    800.6694     19.0285
  1149.0000    138.1287      0.0000    803.3223     19.9578
  1149.2500    129.6907      0.0000    805.7153     20.8174
  1149.5000    121.5884      0.0000    806.5816     21.4672
  1149.7500    115.9667      0.0000    805.3105     21.8165
  1150.0000    113.3815      0.0000    802.4056     21.8774
  1150.2500    113.2159      0.0000    798.4965     21.7429
  1150.5000    114.4956      0.0000    793.0876     21.5029
  1150.7500    116.1939      0.0000    784.7358     21.1760
