~Version Information
VERS.                      2.0: CWLS Log ASCII Standard - VERSION 2.0
WRAP.                       NO: One line per depth step
~Well Information Block
STRT.FT               580.0000: 
STOP.FT              2729.7500: 
STEP.FT                 0.2500: 
NULL.                -999.2500: 
COMP.          Pioneer Natural Resources: COMPANY
WELL.          Sand Pebbles 13-33: WELL
FLD.           Purgatoire River: FIELD
LOC.           1883' FSL & 63' FWL----: LOCATION
PROV.                 Colorado: PROVINCE
CNTY.               Las Animas: COUNTRY
SRVC.                Patterson: SERVICE COMPANY
DATE.          Fri Mar 11 13:47:45 2005: LOG DATE
UWI.           05 071 08224 00: UNIQUE WELL ID
~Curve Information Block
DEPT.FT            0 000 00 00: Depth
SN.Ohm-m                      : IEL Short Normal
SP.mV                         : IEL Spontaneous Potential
DIR.Ohm-m                     : IEL Induction Resistivity
GR.GAPI                       : Gamma Ray
~Parameter Information Block
~A  Depth        SN          SP         DIR          GR     
   580.0000   2000.0000   2000.0000 100000.0000     76.9814
   580.2500   2000.0000   2000.0000 100000.0000     75.9215
   580.5000   2000.0000   2000.0000 100000.0000     73.3871
   580.7500   2000.0000   2000.0000 100000.0000     71.6093
   581.0000   2000.0000   2000.0000 100000.0000     70.0835
   581.2500   2000.0000   2000.0000 100000.0000     70.1270
   581.5000   2000.0000   2000.0000 100000.0000     71.2889
   581.7500   2000.0000   2000.0000 100000.0000     72.2390
   582.0000   2000.0000   2000.0000 100000.0000     73.0920
   582.2500   2000.0000   2000.0000 100000.0000     73.0201
   582.5000   2000.0000   2000.0000 100000.0000     72.1278
   582.7500   2000.0000   2000.0000 100000.0000     71.4890
   583.0000   2000.0000   2000.0000 100000.0000     71.4991
   583.2500   2000.0000   2000.0000 100000.0000     72.5144
   583.5000   2000.0000   2000.0000 100000.0000     75.2907
   583.7500   2000.0000   2000.0000 100000.0000     77.3342
   584.0000   2000.0000   2000.0000 100000.0000     79.3555
   584.2500   2000.0000   2000.0000 100000.0000     79.5674
   584.5000   2000.0000   2000.0000 100000.0000     78.4021
   584.7500   2000.0000   2000.0000 100000.0000     77.0734
   585.0000   2000.0000   2000.0000 100000.0000     74.8068
   585.2500   2000.0000   2000.0000 100000.0000     73.2771
   585.5000   2000.0000   2000.0000 100000.0000     71.3774
   585.7500   2000.0000   2000.0000 100000.0000     70.7713
   586.0000   2000.0000   2000.0000 100000.0000     71.4188
   586.2500   2000.0000   2000.0000 100000.0000     72.9227
   586.5000   2000.0000   2000.0000 100000.0000     76.1533
   586.7500   2000.0000   2000.0000 100000.0000     78.2982
   587.0000   2000.0000   2000.0000 100000.0000     80.5497
   587.2500   2000.0000   2000.0000 100000.0000     81.3267
   587.5000   2000.0000   2000.0000 100000.0000     82.0732
   587.7500   2000.0000   2000.0000 100000.0000     82.6857
   588.0000   2000.0000   2000.0000 100000.0000     83.5918
   588.2500   2000.0000   2000.0000 100000.0000     83.6286
   588.5000   2000.0000   2000.0000 100000.0000     82.1576
   588.7500   2000.0000   2000.0000 100000.0000     80.3387
   589.0000   2000.0000   2000.0000 100000.0000     77.1499
   589.2500   2000.0000   2000.0000 100000.0000     74.9574
   589.5000   2000.0000   2000.0000 100000.0000     71.5280
   589.7500   2000.0000   2000.0000 100000.0000     69.2294
   590.0000   2000.0000   2000.0000 100000.0000     66.3749
   590.2500   2000.0000   2000.0000 100000.0000     65.2406
   590.5000   2000.0000   2000.0000 100000.0000     64.7636
   590.7500   2000.0000   2000.0000 100000.0000     64.9122
   591.0000   2000.0000   2000.0000 100000.0000     65.0191
   591.2500   2000.0000   2000.0000 100000.0000     64.7120
   591.5000   2000.0000   2000.0000 100000.0000     63.7004
   591.7500   2000.0000   2000.0000 100000.0000     62.8836
   592.0000   2000.0000   2000.0000 100000.0000     61.8649
   592.2500   2000.0000   2000.0000 100000.0000     61.4492
   592.5000   2000.0000   2000.0000 100000.0000     61.2163
   592.7500   2000.0000   2000.0000 100000.0000     61.2879
   593.0000   2000.0000   2000.0000 100000.0000     61.6874
   593.2500   2000.0000   2000.0000 100000.0000     62.0537
   593.5000   2000.0000   2000.0000 100000.0000     62.5461
   593.7500   2000.0000   2000.0000 100000.0000     62.8683
   594.0000   2000.0000   2000.0000 100000.0000     63.6281
   594.2500   2000.0000   2000.0000 100000.0000     64.3188
   594.5000   2000.0000   2000.0000 100000.0000     65.1416
   594.7500   2000.0000   2000.0000 100000.0000     65.3016
   595.0000   2000.0000   2000.0000 100000.0000     65.1765
   595.2500   2000.0000   2000.0000 100000.0000     65.2018
   595.5000   2000.0000   2000.0000 100000.0000     65.7155
   595.7500   2000.0000   2000.0000 100000.0000     66.2513
   596.0000   2000.0000   2000.0000 100000.0000     66.8485
   596.2500   2000.0000   2000.0000 100000.0000     66.8315
   596.5000   2000.0000   2000.0000 100000.0000     65.9174
   596.7500   2000.0000   2000.0000 100000.0000     64.7226
   597.0000   2000.0000   2000.0000 100000.0000     62.3424
   597.2500   2000.0000   2000.0000 100000.0000     60.7070
   597.5000   2000.0000   2000.0000 100000.0000     58.9851
   597.7500   2000.0000   2000.0000 100000.0000     58.6766
   598.0000   2000.0000   2000.0000 100000.0000     59.2684
   598.2500   2000.0000   2000.0000 100000.0000     59.7253
   598.5000   2000.0000   2000.0000 100000.0000     59.2545
   598.7500   2000.0000   2000.0000 100000.0000     57.8891
   599.0000   2000.0000   2000.0000 100000.0000     54.8747
   599.2500   2000.0000   2000.0000 100000.0000     52.9147
   599.5000   2000.0000   2000.0000 100000.0000     50.9487
   599.7500   2000.0000   2000.0000 100000.0000     50.4216
   600.0000   2000.0000   2000.0000 100000.0000     50.6422
   600.2500   2000.0000   2000.0000 100000.0000     51.3968
   600.5000   2000.0000   2000.0000 100000.0000     53.3150
   600.7500   2000.0000   2000.0000 100000.0000     54.7824
   601.0000   2000.0000   2000.0000     11.7100     56.3110
   601.2500   2000.0000   2000.0000      4.7923     56.5636
   601.5000   2000.0000   2000.0000      3.6753     56.2011
   601.7500   2000.0000   2000.0000      3.9189     55.9789
   602.0000   2000.0000   2000.0000      5.6893     56.1651
   602.2500   2000.0000   2000.0000     13.6387     56.5965
   602.5000   2000.0000   2000.0000 100000.0000     57.5055
   602.7500   2000.0000   2000.0000 100000.0000     58.2363
   603.0000   2000.0000   2000.0000 100000.0000     59.3811
   603.2500   2000.0000   2000.0000 100000.0000     59.9511
   603.5000   2000.0000   2000.0000 100000.0000     60.1275
   603.7500   2000.0000   2000.0000 100000.0000     59.8700
   604.0000   2000.0000   2000.0000     52.1332     59.6668
   604.2500   2000.0000   2000.0000     20.2256     60.0674
   604.5000   2000.0000   2000.0000     14.8364     61.4040
   604.7500   2000.0000   2000.0000     13.5546     62.2958
   605.0000   2000.0000   2000.0000     13.9181     62.6127
   605.2500   2000.0000   2000.0000     15.2888     61.7786
   605.5000   2000.0000   2000.0000     17.3573     59.1362
   605.7500   2000.0000   2000.0000     19.7437     57.0230
   606.0000   2000.0000   2000.0000     21.8863     54.5769
   606.2500   2000.0000   2000.0000     23.3195     53.9002
   606.5000   2000.0000   2000.0000     24.1733     54.3409
   606.7500   2000.0000   2000.0000     25.2180     55.3354
   607.0000   2000.0000   2000.0000     27.4955     57.4032
   607.2500   2000.0000   2000.0000     32.1257     58.8960
   607.5000   2000.0000   2000.0000     40.1225     60.5947
   607.7500   2000.0000   2000.0000     50.8508     60.8931
   608.0000   2000.0000   2000.0000     58.4722     59.8626
   608.2500   2000.0000   2000.0000     55.7946     58.6347
   608.5000   2000.0000   2000.0000     46.3625     57.2614
   608.7500   2000.0000   2000.0000     37.4845     57.1226
   609.0000   2000.0000   2000.0000     31.5163     57.7427
   609.2500   2000.0000   2000.0000     28.1277     58.1167
   609.5000   2000.0000   2000.0000     26.6158     58.0615
   609.7500   2000.0000   2000.0000     26.4180     57.8415
   610.0000   2000.0000   2000.0000     27.0661     57.9631
   610.2500   2000.0000   2000.0000     28.1029     58.4794
   610.5000   2000.0000   2000.0000     29.1051     59.6164
   610.7500   2000.0000   2000.0000     29.7964     60.5358
   611.0000   2000.0000   2000.0000     30.1166     62.4832
   611.2500   2000.0000   2000.0000     30.1611     64.2940
   611.5000   2000.0000   2000.0000     30.0597     67.2194
   611.7500   2000.0000   2000.0000     29.9023     68.6243
   612.0000   2000.0000   2000.0000     29.7324     69.0293
   612.2500   2000.0000   2000.0000     29.5631     68.1915
   612.5000   2000.0000   2000.0000     29.3850     66.1107
   612.7500   2000.0000   2000.0000     29.1621     64.7303
   613.0000   2000.0000   2000.0000     28.8363     63.1508
   613.2500   2000.0000   2000.0000     28.3496     62.4362
