~Version Information
VERS.                      2.0: CWLS Log ASCII Standard - VERSION 2.0
WRAP.                       NO: One line per depth step
~Well Information Block
STRT.FT               650.0000: 
STOP.FT              1080.5000: 
STEP.FT                 0.1000: 
NULL.                -999.2500: 
COMP.          Pioneer Natural Resources: COMPANY
WELL.            Galileo 21-11: WELL
FLD.           Purgatoire River: FIELD
LOC.           407' FNL & 2394' FWL: LOCATION
PROV.                 Colorado: PROVINCE
CNTY.               Las Animas: COUNTRY
SRVC.                Patterson: SERVICE COMPANY
DATE.          Mon Apr 11 16:20:08 2005: LOG DATE
UWI.           05 071 08353 00: UNIQUE WELL ID
~Curve Information Block
DEPT.FT            0 000 00 00: Depth
DCAL.in                       : CDL Caliper
RHOB.g/cc                     : CDL Bulk Density
RHOC.g/cc                     : CDL Density Correction
DPOR.pu                       : CDL Density Porosity
GR.GAPI                       : Gamma Ray
NPOR.pu                       : Neutron Porosity
~Parameter Information Block
~A  Depth       DCAL        RHOB        RHOC        DPOR         GR         NPOR    
# ...
   813.2000      8.0003      2.2949      0.0707     21.5239    111.9803     22.7595
   813.3000      8.0015      2.3280      0.0985     19.5136    110.6964     23.4855
   813.4000      8.0015      2.3570      0.0569     17.7592    112.1388     23.8726
   813.5000      8.0036      2.3851      0.0863     16.0542    113.9030     23.9544
   813.6000      8.0036      2.4151      0.1224     14.2359    114.5359     23.7610
   813.7000      8.0036      2.4458      0.1051     12.3771    116.1009     23.5453
   813.8000      8.0028      2.4811      0.1229     10.2363    118.8214     23.7025
   813.9000      8.0028      2.5093      0.1790      8.5284    121.6018     24.1342
   814.0000      8.0007      2.5112      0.1407      8.4117    124.4341     24.4859
   814.1000      8.0007      2.4907      0.1401      9.6561    123.7431     24.8291
   814.2000      8.0007      2.4629      0.0650     11.3388    117.0404     25.0684
   814.3000      8.0005      2.4427      0.0414     12.5655    110.6052     24.4921
   814.4000      8.0005      2.4417      0.0621     12.6237    111.2912     23.3846
   814.5000      7.9988      2.4552      0.0915     11.8072    116.8425     22.7146
   814.6000      7.9988      2.4610      0.0781     11.4568    121.5868     22.6567
   814.7000      7.9988      2.4475      0.0515     12.2709    124.2006     22.8396
   814.8000      8.0005      2.4270      0.0495     13.5136    125.4342     22.9699
   814.9000      8.0005      2.4081      0.0970     14.6598    125.1676     23.1282
   815.0000      8.0026      2.3820      0.0731     16.2400    125.5348     23.3524
   815.1000      8.0026      2.3448      0.0370     18.4972    126.2397     23.5630
   815.2000      8.0026      2.3135     -0.0234     20.3952    123.3799     23.9879
   815.3000      7.9954      2.3131     -0.0439     20.4205    118.1948     24.6132
   815.4000      7.9954      2.3522      0.0036     18.0492    116.4444     24.9247
   815.5000      7.9927      2.4136      0.0709     14.3266    118.9467     24.7937
   815.6000      7.9927      2.4681      0.0939     11.0257    119.9494     24.5566
   815.7000      7.9927      2.4981      0.1437      9.2070    116.8314     24.2097
   815.8000      7.9890      2.5041      0.1580      8.8445    112.2870     23.4884
   815.9000      7.9890      2.4889      0.2117      9.7661    107.4664     22.4599
   816.0000      7.9715      2.4472      0.1977     12.2906    104.8650     21.3711
   816.1000      7.9715      2.3888      0.1027     15.8285    106.8087     20.5316
   816.2000      7.9715      2.3424      0.0789     18.6438    108.9237     20.4017
   816.3000      7.9872      2.3200      0.0450     20.0001    107.5138     20.9656
   816.4000      7.9872      2.3183      0.0356     20.1041    105.0414     21.2137
   816.5000      7.9908      2.3314      0.0939     19.3107    102.4784     21.0003
   816.6000      7.9908      2.3503      0.1060     18.1611     98.6492     21.4615
   816.7000      7.9908      2.3791      0.1415     16.4178     97.1697     22.5696
   816.8000      7.9908      2.4298      0.1342     13.3451    102.1302     23.4393
   816.9000      7.9908      2.4984      0.2259      9.1902    108.9109     23.8922
   817.0000      7.9921      2.5611      0.2319      5.3868    109.4306     24.0289
   817.1000      7.9921      2.5992      0.2021      3.0773    104.3046     24.0128
   817.2000      7.9921      2.6133      0.1947      2.2270     99.3706     24.0203
   817.3000      7.9897      2.6082      0.1467      2.5324     94.8309     23.9421
   817.4000      7.9897      2.5867      0.0994      3.8344     88.6132     23.4412
   817.5000      7.9902      2.5564      0.0585      5.6698     85.8957     22.4013
   817.6000      7.9902      2.5240      0.0650      7.6365     88.9599     21.1095
   817.7000      7.9902      2.4827      0.0370     10.1373     90.8106     19.8662
   817.8000      8.0015      2.4194      0.0308     13.9751     90.2583     18.7235
   817.9000      8.0015      2.3328     -0.0307     19.2223     93.7036     17.5525
   818.0000      7.9971      2.2407     -0.0196     24.8060    101.1378     16.6108
   818.1000      7.9971      2.1585     -0.0257     29.7889    106.1964     16.1709
   818.2000      7.9971      2.0855      0.0495     34.2138    107.0872     16.1117
   818.3000      7.9934      2.0228      0.0130     38.0150    105.1392     16.4681
   818.4000      7.9934      1.9843      0.0067     40.3461    101.8958     17.5082
   818.5000      7.9961      1.9766      0.0876     40.8112    100.7759     19.0031
   818.6000      7.9961      1.9985      0.1130     39.4825    102.1231     20.3320
   818.7000      7.9961      2.0543      0.1451     36.1057    101.5942     21.5319
   818.8000      7.9981      2.1362      0.2449     31.1384     97.4990     22.6019
   818.9000      7.9981      2.2207      0.2497     26.0175     94.2712     23.2314
   819.0000      7.9950      2.2925      0.2941     21.6643     95.2765     23.6643
   819.1000      7.9950      2.3507      0.2805     18.1381     99.2091     24.0124
   819.2000      7.9950      2.3961      0.2263     15.3874    101.9897     24.0807
   819.3000      7.9927      2.4256      0.2121     13.5982    101.9738     24.0545
   819.4000      7.9927      2.4455      0.1397     12.3942    102.1147     24.3299
   819.5000      7.9882      2.4688      0.0847     10.9790    103.6408     24.8486
   819.6000      7.9882      2.4929      0.0754      9.5217    104.0485     25.1120
   819.7000      7.9882      2.5106      0.0551      8.4475    102.0861     24.9283
   819.8000      7.9889      2.5249      0.1011      7.5840    104.0330     24.6339
   819.9000      7.9889      2.5352      0.0897      6.9554    113.7647     24.6647
   820.0000      7.9896      2.5382      0.0756      6.7755    122.3756     25.0487
   820.1000      7.9896      2.5296      0.0989      7.2954    122.6161     25.4861
   820.2000      7.9896      2.5038      0.1019      8.8612    118.4566     25.7193
   820.3000      7.9908      2.4668      0.0645     11.1000    116.8302     25.7046
   820.4000      7.9908      2.4425     -0.0036     12.5744    120.0450     25.5974
   820.5000      7.9900      2.4459      0.0281     12.3707    125.0769     25.7160
   820.6000      7.9900      2.4635      0.0622     11.3042    128.1919     26.1463
   820.7000      7.9900      2.4808      0.0519     10.2526    128.8007     26.2801
   820.8000      7.9888      2.5052      0.0458      8.7752    128.5492     25.5633
   820.9000      7.9888      2.5333      0.1221      7.0722    128.2875     24.3070
   821.0000      7.9896      2.5370      0.1414      6.8509    127.4204     23.2745
   821.1000      7.9896      2.5142      0.0424      8.2318    126.2657     23.1445
   821.2000      7.9896      2.4963      0.0776      9.3154    125.8112     23.8063
   821.3000      7.9917      2.4916      0.0817      9.5995    124.8872     24.5927
   821.4000      7.9917      2.4814      0.0774     10.2178    123.1317     24.9962
   821.5000      7.9943      2.4681     -0.0139     11.0224    124.0147     24.9881
   821.6000      7.9943      2.4685      0.0549     10.9981    128.2175     25.0663
   821.7000      7.9943      2.4706      0.0681     10.8736    130.2890     25.3884
   821.8000      7.9910      2.4614      0.0267     11.4311    127.3901     25.4220
   821.9000      7.9910      2.4524      0.0469     11.9769    121.4832     24.9424
   822.0000      7.9906      2.4546      0.0658     11.8415    115.7650     24.5345
   822.1000      7.9906      2.4715      0.0881     10.8163    113.7917     24.8517
   822.2000      7.9906      2.5019      0.0644      8.9744    114.8525     25.6555
   822.3000      7.9905      2.5353      0.0888      6.9541    112.5482     26.0325
   822.4000      7.9905      2.5515      0.1249      5.9682    105.2044     25.7036
   822.5000      7.9900      2.5391      0.1007      6.7193     99.4462     25.0349
   822.6000      7.9900      2.5094      0.0532      8.5219     99.5271     24.2153
   822.7000      7.9900      2.4806      0.0473     10.2692    103.5044     23.5668
