~Version Information
VERS.                      2.0: CWLS Log ASCII Standard - VERSION 2.0
WRAP.                       NO: One line per depth step
~Well Information Block
STRT.FT               275.0000: 
STOP.FT              1682.2500: 
STEP.FT                 0.2500: 
NULL.                -999.2500: 
COMP.          Pioneer Natural Resources: COMPANY
WELL.               Elmo 14-21: WELL
FLD.           Purgatoire River: FIELD
LOC.           623' FSL & 450' FWL----: LOCATION
PROV.                 Colorado: PROVINCE
CNTY.               Las Animas: COUNTRY
SRVC.                Patterson: SERVICE COMPANY
DATE.          Tue May 17 16:07:31 2005: LOG DATE
UWI.           05 071 08360 00: UNIQUE WELL ID
~Curve Information Block
DEPT.FT            0 000 00 00: Depth
SN.Ohm-m                      : IEL Short Normal
SP.mV                         : IEL Spontaneous Potential
DIR.Ohm-m                     : IEL Induction Resistivity
GR.GAPI                       : Gamma Ray
~Parameter Information Block
~A  Depth        SN          SP         DIR          GR     
# ...
   911.5000     16.0546    -45.5230     16.9707     95.4341
   911.7500     15.6735    -45.6168     16.7378    100.5047
   912.0000     15.2359    -45.6846     16.3111    111.7644
   912.2500     14.7273    -45.7137     15.7131    119.7660
   912.5000     14.1342    -45.6886     14.9872    128.9942
   912.7500     13.4670    -45.5949     14.1886    132.3760
   913.0000     12.7611    -45.4250     13.3747    134.6595
   913.2500     12.0622    -45.1833     12.5972    135.9982
   913.5000     11.4104    -44.8879     11.8948    139.4493
   913.7500     10.8297    -44.5692     11.2864    142.4089
   914.0000     10.3262    -44.2638     10.7703    146.1214
   914.2500      9.8907    -44.0065     10.3282    147.3360
   914.5000      9.5058    -43.8222      9.9339    147.1341
   914.7500      9.1566    -43.7197      9.5633    146.1343
   915.0000      8.8396    -43.6902      9.2026    144.5564
   915.2500      8.5634    -43.7103      8.8498    144.1325
   915.5000      8.3368    -43.7489      8.5121    145.1241
   915.7500      8.1558    -43.7761      8.2004    146.8210
   916.0000      8.0024    -43.7713      7.9252    150.2884
   916.2500      7.8574    -43.7290      7.6942    152.9465
   916.5000      7.7147    -43.6594      7.5124    157.6430
   916.7500      7.5822    -43.5849      7.3819    161.3890
   917.0000      7.4700    -43.5333      7.3028    166.9899
   917.2500      7.3822    -43.5281      7.2729    169.3093
   917.5000      7.3222    -43.5801      7.2881    168.2369
   917.7500      7.3001    -43.6805      7.3439    164.1450
   918.0000      7.3337    -43.7999      7.4368    154.9078
   918.2500      7.4408    -43.8929      7.5657    148.6484
   918.5000      7.6295    -43.9089      7.7314    141.7187
   918.7500      7.8883    -43.8056      7.9345    139.1239
   919.0000      8.1834    -43.5626      8.1716    137.4214
   919.2500      8.4678    -43.1885      8.4319    137.0683
   919.5000      8.6973    -42.7211      8.6949    137.1803
   919.7500      8.8403    -42.2172      8.9323    137.8774
   920.0000      8.8822    -41.7381      9.1145    140.6263
   920.2500      8.8264    -41.3336      9.2195    143.7348
   920.5000      8.6939    -41.0314      9.2405    149.5300
   920.7500      8.5149    -40.8335      9.1876    153.6174
   921.0000      8.3199    -40.7217      9.0833    160.1440
   921.2500      8.1418    -40.6673      8.9545    164.9937
   921.5000      8.0249    -40.6419      8.8274    172.0224
   921.7500      8.0241    -40.6254      8.7249    175.0074
   922.0000      8.1844    -40.6096      8.6682    174.5702
   922.2500      8.5138    -40.5974      8.6770    170.8885
   922.5000      8.9739    -40.5988      8.7688    162.1328
   922.7500      9.5021    -40.6263      8.9561    155.2006
   923.0000     10.0514    -40.6908      9.2452    143.0600
   923.2500     10.6205    -40.7985      9.6360    132.9722
   923.5000     11.2614    -40.9490     10.1255    114.4256
   923.7500     12.0745    -41.1346     10.7121    100.8660
   924.0000     13.2008    -41.3406     11.3991     82.0249
   924.2500     14.7905    -41.5474     12.1951     72.2039
   924.5000     16.9274    -41.7333     13.1100     63.0048
   924.7500     19.5397    -41.8787     14.1481     60.3796
   925.0000     22.3703    -41.9703     15.2955     60.1481
   925.2500     25.0435    -42.0027     16.5032     61.3347
   925.5000     27.1844    -41.9800     17.6698     63.7670
   925.7500     28.5166    -41.9133     18.6403     65.5075
   926.0000     28.9046    -41.8174     19.2408     68.0507
   926.2500     28.3546    -41.7072     19.3431     69.6349
   926.5000     26.9946    -41.5948     18.9225     72.3606
   926.7500     25.0444    -41.4889     18.0643     75.1842
   927.0000     22.7708    -41.3949     16.9216     82.5360
   927.2500     20.4240    -41.3172     15.6567     90.2033
   927.5000     18.1796    -41.2603     14.4006    105.7914
   927.7500     16.1233    -41.2280     13.2372    117.9005
   928.0000     14.2846    -41.2233     12.2067    135.9550
   928.2500     12.6780    -41.2458     11.3177    146.5494
   928.5000     11.3191    -41.2907     10.5609    158.8985
   928.7500     10.2203    -41.3493      9.9213    164.3819
   929.0000      9.3849    -41.4106      9.3858    168.3866
   929.2500      8.8038    -41.4643      8.9476    168.5409
   929.5000      8.4501    -41.5029      8.6046    165.9007
   929.7500      8.2769    -41.5228      8.3564    162.7505
   930.0000      8.2269    -41.5244      8.2009    156.6579
   930.2500      8.2480    -41.5106      8.1320    152.0915
   930.5000      8.3009    -41.4858      8.1388    145.2673
   930.7500      8.3531    -41.4547      8.2047    141.0978
   931.0000      8.3705    -41.4218      8.3057    135.4217
   931.2500      8.3172    -41.3909      8.4105    131.5963
   931.5000      8.1716    -41.3647      8.4849    124.8650
   931.7500      7.9478    -41.3450      8.5017    119.7030
   932.0000      7.7003    -41.3333      8.4499    112.7868
   932.2500      7.4991    -41.3312      8.3371    110.4671
   932.5000      7.3930    -41.3418      8.1823    112.0024
   932.7500      7.3893    -41.3683      8.0056    115.4755
   933.0000      7.4575    -41.4133      7.8217    121.0443
   933.2500      7.5492    -41.4752      7.6388    123.8321
   933.5000      7.6205    -41.5467      7.4616    127.5490
   933.7500      7.6510    -41.6144      7.2951    131.0322
   934.0000      7.6478    -41.6610      7.1487    138.6381
   934.2500      7.6326    -41.6699      7.0362    144.6023
   934.5000      7.6246    -41.6301      6.9732    153.2023
   934.7500      7.6345    -41.5390      6.9723    158.3300
   935.0000      7.6668    -41.4019      7.0411    165.2624
   935.2500      7.7264    -41.2291      7.1815    168.9953
   935.5000      7.8192    -41.0313      7.3919    171.1297
   935.7500      7.9529    -40.8159      7.6687    168.9964
   936.0000      8.1401    -40.5861      8.0069    160.4531
   936.2500      8.3996    -40.3423      8.3991    152.6186
   936.5000      8.7476    -40.0848      8.8346    141.0437
   936.7500      9.1813    -39.8169      9.2982    135.0484
   937.0000      9.6747    -39.5461      9.7714    129.9329
   937.2500     10.1960    -39.2843     10.2356    129.0577
   937.5000     10.7273    -39.0458     10.6785    130.7351
   937.7500     11.2658    -38.8456     11.0990    133.3280
   938.0000     11.8071    -38.6969     11.5092    138.5488
   938.2500     12.3363    -38.6090     11.9290    142.1564
   938.5000     12.8400    -38.5856     12.3773    145.6059
   938.7500     13.3290    -38.6242     12.8650    144.9142
   939.0000     13.8579    -38.7159     13.3948    136.8815
   939.2500     14.5289    -38.8484     13.9681    126.6601
   939.5000     15.4753    -39.0085     14.5952    106.8300
   939.7500     16.8197    -39.1860     15.3002     93.3110
   940.0000     18.6170    -39.3750     16.1157     76.3801
   940.2500     20.8053    -39.5729     17.0686     68.2476
   940.5000     23.1915    -39.7770     18.1635     60.4446
   940.7500     25.4874    -39.9815     19.3647     57.4046
   941.0000     27.3886    -40.1744     20.5816     54.8057
   941.2500     28.6597    -40.3392     21.6644     54.0503
   941.5000     29.1778    -40.4579     22.4245     54.6189
   941.7500     28.9247    -40.5161     22.6913     56.4660
   942.0000     27.9691    -40.5069     22.3841     61.8803
   942.2500     26.4627    -40.4323     21.5509     67.3407
   942.5000     24.6253    -40.3016     20.3424     78.0891
   942.7500     22.6858    -40.1284     18.9452     86.6583
   943.0000     20.8117    -39.9275     17.5199    101.1168
   943.2500     19.0756    -39.7124     16.1717    111.5526
   943.5000     17.4789    -39.4954     14.9497    127.4436
   943.7500     16.0016    -39.2873     13.8626    137.2462
   944.0000     14.6388    -39.0985     12.8988    149.2345
   944.2500     13.4045    -38.9382     12.0429    155.0446
   944.5000     12.3145    -38.8139     11.2853    160.6911
   944.7500     11.3754    -38.7305     10.6240    162.7133
