~Version Information
VERS.                      2.0: CWLS Log ASCII Standard - VERSION 2.0
WRAP.                       NO: One line per depth step
~Well Information Block
STRT.FT               235.0000: 
STOP.FT              1633.0000: 
STEP.FT                 0.1000: 
NULL.                -999.2500: 
COMP.          Petrogulf Corporation: COMPANY
WELL.             State 16-41R: WELL
FLD.           Purgatorie River: FIELD
LOC.           280' FNL & 907' FEL: LOCATION
PROV.                 Colorado: PROVINCE
CNTY.               Las Animas: COUNTRY
SRVC.                Patterson: SERVICE COMPANY
DATE.          Wed Oct 19 07:05:20 2005: LOG DATE
API.           05-071-08345    : API
~Curve Information Block
DEPT.FT            0 000 00 00: Depth
DCAL.in                       : CDL Caliper
RHOB.g/cc                     : CDL Bulk Density
RHOC.g/cc                     : CDL Density Correction
DPOR.pu                       : CDL Density Porosity
GR.GAPI                       : Gamma Ray
NPOR.pu                       : Neutron Porosity
~Parameter Information Block
~A  Depth       DCAL        RHOB        RHOC        DPOR         GR         NPOR    
# ...
   974.2000      8.1129      1.3824     -0.0171     76.8266     88.7257     31.6902
   974.3000      8.1913      1.3891      0.0105     76.4201     86.5431     32.1054
   974.4000      8.1913      1.4028      0.0273     75.5871     84.6798     32.4800
   974.5000      8.2252      1.4142      0.0201     74.8952     82.9929     32.7620
   974.6000      8.2252      1.4220      0.0394     74.4225     82.0724     32.7799
   974.7000      8.2252      1.4326      0.0269     73.7840     81.7718     32.5227
   974.8000      8.1978      1.4596      0.0238     72.1429     80.9134     32.3166
   974.9000      8.1978      1.5073      0.0550     69.2568     81.8549     32.5362
   975.0000      8.1472      1.5691      0.0530     65.5106     85.0548     33.0512
   975.1000      8.1472      1.6405      0.0771     61.1844     85.5580     33.4052
   975.2000      8.1472      1.7088      0.1213     57.0428     83.7335     33.4380
   975.3000      8.1440      1.7693      0.0875     53.3737     85.1799     33.3147
   975.4000      8.1440      1.8450      0.1026     48.7864     90.0995     33.2902
   975.5000      8.1404      1.9430      0.2087     42.8500     93.1681     33.4385
   975.6000      8.1404      2.0317      0.1997     37.4711     93.0659     33.4391
   975.7000      8.1404      2.0895      0.1734     33.9701     93.9228     33.2376
   975.8000      8.0953      2.1216      0.1110     32.0252     97.7802     33.1802
   975.9000      8.0953      2.1396      0.0698     30.9363    103.3770     33.2491
   976.0000      8.0289      2.1551      0.0489     29.9949    109.8246     33.0728
   976.1000      8.0289      2.1624      0.1443     29.5514    114.3551     32.5275
   976.2000      8.0289      2.1335      0.1659     31.3057    114.1709     31.8316
   976.3000      8.0031      2.0590      0.0862     35.8210    111.4329     31.3531
   976.4000      8.0031      1.9614     -0.0431     41.7332    108.8021     31.3841
   976.5000      8.0096      1.8555      0.0019     48.1494    104.7293     31.7228
   976.6000      8.0096      1.7430     -0.0656     54.9701     97.2044     31.9570
   976.7000      8.0096      1.6359     -0.1008     61.4592     88.6514     32.1455
   976.8000      8.0985      1.5376     -0.0876     67.4168     81.1401     32.4432
   976.9000      8.0985      1.4438     -0.0869     73.1020     72.3895     32.6979
   977.0000      8.2027      1.3684     -0.0798     77.6755     61.6728     32.8247
   977.1000      8.2027      1.3209     -0.0417     80.5537     52.3487     32.9589
   977.2000      8.2027      1.2878     -0.0140     82.5570     47.4884     33.1953
   977.3000      8.4490      1.2619     -0.0331     84.1290     45.0611     33.5433
   977.4000      8.4490      1.2521      0.0145     84.7220     41.5319     33.9156
   977.5000      8.5475      1.2601      0.0226     84.2393     38.0104     34.1059
   977.6000      8.5475      1.2765      0.0349     83.2449     36.5536     34.0239
   977.7000      8.5475      1.2933      0.0250     82.2246     35.8577     33.7502
   977.8000      8.6669      1.3053      0.0725     81.4954     34.9027     33.4974
   977.9000      8.6669      1.3101      0.0356     81.2037     34.3198     33.4658
   978.0000      8.6973      1.3113      0.0468     81.1326     33.5100     33.5824
   978.1000      8.6973      1.3085      0.0601     81.3027     32.3946     33.6473
   978.2000      8.6973      1.3024      0.0020     81.6736     32.3948     33.7064
   978.3000      8.5659      1.3030      0.0128     81.6346     34.2879     33.9373
   978.4000      8.5659      1.3152      0.0228     80.8978     38.1638     34.2314
   978.5000      8.5483      1.3406      0.0252     79.3564     43.5394     34.3176
   978.6000      8.5483      1.3915      0.0188     76.2746     48.9706     34.0133
   978.7000      8.5483      1.4748      0.0583     71.2243     53.8845     33.5012
   978.8000      8.5771      1.5740      0.0911     65.2097     60.5572     33.2130
   978.9000      8.5771      1.6729      0.1125     59.2156     69.9937     33.2409
   979.0000      8.5185      1.7803      0.0931     52.7091     79.6537     33.2959
   979.1000      8.5185      1.9023      0.1407     45.3152     89.3696     33.1394
   979.2000      8.5185      2.0262      0.1722     37.8073    100.8277     32.8568
   979.3000      8.3918      2.1480      0.2130     30.4271    112.8804     32.6496
   979.4000      8.3918      2.2680      0.1688     23.1538    123.3098     32.5413
   979.5000      8.2271      2.3667      0.1534     17.1710    130.8826     32.4428
   979.6000      8.2271      2.4198      0.1107     13.9490    136.1477     32.1219
   979.7000      8.2271      2.4276      0.0793     13.4794    140.6284     31.4410
   979.8000      8.0457      2.4133      0.0290     14.3433    144.3298     30.6532
   979.9000      8.0457      2.3989      0.0323     15.2152    146.3160     29.9514
   980.0000      7.9896      2.3926      0.0677     15.5997    147.2083     29.2739
   980.1000      7.9896      2.4014      0.0033     15.0669    148.8141     28.7428
   980.2000      7.9896      2.4226      0.0947     13.7843    150.9865     28.5352
   980.3000      7.9732      2.4365      0.0562     12.9378    151.5451     28.6414
   980.4000      7.9732      2.4420      0.0533     12.6060    152.9975     28.9782
   980.5000      7.9608      2.4495      0.1062     12.1491    157.1659     29.3275
   980.6000      7.9608      2.4562      0.1168     11.7439    159.2636     29.3632
   980.7000      7.9608      2.4570      0.1484     11.6955    155.4183     29.0952
   980.8000      7.9627      2.4610      0.1138     11.4543    149.0466     28.7912
   980.9000      7.9627      2.4764      0.1538     10.5186    145.1013     28.5378
   981.0000      7.9639      2.4909      0.1531      9.6447    144.4931     28.3431
   981.1000      7.9639      2.4991      0.0817      9.1424    143.1105     28.3877
   981.2000      7.9639      2.5111      0.1282      8.4192    140.3230     28.8261
   981.3000      7.9518      2.5237      0.0948      7.6550    142.1753     29.3725
   981.4000      7.9518      2.5377      0.0876      6.8067    147.1878     29.4938
   981.5000      7.9279      2.5598      0.1316      5.4666    147.5440     29.0680
   981.6000      7.9279      2.5766      0.1580      4.4490    142.5248     28.4687
   981.7000      7.9279      2.5703      0.1244      4.8303    138.3463     28.0640
   981.8000      7.9246      2.5457      0.0892      6.3213    138.6760     28.1075
   981.9000      7.9246      2.5247      0.0364      7.5969    141.4059     28.5201
   982.0000      7.9174      2.5197      0.0748      7.8999    142.0675     28.8235
   982.1000      7.9174      2.5203      0.0653      7.8627    140.2165     28.8983
   982.2000      7.9174      2.5125      0.0599      8.3362    138.7453     28.8978
   982.3000      7.9308      2.4996      0.0195      9.1181    135.9580     28.7646
   982.4000      7.9308      2.4952      0.0517      9.3814    132.1189     28.4963
   982.5000      7.9373      2.4977      0.0529      9.2308    132.1043     28.2836
   982.6000      7.9373      2.4950      0.0561      9.3941    134.9244     28.1357
   982.7000      7.9373      2.4966     -0.0198      9.2978    136.1659     27.8779
   982.8000      7.9683      2.5223      0.0550      7.7411    135.7554     27.5700
   982.9000      7.9683      2.5536      0.1251      5.8409    135.0744     27.5212
   983.0000      8.0015      2.5592      0.0964      5.5027    134.8683     27.6537
   983.1000      8.0015      2.5455      0.0554      6.3334    135.7022     27.6193
   983.2000      8.0015      2.5328      0.0668      7.1008    137.2124     27.4630
   983.3000      7.9500      2.5263      0.0582      7.4980    137.3083     27.2925
   983.4000      7.9500      2.5320      0.0047      7.1516    134.0745     27.1701
   983.5000      7.9355      2.5465      0.0929      6.2744    129.9032     27.2261
   983.6000      7.9355      2.5523      0.0476      5.9189    127.3392     27.4197
   983.7000      7.9355      2.5470      0.0569      6.2422    123.8408     27.3072
