~Version Information
VERS.                      2.0: CWLS Log ASCII Standard - VERSION 2.0
WRAP.                       NO: One line per depth step
~Well Information Block
STRT.FT                -9.7500: 
STOP.FT              2158.2500: 
STEP.FT                 0.2500: 
NULL.                -999.2500: 
COMP.          Petrogulf Corporation: COMPANY
WELL.             State 16-41V: WELL
FLD.           Purgatoire River: FIELD
LOC.           335' FNL & 823' FEL--: LOCATION
PROV.                 Colorado: PROVINCE
CNTY.               Las Animas: COUNTRY
SRVC.                Patterson: SERVICE COMPANY
DATE.          Wed Aug 17 12:15:10 2005: LOG DATE
UWI.           05 071 08344 00: UNIQUE WELL ID
~Curve Information Block
DEPT.FT            0 000 00 00: Depth
CCL.                          : Casing Collar Locator
TT3.usec                      : CBL 3' Travel Time
AMP3.mV                       : CBL 3' Amplitude
GR.GAPI                       : Gamma Ray
~Parameter Information Block
~A  Depth       CCL         TT3         AMP3         GR     
    -9.7500   -999.2500   -999.2500   -999.2500    108.8592
    -9.5000   -999.2500   -999.2500   -999.2500    105.2809
    -9.2500   -999.2500   -999.2500   -999.2500    102.0807
    -9.0000   -999.2500   -999.2500   -999.2500    100.2835
    -8.7500   -999.2500   -999.2500   -999.2500     99.8849
    -8.5000   -999.2500   -999.2500   -999.2500    100.6627
    -8.2500   -999.2500   -999.2500   -999.2500    102.8772
    -8.0000   -999.2500   -999.2500   -999.2500    106.4306
    -7.7500   -999.2500   -999.2500   -999.2500    109.9567
    -7.5000   -999.2500   -999.2500   -999.2500    111.7519
    -7.2500   -999.2500   -999.2500   -999.2500    111.5827
    -7.0000   -999.2500   -999.2500   -999.2500    110.9331
    -6.7500   -999.2500   -999.2500   -999.2500    111.3328
    -6.5000   -999.2500   -999.2500   -999.2500    112.7117
    -6.2500   -999.2500   -999.2500   -999.2500    113.6138
    -6.0000   -999.2500   -999.2500   -999.2500    112.9705
    -5.7500   -999.2500   -999.2500   -999.2500    111.4483
    -5.5000   -999.2500   -999.2500   -999.2500    110.7494
    -5.2500   -999.2500   -999.2500   -999.2500    111.5799
    -5.0000   -999.2500   -999.2500   -999.2500    112.6660
    -4.7500   -999.2500   1413.0000      1.5600    111.8998
    -4.5000   -999.2500   1413.0000      1.5642    108.2277
    -4.2500   -999.2500   1413.0000      1.5682    102.3428
    -4.0000   -999.2500   1413.0000      1.5703     95.8333
    -3.7500   -999.2500   1413.0000      1.5692     89.8437
    -3.5000   -999.2500   1413.0000      1.5680     84.4335
    -3.2500   -999.2500   1413.0000      1.5723     78.9871
    -3.0000   -999.2500   1413.0000      1.5825     73.0264
    -2.7500   -999.2500   1413.0000      1.5906     66.6378
    -2.5000   -999.2500   1413.0000      1.5872     60.4047
    -2.2500   -999.2500   1413.0000      1.5705     54.9830
    -2.0000   -999.2500   1413.0000      1.5484     50.4494
    -1.7500   -999.2500   1413.0000      1.5314     46.1729
    -1.5000   -999.2500   1413.0000      1.5246     41.6217
    -1.2500   -999.2500   1413.0000      1.5266     37.1570
    -1.0000   -999.2500   1413.0000      1.5328     33.7683
    -0.7500   -999.2500   1413.0000      1.5393     32.2160
    -0.5000   -999.2500   1413.0000      1.5452     32.7539
    -0.2500   -999.2500   1413.0000      1.5524     35.5243
     0.0000   -999.2500   1413.0000      1.5616     40.6331
     0.2500   -999.2500   1413.0000      1.5711     54.7634
     0.5000   -999.2500   1413.0000      1.5667     61.0279
     0.7500      0.0000   1413.0000      1.5590     66.2237
     1.0000      0.0000   1413.0000      1.5484     71.2003
     1.2500      0.0000   1413.0000      1.5344     76.4536
     1.5000      0.0000   1413.0000      1.5201     81.3491
     1.7500      0.0000   1413.0000      1.5109     84.4519
     2.0000      0.0000   1413.0000      1.5102     84.4601
     2.2500      0.0000   1413.0000      1.5172     81.0860
     2.5000      0.0000   1413.0000      1.5290     75.4081
     2.7500      0.0000   1413.0000      1.5428     69.3893
     3.0000      0.0000   1413.0000      1.5568     64.9044
     3.2500      0.0000   1413.0000      1.5692     62.9801
     3.5000      0.0000   1413.0000      1.5780     63.4707
     3.7500      0.0000   1413.0000      1.5809     65.3149
     4.0000      0.0000   1413.0000      1.5766     67.5398
     4.2500      0.0000   1413.0000      1.5660     70.1098
     4.5000      0.0000   1413.0000      1.5525     73.4315
     4.7500      0.0000   1413.0000      1.5402     77.3310
     5.0000      0.0000   1413.0000      1.5324     81.1627
     5.2500      0.0000   1413.0000      1.5289     84.6205
     5.5000      0.0000   1413.0000      1.5271     87.7128
     5.7500      0.0000   1413.0000      1.5254     89.9981
     6.0000      0.0000   1413.0000      1.5252     90.3658
     6.2500      0.0000   1413.0000      1.5296     87.7709
     6.5000      0.0000   1413.0000      1.5381     82.2604
     6.7500      0.0000   1413.0000      1.5458     75.2183
     7.0000      2.0000   1413.0000      1.5470     68.4355
     7.2500      0.0000   1413.0000      1.5412     63.0066
     7.5000      0.0000   1413.0000      1.5343     59.2108
     7.7500      0.0000   1413.0000      1.5323     57.0094
     8.0000      0.0000   1413.0000      1.5350     56.0629
     8.2500      0.0000   1413.0000      1.5377     55.4149
     8.5000      0.0000   1413.0000      1.5378     53.8672
     8.7500      0.0000   1413.0000      1.5366     51.0268
     9.0000      0.0000   1413.0000      1.5351     47.7448
     9.2500      0.0000   1412.9575      1.5314     45.2932
     9.5000      0.0000   1412.6464      1.5321     44.1916
     9.7500      0.0000   1411.0166      1.5712     43.9486
    10.0000      0.0000   1404.3186      1.7686     43.7215
    10.2500      0.0000   1382.6896      2.4807     43.0102
    10.5000      0.0000   1327.7321      4.5422     41.9326
    10.7500      0.0000   1217.6873      9.3188     41.0305
    11.0000      0.0000   1043.8015     18.0687     40.7614
    11.2500      0.0000    826.7236     30.6490     41.1866
    11.5000      0.0000    612.4436     44.7988     42.1300
    11.7500      0.0000    445.1295     57.2386     43.4460
    12.0000      0.0000    341.7994     65.8024     45.0534
    12.2500      0.0000    291.3553     70.4529     46.8695
    12.5000      0.0000    271.9098     72.4932     48.8091
    12.7500      0.0000    266.0025     73.2776     50.7949
    13.0000      0.0000    264.5978     73.6141     52.6057
    13.2500      0.0000    264.3463     73.8413     53.6291
    13.5000      0.0000    264.3266     74.0671     52.9720
    13.7500      0.0000    264.3366     74.3124     50.1757
    14.0000      0.0000    264.3394     74.5683     45.9141
    14.2500      0.0000    264.3347     74.8175     41.8540
    14.5000      0.0000    264.3239     75.0503     39.6147
    14.7500      0.0000    264.3099     75.2629     39.6271
    15.0000      0.0000    264.2951     75.4503     40.8377
    15.2500      0.0000    264.2822     75.6075     41.5455
    15.5000      0.0000    264.2767     75.7412     40.7501
    15.7500      0.0000    264.2853     75.8707     38.9157
    16.0000      0.0000    264.3090     76.0138     37.5370
    16.2500      0.0000    264.3389     76.1725     37.9757
    16.5000      0.0000    264.3610     76.3344     40.5677
    16.7500      0.0000    264.3647     76.4820     44.5618
    17.0000      0.0000    264.3491     76.6021     48.7798
    17.2500      0.0000    264.3207     76.6886     52.4986
    17.5000      0.0000    264.2885     76.7435     55.8297
    17.7500      0.0000    264.2600     76.7807     59.2187
    18.0000      0.0000    264.2407     76.8262     62.7460
    18.2500      0.0000    264.2350     76.9049     66.3328
    18.5000      0.0000    264.2441     77.0194     70.4932
    18.7500      0.0000    264.2644     77.1441     76.0511
    19.0000      0.0000    264.2885     77.2489     82.8845
    19.2500      0.0000    264.3115     77.3268     89.6396
    19.5000      0.0000    264.3331     77.3988     94.8930
    19.7500      0.0000    264.3546     77.4927     98.1281
    20.0000      0.0000    264.3747     77.6181     99.6996
    20.2500      0.0000    264.3897     77.7571    100.4906
    20.5000      0.0000    264.3962     77.8795    101.6280
    20.7500      0.0000    264.3934     77.9670    103.8802
    21.0000      0.0000    264.3831     78.0262    107.0109
    21.2500      0.0000    264.3692     78.0833    109.9201
    21.5000      0.0000    264.3564     78.1673    111.5081
    21.7500      0.0000    264.3493     78.2928    111.4461
    22.0000      0.0000    264.3497     78.4520    110.3344
    22.2500      0.0000    264.3559     78.6200    109.2777
    22.5000      0.0000    264.3631     78.7716    109.0255
    22.7500      0.0000    264.3692     78.8978    109.1795
    23.0000      0.0000    264.3776     79.0087    108.3294
    23.2500      0.0000    264.3947     79.1204    105.2319
    23.5000      0.0000    264.4222     79.2405     99.9616
