~Version Information
VERS.                      2.0: CWLS Log ASCII Standard - VERSION 2.0
WRAP.                       NO: One line per depth step
~Well Information Block
STRT.FT               238.0000: 
STOP.FT              1377.0000: 
STEP.FT                 0.1000: 
NULL.                -999.2500: 
COMP.          Pioneer Natural Resources: COMPANY
WELL.             Raptor 44-26: WELL
FLD.           Purgatoire River: FIELD
LOC.           180' FSL & 812' FEL: LOCATION
PROV.                 Colorado: PROVINCE
CNTY.               Las Animas: COUNTRY
SRVC.                Patterson: SERVICE COMPANY
DATE.          Tue Mar 22 15:28:33 2005: LOG DATE
UWI.           05 071 08187 00: UNIQUE WELL ID
~Curve Information Block
DEPT.FT            0 000 00 00: Depth
DCAL.in                       : CDL Caliper
RHOB.g/cc                     : CDL Bulk Density
RHOC.g/cc                     : CDL Density Correction
DPOR.pu                       : CDL Density Porosity
GR.GAPI                       : Gamma Ray
NPOR.pu                       : Neutron Porosity
~Parameter Information Block
~A  Depth       DCAL        RHOB        RHOC        DPOR         GR         NPOR    
# ...
   391.6000      8.1061      2.4591      0.0102     11.5708    145.5789     29.2578
   391.7000      8.1061      2.4613      0.0861     11.4346    144.2335     29.2913
   391.8000      8.1302      2.4646     -0.0070     11.2378    143.3390     29.3237
   391.9000      8.1302      2.4772      0.0156     10.4730    143.4569     29.3839
   392.0000      8.1874      2.4956      0.1072      9.3566    142.4458     29.5642
   392.1000      8.1874      2.5122      0.0668      8.3498    141.4973     29.8064
   392.2000      8.1874      2.5326      0.0811      7.1140    142.6219     29.9210
   392.3000      8.1589      2.5458      0.1325      6.3163    142.8552     29.8889
   392.4000      8.1589      2.5326      0.1335      7.1141    140.0082     29.7290
   392.5000      8.1437      2.5101      0.0618      8.4804    138.0897     29.3288
   392.6000      8.1437      2.5079      0.0762      8.6130    140.0705     28.7141
   392.7000      8.1437      2.5248      0.0841      7.5852    142.1987     28.2356
   392.8000      8.1210      2.5425      0.0999      6.5126    141.8590     28.2411
   392.9000      8.1210      2.5471      0.1050      6.2360    141.6943     28.6864
   393.0000      8.1392      2.5337      0.0811      7.0456    143.0517     29.2413
   393.1000      8.1392      2.5097      0.0339      8.5034    143.7413     29.5967
   393.2000      8.1392      2.4840      0.0521     10.0615    142.8258     29.5799
   393.3000      8.1663      2.4647      0.0331     11.2290    141.3880     29.2959
   393.4000      8.1663      2.4633      0.0611     11.3124    138.4291     29.0354
   393.5000      8.1240      2.4809      0.0275     10.2498    132.8847     29.0986
   393.6000      8.1240      2.5014      0.0591      9.0089    126.8986     29.5988
   393.7000      8.1240      2.5066      0.0645      8.6930    124.3949     30.2357
   393.8000      8.1043      2.4974      0.0625      9.2501    127.9878     30.4656
   393.9000      8.1043      2.4918      0.0492      9.5873    136.7909     30.1999
   394.0000      8.0938      2.5015      0.0336      8.9974    144.4635     29.8968
   394.1000      8.0938      2.5153      0.1547      8.1655    146.1832     29.8592
   394.2000      8.0938      2.5125      0.0561      8.3323    142.2447     29.9277
   394.3000      8.0818      2.5013      0.0225      9.0138    136.1746     29.8399
   394.4000      8.0818      2.5094      0.0580      8.5209    133.2596     29.5674
   394.5000      8.0340      2.5446      0.0172      6.3884    134.6263     29.3879
   394.6000      8.0340      2.5788      0.1248      4.3180    137.1406     29.6639
   394.7000      8.0340      2.5804      0.0680      4.2161    137.5279     29.9896
   394.8000      8.0101      2.5632      0.0015      5.2635    134.9760     29.6221
   394.9000      8.0101      2.5588      0.0366      5.5291    131.8390     28.9789
   395.0000      8.0008      2.5709      0.0929      4.7949    129.5705     28.8146
   395.1000      8.0008      2.5861      0.0936      3.8744    128.9273     28.8021
   395.2000      8.0008      2.5929      0.1044      3.4583    130.3320     28.5030
   395.3000      7.9746      2.5841      0.0652      3.9950    129.0593     28.2974
   395.4000      7.9746      2.5677      0.0617      4.9859    123.3332     28.3885
   395.5000      7.9779      2.5639      0.0667      5.2170    118.9519     28.3735
   395.6000      7.9779      2.5764      0.0779      4.4588    118.0694     28.1600
   395.7000      7.9779      2.5870      0.1170      3.8153    118.4705     28.1737
   395.8000      7.9884      2.5868      0.0928      3.8319    118.0777     28.4540
   395.9000      7.9884      2.5828      0.0773      4.0703    115.1158     28.7368
   396.0000      7.9453      2.5797      0.0616      4.2629    110.1228     28.9394
   396.1000      7.9453      2.5857      0.0913      3.8954    106.2479     28.9595
   396.2000      7.9453      2.6083      0.1008      2.5298    105.0336     28.6188
   396.3000      7.9301      2.6301      0.1150      1.2090    107.2013     27.9391
   396.4000      7.9301      2.6293      0.0968      1.2563    112.4968     27.3040
   396.5000      7.8834      2.6042      0.1051      2.7731    117.2398     27.0989
   396.6000      7.8834      2.5723      0.0409      4.7079    119.8733     27.4653
   396.7000      7.8834      2.5569      0.0339      5.6433    123.8002     28.2517
   396.8000      7.8541      2.5603      0.0563      5.4348    130.7348     28.9031
   396.9000      7.8541      2.5644      0.0369      5.1896    137.4787     29.1174
   397.0000      7.8888      2.5603      0.0308      5.4373    137.9153     28.9928
   397.1000      7.8888      2.5522      0.0394      5.9294    129.8499     28.7369
   397.2000      7.8888      2.5383      0.0628      6.7721    120.7956     28.6654
   397.3000      7.8883      2.5209      0.0818      7.8269    117.2196     28.7188
   397.4000      7.8883      2.5224      0.0112      7.7324    117.4146     28.7500
   397.5000      7.8947      2.5468      0.0628      6.2567    117.8598     28.8745
   397.6000      7.8947      2.5555      0.0816      5.7294    118.5521     28.7718
   397.7000      7.8947      2.5311     -0.0130      7.2065    120.5950     28.2406
   397.8000      7.8970      2.5053     -0.0554      8.7686    122.8270     27.7808
   397.9000      7.8970      2.5075     -0.0087      8.6390    121.1301     27.6977
   398.0000      7.9042      2.5303      0.0471      7.2524    114.2727     27.5945
   398.1000      7.9042      2.5452      0.0614      6.3523    107.2666     27.2726
   398.2000      7.9042      2.5465      0.0009      6.2753    102.3489     27.1886
   398.3000      7.8828      2.5552      0.0061      5.7477     99.4540     27.5707
   398.4000      7.8828      2.5755      0.0928      4.5145    100.6152     28.1277
   398.5000      7.8673      2.5934      0.0954      3.4306    106.2934     28.4875
   398.6000      7.8673      2.5982      0.0992      3.1409    113.2676     28.5605
   398.7000      7.8673      2.5914      0.0653      3.5513    116.9231     28.7756
   398.8000      7.8635      2.5968      0.0497      3.2271    117.3367     29.4453
   398.9000      7.8635      2.6402      0.0343      0.5929    117.3113     30.1377
   399.0000      7.8821      2.7096      0.1206     -3.6144    115.5780     30.3715
   399.1000      7.8821      2.7660      0.0653     -7.0310    111.4475     30.3466
   399.2000      7.8821      2.7934      0.1307     -8.6935    107.8889     30.3813
   399.3000      7.9044      2.7975      0.0747     -8.9378    108.4156     30.3251
   399.4000      7.9044      2.7729      0.1469     -7.4456    111.6142     29.9906
   399.5000      7.8749      2.7190     -0.0078     -4.1810    111.8745     29.5807
   399.6000      7.8749      2.6706     -0.0524     -1.2460    107.8690     29.3853
   399.7000      7.8749      2.6495     -0.0647      0.0308    102.0032     29.2877
   399.8000      7.8753      2.6281     -0.0265      1.3261     98.5715     29.2198
   399.9000      7.8753      2.5889     -0.0570      3.7051    101.0951     29.2762
   400.0000      7.9198      2.5603     -0.0303      5.4370    107.7971     29.3934
   400.1000      7.9198      2.5642     -0.0088      5.2005    112.6131     29.4711
   400.2000      7.9198      2.5868      0.0494      3.8318    110.6520     29.5339
   400.3000      7.9351      2.6106      0.0583      2.3900    103.4108     29.6809
   400.4000      7.9351      2.6321      0.0878      1.0839     97.4033     29.8216
   400.5000      7.9342      2.6568      0.0614     -0.4093     95.1284     29.6863
   400.6000      7.9342      2.6884      0.0825     -2.3258     94.3204     29.2765
   400.7000      7.9342      2.7136      0.0631     -3.8524     94.3835     28.8932
   400.8000      7.9289      2.7141      0.0800     -3.8853     94.0406     28.7192
   400.9000      7.9289      2.6907      0.0100     -2.4682     89.5061     28.6471
   401.0000      7.9336      2.6630      0.0120     -0.7889     81.6735     28.5115
   401.1000      7.9336      2.6392      0.0265      0.6557     75.7551     28.3183
