~Version Information
VERS.                      2.0: CWLS Log ASCII Standard - VERSION 2.0
WRAP.                       NO: One line per depth step
~Well Information Block
STRT.FT                -7.2500: 
STOP.FT               862.2500: 
STEP.FT                 0.2500: 
NULL.                -999.2500: 
COMP.          Pioneer Natural Resources: COMPANY
WELL.          Santisteven 13-22: WELL
FLD.           Purgatorie River: FIELD
LOC.           1861' FSL & 992' FWL--: LOCATION
PROV.                       CO: PROVINCE
CNTY.               Las Animas: COUNTRY
SRVC.          Patterson Wireline: SERVICE COMPANY
DATE.          Thu Apr 07 09:08:11 2005: LOG DATE
UWI.           05 071 08337 00: UNIQUE WELL ID
~Curve Information Block
DEPT.FT            0 000 00 00: Depth
CCL.                          : Casing Collar Locator
TT3.usec                      : CBL 3' Travel Time
AMP3.mV                       : CBL 3' Amplitude
GR.GAPI                       : Gamma Ray
~Parameter Information Block
~A  Depth       CCL         TT3         AMP3         GR     
# ...
   227.2500      0.0000    921.2543      5.2712     81.2555
   227.5000      0.0000    921.8519      5.0744     80.4311
   227.7500      0.0000    907.5901      4.9230     80.4952
   228.0000      0.0000    889.5107      4.8425     83.1825
   228.2500      0.0000    875.8852      4.8277     88.8166
   228.5000      0.0000    867.7523      4.8742     95.9555
   228.7500      0.0000    860.9143      5.0043    102.5742
   229.0000      0.0000    850.8104      5.2518    107.6467
   229.2500      0.0000    836.0029      5.6132    111.6560
   229.5000      0.0000    818.6976      6.0238    115.7002
   229.7500      0.0000    803.0755      6.3873    120.1568
   230.0000      0.0000    792.8004      6.6258    124.0550
   230.2500      0.0000    788.9363      6.7086    125.7351
   230.5000      0.0000    789.4760      6.6543    124.4035
   230.7500      0.0000    791.0465      6.5169    121.0276
   231.0000      0.0000    791.5273      6.3593    117.5349
   231.2500      0.0000    790.9432      6.2323    115.3632
   231.5000      0.0000    789.7335      6.1692    114.9170
   231.7500      0.0000    786.8699      6.1830    115.9056
   232.0000      0.0000    780.0995      6.2596    117.6428
   232.2500      0.0000    767.7626      6.3585    119.1666
   232.5000      0.0000    750.5889      6.4285    119.4989
   232.7500      0.0000    732.4164      6.4295    117.9956
   233.0000      0.0000    717.8395      6.3463    114.5990
   233.2500      0.0000    707.5184      6.1899    109.7779
   233.5000      0.0000    697.2253      5.9912    104.1111
   233.7500      0.0000    683.9380      5.7917     98.0026
   234.0000      0.0000    671.8188      5.6321     91.8800
   234.2500      0.0000    669.8109      5.5297     86.3733
   234.5000      0.0000    683.2914      5.4595     82.0449
   234.7500      0.0000    708.9099      5.3643     79.0883
   235.0000      0.0000    737.3461      5.1901     77.4568
   235.2500      0.0000    760.6840      4.9189     77.1277
   235.5000      0.0000    777.3033      4.5767     78.0385
   235.7500      0.0000    790.7858      4.2195     79.9329
   236.0000      0.0000    805.4705      3.9123     82.4282
   236.2500      0.0000    823.0263      3.7120     85.0396
   236.5000      0.0000    841.5135      3.6523     87.0379
   236.7500      0.0000    856.6014      3.7346     87.6851
   237.0000      0.0000    864.3740      3.9323     86.9194
   237.2500      0.0000    864.5934      4.2068     85.5772
   237.5000      0.0000    861.5461      4.5229     84.7282
   237.7500      0.0000    860.9709      4.8540     84.9930
   238.0000      0.0000    865.6608      5.1798     86.5971
   238.2500      0.0000    874.0976      5.4790     89.6245
   238.5000      0.0000    882.7568      5.7228     93.8645
   238.7500      0.0000    888.5527      5.8787     98.5727
   239.0000      0.0000    889.2055      5.9227    102.6924
   239.2500      0.0000    883.3309      5.8501    105.4824
   239.5000      0.0000    871.6978      5.6762    106.9650
   239.7500      0.0000    857.6752      5.4313    107.6653
   240.0000      0.0000    845.2031      5.1525    107.9682
   240.2500      0.0000    836.1702      4.8717    107.9659
   240.5000      0.0000    829.8479      4.6022    107.7969
   240.7500      0.0000    824.4727      4.3380    107.6384
   241.0000      0.0000    818.8849      4.0755    107.3032
   241.2500      0.0000    812.8906      3.8403    106.2573
   241.5000      0.0000    806.8612      3.6877    104.2451
   241.7500      0.0000    801.7200      3.6566    101.6119
   242.0000      0.0000    799.2942      3.7085     98.8038
   242.2500      0.0000    802.5945      3.7304     95.7210
   242.5000      0.0000    815.9625      3.6303     91.8740
   242.7500      0.0000    843.4333      3.4259     87.3040
   243.0000      0.0000    883.4039      3.2156     83.2318
   243.2500      0.0000    924.0214      3.0776     81.4317
   243.5000      2.0000    947.6953      3.0199     82.7242
   243.7500      2.0000    944.1006      3.0099     86.1776
   244.0000      0.0000    917.6343      3.0315     89.8679
   244.2500      0.0000    880.3676      3.1202     92.3414
   244.5000      0.0000    841.5603      3.3453     93.2967
   244.7500      0.0000    807.6953      3.7370     92.9971
   245.0000      0.0000    787.2244      4.2288     91.3326
   245.2500      0.0000    787.0128      4.6915     87.7780
   245.5000      0.0000    804.3332      5.0263     82.2676
   245.7500      0.0000    827.6786      5.2135     75.7538
   246.0000      0.0000    846.2338      5.2864     69.6734
   246.2500      0.0000    856.0464      5.2851     64.9626
   246.5000      0.0000    857.7179      5.2353     61.7675
   246.7500      0.0000    851.9418      5.1525     60.0024
   247.0000      0.0000    839.0801      5.0526     59.8628
   247.2500      0.0000    821.2860      4.9565     61.5662
   247.5000      0.0000    802.9209      4.8861     64.8212
   247.7500      0.0000    788.7166      4.8531     68.8514
   248.0000      0.0000    781.5011      4.8498     72.8999
   248.2500      0.0000    780.9375      4.8511     76.5692
   248.5000      0.0000    783.8306      4.8308     79.9109
   248.7500      0.0000    786.3157      4.7785     83.4085
   249.0000      0.0000    786.8348      4.7056     87.5657
   249.2500      0.0000    786.9373      4.6413     92.1366
   249.5000      0.0000    788.6243      4.6222     95.9437
   249.7500      0.0000    791.3284      4.6735     97.6761
   250.0000      0.0000    792.3449      4.7948     96.6959
   250.2500      0.0000    790.3051      4.9643     93.2062
   250.5000      0.0000    787.8019      5.1575     88.1482
   250.7500      0.0000    790.0674      5.3608     82.9291
   251.0000      0.0000    800.3428      5.5706     78.7386
   251.2500      0.0000    815.8807      5.7819     76.0066
   251.5000      0.0000    828.5128      5.9798     74.7770
   251.7500      0.0000    829.7988      6.1422     75.3640
   252.0000      0.0000    816.8279      6.2527     78.0770
   252.2500      0.0000    794.1812      6.3073     82.3051
   252.5000      0.0000    770.3492      6.3147     86.3712
   252.7500      0.0000    751.7980      6.2957     88.5383
   253.0000      0.0000    740.3185      6.2810     88.2509
   253.2500      0.0000    735.3687      6.3002     86.5579
   253.5000      0.0000    737.4739      6.3635     85.3704
   253.7500      0.0000    748.3498      6.4500     86.0186
   254.0000      0.0000    767.7928      6.5147     88.1525
   254.2500      0.0000    791.3077      6.5167     89.8955
   254.5000      0.0000    811.9746      6.4498     89.2893
   254.7500      0.0000    825.2733      6.3503     85.9042
   255.0000      0.0000    831.7126      6.2751     81.1859
   255.2500      0.0000    834.7022      6.2649     77.3542
   255.5000      0.0000    836.8393      6.3200     75.9771
   255.7500      0.0000    838.7758      6.4022     77.1482
   256.0000      0.0000    840.7766      6.4605     79.6287
   256.2500      0.0000    843.9193      6.4658     81.9993
   256.5000      0.0000    849.1188      6.4319     83.8674
   256.7500      0.0000    855.5621      6.4077     85.8171
   257.0000      0.0000    860.8145      6.4449     88.1714
   257.2500      0.0000    862.4668      6.5604     90.0483
   257.5000      0.0000    859.5552      6.7201     89.6917
   257.7500      0.0000    852.9263      6.8572     85.6449
   258.0000      0.0000    844.7879      6.9134     77.8691
   258.2500      0.0000    837.6240      6.8754     68.1649
   258.5000      0.0000    832.9624      6.7834     59.4258
   258.7500      0.0000    831.0118      6.7075     54.0079
   259.0000      0.0000    831.3816      6.7065     52.5405
   259.2500      0.0000    833.8447      6.7961     54.0606
   259.5000      0.0000    838.1335      6.9453     56.9465
   259.7500      0.0000    843.0782      7.0999     59.7410
   260.0000      0.0000    846.4550      7.2134     61.6459
   260.2500      0.0000    846.3928      7.2697     62.6883
   260.5000      0.0000    843.1337      7.2893     63.3844
