~Version Information
VERS.                      2.0: CWLS Log ASCII Standard - VERSION 2.0
WRAP.                       NO: One line per depth step
~Well Information Block
STRT.FT               906.0000: 
STOP.FT              1960.5000: 
STEP.FT                 0.2500: 
NULL.                -999.2500: 
COMP.          Petrogulf Corporation: COMPANY
WELL.            Torcom 17-33R: WELL
FLD.           Purgatorie River: FIELD
LOC.           1483' FSL & 1804' FEL: LOCATION
PROV.                 Colorado: PROVINCE
CNTY.               Las Animas: COUNTRY
SRVC.                Patterson: SERVICE COMPANY
DATE.          Thu Aug 18 08:33:01 2005: LOG DATE
UWI.                071 08069 : UNIQUE WELL ID
~Curve Information Block
DEPT.FT            0 000 00 00: Depth
SP.mV                         : DIL Spontaneous Potential
RILD.Ohm-m                    : DIL Deep Resistivity
RILM.Ohm-m                    : DIL Medium Resistivity
RLL3.Ohm-m                    : DIL Shallow Resistivity
GR.GAPI                       : Gamma Ray
~Parameter Information Block
~A  Depth        SP         RILD        RILM        RLL3         GR     
# ...
  1606.0000    107.8136      7.9767      8.9487     14.6337    150.5817
  1606.2500    108.3622      8.0705      9.1023     14.6352    150.4428
  1606.5000    109.0861      8.0962      9.2936     14.6776    151.9148
  1606.7500    109.2867      8.0962      9.5661     15.0305    153.2401
  1607.0000    109.0128      8.1075      9.8523     15.7300    153.4414
  1607.2500    109.0917      8.0622      9.9393     16.7862    160.6015
  1607.5000    108.8349      8.0150      9.9288     17.0548    157.1888
  1607.7500    108.9682      7.8978      9.8715     17.1698    149.6017
  1608.0000    108.7018      7.7875      9.6630     17.2052    150.2337
  1608.2500    108.4526      7.6447      9.5039     17.0918    147.5950
  1608.5000    108.2348      7.5452      9.2269     16.5380    160.3392
  1608.7500    107.7793      7.5066      8.8431     15.3388    159.6057
  1609.0000    106.4773      7.3952      8.5188     14.1708    166.4875
  1609.2500    105.3722      7.3417      8.2599     12.6455    165.2984
  1609.5000    104.4152      7.2544      8.1141     12.1998    159.8377
  1609.7500    104.6682      7.2099      7.9776     12.3850    161.6822
  1610.0000    103.6765      7.1497      7.9347     12.9516    156.1363
  1610.2500    102.2240      7.1162      7.8226     13.2949    153.3651
  1610.5000    100.6183      7.0871      7.7845     12.8338    151.2972
  1610.7500     99.3973      7.0051      7.7571     12.7125    149.1103
  1611.0000     98.7286      6.9233      7.7351     12.7876    153.1068
  1611.2500     97.4767      6.8308      7.8264     13.0365    157.8862
  1611.5000     96.0558      6.7700      7.9466     13.6904    146.6874
  1611.7500     95.1564      6.7982      8.0713     13.9007    144.4674
  1612.0000     94.5028      6.7845      8.1741     14.3732    154.0030
  1612.2500     94.3468      6.8281      8.2496     14.4308    145.8559
  1612.5000     94.0975      6.9084      8.3175     14.6436    144.4254
  1612.7500     94.0797      6.9828      8.3385     14.8957    137.0457
  1613.0000     94.3565      7.0172      8.3599     14.9496    151.3063
  1613.2500     94.6086      7.1491      8.3493     14.6221    145.6988
  1613.5000     94.6335      7.2818      8.3562     14.0981    130.9607
  1613.7500     94.6793      7.3803      8.3708     13.3996    129.8137
  1614.0000     94.2228      7.3932      8.4404     12.9872    123.9210
  1614.2500     93.7168      7.4979      8.5718     13.3077    119.4141
  1614.5000     92.9809      7.5358      8.6496     13.8923    112.0647
  1614.7500     92.8196      7.7403      8.6986     14.7485    108.8658
  1615.0000     91.9994      7.8394      8.8430     14.9453    110.6890
  1615.2500     90.9168      7.9302      8.8809     14.7382    119.3010
  1615.5000     89.5791      8.1075      9.0435     14.8917    118.4982
  1615.7500     88.5220      8.3451      9.1048     14.9339    114.9743
  1616.0000     87.6576      8.5835      9.3386     15.0587    117.8962
  1616.2500     86.8343      8.9301      9.6591     15.0632    121.9740
  1616.5000     86.2360      9.3799     10.0134     15.0626    120.5348
  1616.7500     85.7591      9.8447     10.5431     15.7789    125.6843
  1617.0000     85.6473     10.2207     11.2415     16.2689    120.5519
  1617.2500     85.3004     10.8690     12.2706     17.1602    109.6619
  1617.5000     84.7243     11.5837     13.5628     19.2592    100.7067
  1617.7500     84.9051     12.3570     15.0620     22.7847     97.5220
  1618.0000     85.9827     13.1846     17.0188     29.0764     91.2791
  1618.2500     86.8410     13.9655     19.2896     40.1811     82.0461
  1618.5000     87.4513     15.1581     22.3797     57.3825     68.0083
  1618.7500     88.3880     16.1808     25.9900     73.0939     67.6932
  1619.0000     88.7446     17.0377     30.5302     81.1559     71.4102
  1619.2500     89.1476     17.5647     33.7222     83.5308     71.1867
  1619.5000     89.9316     18.4996     36.9223     83.3604     61.5461
  1619.7500     90.9124     18.6438     39.1467     84.8287     63.2433
  1620.0000     92.2635     18.1220     40.4819     87.1427     60.9406
  1620.2500     93.9624     17.4936     38.0914     86.7126     69.0680
  1620.5000     95.8230     16.5856     32.3854     82.6218     81.3230
  1620.7500     97.7863     15.8751     26.6381     74.8433     94.4638
  1621.0000    100.4299     15.0069     21.8033     59.3257    123.1263
  1621.2500    102.4582     14.2700     17.9896     35.2254    138.0488
  1621.5000    104.2048     13.6180     15.4387     17.8534    154.1635
  1621.7500    105.5485     13.0541     13.6774     11.0684    161.9576
  1622.0000    106.3311     12.5294     12.4289     10.6258    161.6815
  1622.2500    106.8503     12.1429     11.8387     11.9455    162.5975
  1622.5000    107.4371     12.0034     11.6160     11.2200    163.7217
  1622.7500    107.9097     11.8553     11.6014     10.9194    162.0656
  1623.0000    107.8688     11.5294     11.7323     12.0498    147.5737
  1623.2500    107.3809     11.3137     12.1562     12.0553    134.7251
  1623.5000    106.9430     11.0308     12.7626     11.5560    123.6010
  1623.7500    106.9216     11.0023     13.4805     13.3085    117.4684
  1624.0000    107.5509     11.0210     14.0698     16.6559    110.2552
  1624.2500    108.6786     11.0576     14.7790     17.8709    107.2082
  1624.5000    109.4539     11.0167     15.3722     16.9046    116.3230
  1624.7500    111.0325     10.8926     15.8256     15.8421    120.5986
  1625.0000    112.2092     10.8221     16.0649     15.7845    117.6376
  1625.2500    112.8736     10.6829     16.1514     16.1242    125.1364
  1625.5000    113.3533     10.5935     15.6946     16.6056    127.5586
  1625.7500    113.8246     10.4311     14.9513     16.8308    129.0957
  1626.0000    114.4473     10.1240     13.7030     15.7105    130.0356
  1626.2500    115.3122      9.8185     12.5488     12.7291    146.9032
  1626.5000    116.7887      9.4861     11.2259      9.9209    157.3753
  1626.7500    117.7289      9.2667     10.1464      8.3321    155.8124
  1627.0000    117.6623      9.0493      9.5433      7.0474    165.2240
  1627.2500    116.9648      8.7285      9.1231      6.8372    155.2641
  1627.5000    116.3516      8.4950      8.8805      7.0124    159.3080
  1627.7500    115.1065      8.2410      8.7016      8.4500    153.9319
  1628.0000    113.8355      8.0454      8.6718     11.5683    162.3716
  1628.2500    112.7348      7.8633      8.5800     16.9253    160.1544
  1628.5000    112.0299      7.7971      8.5063     17.2489    163.5467
  1628.7500    111.9645      7.7860      8.4557     16.5211    160.6814
  1629.0000    111.4271      7.7414      8.4649     15.9966    152.6183
  1629.2500    110.5643      7.8628      8.6750     16.4630    158.9576
  1629.5000    109.7232      7.9822      9.0095     17.2910    151.7487
  1629.7500    109.1244      8.1396      9.4438     18.0297    139.8504
  1630.0000    109.3543      8.2828      9.8400     20.4139    120.3477
  1630.2500    110.0685      8.5618     10.1811     23.3734    119.5083
  1630.5000    110.8401      8.8316     10.6099     23.3661    116.5079
  1630.7500    111.7215      8.9351     10.8447     21.8634    115.5609
  1631.0000    112.0717      9.0729     11.1523     22.9869    116.0910
  1631.2500    112.1756      9.1762     11.4814     25.7984    114.4259
  1631.5000    112.8939      9.4226     11.5733     28.9035    104.6859
  1631.7500    112.9974      9.6912     11.5790     29.5792    120.9242
  1632.0000    113.4311      9.8974     11.3749     25.4917    139.4973
  1632.2500    113.2947     10.2285     11.1988     20.8652    147.2870
  1632.5000    112.8329     10.4527     11.2308     17.8208    147.3797
  1632.7500    112.4056     10.7140     11.2632     16.3402    147.8792
  1633.0000    111.6498     11.1523     11.7257     16.3429    134.8753
  1633.2500    110.7832     11.2587     12.4650     18.1026    137.2470
  1633.5000    109.8446     11.4049     13.2667     21.4071    127.8491
  1633.7500    108.8462     11.3810     14.1133     25.8373    129.9470
