~Version Information
VERS.                      2.0: CWLS Log ASCII Standard - VERSION 2.0
WRAP.                       NO: One line per depth step
~Well Information Block
STRT.FT               765.6000: 
STOP.FT              2431.0000: 
STEP.FT                 0.1000: 
NULL.                -999.2500: 
COMP.          Petrogulf Corporation: COMPANY
WELL.             Norton 9-14V: WELL
FLD.           Purgatorie River: FIELD
LOC.           230' FSL & 225' FWL: LOCATION
CNTY.               Las Animas: COUNTY
SRVC.                         : SERVICE COMPANY
DATE.          Thu Oct 28 06:20:25 2004: LOG DATE
UWI.           05 071 07891 00: UNIQUE WELL ID
STAT.                 Colorado: STATE
~Curve Information Block
DEPT.FT            0 000 00 00: Depth
DCAL.in                       : CDL Caliper
RHOB.g/cc                     : CDL Bulk Density
RHOC.g/cc                     : CDL Density Correction
DPOR.pu                       : CDL Density Porosity
GR.GAPI                       : Gamma Ray
NPOR.pu                       : Neutron Porosity
~Parameter Information Block
~A  Depth       DCAL        RHOB        RHOC        DPOR         GR         NPOR    
# ...
  1437.6000      8.0915      2.5771      0.0967      4.4179    158.4677     27.9760
  1437.7000      8.0915      2.5845      0.1214      3.9697    163.0863     27.4454
  1437.8000      8.0939      2.5885      0.0826      3.7265    164.7708     26.8337
  1437.9000      8.0939      2.5910      0.1171      3.5737    162.9983     26.4069
  1438.0000      8.0963      2.5951      0.0867      3.3259    164.1086     26.4259
  1438.1000      8.0963      2.5995      0.1378      3.0582    168.4513     26.7293
  1438.2000      8.0963      2.5947      0.1294      3.3499    169.6373     27.0254
  1438.3000      8.0975      2.5827      0.0569      4.0804    166.6652     27.0372
  1438.4000      8.0975      2.5763      0.0913      4.4638    161.8067     26.5308
  1438.5000      8.0969      2.5676      0.1488      4.9925    154.1708     25.7917
  1438.6000      8.0969      2.5450      0.0475      6.3647    149.4425     25.3313
  1438.7000      8.0969      2.5240      0.0272      7.6362    154.7836     25.3828
  1438.8000      8.0945      2.5208      0.0407      7.8307    163.9115     25.9417
  1438.9000      8.0945      2.5307      0.0460      7.2294    165.7706     26.7517
  1439.0000      8.0910      2.5397      0.0481      6.6819    160.4538     27.3158
  1439.1000      8.0910      2.5404      0.0382      6.6397    155.0968     27.5556
  1439.2000      8.0910      2.5354      0.0354      6.9428    153.6486     27.6164
  1439.3000      8.0879      2.5296      0.0343      7.2987    155.8051     27.2609
  1439.4000      8.0879      2.5270      0.0356      7.4572    158.1772     26.5799
  1439.5000      8.0889      2.5214      0.0933      7.7910    158.8049     25.9125
  1439.6000      8.0889      2.4989      0.0970      9.1587    162.0362     25.4393
  1439.7000      8.0889      2.4635      0.0249     11.3015    170.6826     25.6983
  1439.8000      8.0891      2.4417      0.0186     12.6221    179.5201     26.7328
  1439.9000      8.0891      2.4517      0.0362     12.0159    182.8076     27.5706
  1440.0000      8.0904      2.4812      0.1001     10.2276    179.7401     27.7413
  1440.1000      8.0904      2.5043      0.1194      8.8277    174.0550     27.2503
  1440.2000      8.0904      2.5217      0.0700      7.7749    167.8043     26.0770
  1440.3000      8.0998      2.5558      0.1385      5.7121    161.3565     24.8631
  1440.4000      8.0998      2.6029      0.1784      2.8550    160.7220     24.1235
  1440.5000      8.1001      2.6227      0.2472      1.6568    169.5841     23.7192
  1440.6000      8.1001      2.5944      0.1782      3.3673    180.3874     23.5219
  1440.7000      8.1001      2.5501      0.1544      6.0531    185.0672     23.4213
  1440.8000      8.1033      2.5206      0.1952      7.8438    185.4081     22.8947
  1440.9000      8.1033      2.5036      0.1896      8.8734    185.2111     21.5748
  1441.0000      8.1040      2.4856      0.1929      9.9626    182.3225     19.8811
  1441.1000      8.1040      2.4577      0.1631     11.6522    174.5517     18.5441
  1441.2000      8.1040      2.4129      0.1041     14.3672    163.7298     17.4613
  1441.3000      8.1065      2.3438      0.1389     18.5601    154.7425     16.1725
  1441.4000      8.1065      2.2609      0.1497     23.5809    150.6674     14.7557
  1441.5000      8.1155      2.1884      0.1286     27.9779    147.9589     13.5223
  1441.6000      8.1155      2.1197      0.2091     32.1384    140.8113     12.5595
  1441.7000      8.1155      2.0138      0.1932     38.5565    130.7078     11.7902
  1441.8000      8.1528      1.8496      0.0531     48.5075    121.8913     11.1313
  1441.9000      8.1528      1.6620     -0.0375     59.8780    117.0063     10.5314
  1442.0000      8.1623      1.5050      0.0072     69.3938    115.9912     10.1660
  1442.1000      8.1623      1.4082      0.0205     75.2600    115.8723     10.2862
  1442.2000      8.1623      1.3859      0.0005     76.6116    113.7872     10.8562
  1442.3000      8.1451      1.4409      0.0474     73.2761    108.3612     11.7726
  1442.4000      8.1451      1.5547      0.1055     66.3843    103.6722     13.1140
  1442.5000      8.0992      1.7081      0.1797     57.0869    103.2408     14.7548
  1442.6000      8.0992      1.8902      0.2395     46.0495    103.6912     16.3412
  1442.7000      8.0992      2.0655      0.4274     35.4267    100.9172     17.9580
  1442.8000      8.1023      2.1861      0.4497     28.1125     95.6511     19.8407
  1442.9000      8.1023      2.2631      0.3622     23.4489     92.7465     21.7464
  1443.0000      8.1834      2.3552      0.3083     17.8675     94.1765     23.4842
  1443.1000      8.1834      2.4766      0.3227     10.5106     97.6433     24.8992
  1443.2000      8.1834      2.5851      0.2169      3.9321    102.2579     25.7129
  1443.3000      8.4250      2.6515      0.2134     -0.0886    108.2205     25.9795
  1443.4000      8.4250      2.6842      0.2395     -2.0714    112.6151     26.0517
  1443.5000      8.2203      2.7053      0.2350     -3.3531    111.3618     26.2607
  1443.6000      8.2203      2.7207      0.2495     -4.2870    104.9480     26.4944
  1443.7000      8.2203      2.7105      0.2351     -3.6688     98.2547     26.2610
  1443.8000      7.9591      2.6631      0.1675     -0.7925     96.8414     25.3280
  1443.9000      7.9591      2.5986      0.1142      3.1134    102.8659     24.1322
  1444.0000      7.9118      2.5451      0.0228      6.3570    110.6058     23.3378
  1444.1000      7.9118      2.5166     -0.0238      8.0825    115.9768     22.7606
  1444.2000      7.9118      2.5021      0.0420      8.9633    121.6811     21.9396
  1444.3000      7.9133      2.4820     -0.0086     10.1815    125.7988     21.2802
  1444.4000      7.9133      2.4618      0.0060     11.4048    126.8253     21.3754
  1444.5000      7.9353      2.4530     -0.0065     11.9402    128.4168     22.1988
  1444.6000      7.9353      2.4543     -0.0122     11.8624    127.9097     23.3430
  1444.7000      7.9353      2.4618      0.0229     11.4060    120.8041     24.6449
  1444.8000      8.0501      2.4749      0.0220     10.6141    112.3231     25.7225
  1444.9000      8.0501      2.4908      0.0552      9.6479    106.5095     25.8601
  1445.0000      8.0640      2.5047      0.0623      8.8045    101.8332     25.1690
  1445.1000      8.0640      2.5155      0.0685      8.1494     99.9696     24.4677
  1445.2000      8.0640      2.5242      0.0946      7.6220    102.0871     24.1316
  1445.3000      8.0112      2.5376      0.0612      6.8118    102.1631     23.9953
  1445.4000      8.0112      2.5678      0.0144      4.9797     97.0050     23.8209
  1445.5000      7.9686      2.6086      0.1269      2.5079     92.6230     23.5121
  1445.6000      7.9686      2.6355      0.1561      0.8758     93.7775     23.2415
  1445.7000      7.9686      2.6416      0.1640      0.5095     97.2270     23.1782
  1445.8000      7.9535      2.6301      0.2070      1.2065     99.7768     23.1318
  1445.9000      7.9535      2.5953      0.1625      3.3155    103.0785     22.7853
  1446.0000      7.9498      2.5449      0.1301      6.3709    107.8075     22.1832
  1446.1000      7.9498      2.5039      0.0646      8.8527    112.5899     21.7572
  1446.2000      7.9498      2.4837      0.0806     10.0786    116.4871     21.4903
  1446.3000      7.9504      2.4726      0.0488     10.7538    122.3417     21.0607
  1446.4000      7.9504      2.4683      0.0261     11.0128    131.4019     20.5357
  1446.5000      7.9575      2.4835      0.0535     10.0888    138.4744     20.2171
  1446.6000      7.9575      2.5148      0.1379      8.1936    143.3092     20.1065
  1446.7000      7.9575      2.5414      0.2135      6.5820    148.5478     20.0844
  1446.8000      7.9576      2.5592      0.1410      5.5042    152.5559     20.1228
  1446.9000      7.9576      2.5790      0.1736      4.3032    153.8637     20.2041
  1447.0000      7.9551      2.5919      0.2045      3.5197    152.5557     20.4556
  1447.1000      7.9551      2.5866      0.1717      3.8427    150.8486     20.7067
