~Version Information
VERS.                      2.0: CWLS Log ASCII Standard - VERSION 2.0
WRAP.                       NO: One line per depth step
~Well Information Block
STRT.FT               430.0000: 
STOP.FT              2417.0000: 
STEP.FT                 0.1000: 
NULL.                -999.2500: 
COMP.          Evergreen Operating Corporation: COMPANY
WELL.          McCullough 34-32: WELL
FLD.           Purgatorie River: FIELD
LOC.           261' FSL & 2098' FEL: LOCATION
PROV.                 Colorado: PROVINCE
CNTY.               Las Animas: COUNTRY
SRVC.                Patterson: SERVICE COMPANY
DATE.          Mon May 17 11:25:23 2004: LOG DATE
UWI.           05 071 07953 00: UNIQUE WELL ID
~Curve Information Block
DEPT.FT            0 000 00 00: Depth
DCAL.in                       : CDL Caliper
RHOB.g/cc                     : CDL Bulk Density
RHOC.g/cc                     : CDL Density Correction
DPOR.pu                       : CDL Density Porosity
NPOR.pu                       : Neutron Porosity
GR.GAPI                       : Gamma Ray
~Parameter Information Block
~A  Depth       DCAL        RHOB        RHOC        DPOR        NPOR         GR     
# ...
  1082.8000      8.2592      2.6360      0.1029      0.8507     25.3447    139.6439
  1082.9000      8.2592      2.6371      0.0665      0.7793     24.6983    141.1240
  1083.0000      8.2326      2.6142      0.0141      2.1681     24.3154    139.4907
  1083.1000      8.2326      2.5999      0.0130      3.0346     24.1465    136.8375
  1083.2000      8.2326      2.6062      0.0437      2.6547     23.9126    134.7752
  1083.3000      8.2383      2.6203      0.0401      1.7978     23.8858    127.0508
  1083.4000      8.2383      2.6298      0.0700      1.2220     24.6278    115.0067
  1083.5000      8.2333      2.6268      0.0497      1.4048     25.4945    109.6331
  1083.6000      8.2333      2.6093      0.0059      2.4661     25.3854    114.4643
  1083.7000      8.2333      2.5881     -0.0406      3.7507     24.6783    121.9658
  1083.8000      8.2299      2.5759     -0.0023      4.4890     24.3726    126.4475
  1083.9000      8.2299      2.5764     -0.0370      4.4635     24.5358    127.7262
  1084.0000      8.2356      2.5919     -0.0479      3.5233     24.7564    129.1957
  1084.1000      8.2356      2.6091      0.0505      2.4785     24.7282    132.0903
  1084.2000      8.2356      2.6043      0.0441      2.7677     24.2149    131.5981
  1084.3000      8.2745      2.5860      0.0416      3.8760     23.6053    127.0863
  1084.4000      8.2745      2.5814      0.0594      4.1561     23.3789    126.1413
  1084.5000      8.2407      2.5932      0.0394      3.4428     23.3326    131.2166
  1084.6000      8.2407      2.6088      0.0631      2.4942     23.3117    134.1934
  1084.7000      8.2407      2.6255      0.0754      1.4870     23.4399    130.2195
  1084.8000      8.2516      2.6446      0.0753      0.3284     23.5332    122.3998
  1084.9000      8.2516      2.6533      0.0983     -0.1982     23.3231    115.3893
  1085.0000      8.2551      2.6383      0.0795      0.7107     22.8146    112.1143
  1085.1000      8.2551      2.6111      0.0395      2.3580     22.5919    111.9691
  1085.2000      8.2551      2.5897      0.0451      3.6518     23.1313    112.8882
  1085.3000      8.2527      2.5749      0.0323      4.5515     23.8476    115.0948
  1085.4000      8.2527      2.5605      0.0181      5.4216     24.0910    121.0704
  1085.5000      8.2522      2.5514      0.0198      5.9785     23.7650    128.0767
  1085.6000      8.2522      2.5552      0.0406      5.7463     23.1445    127.0393
  1085.7000      8.2522      2.5660      0.0723      5.0895     22.6830    120.7917
  1085.8000      8.2560      2.5727      0.0783      4.6832     22.5974    118.5981
  1085.9000      8.2560      2.5750      0.0771      4.5451     22.7580    118.4245
  1086.0000      8.2492      2.5771      0.0950      4.4193     23.0860    116.0452
  1086.1000      8.2492      2.5827      0.1233      4.0790     23.6402    114.6163
  1086.2000      8.2492      2.5954      0.1389      3.3110     24.0223    116.0771
  1086.3000      8.2461      2.6084      0.1505      2.5211     23.8235    117.5255
  1086.4000      8.2461      2.6110      0.1346      2.3620     23.2322    114.6956
  1086.5000      8.1856      2.6075      0.1128      2.5778     22.3799    106.7105
  1086.6000      8.1856      2.6134      0.1215      2.2211     21.4917     99.4727
  1086.7000      8.1856      2.6361      0.1030      0.8413     20.8828     99.3439
  1086.8000      8.2488      2.6644      0.1285     -0.8714     20.1866    106.5666
  1086.9000      8.2488      2.6764      0.1289     -1.5994     19.3749    113.8640
  1087.0000      8.2783      2.6612      0.1255     -0.6793     19.0891    112.1620
  1087.1000      8.2783      2.6278      0.0905      1.3452     19.3522    102.7353
  1087.2000      8.2783      2.6035     -0.0155      2.8206     19.5794     96.4003
  1087.3000      8.2887      2.6084      0.0403      2.5199     19.3053     97.6795
  1087.4000      8.2887      2.6327      0.0538      1.0493     18.6265     98.9568
  1087.5000      8.2867      2.6575      0.0689     -0.4555     18.3910     96.1649
  1087.6000      8.2867      2.6749      0.0895     -1.5064     19.0489     93.7089
  1087.7000      8.2867      2.6834      0.0942     -2.0261     19.7453     93.2132
  1087.8000      8.3004      2.6833      0.1152     -2.0162     19.6197     95.4900
  1087.9000      8.3004      2.6838      0.0301     -2.0491     19.2337    100.7812
  1088.0000      8.3018      2.6908      0.0858     -2.4747     19.5735    105.1787
  1088.1000      8.3018      2.6870      0.0428     -2.2430     20.3714    104.6676
  1088.2000      8.3018      2.6618      0.0262     -0.7167     20.7242     99.5181
  1088.3000      8.3035      2.6300     -0.0254      1.2122     20.4538     95.0641
  1088.4000      8.3035      2.6099     -0.0232      2.4301     20.2660     93.9946
  1088.5000      8.3048      2.6030     -0.0181      2.8488     20.7444     92.0945
  1088.6000      8.3048      2.6070      0.0174      2.6047     21.4104     91.4856
  1088.7000      8.3048      2.6300      0.0075      1.2121     21.5528     95.7040
  1088.8000      8.3064      2.6560      0.1631     -0.3661     21.4296     99.7299
  1088.9000      8.3064      2.6556      0.0730     -0.3402     21.8616     99.8277
  1089.0000      8.3058      2.6436      0.0772      0.3901     22.8204     99.2488
  1089.1000      8.3058      2.6442      0.1010      0.3518     23.5400    101.4420
  1089.2000      8.3058      2.6574      0.0649     -0.4493     23.9096    104.5419
  1089.3000      8.3115      2.6767      0.0892     -1.6179     24.1846    106.9250
  1089.4000      8.3115      2.6867      0.0661     -2.2265     24.1863    111.0151
  1089.5000      8.3133      2.6750      0.0918     -1.5144     23.9236    116.0427
  1089.6000      8.3133      2.6507      0.0405     -0.0441     23.8610    120.5575
  1089.7000      8.3133      2.6397      0.0327      0.6261     24.2769    124.4300
  1089.8000      8.3205      2.6530      0.0551     -0.1826     24.8892    126.3170
  1089.9000      8.3205      2.6639      0.1108     -0.8404     25.1501    127.8244
  1090.0000      8.3240      2.6423      0.0791      0.4655     24.8552    131.3701
  1090.1000      8.3240      2.6032     -0.0190      2.8385     24.4103    134.6284
  1090.2000      8.3240      2.5762      0.0224      4.4704     23.8834    129.1244
  1090.3000      8.3244      2.5658     -0.0257      5.1003     23.1541    114.5067
  1090.4000      8.3244      2.5700     -0.0305      4.8462     22.5725    104.1678
  1090.5000      8.3244      2.5866     -0.0192      3.8434     22.3715    103.2444
  1090.6000      8.3244      2.6048      0.0241      2.7376     22.5946    102.0933
  1090.7000      8.3244      2.6130      0.0057      2.2426     22.9633     95.6422
  1090.8000      8.3192      2.6061      0.0182      2.6578     23.2754     92.6861
  1090.9000      8.3192      2.5924      0.0363      3.4915     23.8233    100.1647
  1091.0000      8.3299      2.5861      0.0805      3.8716     24.6535    112.7077
  1091.1000      8.3299      2.5893      0.0755      3.6769     25.3547    122.7289
  1091.2000      8.3299      2.5935      0.0680      3.4240     25.7445    128.9134
  1091.3000      8.3283      2.5933      0.1018      3.4336     25.8054    132.3937
  1091.4000      8.3283      2.5924      0.0675      3.4898     25.6309    135.1712
  1091.5000      8.3298      2.5963      0.0715      3.2536     25.7414    137.5584
  1091.6000      8.3298      2.6063      0.0702      2.6479     26.1897    137.4580
  1091.7000      8.3298      2.6202      0.0860      1.8077     26.2981    138.5797
  1091.8000      8.3321      2.6245      0.1099      1.5455     26.1200    144.8238
  1091.9000      8.3321      2.6113      0.0579      2.3449     26.1210    147.6295
  1092.0000      8.3345      2.5927      0.0711      3.4739     26.1398    138.8750
  1092.1000      8.3345      2.5787      0.0463      4.3228     26.0290    129.0754
  1092.2000      8.3345      2.5758      0.0164      4.4947     26.1016    129.8432
  1092.3000      8.3323      2.5868      0.0606      3.8278     26.4356    136.2060
