~Version Information
VERS.                      2.0: CWLS Log ASCII Standard - VERSION 2.0
WRAP.                       NO: One line per depth step
~Well Information Block
STRT.FT               870.0000: 
STOP.FT              2519.5000: 
STEP.FT                 0.2500: 
NULL.                -999.2500: 
COMP.          Pioneer Natural Resources: COMPANY
WELL.              Tiaga 23-14: WELL
FLD.           Purgatoire River: FIELD
LOC.           2168' FSL & 2030' FWL: LOCATION
PROV.                 Colorado: PROVINCE
CNTY.               Las Animas: COUNTRY
SRVC.                         : SERVICE COMPANY
DATE.          Sat May 07 08:44:43 2005: LOG DATE
UWI.           05 071 08329 00: UNIQUE WELL ID
~Curve Information Block
DEPT.FT            0 000 00 00: Depth
LTEN.lb                       : Surface Line Tension
SN.Ohm-m                      : IEL Short Normal
SP.mV                         : IEL Spontaneous Potential
DIR.Ohm-m                     : IEL Induction Resistivity
GR.GAPI                       : Gamma Ray
~Parameter Information Block
~A  Depth       LTEN         SN          SP         DIR          GR     
# ...
  1738.0000    741.3741     14.6390    -59.9997     11.1776    130.1955
  1738.2500    739.9818     14.7430    -60.0577     11.3175    129.9466
  1738.5000    738.2458     14.8854    -60.1290     11.4352    129.3911
  1738.7500    736.4689     15.0645    -60.2213     11.5561    128.7303
  1739.0000    735.1301     15.2328    -60.3427     11.7060    127.5704
  1739.2500    734.6370     15.3311    -60.4909     11.9044    127.3779
  1739.5000    735.2195     15.3707    -60.6528     12.1639    129.0199
  1739.7500    736.9913     15.4304    -60.8132     12.4917    131.1822
  1740.0000    739.9560     15.5689    -60.9633     12.8895    134.2868
  1740.2500    743.8611     15.7670    -61.1019     13.3507    135.2908
  1740.5000    748.0919     15.9825    -61.2329     13.8610    134.8557
  1740.7500    751.8516     16.2421    -61.3606     14.4061    133.7040
  1741.0000    754.5434     16.6636    -61.4878     14.9833    131.3554
  1741.2500    755.9322     17.4151    -61.6172     15.6075    129.3237
  1741.5000    755.9554     18.6632    -61.7522     16.3075    124.9519
  1741.7500    754.5692     20.5692    -61.8964     17.1181    120.8381
  1742.0000    751.8127     23.3372    -62.0489     18.0731    112.8023
  1742.2500    747.9373     27.1930    -62.2016     19.2029    106.4290
  1742.5000    743.5261     32.2543    -62.3405     20.5329     95.9436
  1742.7500    739.4103     38.5105    -62.4503     22.0849     88.7048
  1743.0000    736.2520     45.9642    -62.5189     23.8747     78.0881
  1743.2500    734.2444     54.5408    -62.5406     25.9018     71.5485
  1743.5000    733.2789     63.7049    -62.5160     28.1253     63.2868
  1743.7500    733.2675     72.4425    -62.4519     30.4273     59.2641
  1744.0000    734.2620     79.8004    -62.3610     32.5857     55.9221
  1744.2500    736.2636     85.3003    -62.2577     34.2894     55.3054
  1744.5000    738.8667     88.9128    -62.1496     35.2150     55.4769
  1744.7500    741.2600     90.8311    -62.0337     35.1385     55.2881
  1745.0000    742.7841     91.1966    -61.9027     34.0245     53.5483
  1745.2500    743.4145     89.9308    -61.7554     32.0472     51.7024
  1745.5000    743.6966     86.7861    -61.6000     29.5394     49.4081
  1745.7500    744.3070     81.5377    -61.4506     26.8806     49.0844
  1746.0000    745.5104     74.1572    -61.3207     24.3773     51.5578
  1746.2500    746.9102     64.8883    -61.2200     22.2032     55.8032
  1746.5000    747.8096     54.4425    -61.1512     20.4113     67.0065
  1746.7500    747.6744     44.1779    -61.1102     18.9825     77.6545
  1747.0000    746.2280     35.5692    -61.0901     17.8678     96.2618
  1747.2500    743.5785     29.3054    -61.0872     17.0093    108.1435
  1747.5000    740.4741     25.1472    -61.1051     16.3463    121.4985
  1747.7500    738.0259     22.4931    -61.1500     15.8183    126.5701
  1748.0000    736.9288     20.8474    -61.2218     15.3706    129.4779
  1748.2500    737.0248     19.9222    -61.3092     14.9650    129.4415
  1748.5000    737.5828     19.5403    -61.3939     14.5877    127.4642
  1748.7500    737.9747     19.5334    -61.4591     14.2508    124.6948
  1749.0000    738.2328     19.7326    -61.4975     13.9848    117.9097
  1749.2500    738.9481     20.0111    -61.5112     13.8262    112.1125
  1749.5000    740.5192     20.2961    -61.5054     13.8057    104.0442
  1749.7500    742.6204     20.5769    -61.4821     13.9419    100.9352
  1750.0000    744.5156     20.9215    -61.4398     14.2411    101.5594
  1750.2500    745.7317     21.3849    -61.3775     14.6982    105.1267
  1750.5000    746.3552     21.8852    -61.2980     15.2995    112.2087
  1750.7500    746.8372     22.2865    -61.2091     16.0216    115.8171
  1751.0000    747.5789     22.5724    -61.1179     16.8292    116.7380
  1751.2500    748.5502     22.8311    -61.0260     17.6722    113.9481
  1751.5000    749.2194     23.1904    -60.9266     18.4887    105.8801
  1751.7500    748.9295     23.9043    -60.8087     19.2209     99.1710
  1752.0000    747.4737     25.3315    -60.6633     19.8407     89.2312
  1752.2500    745.3526     27.6149    -60.4877     20.3693     83.7232
  1752.5000    743.4727     30.4568    -60.2855     20.8706     78.5245
  1752.7500    742.5168     33.2747    -60.0646     21.4185     77.5567
  1753.0000    742.4710     35.4877    -59.8359     22.0555     79.6529
  1753.2500    742.6783     36.7043    -59.6111     22.7683     82.6762
  1753.5000    742.3747     36.8770    -59.4006     23.4931     87.8684
  1753.7500    741.2998     36.3240    -59.2107     24.1448     90.9426
  1754.0000    739.9641     35.4316    -59.0428     24.6518     94.5480
  1754.2500    739.2975     34.3649    -58.8940     24.9696     96.5769
  1754.5000    739.8641     33.1776    -58.7593     25.0721    100.0463
  1754.7500    741.4644     32.0444    -58.6327     24.9387    103.1001
  1755.0000    743.5657     31.2011    -58.5097     24.5574    108.4908
  1755.2500    745.8300     30.6937    -58.3910     23.9401    111.7435
  1755.5000    748.0595     30.3051    -58.2837     23.1314    114.5006
  1755.7500    749.9671     29.7598    -58.1942     22.1996    114.6300
  1756.0000    751.2355     28.8966    -58.1180     21.2174    113.0753
  1756.2500    751.6746     27.6804    -58.0387     20.2458    111.6965
  1756.5000    751.2512     26.2236    -57.9393     19.3260    110.3144
  1756.7500    749.9908     24.7587    -57.8143     18.4798    110.2393
  1757.0000    747.8784     23.4781    -57.6698     17.7104    111.6853
  1757.2500    745.0247     22.4261    -57.5169     17.0049    113.7813
  1757.5000    741.9731     21.5508    -57.3650     16.3385    118.5646
  1757.7500    739.5677     20.7774    -57.2205     15.6845    122.5211
  1758.0000    738.3820     20.0371    -57.0863     15.0284    128.5311
  1758.2500    738.3648     19.2999    -56.9626     14.3757    131.8640
  1758.5000    739.0267     18.5884    -56.8477     13.7461    135.0119
  1758.7500    739.9189     17.9470    -56.7394     13.1601    135.8896
  1759.0000    740.9657     17.4047    -56.6367     12.6291    136.2651
  1759.2500    742.3342     16.9599    -56.5409     12.1566    136.4961
  1759.5000    744.0060     16.5980    -56.4564     11.7444    137.1348
  1759.7500    745.6033     16.3089    -56.3910     11.3984    137.4539
  1760.0000    746.7126     16.0746    -56.3546     11.1279    137.0904
  1760.2500    747.3145     15.8642    -56.3552     10.9425    136.2745
  1760.5000    747.7803     15.6567    -56.3981     10.8481    135.2674
  1760.7500    748.5399     15.4532    -56.4875     10.8452    135.7056
  1761.0000    749.8940     15.2756    -56.6294     10.9296    138.8566
  1761.2500    751.9053     15.1456    -56.8295     11.0929    142.0620
  1761.5000    754.1312     15.0475    -57.0886     11.3242    146.3004
  1761.7500    755.6694     14.9284    -57.3975     11.6115    147.5533
  1762.0000    755.7637     14.7743    -57.7366     11.9429    146.1201
  1762.2500    754.2704     14.6902    -58.0812     12.3076    142.8380
  1762.5000    751.5783     14.8917    -58.4086     12.6976    134.4582
  1762.7500    748.3556     15.6132    -58.7017     13.1115    126.8520
  1763.0000    745.2719     17.0193    -58.9470     13.5581    113.8688
  1763.2500    742.6868     19.1524    -59.1330     14.0584    105.6027
  1763.5000    740.6066     21.7885    -59.2508     14.6391     96.6029
  1763.7500    738.9847     24.2925    -59.2988     15.3201     94.0869
  1764.0000    738.0296     25.9590    -59.2873     16.0999     95.8080
  1764.2500    738.2875     26.6807    -59.2400     16.9464     99.5334
  1764.5000    740.3243     26.9665    -59.1887     17.7950    105.7164
  1764.7500    744.0914     27.2500    -59.1619     18.5604    108.3530
  1765.0000    748.6131     27.5370    -59.1725     19.1569    108.5255
  1765.2500    752.4489     27.6663    -59.2126     19.5224    106.5475
  1765.5000    754.5424     27.5750    -59.2615     19.6355    102.8298
  1765.7500    754.7752     27.3500    -59.3005     19.5211    101.4108
