~Version Information
VERS.                      2.0: CWLS Log ASCII Standard - VERSION 2.0
WRAP.                       NO: One line per depth step
~Well Information Block
STRT.FT                -9.2500: 
STOP.FT              2353.7500: 
STEP.FT                 0.2500: 
NULL.                -999.2500: 
COMP.          Petrogulf Corporation: COMPANY
WELL.             Kraft 17-23V: WELL
FLD.           Purgatorie River: FIELD
LOC.           1500' FSL & 1773' FWL--: LOCATION
PROV.                       CO: PROVINCE
CNTY.               Las Animas: COUNTRY
SRVC.          Patterson Wireline: SERVICE COMPANY
DATE.          Wed Dec 10 19:09:59 2003: LOG DATE
UWI.                          : UNIQUE WELL ID
~Curve Information Block
DEPT.FT            0 000 00 00: Depth
CCL.                          : Casing Collar Locator
TT3.usec                      : CBL 3' Travel Time
AMP3.mV                       : CBL 3' Amplitude
GR.GAPI                       : Gamma Ray
~Parameter Information Block
~A  Depth       CCL         TT3         AMP3         GR     
# ...
  1096.2500      0.0000    799.8699     10.3012    128.2978
  1096.5000      0.0000    803.9340      9.7776    129.8264
  1096.7500      0.0000    815.0129      9.0787    131.1521
  1097.0000      0.0000    830.3851      8.1922    133.3521
  1097.2500      0.0000    843.6377      7.1945    136.6604
  1097.5000      0.0000    848.8274      6.2352    140.4792
  1097.7500      0.0000    844.6108      5.4426    143.6304
  1098.0000      0.0000    834.1666      4.8458    144.9456
  1098.2500      0.0000    821.4783      4.3979    143.9640
  1098.5000      0.0000    808.1426      4.0615    141.0144
  1098.7500      0.0000    793.5237      3.8435    136.9756
  1099.0000      0.0000    777.0622      3.7510    133.2176
  1099.2500      0.0000    759.8687      3.7508    131.0596
  1099.5000      0.0000    744.3165      3.7885    130.4896
  1099.7500      0.0000    732.5192      3.8309    129.6857
  1100.0000      0.0000    725.2691      3.8756    126.4268
  1100.2500      0.0000    722.2266      3.9245    120.0862
  1100.5000      0.0000    723.0135      3.9657    112.2820
  1100.7500      0.0000    727.8550      3.9787    105.8158
  1101.0000      0.0000    736.6891      3.9489    102.9723
  1101.2500      0.0000    747.6962      3.8784    104.4617
  1101.5000      0.0000    757.7160      3.7894    109.3919
  1101.7500      0.0000    764.8960      3.7164    115.9606
  1102.0000      0.0000    770.0827      3.6849    122.4936
  1102.2500      0.0000    774.5463      3.6951    128.2544
  1102.5000      0.0000    777.0521      3.7234    133.3343
  1102.7500      0.0000    774.6943      3.7343    137.8329
  1103.0000      0.0000    766.9769      3.6936    141.3972
  1103.2500      0.0000    757.8268      3.5916    143.6349
  1103.5000      0.0000    752.2171      3.4584    144.6382
  1103.7500      0.0000    751.0863      3.3433    144.8646
  1104.0000      0.0000    750.9985      3.2674    144.7095
  1104.2500      0.0000    748.9356      3.2013    144.4162
  1104.5000      0.0000    746.1832      3.0950    144.2117
  1104.7500      0.0000    747.2977      2.9327    144.2055
  1105.0000      0.0000    756.3979      2.7628    144.0995
  1105.2500      0.0000    774.0696      2.6758    143.1268
  1105.5000      0.0000    796.2427      2.7474    140.5879
  1105.7500      0.0000    815.9238      2.9943    136.8195
  1106.0000      0.0000    826.9806      3.3738    133.5663
  1106.2500      0.0000    826.7994      3.8206    133.0129
  1106.5000      0.0000    816.1861      4.2990    136.2953
  1106.7500      0.0000    798.1347      4.8245    142.8423
  1107.0000      0.0000    777.1953      5.4223    150.7360
  1107.2500      0.0000    758.8295      6.0580    157.3463
  1107.5000      0.0000    747.5837      6.6270    160.0836
  1107.7500      0.0000    744.7690      7.0211    157.5118
  1108.0000      0.0000    747.9985      7.2023    150.1033
  1108.2500      0.0000    753.3683      7.2140    139.7408
  1108.5000      0.0000    758.2169      7.1492    128.5192
  1108.7500      0.0000    762.1885      7.1159    118.0719
  1109.0000      0.0000    766.6543      7.1835    109.5669
  1109.2500      0.0000    773.3862      7.3110    103.7687
  1109.5000      0.0000    782.8550      7.3446    100.8886
  1109.7500      0.0000    793.2868      7.1292    100.1813
  1110.0000      0.0000    801.8713      6.6378     99.6744
  1110.2500      0.0000    806.9665      6.0035     96.9058
  1110.5000      0.0000    808.7325      5.4339     90.6229
  1110.7500      0.0000    808.1191      5.0723     81.8614
  1111.0000      0.0000    806.2678      4.9062     73.3217
  1111.2500      0.0000    804.6056      4.7899     67.8231
  1111.5000      0.0000    804.2327      4.5677     67.0701
  1111.7500      0.0000    804.8148      4.2004     71.1055
  1112.0000      0.0000    804.8120      3.7936     78.5968
  1112.2500      0.0000    803.2761      3.4971     87.7959
  1112.5000      0.0000    801.1311      3.3633     97.1474
  1112.7500      0.0000    800.2335      3.3077    104.9940
  1113.0000      0.0000    800.9783      3.2145    109.4874
  1113.2500      0.0000    800.6757      3.0543    109.4624
  1113.5000      0.0000    794.6384      2.8678    105.0473
  1113.7500      0.0000    779.7833      2.6709     97.1205
  1114.0000      0.0000    757.6458      2.4432     86.7502
  1114.2500      0.0000    733.4841      2.2083     75.2664
  1114.5000      0.0000    712.8935      2.0518     64.1507
  1114.7500      0.0000    699.9835      2.0283     54.6385
  1115.0000      0.0000    697.5592      2.0918     47.7781
  1115.2500      0.0000    706.2131      2.1464     44.5386
  1115.5000      0.0000    722.5829      2.1386     45.1269
  1115.7500      0.0000    740.3154      2.0740     48.2622
  1116.0000      0.0000    753.8917      1.9735     51.8549
  1116.2500      0.0000    761.3467      1.8554     54.6373
  1116.5000      0.0000    763.8284      1.7559     56.8593
  1116.7500      0.0000    763.2797      1.7270     59.5202
  1117.0000      0.0000    760.4243      1.8024     63.4081
  1117.2500      0.0000    755.6306      1.9889     68.8368
  1117.5000      2.0000    751.8982      2.2844     75.8351
  1117.7500      2.0000    754.6108      2.6595     84.2891
  1118.0000      0.0000    766.3898      3.0291     93.8268
  1118.2500      0.0000    783.3636      3.2814    103.5928
  1118.5000      0.0000    797.9271      3.3445    112.4631
  1118.7500      0.0000    804.2693      3.2144    119.8056
  1119.0000      0.0000    800.7289      2.9409    125.7779
  1119.2500      0.0000    788.7302      2.6132    130.6207
  1119.5000      0.0000    771.8225      2.3396    134.1307
  1119.7500      0.0000    755.2242      2.2037    136.0481
  1120.0000      0.0000    743.7425      2.2255    136.4129
  1120.2500      0.0000    738.6320      2.3589    135.4772
  1120.5000      0.0000    736.9410      2.5205    133.7592
  1120.7500      0.0000    734.5734      2.6259    132.0730
  1121.0000      0.0000    729.8469      2.6213    131.0856
  1121.2500      0.0000    724.0367      2.5078    130.9496
  1121.5000      0.0000    719.1876      2.3431    131.4428
  1121.7500      0.0000    716.2285      2.2148    132.2775
  1122.0000      0.0000    714.8994      2.1983    133.5555
  1122.2500      0.0000    714.5744      2.3153    136.2075
  1122.5000      0.0000    714.7631      2.5172    141.2684
  1122.7500      0.0000    715.1935      2.7116    148.0307
  1123.0000      0.0000    715.7802      2.8151    153.6430
  1123.2500      0.0000    716.5273      2.8006    155.5942
  1123.5000      0.0000    717.5013      2.7172    154.4047
  1123.7500      0.0000    719.1293      2.6660    153.2764
  1124.0000      0.0000    722.7891      2.7321    155.3851
  1124.2500      0.0000    730.9711      2.9163    161.8102
  1124.5000      0.0000    746.0634      3.1378    171.2650
  1124.7500      0.0000    767.9595      3.3143    180.8821
  1125.0000      0.0000    792.7559      3.4338    187.5112
  1125.2500      0.0000    814.6651      3.5382    189.2465
  1125.5000      0.0000    829.7037      3.6440    186.3350
  1125.7500      0.0000    837.1578      3.7109    180.7469
  1126.0000      0.0000    837.5962      3.7009    174.8912
  1126.2500      0.0000    830.5471      3.6490    170.4707
  1126.5000      0.0000    815.0429      3.6434    167.8976
  1126.7500      0.0000    792.0380      3.7302    166.3316
  1127.0000      0.0000    765.1927      3.8520    164.5437
  1127.2500      0.0000    738.9363      3.8991    162.2188
  1127.5000      0.0000    716.5467      3.8198    160.2329
  1127.7500      0.0000    700.4570      3.6663    159.3019
  1128.0000      0.0000    693.2615      3.5334    158.7327
  1128.2500      0.0000    696.5904      3.4600    157.2121
  1128.5000      0.0000    708.3694      3.3972    154.6821
  1128.7500      0.0000    722.5116      3.2688    152.5735
  1129.0000      0.0000    732.2018      3.0655    152.0691
  1129.2500      0.0000    733.5031      2.8707    152.9092
  1129.5000      0.0000    727.1815      2.7850    153.9387
