~Version Information
VERS.                      2.0: CWLS Log ASCII Standard - VERSION 2.0
WRAP.                       NO: One line per depth step
~Well Information Block
STRT.FT                -6.5000: 
STOP.FT              1719.0000: 
STEP.FT                 0.5000: 
NULL.                -999.2500: 
COMP.          Pioneer Natural Resources: COMPANY
WELL.             Tami J 23-18: WELL
FLD.           Purgatorie River: FIELD
LOC.           2250' FSL & 2400' FWL: LOCATION
PROV.                 Colorado: PROVINCE
CNTY.               Las Animas: COUNTRY
SRVC.          Patterson Wireline: SERVICE COMPANY
DATE.          Fri Dec 17 13:50:12 2004: LOG DATE
UWI.           05-071-08073-00: UNIQUE WELL ID
~Curve Information Block
DEPT.FT            0 000 00 00: Depth
CCL.                          : Casing Collar Locator
TT3.usec                      : CBL 3' Travel Time
AMP3.mV                       : CBL 3' Amplitude
GR.GAPI                       : Gamma Ray
~Parameter Information Block
~A  Depth       CCL         TT3         AMP3         GR     
# ...
   127.5000      0.0000   1012.6283      8.8487     99.3405
   128.0000      0.0000    962.5350      8.9816     92.6323
   128.5000      0.0000    896.0961      9.1001     84.5862
   129.0000      0.0000    837.6614      9.1998     84.8553
   129.5000      0.0000    839.2079      9.1744     91.3358
   130.0000      0.0000    870.3514      9.0825     92.5491
   130.5000      0.0000    873.3452      8.9584     87.8663
   131.0000      0.0000    860.1542      8.6921     87.0651
   131.5000      0.0000    832.1794      8.4336     89.8149
   132.0000      0.0000    798.6193      8.3240     90.6635
   132.5000      0.0000    772.7971      8.3116     89.5051
   133.0000      0.0000    767.5624      8.3988     90.9499
   133.5000      0.0000    789.0849      8.6374     92.3294
   134.0000      0.0000    803.7631      9.0053     87.3788
   134.5000      0.0000    800.3456      9.3589     82.8265
   135.0000      0.0000    789.6482      9.6176     89.3552
   135.5000      0.0000    791.8069      9.8877    101.4649
   136.0000      0.0000    812.9991     10.0588    109.0404
   136.5000      0.0000    844.5284     10.1678    109.7661
   137.0000      0.0000    895.8526     10.4056    105.5085
   137.5000      0.0000    931.3372     10.6287     99.7331
   138.0000      0.0000    903.1339     10.7907     93.2784
   138.5000      0.0000    853.2135     10.9234     88.7544
   139.0000      0.0000    806.7164     10.9987     88.2837
   139.5000      0.0000    788.8791     11.0453     89.3194
   140.0000      0.0000    823.4219     11.0770     91.8310
   140.5000      0.0000    858.4854     11.1664     94.5066
   141.0000      0.0000    848.8271     11.1467     94.8281
   141.5000      0.0000    849.3958     10.8844     92.4140
   142.0000      0.0000    884.1260     10.5679     89.9052
   142.5000      0.0000    905.4509     10.3532     93.2984
   143.0000      0.0000    891.1456     10.1938    104.1528
   143.5000      0.0000    888.3592      9.8984    113.8148
   144.0000      0.0000    886.8987      9.4197    116.4438
   144.5000      0.0000    878.8785      8.9540    110.4214
   145.0000      0.0000    876.9282      8.6260    100.8800
   145.5000      0.0000    861.8416      8.4401     95.5197
   146.0000      0.0000    851.0002      8.3736     94.8734
   146.5000      0.0000    882.3112      8.3781     94.8590
   147.0000      0.0000    896.6691      8.4528     90.8997
   147.5000      0.0000    856.3538      8.5761     84.9713
   148.0000      0.0000    820.3803      8.7505     83.5960
   148.5000      0.0000    807.5762      8.9911     86.8752
   149.0000      0.0000    803.4413      9.2193     88.8403
   149.5000      0.0000    811.1418      9.3001     89.5984
   150.0000      0.0000    819.0070      9.2865     92.6697
   150.5000      0.0000    816.0589      9.3058     93.9913
   151.0000      0.0000    824.1851      9.2414     86.9834
   151.5000      0.0000    822.9246      9.0458     76.3760
   152.0000      0.0000    789.1653      8.9075     67.6792
   152.5000      0.0000    774.8665      8.9092     62.5877
   153.0000      0.0000    797.6646      8.9800     60.1868
   153.5000      0.0000    827.7833      8.7008     57.0663
   154.0000      0.0000    842.2585      7.9589     45.6457
   154.5000      0.0000    842.6751      7.5047     34.3554
   155.0000      5.0000    831.9319      7.4813     34.6076
   155.5000      0.0000    829.0353      7.6872     40.3427
   156.0000      0.0000    833.6647      8.5337     46.0531
   156.5000      0.0000    828.6171      9.7731     50.2756
   157.0000      0.0000    818.3453     10.1667     56.6624
   157.5000      0.0000    815.0072      9.9866     71.5031
   158.0000      0.0000    815.7961     10.0574     86.7420
   158.5000      0.0000    812.7195     10.4002     94.1515
   159.0000      0.0000    808.8131     10.5289     93.9326
   159.5000      0.0000    802.5595     10.4027     90.7187
   160.0000      0.0000    791.2933     10.2107     88.8102
   160.5000      0.0000    788.5078     10.0207     89.6839
   161.0000      0.0000    794.8152      9.7576     98.0988
   161.5000      0.0000    801.1431      9.4235    103.4631
   162.0000      0.0000    807.2412      9.3387    103.7555
   162.5000      0.0000    808.3827      9.4989     99.8087
   163.0000      0.0000    798.1793      9.6314     93.0699
   163.5000      0.0000    771.1168      9.8899     90.8688
   164.0000      0.0000    750.5587     10.2883     89.8066
   164.5000      0.0000    760.6343     10.6621     86.8553
   165.0000      0.0000    767.9719     11.0164     93.6989
   165.5000      0.0000    764.5564     11.3197    108.9741
   166.0000      0.0000    760.9324     11.6451    115.1677
   166.5000      0.0000    766.3967     12.0372    110.1076
   167.0000      0.0000    792.5192     12.0719    100.3432
   167.5000      0.0000    828.1466     11.7982     94.3890
   168.0000      0.0000    858.0606     11.6791     98.1617
   168.5000      0.0000    870.0570     11.6804     99.5924
   169.0000      0.0000    863.4091     11.8441     94.3925
   169.5000      0.0000    852.5896     12.1068     93.0460
   170.0000      0.0000    849.0046     11.9993     90.9783
   170.5000      0.0000    848.5735     11.7279     92.8077
   171.0000      0.0000    845.6962     11.7682     98.5277
   171.5000      0.0000    836.0398     11.9766    102.3507
   172.0000      0.0000    825.7640     12.0399    104.7795
   172.5000      0.0000    820.9525     11.7597    102.1107
   173.0000      0.0000    803.1271     11.0434     97.6674
   173.5000      0.0000    775.5812     10.3112     98.1059
   174.0000      0.0000    761.1487      9.8727     94.8727
   174.5000      0.0000    761.5811      9.5205     88.2060
   175.0000      0.0000    765.7134      9.0690     87.9259
   175.5000      0.0000    766.2736      8.6416     95.1335
   176.0000      0.0000    765.9700      8.2836    104.7048
   176.5000      0.0000    764.1422      8.0726    108.2586
   177.0000      0.0000    765.3736      8.1212    102.0784
   177.5000      0.0000    764.8353      8.2155     90.0574
   178.0000      0.0000    760.1891      8.2367     87.3205
   178.5000      0.0000    758.7991      8.2594     92.5496
   179.0000      0.0000    763.4800      8.2881     90.9775
   179.5000      0.0000    774.1108      8.4039     89.1470
   180.0000      0.0000    791.9178      8.5094     91.0206
   180.5000      0.0000    822.2402      8.4069     91.9469
   181.0000      0.0000    850.1433      8.3165     89.6471
   181.5000      0.0000    832.3611      8.4361     85.6544
   182.0000      0.0000    785.9559      8.6379     83.1549
   182.5000      0.0000    777.3939      8.8440     84.6825
   183.0000      0.0000    824.1378      9.0751     89.5440
   183.5000      0.0000    866.3820      9.3666     93.3448
   184.0000      0.0000    840.3442      9.6678     96.5764
   184.5000      0.0000    790.6663      9.8693     93.7225
   185.0000      0.0000    782.4886     10.1571     89.0904
   185.5000      0.0000    813.8012     10.4726     91.9482
   186.0000      0.0000    857.4443     10.6044     93.1746
   186.5000      0.0000    892.3528     10.6605     88.2810
   187.0000      0.0000    847.6557     10.7691     85.8537
   187.5000      0.0000    705.6899     11.0670     86.9835
   188.0000      0.0000    644.6004     11.4228     90.1103
   188.5000      0.0000    733.3568     11.5898     97.1096
   189.0000      0.0000    774.6275     11.7058    101.7874
   189.5000      0.0000    693.1641     12.0014     97.1685
   190.0000      0.0000    671.4427     12.3424     89.5406
   190.5000      0.0000    776.5957     12.2613     81.0945
   191.0000      0.0000    857.7439     11.7849     80.3391
   191.5000      0.0000    874.5214     11.3314     89.4790
   192.0000      0.0000    834.3876     11.1971     98.0991
   192.5000      0.0000    771.0319     11.1608     95.3643
   193.0000      0.0000    734.0823     11.0027     85.6233
   193.5000      0.0000    725.8164     10.8066     86.2791
   194.0000      0.0000    731.6606     10.6246     89.4407
