~Version Information
VERS.                      2.0: CWLS Log ASCII Standard - VERSION 2.0
WRAP.                       NO: One line per depth step
~Well Information Block
STRT.FT               652.0000: 
STOP.FT              1880.0000: 
STEP.FT                 0.1000: 
NULL.                -999.2500: 
COMP.          Pioneer Natural Resources: COMPANY
WELL.          Corkscrew 33-12 Tr: WELL
FLD.           Purgatoire River: FIELD
LOC.           1870' FSL & 1706' FEL: LOCATION
PROV.                 Colorado: PROVINCE
CNTY.               Las Animas: COUNTRY
SRVC.                Patterson: SERVICE COMPANY
DATE.          Tue Mar 29 09:18:51 2005: LOG DATE
UWI.           05 071 08295 00: UNIQUE WELL ID
~Curve Information Block
DEPT.FT            0 000 00 00: Depth
DCAL.in                       : CDL Caliper
RHOB.g/cc                     : CDL Bulk Density
RHOC.g/cc                     : CDL Density Correction
DPOR.pu                       : CDL Density Porosity
GR.GAPI                       : Gamma Ray
NPOR.pu                       : Neutron Porosity
~Parameter Information Block
~A  Depth       DCAL        RHOB        RHOC        DPOR         GR         NPOR    
# ...
   815.2000      7.9829      2.4194     -0.0490     13.9733     48.5213     19.6381
   815.3000      7.9837      2.4414     -0.0476     12.6412     54.2844     19.8374
   815.4000      7.9837      2.4588      0.0073     11.5850     58.9773     20.0153
   815.5000      7.9777      2.4635      0.0574     11.3014     59.1763     20.1623
   815.6000      7.9777      2.4629      0.0421     11.3384     56.1263     20.2895
   815.7000      7.9777      2.4664      0.0451     11.1280     52.5139     20.2768
   815.8000      7.9769      2.4783      0.0197     10.4087     51.8938     19.8081
   815.9000      7.9769      2.5033      0.0247      8.8925     55.9596     19.0309
   816.0000      7.9728      2.5397      0.0633      6.6863     62.0373     18.5614
   816.1000      7.9728      2.5677      0.0919      4.9871     64.5922     18.6817
   816.2000      7.9728      2.5649      0.0927      5.1589     61.4502     19.0462
   816.3000      7.9703      2.5365      0.0055      6.8818     57.1895     19.1481
   816.4000      7.9703      2.5087      0.0130      8.5607     54.1835     18.9284
   816.5000      7.9734      2.4955     -0.0147      9.3646     50.3455     18.6610
   816.6000      7.9734      2.4925      0.0198      9.5454     45.5937     18.4883
   816.7000      7.9734      2.4879      0.0222      9.8259     43.4855     18.5213
   816.8000      7.9739      2.4794      0.0202     10.3419     45.2734     18.6568
   816.9000      7.9739      2.4806      0.0230     10.2664     48.1852     18.4897
   817.0000      7.9715      2.4984      0.0222      9.1858     50.9997     18.0686
   817.1000      7.9715      2.5229      0.0375      7.7046     54.0879     17.8721
   817.2000      7.9715      2.5412      0.0574      6.5952     55.3908     17.9748
   817.3000      7.9743      2.5436      0.0977      6.4463     53.9097     18.1930
   817.4000      7.9743      2.5266      0.0674      7.4797     51.7448     18.4353
   817.5000      7.9772      2.5047      0.0448      8.8085     49.6422     18.7483
   817.6000      7.9772      2.4962      0.0251      9.3227     47.4946     19.2259
   817.7000      7.9772      2.4972      0.0383      9.2608     46.1593     19.7033
   817.8000      7.9781      2.4953      0.0444      9.3758     47.5016     19.7800
   817.9000      7.9781      2.4939      0.0382      9.4612     51.5062     19.3481
   818.0000      7.9784      2.4969      0.0769      9.2769     57.8903     18.9270
   818.1000      7.9784      2.4926      0.0736      9.5366     65.8281     18.8629
   818.2000      7.9784      2.4715      0.0506     10.8174     69.0937     18.8797
   818.3000      7.9770      2.4400      0.0191     12.7287     62.4901     18.8046
   818.4000      7.9770      2.4202     -0.0648     13.9266     52.1070     18.6718
   818.5000      7.9766      2.4246      0.0020     13.6614     46.9869     18.3831
   818.6000      7.9766      2.4346      0.0160     13.0564     47.9459     17.9523
   818.7000      7.9766      2.4346     -0.0157     13.0549     49.2659     17.8059
   818.8000      7.9785      2.4245      0.0101     13.6689     48.3405     18.1864
   818.9000      7.9785      2.4123     -0.0560     14.4087     47.2145     18.7047
   819.0000      7.9793      2.4181     -0.0146     14.0548     46.3694     18.9368
   819.1000      7.9793      2.4465     -0.0024     12.3348     46.7018     18.7717
   819.2000      7.9793      2.4816      0.0406     10.2056     47.1025     18.4213
   819.3000      7.9757      2.5058      0.0937      8.7370     46.2455     17.9763
   819.4000      7.9757      2.5098      0.0403      8.4953     46.9535     17.3869
   819.5000      7.9735      2.4977      0.0673      9.2304     48.9106     16.9881
   819.6000      7.9735      2.4753      0.0443     10.5864     48.9314     16.8624
   819.7000      7.9735      2.4479      0.0000     12.2513     48.9376     16.6283
   819.8000      7.9776      2.4172      0.0071     14.1075     52.4555     16.3237
   819.9000      7.9776      2.3725     -0.0037     16.8191     57.2918     16.1191
   820.0000      7.9789      2.3092     -0.0101     20.6523     59.8832     15.9204
   820.1000      7.9789      2.2398      0.0352     24.8596     61.3897     15.7424
   820.2000      7.9789      2.1683     -0.0199     29.1917     64.5384     15.5850
   820.3000      7.9772      2.0870     -0.0367     34.1231     67.9922     15.4685
   820.4000      7.9772      2.0040     -0.0950     39.1507     69.9627     15.7834
   820.5000      7.9774      1.9480     -0.1237     42.5467     73.4680     16.8374
   820.6000      7.9774      1.9342     -0.1017     43.3795     79.2526     18.3298
   820.7000      7.9774      1.9535     -0.0148     42.2135     85.2822     19.6305
   820.8000      7.9779      1.9958      0.0539     39.6506     92.8816     20.7064
   820.9000      7.9779      2.0680      0.1248     35.2739    101.2597     22.1066
   821.0000      7.9877      2.1791      0.2280     28.5379    104.4675     23.9215
   821.1000      7.9877      2.3124      0.2380     20.4583    103.0058     25.4381
   821.2000      7.9877      2.4152      0.3271     14.2293    105.2201     26.1015
   821.3000      8.0411      2.4508      0.1635     12.0744    111.3606     26.3786
   821.4000      8.0411      2.4519      0.0283     12.0065    114.2142     26.8610
   821.5000      8.0498      2.4591      0.0730     11.5681    111.8385     27.4844
   821.6000      8.0498      2.4706      0.0426     10.8728    109.6043     27.8920
   821.7000      8.0498      2.4787      0.0612     10.3789    111.5525     28.0395
   821.8000      7.9791      2.4858      0.0237      9.9493    116.8181     28.1999
   821.9000      7.9791      2.4958      0.0319      9.3437    123.4274     28.3483
   822.0000      7.9669      2.5072      0.0652      8.6550    129.1989     28.2483
   822.1000      7.9669      2.5087      0.0596      8.5612    132.4048     27.9180
   822.2000      7.9669      2.4994     -0.0192      9.1285    131.8468     27.6212
   822.3000      7.9596      2.4985     -0.0063      9.1817    128.4477     27.3495
   822.4000      7.9596      2.5166      0.0035      8.0842    124.7152     26.9769
   822.5000      7.9604      2.5330      0.0858      7.0912    124.5007     26.6318
   822.6000      7.9604      2.5267      0.0101      7.4750    128.8763     26.4368
   822.7000      7.9604      2.5117      0.0242      8.3795    131.2628     26.5646
   822.8000      7.9666      2.5103      0.0135      8.4669    127.3190     27.0692
   822.9000      7.9666      2.5237      0.0329      7.6547    120.0816     27.7882
   823.0000      7.9662      2.5417      0.0493      6.5649    113.8257     28.6809
   823.1000      7.9662      2.5594      0.0400      5.4908    114.7271     29.4064
   823.2000      7.9662      2.5751      0.0178      4.5398    122.1924     29.4932
   823.3000      7.9677      2.5772      0.0765      4.4146    124.5320     29.1976
   823.4000      7.9677      2.5694      0.0454      4.8878    115.9902     28.9688
   823.5000      7.9733      2.5762      0.0493      4.4710    103.5784     28.8037
   823.6000      7.9733      2.6026      0.0599      2.8742     93.5309     28.7820
   823.7000      7.9733      2.6230      0.0648      1.6349     90.1586     28.9333
   823.8000      7.9955      2.6154      0.0377      2.0993     94.1080     28.9241
   823.9000      7.9955      2.5873     -0.0281      3.8025     98.5875     28.6450
   824.0000      7.9712      2.5596     -0.0225      5.4762    101.7217     28.2998
   824.1000      7.9712      2.5503     -0.0259      6.0444    106.8420     28.0116
   824.2000      7.9712      2.5665      0.0848      5.0611    113.3883     27.6125
   824.3000      7.9536      2.5894      0.0910      3.6723    116.3596     27.0400
   824.4000      7.9536      2.5988      0.1086      3.1020    113.8664     26.6154
   824.5000      7.9510      2.5907      0.0883      3.5936    110.9923     26.4140
   824.6000      7.9510      2.5694      0.0108      4.8837    114.6959     26.3376
   824.7000      7.9510      2.5503      0.0220      6.0437    122.8184     26.4639
