~Version Information
VERS.                      2.0: CWLS Log ASCII Standard - VERSION 2.0
WRAP.                       NO: One line per depth step
~Well Information Block
STRT.FT               418.4000: 
STOP.FT              1170.0000: 
STEP.FT                 0.1000: 
NULL.                -999.2500: 
COMP.          Evergreen Operating Corporation: COMPANY
WELL.             Bernice 21-3: WELL
FLD.           Purgatoire River: FIELD
LOC.           201' FNL & 2575' FWL: LOCATION
PROV.                 Colorado: PROVINCE
CNTY.               Las Animas: COUNTRY
SRVC.                Patterson: SERVICE COMPANY
DATE.          Mon Jan 26 14:55:16 2004: LOG DATE
UWI.             05 071 07912 : UNIQUE WELL ID
~Curve Information Block
DEPT.FT            0 000 00 00: Depth
DCAL.in                       : CDL Caliper
RHOB.g/cc                     : CDL Bulk Density
RHOC.g/cc                     : CDL Density Correction
DPOR.pu                       : CDL Density Porosity
NPOR.pu                       : Neutron Porosity
GR.GAPI                       : Gamma Ray
~Parameter Information Block
~A  Depth       DCAL        RHOB        RHOC        DPOR        NPOR         GR     
# ...
   898.4000      8.1461      2.5341      0.0070      7.0231     22.5305    108.2905
   898.5000      8.1375      2.5423      0.0248      6.5296     23.2010    111.0817
   898.6000      8.1375      2.5466      0.0044      6.2653     23.2352    118.7949
   898.7000      8.1375      2.5359      0.0530      6.9176     23.1920    128.7283
   898.8000      8.1440      2.5148     -0.0254      8.1962     23.3209    136.1724
   898.9000      8.1440      2.5073     -0.0226      8.6461     23.4604    135.9961
   899.0000      8.1479      2.5256     -0.0080      7.5392     23.6323    131.6063
   899.1000      8.1479      2.5561      0.0176      5.6926     23.7719    130.0208
   899.2000      8.1479      2.5785      0.0355      4.3341     23.9597    130.7723
   899.3000      8.1471      2.5847      0.0280      3.9554     24.3920    130.9486
   899.4000      8.1471      2.5799      0.0006      4.2461     24.9492    130.4329
   899.5000      8.1395      2.5641      0.0466      5.2084     25.4970    129.6929
   899.6000      8.1395      2.5267      0.0138      7.4757     26.3178    130.1955
   899.7000      8.1395      2.4659     -0.0109     11.1580     27.5502    131.1712
   899.8000      8.1473      2.3906     -0.0408     15.7183     28.6077    131.3314
   899.9000      8.1473      2.3092     -0.0740     20.6537     29.1340    130.1718
   900.0000      8.1497      2.2225     -0.0506     25.9079     29.4179    127.2087
   900.1000      8.1497      2.1308     -0.1062     31.4655     29.7697    123.3571
   900.2000      8.1497      2.0446     -0.1156     36.6882     30.0394    119.0912
   900.3000      8.1484      1.9670     -0.0768     41.3942     30.0280    116.3450
   900.4000      8.1484      1.8877     -0.0618     46.1999     29.9901    114.8087
   900.5000      8.1467      1.8105     -0.0805     50.8771     30.1167    114.3567
   900.6000      8.1467      1.7574     -0.0579     54.0966     30.1236    118.1048
   900.7000      8.1467      1.7455     -0.0114     54.8160     29.8338    119.2897
   900.8000      8.1410      1.7757      0.0660     52.9883     29.4427    109.4388
   900.9000      8.1410      1.8392      0.1199     49.1369     29.0173     96.9570
   901.0000      8.1414      1.9252      0.1781     43.9262     28.4574     95.0286
   901.1000      8.1414      2.0183      0.2000     38.2833     27.7935    102.5538
   901.2000      8.1414      2.1075      0.2228     32.8784     27.0892    109.2931
   901.3000      8.1343      2.1945      0.2133     27.6035     26.4117    107.3948
   901.4000      8.1343      2.2746      0.2144     22.7496     25.8088    100.8339
   901.5000      8.1338      2.3282      0.1628     19.5060     25.3993     99.1179
   901.6000      8.1338      2.3584      0.0632     17.6723     25.4001    103.5310
   901.7000      8.1338      2.3920      0.0566     15.6338     25.6308    108.8547
   901.8000      8.1438      2.4356      0.0730     12.9918     25.6286    111.9764
   901.9000      8.1438      2.4752      0.0755     10.5918     25.1978    113.7653
   902.0000      8.1477      2.4988      0.0878      9.1632     24.7243    113.9390
   902.1000      8.1477      2.5034      0.0724      8.8857     24.4903    112.3714
   902.2000      8.1477      2.5004      0.0322      9.0690     24.1131    113.8732
   902.3000      8.1419      2.5104      0.0046      8.4623     23.3309    123.5025
   902.4000      8.1419      2.5349      0.0721      6.9785     22.6013    134.2317
   902.5000      8.1483      2.5483      0.0745      6.1649     22.4870    135.6600
   902.6000      8.1483      2.5396      0.0162      6.6930     22.7608    129.2524
   902.7000      8.1483      2.5243      0.0059      7.6160     22.9740    121.3380
   902.8000      8.1510      2.5109      0.0035      8.4279     23.2433    116.3169
   902.9000      8.1510      2.5010     -0.0286      9.0327     23.9128    116.1159
   903.0000      8.1582      2.5051     -0.0396      8.7788     24.9432    118.8655
   903.1000      8.1582      2.5239      0.0227      7.6436     25.6583    123.4013
   903.2000      8.1582      2.5429      0.0296      6.4917     25.7298    127.3150
   903.3000      8.1575      2.5562      0.0039      5.6865     25.4176    129.1046
   903.4000      8.1575      2.5569      0.0457      5.6430     24.9949    134.1388
   903.5000      8.1612      2.5361      0.0050      6.9048     24.7207    141.0270
   903.6000      8.1612      2.5078     -0.0013      8.6198     24.5676    142.4783
   903.7000      8.1612      2.4957     -0.0081      9.3509     24.3901    139.3473
   903.8000      8.1641      2.4996      0.0250      9.1121     24.0805    135.5553
   903.9000      8.1641      2.4998      0.0396      9.1008     23.6384    130.0217
   904.0000      8.1593      2.4929     -0.0173      9.5205     23.3437    123.8058
   904.1000      8.1593      2.4993     -0.0164      9.1311     23.1203    119.4737
   904.2000      8.1593      2.5272      0.0138      7.4397     22.7841    117.8297
   904.3000      8.1538      2.5568      0.0754      5.6504     22.7053    120.1031
   904.4000      8.1538      2.5650      0.0280      5.1540     22.9221    123.7216
   904.5000      8.1596      2.5514      0.0234      5.9751     23.0918    123.4793
   904.6000      8.1596      2.5347     -0.0071      6.9868     23.4290    117.2141
   904.7000      8.1596      2.5286     -0.0121      7.3562     24.0080    107.0354
   904.8000      8.1559      2.5279      0.0137      7.3973     24.1469     98.4459
   904.9000      8.1559      2.5247     -0.0030      7.5940     23.6289     96.4023
   905.0000      8.1581      2.5232     -0.0114      7.6848     23.2653    101.3460
   905.1000      8.1581      2.5262      0.0114      7.5007     23.6582    112.5970
   905.2000      8.1581      2.5287     -0.0013      7.3525     24.4846    130.0679
   905.3000      8.1587      2.5259      0.0316      7.5184     25.1644    143.9134
   905.4000      8.1587      2.5129     -0.0108      8.3070     25.6257    144.9131
   905.5000      8.1600      2.4935      0.0171      9.4866     26.0753    139.6470
   905.6000      8.1600      2.4832     -0.0541     10.1064     26.3677    135.1860
   905.7000      8.1600      2.4909     -0.0207      9.6420     26.4160    131.0492
   905.8000      8.1592      2.5029      0.0453      8.9151     26.4856    129.6917
   905.9000      8.1592      2.5095     -0.0304      8.5179     26.5854    131.1879
   906.0000      8.1625      2.5165      0.0192      8.0916     26.4656    128.8114
   906.1000      8.1625      2.5161      0.0189      8.1152     26.2045    121.1933
   906.2000      8.1625      2.5026      0.0032      8.9362     26.1052    114.5781
   906.3000      8.1615      2.4896      0.0182      9.7224     26.2394    113.6608
   906.4000      8.1615      2.4901     -0.0109      9.6900     26.4876    117.4175
   906.5000      8.1605      2.5027      0.0072      8.9298     26.8069    123.2661
   906.6000      8.1605      2.5138      0.0262      8.2572     26.9715    129.4463
   906.7000      8.1605      2.5190      0.0193      7.9396     26.7052    133.5687
   906.8000      8.1552      2.5236      0.0209      7.6599     26.2485    133.9561
   906.9000      8.1552      2.5235      0.0347      7.6653     26.0053    126.8456
   907.0000      8.1584      2.5170      0.0101      8.0577     26.1224    114.1151
   907.1000      8.1584      2.5124      0.0139      8.3381     26.5188    107.1978
   907.2000      8.1584      2.5073      0.0117      8.6504     26.9179    111.7256
   907.3000      8.1613      2.4965      0.0101      9.3008     26.9725    117.9775
   907.4000      8.1613      2.4864      0.0073      9.9152     26.6191    117.9228
   907.5000      8.1582      2.4805     -0.0077     10.2699     26.2332    116.0933
   907.6000      8.1582      2.4732      0.0105     10.7160     26.4276    115.7726
   907.7000      8.1582      2.4626     -0.0193     11.3587     27.2331    113.4629
   907.8000      8.1629      2.4553      0.0094     11.8003     28.1588    108.7387
   907.9000      8.1629      2.4550     -0.0166     11.8163     28.9259    105.7083
