~Version Information
VERS.                      2.0: CWLS Log ASCII Standard - VERSION 2.0
WRAP.                       NO: One line per depth step
~Well Information Block
STRT.FT               491.0000: 
STOP.FT              1056.0000: 
STEP.FT                 0.2500: 
NULL.                -999.2500: 
COMP.          Evergreen Operating Corporation: COMPANY
WELL.              Sunset 24-3: WELL
FLD.           Purgatorie River: FIELD
LOC.           467' FSL & 2262' FWL: LOCATION
PROV.                 Colorado: PROVINCE
CNTY.               Las Animas: COUNTRY
SRVC.                         : SERVICE COMPANY
DATE.          Wed Sep 22 11:23:45 2004: LOG DATE
UWI.           05 071 08158 00: UNIQUE WELL ID
~Curve Information Block
DEPT.FT            0 000 00 00: Depth
SN.Ohm-m                      : IEL Short Normal
SP.mV                         : IEL Spontaneous Potential
DIR.Ohm-m                     : IEL Induction Resistivity
GR.GAPI                       : Gamma Ray
~Parameter Information Block
~A  Depth        SN          SP         DIR          GR     
# ...
   558.0000      9.7740    -73.1479      9.0336    134.1768
   558.2500      9.8992    -73.9679      8.9367    132.1756
   558.5000     10.0486    -74.8578      8.8736    132.8754
   558.7500     10.1681    -75.8413      8.8332    135.2162
   559.0000     10.1988    -76.9421      8.8001    139.5986
   559.2500     10.0948    -78.1609      8.7602    142.3686
   559.5000      9.8455    -79.4556      8.7043    146.1937
   559.7500      9.4867    -80.7431      8.6303    148.6813
   560.0000      9.0877    -81.9194      8.5421    152.0680
   560.2500      8.7194    -82.8917      8.4496    153.6415
   560.5000      8.4278    -83.6101      8.3683    154.4660
   560.7500      8.2313    -84.0860      8.3149    154.2425
   561.0000      8.1346    -84.3830      8.2982    153.8243
   561.2500      8.1398    -84.5911      8.3148    154.0001
   561.5000      8.2471    -84.7878      8.3562    155.2296
   561.7500      8.4496    -85.0079      8.4219    156.6085
   562.0000      8.7306    -85.2286      8.5202    158.8888
   562.2500      9.0647    -85.3803      8.6559    159.8704
   562.5000      9.4213    -85.3714      8.8165    159.4717
   562.7500      9.7728    -85.1251      8.9763    157.8605
   563.0000     10.1043    -84.6094      9.1170    154.1172
   563.2500     10.4169    -83.8539      9.2429    151.1247
   563.5000     10.7198    -82.9478      9.3773    145.9010
   563.7500     11.0185    -82.0229      9.5456    141.7853
   564.0000     11.3124    -81.2254      9.7641    134.9148
   564.2500     11.6038    -80.6783     10.0408    130.3431
   564.5000     11.9069    -80.4469     10.3830    124.2767
   564.7500     12.2464    -80.5193     10.7956    120.9184
   565.0000     12.6513    -80.7984     11.2678    116.6642
   565.2500     13.1532    -81.1246     11.7615    114.1129
   565.5000     13.7873    -81.3104     12.2233    110.6105
   565.7500     14.5865    -81.1827     12.6199    108.5912
   566.0000     15.5688    -80.6181     12.9662    105.8602
   566.2500     16.7267    -79.5631     13.3114    103.6952
   566.5000     18.0262    -78.0420     13.6944     98.7796
   566.7500     19.4091    -76.1471     14.1100     94.2523
   567.0000     20.7927    -74.0277     14.5063     86.8017
   567.2500     22.0682    -71.8703     14.8060     82.4010
   567.5000     23.1032    -69.8757     14.9415     77.2714
   567.7500     23.7562    -68.2288     14.8824     74.3773
   568.0000     23.9043    -67.0707     14.6453     70.0173
   568.2500     23.4796    -66.4742     14.2806     67.4219
   568.5000     22.4977    -66.4284     13.8469     66.0284
   568.7500     21.0621    -66.8444     13.3870     68.1938
   569.0000     19.3348    -67.5717     12.9175     77.5404
   569.2500     17.4905    -68.4277     12.4325     87.6109
   569.5000     15.6766    -69.2383     11.9192    106.1951
   569.7500     14.0012    -69.8657     11.3733    118.9227
   570.0000     12.5417    -70.2396     10.8033    135.4782
   570.2500     11.3543    -70.3711     10.2265    143.9069
   570.5000     10.4720    -70.3437      9.6607    152.6171
   570.7500      9.8928    -70.2904      9.1228    156.2086
   571.0000      9.5741    -70.3486      8.6311    158.9184
   571.2500      9.4415    -70.6175      8.2079    159.2605
   571.5000      9.4101    -71.1248      7.8756    158.2603
   571.7500      9.4077    -71.8171      7.6476    157.0223
   572.0000      9.3887    -72.5761      7.5213    154.9487
   572.2500      9.3342    -73.2576      7.4776    153.8162
   572.5000      9.2418    -73.7402      7.4884    153.2565
   572.7500      9.1172    -73.9607      7.5282    153.7032
   573.0000      8.9735    -73.9312      7.5806    154.3083
   573.2500      8.8326    -73.7317      7.6365    153.4982
   573.5000      8.7210    -73.4710      7.6862    149.5452
   573.7500      8.6549    -73.2465      7.7156    145.7331
   574.0000      8.6271    -73.1100      7.7092    140.6369
   574.2500      8.6100    -73.0514      7.6615    138.9150
   574.5000      8.5773    -73.0155      7.5832    139.7381
   574.7500      8.5269    -72.9358      7.4989    142.3217
   575.0000      8.4835    -72.7720      7.4342    147.9006
   575.2500      8.4789    -72.5368      7.4041    151.5909
   575.5000      8.5234    -72.2945      7.4068    155.0811
   575.7500      8.5934    -72.1350      7.4265    155.4469
   576.0000      8.6435    -72.1318      7.4409    153.4902
   576.2500      8.6328    -72.3043      7.4324    151.1511
   576.5000      8.5497    -72.6087      7.3971    146.7510
   576.7500      8.4178    -72.9499      7.3458    143.5229
   577.0000      8.2817    -73.2238      7.2980    139.3569
   577.2500      8.1846    -73.3603      7.2718    137.6389
   577.5000      8.1493    -73.3530      7.2769    136.3560
   577.7500      8.1741    -73.2588      7.3119    135.6570
   578.0000      8.2392    -73.1762      7.3650    134.2892
   578.2500      8.3186    -73.2020      7.4190    133.4889
   578.5000      8.3893    -73.3971      7.4591    133.1742
   578.7500      8.4363    -73.7646      7.4832    133.5590
   579.0000      8.4528    -74.2468      7.5045    134.4329
   579.2500      8.4401    -74.7482      7.5428    134.9577
   579.5000      8.4102    -75.1591      7.6089    135.5687
   579.7500      8.3904    -75.3862      7.6984    135.6914
   580.0000      8.4206    -75.3782      7.7969    135.2415
   580.2500      8.5398    -75.1337      7.8930    135.1179
   580.5000      8.7644    -74.7010      7.9859    137.1308
   580.7500      9.0745    -74.1648      8.0808    140.2484
   581.0000      9.4193    -73.6262      8.1817    145.4115
   581.2500      9.7401    -73.1801      8.2892    147.5035
   581.5000     10.0003    -72.8999      8.4075    147.9430
   581.7500     10.2032    -72.8292      8.5489    147.2851
   582.0000     10.3871    -72.9798      8.7311    146.1534
   582.2500     10.6040    -73.3303      8.9655    145.2834
   582.5000     10.8934    -73.8338      9.2462    143.1071
   582.7500     11.2692    -74.4112      9.5481    140.7299
   583.0000     11.7226    -74.9679      9.8396    135.6880
   583.2500     12.2386    -75.4073     10.1031    131.7720
   583.5000     12.8145    -75.6565     10.3479    126.5275
   583.7500     13.4710    -75.6956     10.6065    124.1974
   584.0000     14.2450    -75.5659     10.9186    122.4035
   584.2500     15.1670    -75.3596     11.3190    121.5261
   584.5000     16.2371    -75.1849     11.8307    119.2774
   584.7500     17.4129    -75.1199     12.4631    117.0139
   585.0000     18.6174    -75.1847     13.2088    113.0749
   585.2500     19.7610    -75.3262     14.0361    110.2145
   585.5000     20.7636    -75.4477     14.8815    105.0946
   585.7500     21.5674    -75.4488     15.6527    101.0242
   586.0000     22.1382    -75.2754     16.2550     94.9315
   586.2500     22.4629    -74.9459     16.6265     91.8344
   586.5000     22.5476    -74.5527     16.7576     89.6764
   586.7500     22.4165    -74.2299     16.6880     89.9911
   587.0000     22.1079    -74.1128     16.4953     93.1348
   587.2500     21.6654    -74.2890     16.2698     97.1297
   587.5000     21.1274    -74.7744     16.0703    105.3572
   587.7500     20.5208    -75.5088     15.8837    111.1077
   588.0000     19.8608    -76.3784     15.6302    117.7480
   588.2500     19.1590    -77.2542     15.2268    120.4036
   588.5000     18.4337    -78.0393     14.6644    122.9265
   588.7500     17.7148    -78.6921     14.0214    124.5701
   589.0000     17.0358    -79.2266     13.4055    127.5037
   589.2500     16.4198    -79.6946     12.8897    129.5239
   589.5000     15.8667    -80.1463     12.4925    132.2249
   589.7500     15.3533    -80.5952     12.1947    133.6883
   590.0000     14.8463    -80.9987     11.9657    134.7901
   590.2500     14.3250    -81.2624     11.7793    134.1247
   590.5000     13.7981    -81.2646     11.6154    130.3457
   590.7500     13.3082    -80.8845     11.4569    126.5326
   591.0000     12.9184    -80.0384     11.2922    121.1817
   591.2500     12.6889    -78.6935     11.1254    118.9880
