~Version Information
 VERS.                                  2.0 : CWLS LAS VERSION
 WRAP.                                   NO : WRAPING MODE
 SWARE .                 MController 2.5.0N : SOFTWARE VERSION
~Well Information
 WELL.                          Border 21-3 : WELL
 COMP.              Pioneer Natural Resouce : COMPANY
 FLD.                 NE/NW Sec 3 T35S R65W : FIELD
 LOC.                      Purgatiore River : LOCATION
 DATE.                             12/09/04 : DATE(S) LOGGED
 SRVC.       Blanco Geological Services LLC : SERVICE COMPANY
 STAT.                                   CO : STATE
 CNTY.                           Las Animas : COUNTY
 CTRY.                                  USA : COUNTRY
 API.                          05-071-08169 : API NUMBER
 STRT.FT                             250.00 : START DEPTH
 STOP.FT                            1525.00 : STOP DEPTH
 STEP.FT                               1.00 : DEPTH INCREMENT
 NULL.                                -9999 : NULL VALUE
~Curve information
 DEPTH.FT                                   :
 ROP.MIN/FT                                 :
 GAS.UNITS                                  :
~ASCII Log data
# ...
       650.0         0.23         75.3 
       651.0         0.23         80.5 
       652.0         0.10         67.3 
       653.0         0.10         60.6 
       654.0         0.13         49.4 
       655.0         0.33         45.6 
       656.0         0.97         28.7 
       657.0         0.32         22.3 
       658.0         0.20         21.0 
       659.0         0.13         21.2 
       660.0         0.30         20.8 
       661.0         0.23         20.2 
       662.0         0.20         20.0 
       663.0         0.23         20.0 
       664.0         0.20         22.7 
       665.0         0.13         25.2 
       666.0         0.27         26.2 
       667.0         0.17         25.9 
       668.0         0.27         23.9 
       669.0         0.37         22.6 
       670.0         0.23         20.9 
       671.0         0.28         19.8 
       672.0         0.20         19.1 
       673.0         0.13         18.9 
       674.0         0.13         18.9 
       675.0         0.07         17.2 
       676.0         0.17         17.2 
       677.0         0.17         16.7 
       678.0         0.23         15.5 
       679.0         0.23         14.8 
       680.0         0.20         15.9 
       681.0         0.23         21.5 
       682.0         0.20         25.1 
       683.0         0.20         28.9 
       684.0         0.13         29.4 
       685.0         0.13         29.4 
       686.0         2.35        100.2 
       687.0         0.20         16.1 
       688.0         0.27         16.2 
       689.0         0.10         16.2 
       690.0         0.30         14.5 
       691.0         0.23         14.7 
       692.0         0.27         15.3 
       693.0         0.27         17.5 
       694.0         0.18         21.5 
       695.0         0.23         26.6 
       696.0         0.23         28.9 
       697.0         0.27         29.5 
       698.0         0.23         28.8 
       699.0         0.33         26.8 
       700.0         0.27         29.9 
       701.0         0.27         30.2 
       702.0         0.13         30.2 
       703.0         0.17         30.4 
       704.0         0.17         28.3 
       705.0         0.13         27.5 
       706.0         0.17         23.7 
       707.0         0.23         23.4 
       708.0         0.20         23.4 
       709.0         0.18         21.6 
       710.0         0.13         21.6 
       711.0         0.10         20.4 
       712.0         0.10         19.8 
       713.0         0.20         22.5 
       714.0         0.23         37.1 
       715.0         0.23         55.4 
       716.0         2.52        173.7 
       717.0         0.17         36.6 
       718.0         0.37         34.0 
       719.0         0.17         30.2 
       720.0         0.40         30.8 
       721.0         0.37         27.1 
       722.0         0.27         27.2 
       723.0         0.17         27.2 
       724.0         0.20         28.9 
       725.0         0.20         28.1 
       726.0         0.13         26.9 
       727.0         0.23         29.1 
       728.0         0.23         28.7 
       729.0         0.20         28.7 
       730.0         0.32         29.3 
       731.0         0.40         28.3 
       732.0         0.23         27.0 
       733.0         0.17         26.8 
       734.0         0.23         27.1 
       735.0         0.17         27.1 
       736.0         0.13         26.5 
       737.0         0.17         26.5 
       738.0         0.20         25.1 
       739.0         0.27         24.2 
       740.0         0.23         22.9 
       741.0         0.23         35.8 
       742.0         0.23         76.6 
       743.0         0.23        112.7 
       744.0         0.22        170.4 
       745.0         0.43        179.5 
       746.0         2.47        144.3 
       747.0         0.27         24.9 
       748.0         0.25         25.1 
       749.0         0.20         25.5 
       750.0         0.20         26.3 
       751.0         0.20         28.2 
       752.0         0.27         28.2 
       753.0         0.27         28.6 
       754.0         0.27         29.8 
       755.0         0.23         30.2 
       756.0         0.23         31.6 
       757.0         0.20         30.5 
       758.0         0.20         30.2 
       759.0         0.17         28.8 
       760.0         0.20         28.8 
       761.0         0.20         28.3 
       762.0         0.17         20.0 
       763.0         0.20         22.0 
       764.0         0.15         42.2 
       765.0         0.17         42.2 
       766.0         0.13         57.2 
       767.0         0.10         74.4 
       768.0         0.13         92.3 
       769.0         0.17        110.1 
       770.0         0.17        137.6 
       771.0         0.23        170.1 
       772.0         0.27        148.4 
       773.0         0.17        106.1 
       774.0         0.20         96.8 
       775.0         0.27         54.5 
       776.0         1.85         53.0 
       777.0         0.27         25.5 
       778.0         0.20         24.1 
       779.0         0.20         23.7 
       780.0         0.23         25.8 
       781.0         0.33         26.3 
       782.0         0.30         20.1 
       783.0         0.23         17.6 
       784.0         0.20         13.9 
       785.0         0.20         11.7 
       786.0         0.23         12.4 
       787.0         0.23         10.3 
       788.0         0.25          9.3 
       789.0         0.20          7.4 
       790.0         0.20          5.3 
       791.0         0.20          5.3 
       792.0         0.17          9.4 
       793.0         0.30         17.3 
       794.0         0.30         20.0 
       795.0         0.17         37.0 
       796.0         0.27         67.1 
       797.0         0.30         82.0 
       798.0         0.23        141.1 
       799.0         0.17        156.2 
       800.0         0.20        152.4 
       801.0         0.17        120.0 
       802.0         0.17         99.6 
       803.0         0.10         86.2 
       804.0         0.15         68.5 
       805.0         0.27         62.9 
       806.0         1.17         50.8 
       807.0         0.20         30.9 
       808.0         0.40         31.2 
       809.0         0.30         30.4 
       810.0         0.27         29.0 
       811.0         0.23         28.9 
       812.0         0.23         28.5 
       813.0         0.25         28.6 
       814.0         0.17         28.0 
       815.0         0.17         28.7 
       816.0         0.13         27.4 
       817.0         0.20         28.2 
       818.0         0.17         27.6 
       819.0         0.17         26.4 
       820.0         0.17         26.0 
       821.0         0.27         28.4 
       822.0         0.20         27.3 
       823.0         0.20         27.2 
       824.0         0.23         27.2 
       825.0         0.20         24.2 
       826.0         0.23         22.6 
       827.0         0.23         26.9 
       828.0         0.20         33.8 
       829.0         0.17         61.0 
       830.0         0.13         61.0 
       831.0         0.18         86.2 
       832.0         0.23        133.6 
       833.0         0.20        169.9 
       834.0         0.23        166.4 
       835.0         0.20        126.6 
       836.0         1.97        120.6 
       837.0         0.40         27.2 
       838.0         0.28         27.4 
       839.0         0.30         27.6 
       840.0         0.27         28.6 
       841.0         0.23         28.6 
       842.0         0.23         28.2 
       843.0         0.20         27.4 
       844.0         0.23         27.4 
       845.0         0.23         26.8 
       846.0         0.20         26.1 
       847.0         0.20         26.8 
       848.0         0.20         26.4 
       849.0         0.23         26.4 
