~Version Information
 VERS.                      2.0: CWLS Log ASCII Standard - VERSION 2.0
 WRAP.                       NO: One line per depth step
 ~Well Information Block
 STRT.FT               465.6000: 
 STOP.FT              1777.2000: 
 STEP.FT                 0.1000: 
 NULL.                -999.2500: 
 COMP.          Petrogulf Corporation: COMPANY
 WELL.          Alexander 9-43R: WELL
 FLD.           Purgatorie River: FIELD
 LOC.           1652' FSL & 1049' FEL: LOCATION
 CNTY.               Las Animas: COUNTY
 SRVC.                         : SERVICE COMPANY
 DATE.          Fri Sep 03 15:08:45 2004: LOG DATE
 UWI.           05 071 08036 00: UNIQUE WELL ID
 STAT.                 Colorado: STATE
 PROV.                         :Province
 ~Curve Information Block
 DEPT.FT            0 000 00 00: Depth
 DCAL.in                       : CDL Caliper
 RHOB.g/cc                     : CDL Bulk Density
 RHOC.g/cc                     : CDL Density Correction
 DPOR.pu                       : CDL Density Porosity
 GR.GAPI                       : Gamma Ray
 NPOR.pu                       : Neutron Porosity
 ~Parameter Information Block
 ~A  Depth       DCAL        RHOB        RHOC        DPOR         GR         NPOR    
# ...
  1339.2000      8.1395      2.5249      0.1324      7.5818    155.0229     27.4409
  1339.3000      8.1544      2.5109      0.1670      8.4328    163.3509     27.3983
  1339.4000      8.1544      2.4837      0.1045     10.0766    167.6260     27.3653
  1339.5000      8.1719      2.4616      0.0785     11.4163    169.8881     27.6985
  1339.6000      8.1719      2.4643      0.0780     11.2529    170.8741     28.0866
  1339.7000      8.1719      2.4727      0.1478     10.7475    171.8645     28.0203
  1339.8000      8.1805      2.4617      0.1165     11.4102    174.3214     27.6800
  1339.9000      8.1805      2.4480      0.0727     12.2425    174.1642     27.5649
  1340.0000      8.1718      2.4558      0.1250     11.7697    172.0622     27.9076
  1340.1000      8.1718      2.4760      0.1467     10.5482    174.2404     28.5832
  1340.2000      8.1718      2.4971      0.0926      9.2686    177.9817     29.4296
  1340.3000      8.1605      2.5224      0.1362      7.7364    180.0560     30.0643
  1340.4000      8.1605      2.5421      0.2228      6.5388    182.0427     30.0436
  1340.5000      8.1743      2.5455      0.1697      6.3335    183.7390     29.5843
  1340.6000      8.1743      2.5385      0.1546      6.7600    183.9953     29.4603
  1340.7000      8.1743      2.5338      0.0998      7.0435    181.2419     29.7851
  1340.8000      8.2194      2.5389      0.0842      6.7349    173.6592     29.9086
  1340.9000      8.2194      2.5457      0.0649      6.3212    163.5400     29.5909
  1341.0000      8.2290      2.5426      0.0591      6.5090    156.4435     29.2292
  1341.1000      8.2290      2.5249      0.0973      7.5824    155.4012     29.1390
  1341.2000      8.2290      2.4954      0.0409      9.3723    159.0163     29.0842
  1341.3000      8.2057      2.4633      0.0340     11.3164    163.1678     28.6439
  1341.4000      8.2057      2.4338      0.0365     13.1055    165.9640     27.9310
  1341.5000      8.2524      2.4083      0.0399     14.6498    167.3540     27.3880
  1341.6000      8.2524      2.3908      0.0656     15.7089    164.3853     26.9501
  1341.7000      8.2524      2.3894     -0.0153     15.7921    160.8638     26.4312
  1341.8000      8.2540      2.4083      0.0556     14.6484    166.3201     26.2349
  1341.9000      8.2540      2.4446      0.0727     12.4512    176.4221     26.5727
  1342.0000      8.3138      2.4980      0.1677      9.2113    179.5251     26.9808
  1342.1000      8.3138      2.5592      0.2334      5.5041    176.5582     27.0249
  1342.2000      8.3138      2.6076      0.3450      2.5712    174.0482     26.6671
  1342.3000      8.3709      2.6307      0.3263      1.1688    173.0039     26.0708
  1342.4000      8.3709      2.6235      0.3387      1.6047    170.5256     25.6894
  1342.5000      8.3653      2.5831      0.2320      4.0559    168.4995     25.7962
  1342.6000      8.3653      2.5264      0.1345      7.4887    170.9971     26.1894
  1342.7000      8.3653      2.4869      0.0754      9.8849    175.3256     26.4992
  1342.8000      8.3618      2.4757      0.1456     10.5654    179.2270     26.4784
  1342.9000      8.3618      2.4787      0.1270     10.3838    182.1162     26.0331
  1343.0000      8.4022      2.4916      0.1561      9.6027    181.0596     25.4124
  1343.1000      8.4022      2.5096      0.1720      8.5081    177.5379     25.0975
  1343.2000      8.4022      2.5203      0.2111      7.8620    178.8604     25.1527
  1343.3000      8.3764      2.5181      0.2077      7.9927    185.8167     25.2787
  1343.4000      8.3764      2.4988      0.2200      9.1626    186.6152     25.1949
  1343.5000      8.3551      2.4527      0.2352     11.9548    173.0561     24.7881
  1343.6000      8.3551      2.3775      0.2226     16.5134    155.3220     24.2888
  1343.7000      8.3551      2.2949      0.1185     21.5185    147.2721     23.8721
  1343.8000      8.3726      2.2404      0.0983     24.8223    148.6329     23.4448
  1343.9000      8.3726      2.2327      0.0450     25.2939    151.4363     23.2322
  1344.0000      8.3774      2.2670      0.0724     23.2114    149.3625     23.4381
  1344.1000      8.3774      2.3236      0.1651     19.7842    145.1506     23.5926
  1344.2000      8.3774      2.3771      0.2380     16.5419    147.8649     23.3699
  1344.3000      8.3840      2.4175      0.2673     14.0890    157.2141     23.1100
  1344.4000      8.3840      2.4532      0.3679     11.9286    163.8888     23.0379
  1344.5000      8.3354      2.4760      0.4517     10.5470    163.4946     23.2437
  1344.6000      8.3354      2.4669      0.2903     11.0976    158.3332     23.6255
  1344.7000      8.3354      2.4437      0.1562     12.5014    153.0995     23.7047
  1344.8000      8.2793      2.4397      0.1778     12.7444    155.1541     23.5798
  1344.9000      8.2793      2.4520      0.2093     12.0003    162.8771     23.6251
  1345.0000      8.2337      2.4501      0.2157     12.1139    168.3290     23.5250
  1345.1000      8.2337      2.4124      0.2255     14.4025    172.1522     23.0445
  1345.2000      8.2337      2.3419      0.1820     18.6718    176.5700     22.4647
  1345.3000      8.1899      2.2567      0.0907     23.8387    176.0955     22.2061
  1345.4000      8.1899      2.1657      0.0910     29.3544    168.2798     22.4492
  1345.5000      8.1811      2.0730     -0.0238     34.9678    159.0553     22.8740
  1345.6000      8.1811      1.9996     -0.0390     39.4192    154.3007     23.2779
  1345.7000      8.1811      1.9666     -0.0129     41.4207    154.7417     23.9446
  1345.8000      8.1516      1.9789      0.0401     40.6742    157.3308     24.7474
  1345.9000      8.1516      2.0271      0.1051     37.7543    160.4134     25.1475
  1346.0000      8.1772      2.0940      0.1758     33.6987    162.7381     25.0734
  1346.1000      8.1772      2.1645      0.2564     29.4227    162.4628     24.9981
  1346.2000      8.1772      2.2299      0.2670     25.4634    157.7457     25.2094
  1346.3000      8.1998      2.2945      0.2059     21.5483    147.7288     25.5372
  1346.4000      8.1998      2.3690      0.2561     17.0296    138.8639     25.8860
  1346.5000      8.1158      2.4488      0.2484     12.1951    138.5863     26.3141
  1346.6000      8.1158      2.5234      0.1663      7.6705    143.9386     26.7659
  1346.7000      8.1158      2.5800      0.2865      4.2441    149.8794     27.1830
  1346.8000      8.1150      2.6021      0.2244      2.9006    155.8371     27.5119
  1346.9000      8.1150      2.5949      0.2115      3.3396    159.2530     27.6262
  1347.0000      8.1221      2.5706      0.2432      4.8140    160.3679     27.5792
  1347.1000      8.1221      2.5371      0.1846      6.8421    166.4283     27.7026
  1347.2000      8.1221      2.5124      0.1432      8.3382    176.2004     28.2570
  1347.3000      8.1189      2.5102      0.1513      8.4700    181.5107     28.9233
  1347.4000      8.1189      2.5273      0.1249      7.4386    181.6133     29.4135
  1347.5000      8.1204      2.5494      0.1538      6.0983    179.5398     29.9329
  1347.6000      8.1204      2.5590      0.1740      5.5156    176.0927     30.3711
  1347.7000      8.1204      2.5599      0.1475      5.4588    169.8759     30.3852
  1347.8000      8.1231      2.5783      0.1133      4.3463    159.8587     29.9869
  1347.9000      8.1231      2.6244      0.1689      1.5544    150.8073     29.4635
  1348.0000      8.1219      2.6701      0.2403     -1.2179    146.1086     29.1018
  1348.1000      8.1219      2.6793      0.2207     -1.7780    139.9688     29.1766
  1348.2000      8.1219      2.6569      0.1150     -0.4209    128.6753     29.6759
  1348.3000      8.0574      2.6356      0.1525      0.8710    118.9602     30.2230
  1348.4000      8.0574      2.6333      0.0899      1.0097    115.5007     30.3878
  1348.5000      8.0345      2.6436      0.1143      0.3902    115.4079     29.9586
  1348.6000      8.0345      2.6417      0.1061      0.5023    113.7750     29.1198
  1348.7000      8.0345      2.6212      0.0358      1.7450    107.0726     28.1249
