~Version Information
VERS.                      2.0: CWLS Log ASCII Standard - VERSION 2.0
WRAP.                       NO: One line per depth step
~Well Information Block
STRT.FT               575.0000: 
STOP.FT              2016.2500: 
STEP.FT                 0.2500: 
NULL.                -999.2500: 
COMP.          Pioneer Natural Resources: COMPANY
WELL.          Bucksnort 41-35: WELL
FLD.           Purgatoire River: FIELD
LOC.           117' FNL & 463' FEL--: LOCATION
PROV.                 Colorado: PROVINCE
CNTY.               Las Animas: COUNTRY
SRVC.                Patterson: SERVICE COMPANY
DATE.          Thu Jul 21 10:13:55 2005: LOG DATE
UWI.           05 071 08401 00: UNIQUE WELL ID
~Curve Information Block
DEPT.FT            0 000 00 00: Depth
SN.Ohm-m                      : IEL Short Normal
SP.mV                         : IEL Spontaneous Potential
DIR.Ohm-m                     : IEL Induction Resistivity
GR.GAPI                       : Gamma Ray
~Parameter Information Block
~A  Depth        SN          SP         DIR          GR     
# ...
  1312.0000     14.2059     11.7392     13.6806    147.4988
  1312.2500     13.8160     12.1542     13.3988    150.1338
  1312.5000     13.3713     12.5740     13.0889    151.9047
  1312.7500     12.9074     12.9798     12.7832    151.2623
  1313.0000     12.4660     13.3503     12.5019    148.1667
  1313.2500     12.0888     13.6656     12.2536    145.8564
  1313.5000     11.8027     13.9098     12.0390    144.4152
  1313.7500     11.6104     14.0731     11.8543    145.4922
  1314.0000     11.4909     14.1528     11.6933    149.0712
  1314.2500     11.4097     14.1530     11.5469    151.2257
  1314.5000     11.3292     14.0828     11.4002    152.0060
  1314.7500     11.2160     13.9550     11.2323    150.7520
  1315.0000     11.0464     13.7842     11.0219    147.5737
  1315.2500     10.8132     13.5852     10.7561    145.7027
  1315.5000     10.5280     13.3719     10.4376    144.7001
  1315.7500     10.2173     13.1568     10.0823    145.5649
  1316.0000      9.9106     12.9504      9.7113    149.0313
  1316.2500      9.6274     12.7609      9.3430    152.4763
  1316.5000      9.3711     12.5946      8.9915    158.4397
  1316.7500      9.1357     12.4554      8.6667    162.1799
  1317.0000      8.9175     12.3453      8.3757    166.2990
  1317.2500      8.7183     12.2640      8.1238    167.9339
  1317.5000      8.5409     12.2086      7.9141    169.3470
  1317.7500      8.3851     12.1736      7.7479    169.8878
  1318.0000      8.2516     12.1511      7.6247    169.8936
  1318.2500      8.1481     12.1316      7.5422    169.1315
  1318.5000      8.0903     12.1055      7.4974    167.0926
  1318.7500      8.0943     12.0648      7.4881    165.6658
  1319.0000      8.1662     12.0042      7.5136    164.1461
  1319.2500      8.2999     11.9211      7.5750    163.4556
  1319.5000      8.4843     11.8145      7.6753    161.8358
  1319.7500      8.7141     11.6835      7.8199    159.5600
  1320.0000      8.9936     11.5253      8.0163    153.6838
  1320.2500      9.3331     11.3347      8.2736    148.6070
  1320.5000      9.7434     11.1055      8.6017    141.0381
  1320.7500     10.2344     10.8326      9.0101    136.6600
  1321.0000     10.8199     10.5157      9.5065    130.3797
  1321.2500     11.5212     10.1619     10.0960    125.3710
  1321.5000     12.3657      9.7855     10.7811    115.5507
  1321.7500     13.3827      9.4073     11.5640    107.6873
  1322.0000     14.5950      9.0498     12.4483     95.4704
  1322.2500     15.9955      8.7330     13.4375     88.2663
  1322.5000     17.5151      8.4705     14.5252     80.7712
  1322.7500     19.0139      8.2675     15.6792     78.5019
  1323.0000     20.3135      8.1207     16.8257     78.5797
  1323.2500     21.2519      8.0214     17.8453     80.1342
  1323.5000     21.7246      7.9588     18.5933     84.0501
  1323.7500     21.7014      7.9244     18.9450     88.0171
  1324.0000     21.2221      7.9146     18.8420     96.5396
  1324.2500     20.3770      7.9318     18.3137    103.5720
  1324.5000     19.2779      7.9834     17.4611    114.5372
  1324.7500     18.0325      8.0790     16.4198    121.2772
  1325.0000     16.7304      8.2272     15.3198    129.8995
  1325.2500     15.4369      8.4316     14.2578    134.5283
  1325.5000     14.1944      8.6886     13.2894    139.5506
  1325.7500     13.0330      8.9869     12.4343    141.6559
  1326.0000     11.9847      9.3084     11.6893    143.6364
  1326.2500     11.0859      9.6311     11.0410    144.5657
  1326.5000     10.3611      9.9333     10.4747    145.3268
  1326.7500      9.8065     10.1967      9.9789    145.2733
  1327.0000      9.3913     10.4090      9.5452    144.9489
  1327.2500      9.0740     10.5647      9.1666    145.2635
  1327.5000      8.8196     10.6647      8.8362    147.1185
  1327.7500      8.6049     10.7145      8.5477    149.0123
  1328.0000      8.4150     10.7222      8.2964    151.8603
  1328.2500      8.2391     10.6977      8.0790    153.2314
  1328.5000      8.0692     10.6507      7.8922    154.1379
  1328.7500      7.9024     10.5911      7.7303    154.1297
  1329.0000      7.7443     10.5279      7.5849    153.5281
  1329.2500      7.6082     10.4692      7.4464    152.7750
  1329.5000      7.5104     10.4217      7.3071    151.5288
  1329.7500      7.4604     10.3900      7.1643    151.2858
  1330.0000      7.4544     10.3766      7.0226    152.8577
  1330.2500      7.4749     10.3817      6.8920    155.2432
  1330.5000      7.4991     10.4041      6.7849    159.9796
  1330.7500      7.5087     10.4407      6.7127    163.1883
  1331.0000      7.4953     10.4874      6.6835    167.0196
  1331.2500      7.4641     10.5382      6.7020    168.6564
  1331.5000      7.4395     10.5851      6.7709    169.7556
  1331.7500      7.4680     10.6177      6.8921    169.4228
  1332.0000      7.6132     10.6242      7.0695    166.4025
  1332.2500      7.9353     10.5920      7.3100    162.1654
  1332.5000      8.4636     10.5106      7.6232    152.2843
  1332.7500      9.1785     10.3736      8.0184    143.7656
  1333.0000     10.0190     10.1802      8.5017    129.6949
  1333.2500     10.9107      9.9361      9.0742    120.8256
  1333.5000     11.7948      9.6522      9.7313    110.5166
  1333.7500     12.6392      9.3431     10.4633    106.2413
  1334.0000     13.4324      9.0241     11.2550    103.4609
  1334.2500     14.1744      8.7088     12.0838    103.7310
  1334.5000     14.8726      8.4072     12.9200    107.2920
  1334.7500     15.5341      8.1247     13.7313    111.6855
  1335.0000     16.1554      7.8622     14.4905    119.9340
  1335.2500     16.7194      7.6168     15.1822    125.0093
  1335.5000     17.2097      7.3830     15.8036    129.4449
  1335.7500     17.6282      7.1547     16.3604    129.7318
  1336.0000     18.0030      6.9255     16.8653    127.2576
  1336.2500     18.3838      6.6898     17.3416    124.8204
  1336.5000     18.8302      6.4436     17.8279    121.0018
  1336.7500     19.3913      6.1844     18.3727    118.1098
  1337.0000     20.0813      5.9115     19.0192    112.6285
  1337.2500     20.8679      5.6256     19.7850    108.3950
  1337.5000     21.6844      5.3286     20.6508    102.2005
  1337.7500     22.4600      5.0230     21.5616     98.5888
  1338.0000     23.1455      4.7111     22.4413     93.9040
  1338.2500     23.7147      4.3949     23.2096     91.0824
  1338.5000     24.1494      4.0758     23.7943     87.2874
  1338.7500     24.4282      3.7542     24.1375     85.2702
  1339.0000     24.5299      3.4307     24.2033     83.5116
  1339.2500     24.4439      3.1055     23.9885     83.3437
  1339.5000     24.1752      2.7800     23.5288     84.5451
  1339.7500     23.7409      2.4564     22.8908     86.2490
  1340.0000     23.1640      2.1392     22.1491     90.2087
  1340.2500     22.4703      1.8349     21.3624     93.7305
  1340.5000     21.6887      1.5528     20.5605     99.6958
  1340.7500     20.8522      1.3049     19.7530    103.7005
  1341.0000     19.9988      1.1047     18.9464    109.8149
  1341.2500     19.1693      0.9660     18.1579    114.3377
  1341.5000     18.4036      0.9010     17.4149    121.6781
  1341.7500     17.7377      0.9173     16.7478    126.1965
  1342.0000     17.2071      1.0158     16.1844    131.2322
  1342.2500     16.8479      1.1897     15.7503    133.4653
  1342.5000     16.6886      1.4246     15.4699    136.0711
  1342.7500     16.7358      1.7014     15.3647    137.5974
  1343.0000     16.9687      2.0005     15.4478    138.4733
  1343.2500     17.3530      2.3068     15.7190    136.6309
  1343.5000     17.8624      2.6133     16.1638    127.9042
  1343.7500     18.4956      2.9222     16.7569    118.0288
  1344.0000     19.2847      3.2436     17.4715     99.8370
  1344.2500     20.2895      3.5916     18.2919     87.8920
  1344.5000     21.5717      3.9794     19.2219     73.6324
  1344.7500     23.1491      4.4146     20.2811     67.3697
  1345.0000     24.9583      4.8974     21.4857     62.4085
  1345.2500     26.8555      5.4204     22.8173     61.3196
