~Version Information
VERS.                      2.0: CWLS Log ASCII Standard - VERSION 2.0
WRAP.                       NO: One line per depth step
~Well Information Block
STRT.FT               548.0000: 
STOP.FT              1916.0000: 
STEP.FT                 0.2500: 
NULL.                -999.2500: 
COMP.          Pioneer Natural Resources: COMPANY
WELL.          Blackjack 32-11 Tr: WELL
FLD.           Purgatorie River: FIELD
LOC.           2066' FNL & 1453' FEL: LOCATION
PROV.                 Colorado: PROVINCE
CNTY.               Las Animas: COUNTRY
SRVC.                Patterson: SERVICE COMPANY
DATE.          Tue Aug 16 12:08:23 2005: LOG DATE
UWI.                          : UNIQUE WELL ID
~Curve Information Block
DEPT.FT            0 000 00 00: Depth
SN.Ohm-m                      : IEL Short Normal
SP.mV                         : IEL Spontaneous Potential
DIR.Ohm-m                     : IEL Induction Resistivity
GR.GAPI                       : Gamma Ray
~Parameter Information Block
~A  Depth        SN          SP         DIR          GR     
# ...
  1888.0000      8.4687     69.1326      7.4807     15.6613
  1888.2500      8.4580     69.2519      7.4468      0.2883
  1888.5000      8.4303     69.4131      7.2968   -999.2500
  1888.7500      8.3579     69.3085      7.2743   -999.2500
  1889.0000      8.2632     68.9630      7.4163   -999.2500
  1889.2500      8.1962     68.4564      7.5744   -999.2500
  1889.5000      8.2132     67.3458      7.6975   -999.2500
  1889.7500      8.2580     66.3389      7.5984   -999.2500
  1890.0000      8.3362     64.7723      7.6400   -999.2500
  1890.2500      8.7192     63.1315      7.7349   -999.2500
  1890.5000      8.6689     62.0277      7.9318   -999.2500
  1890.7500      8.6563     60.5757      8.0596   -999.2500
  1891.0000      8.9596     59.0558      8.2711   -999.2500
  1891.2500      9.1354     57.8764      8.3299   -999.2500
  1891.5000      9.4858     56.8138      8.1965   -999.2500
  1891.7500     10.0184     56.1839      8.4028   -999.2500
  1892.0000     10.3788     55.8799      8.6492   -999.2500
  1892.2500     10.3244     54.6610      8.5830   -999.2500
  1892.5000     10.3007     53.6815      8.7468   -999.2500
  1892.7500      9.0777     53.0193      8.7548   -999.2500
  1893.0000      8.7567     52.7756      8.9878   -999.2500
  1893.2500      8.8792     53.1736      8.8534   -999.2500
  1893.5000      8.8484     53.1517      8.7682   -999.2500
  1893.7500      9.0426     52.6771      8.6111   -999.2500
  1894.0000      9.1283     52.4323      8.7488   -999.2500
  1894.2500      9.1576     52.1215      8.9532   -999.2500
  1894.5000      9.2912     51.5241      8.7095   -999.2500
  1894.7500      9.1673     50.9958      8.6734   -999.2500
  1895.0000      9.3557     50.7093      8.5828   -999.2500
  1895.2500      9.2666     50.4051      8.4293   -999.2500
  1895.5000      9.7039     49.6520      8.0631   -999.2500
  1895.7500     10.0794     48.7114      8.0260   -999.2500
  1896.0000      9.8503     47.8621      8.0156   -999.2500
  1896.2500      9.6530     47.4150      7.9052   -999.2500
  1896.5000      9.5973     46.1771      8.0103   -999.2500
  1896.7500      9.5514     45.4861      7.5212   -999.2500
  1897.0000      8.9581     44.2087      7.5861   -999.2500
  1897.2500      8.7900     44.1178      7.6101   -999.2500
  1897.5000      8.6158     43.5459      7.7892   -999.2500
  1897.7500      8.9366     43.0759      7.8228   -999.2500
  1898.0000      8.8206     41.9105      8.2741   -999.2500
  1898.2500      8.8835     40.7003      8.3601   -999.2500
  1898.5000      8.9557     39.8036      8.5459   -999.2500
  1898.7500      8.9220     39.6446      8.5347   -999.2500
  1899.0000      8.4398     38.5675      8.4203   -999.2500
  1899.2500      8.0731     38.5552      8.2002   -999.2500
  1899.5000      7.5159     38.8975      7.8635   -999.2500
  1899.7500      7.3672     39.8694      8.0588   -999.2500
  1900.0000      7.6302     41.9563      8.3208   -999.2500
  1900.2500      8.7792     44.9906      8.1435   -999.2500
  1900.5000      9.8144     46.2062      8.2090   -999.2500
  1900.7500     10.7656     46.8561      8.2583   -999.2500
  1901.0000     11.1266     47.6885      8.3352   -999.2500
  1901.2500     10.9683     48.5589      8.2310   -999.2500
  1901.5000     10.7772     49.1190      7.8541   -999.2500
  1901.7500     10.4752     49.9009      7.5738   -999.2500
  1902.0000      9.9004     50.0157      7.3879   -999.2500
  1902.2500      9.4026     48.7685      7.2257   -999.2500
  1902.5000      9.0096     47.2320      6.9140   -999.2500
  1902.7500      8.4517     47.6797      6.9186   -999.2500
  1903.0000      8.0146     46.3947      6.7977   -999.2500
  1903.2500      7.7781     47.0201      6.6173   -999.2500
  1903.5000      7.3561     47.8642      6.6259   -999.2500
  1903.7500      7.1262     47.4227      6.5949   -999.2500
  1904.0000      7.3725     45.9492      6.8910   -999.2500
  1904.2500      7.4470     45.3402      6.7901   -999.2500
  1904.5000      7.7308     45.3635      6.5801   -999.2500
  1904.7500      7.8777     44.5535      6.6176   -999.2500
  1905.0000      8.2466     44.5382      6.9312   -999.2500
  1905.2500      8.2521     43.8363      6.8079   -999.2500
  1905.5000      8.6324     43.8430      6.8121   -999.2500
  1905.7500      8.6431     44.0334      6.7240   -999.2500
  1906.0000      8.3523     43.6685      6.7249   -999.2500
  1906.2500      8.5001     43.0382      6.8504   -999.2500
  1906.5000      8.6119     43.9350      6.8737   -999.2500
  1906.7500      8.5838     44.4572      7.1936   -999.2500
  1907.0000      8.8461     45.5137      7.3511   -999.2500
  1907.2500      8.8744     45.3873      7.6656   -999.2500
  1907.5000      8.9799     45.1150      7.8222   -999.2500
  1907.7500      9.2126     44.3887      9.4535   -999.2500
  1908.0000      9.3612     44.0084    120.1216   -999.2500
  1908.2500      9.9413     42.1576 100000.0000   -999.2500
  1908.5000      9.9914     41.6478    462.6544   -999.2500
  1908.7500     10.7611     40.7898    464.6223   -999.2500
  1909.0000     11.9010     40.3726    527.5090   -999.2500
  1909.2500     12.4582     39.6548    578.9449   -999.2500
  1909.5000     13.1059     39.2166    635.0461   -999.2500
  1909.7500     14.2586     38.9857    953.2061   -999.2500
  1910.0000     16.7119     38.8885   1088.4541   -999.2500
  1910.2500     18.3736     38.8090   1758.8440   -999.2500
  1910.5000     20.9663     40.6623   1435.2314   -999.2500
  1910.7500     22.2766     41.2798 100000.0000   -999.2500
  1911.0000     24.7863     41.6571 100000.0000   -999.2500
  1911.2500     24.4447     41.8582 100000.0000   -999.2500
  1911.5000     24.7378     41.2609 100000.0000   -999.2500
  1911.7500     25.3215     41.8112 100000.0000   -999.2500
  1912.0000     26.3325     41.4790 100000.0000   -999.2500
  1912.2500     26.9064     42.1236 100000.0000   -999.2500
  1912.5000     28.7287     42.2725 100000.0000   -999.2500
  1912.7500     29.7004     43.4264 100000.0000   -999.2500
  1913.0000     30.9603     43.7433 100000.0000   -999.2500
  1913.2500     31.6213     44.2029 100000.0000   -999.2500
  1913.5000     31.0434     40.3134 100000.0000   -999.2500
  1913.7500     28.7583      4.8300 100000.0000   -999.2500
  1914.0000     21.4256      0.0119 100000.0000   -999.2500
  1914.2500      0.2894   -999.2500 100000.0000   -999.2500
  1914.5000     -2.4931   -999.2500 100000.0000   -999.2500
  1914.7500   -999.2500   -999.2500   3249.4495   -999.2500
  1915.0000   -999.2500   -999.2500 100000.0000   -999.2500
  1915.2500   -999.2500   -999.2500   -999.2500   -999.2500
  1915.5000   -999.2500   -999.2500   -999.2500   -999.2500
  1915.7500   -999.2500   -999.2500   -999.2500   -999.2500
  1916.0000   -999.2500   -999.2500   -999.2500   -999.2500
