~Version Information
VERS.                      2.0: CWLS Log ASCII Standard - VERSION 2.0
WRAP.                       NO: One line per depth step
~Well Information Block
STRT.FT               954.0000: 
STOP.FT              2517.0000: 
STEP.FT                 0.2500: 
NULL.                -999.2500: 
COMP.          Petrogulf Corporation: COMPANY
WELL.             Royal 8-33 V: WELL
FLD.           Purgatoire River: FIELD
LOC.           2365' FSL & 2336' FEL: LOCATION
PROV.                 Colorado: PROVINCE
CNTY.               Las Animas: COUNTRY
SRVC.                Patterson: SERVICE COMPANY
DATE.          Fri Dec 05 04:39:41 2003: LOG DATE
UWI.                          : UNIQUE WELL ID
~Curve Information Block
DEPT.FT            0 000 00 00: Depth
SP.mV                         : DIL Spontaneous Potential
RILD.Ohm-m                    : DIL Deep Resistivity
RILM.Ohm-m                    : DIL Medium Resistivity
RLL3.Ohm-m                    : DIL Shallow Resistivity
GR.GAPI                       : Gamma Ray
~Parameter Information Block
~A  Depth        SP         RILD        RILM        RLL3         GR     
# ...
  2382.0000    -14.0511     70.3471     69.2844    135.3712    101.7460
  2382.2500    -10.9341     70.8185     69.7095    129.0329     82.9897
  2382.5000     -7.6266     69.1235     70.2603    118.5756     64.7701
  2382.7500     -4.1089     65.4401     70.4026    106.5274     57.9888
  2383.0000     -0.4162     60.8452     69.8115     98.0091     54.2101
  2383.2500      3.3549     56.3249     68.2221     96.4065     55.0251
  2383.5000      7.0757     52.3505     65.4903    100.3529     59.0648
  2383.7500     10.6287     49.0054     61.7649    104.3023     62.0635
  2384.0000     13.9283     46.2212     57.5038    102.2441     64.7687
  2384.2500     16.9135     43.9145     53.2629     91.8595     64.9494
  2384.5000     19.5363     42.0328     49.4599     75.8930     63.9628
  2384.7500     21.7683     40.5480     46.2799     59.7393     63.7903
  2385.0000     23.6211     39.4176     43.7115     47.6612     66.0730
  2385.2500     25.1491     38.5339     41.6303     40.8365     69.4526
  2385.5000     26.4286     37.6837     39.8795     37.9641     75.9217
  2385.7500     27.5306     36.5861     38.3255     36.9511     79.8619
  2386.0000     28.5032     35.0478     36.8867     36.2456     83.3946
  2386.2500     29.3579     33.1386     35.5313     35.3145     83.8372
  2386.5000     30.0587     31.1798     34.2594     34.3555     82.4588
  2386.7500     30.5320     29.5347     33.0829     33.6683     81.1882
  2387.0000     30.7052     28.4079     32.0101     33.2457     80.5733
  2387.2500     30.5571     27.7798     31.0382     32.8267     81.6130
  2387.5000     30.1432     27.4421     30.1552     32.1825     84.7937
  2387.7500     29.5762     27.1086     29.3492     31.2997     86.8639
  2388.0000     28.9766     26.5783     28.6201     30.3460     87.8507
  2388.2500     28.4222     25.8472     27.9813     29.5223     86.5843
  2388.5000     27.9203     25.0589     27.4486     28.9415     82.2750
  2388.7500     27.4063     24.3620     27.0241     28.5990     78.3992
  2389.0000     26.7630     23.8234     26.6900     28.4222     72.0206
  2389.2500     25.8627     23.4329     26.4195     28.3387     67.9084
  2389.5000     24.6146     23.1496     26.1964     28.3186     62.8428
  2389.7500     22.9906     22.9374     26.0274     28.3781     60.5343
  2390.0000     21.0127     22.7765     25.9325     28.5541     58.6282
  2390.2500     18.7252     22.6590     25.9203     28.8586     58.0762
  2390.5000     16.1813     22.5801     25.9672     29.2372     57.6354
  2390.7500     13.4498     22.5320     26.0188     29.5592     57.2623
  2391.0000     10.6209     22.5023     26.0172     29.6650     56.2880
  2391.2500      7.7920     22.4765     25.9312     29.4571     55.4553
  2391.5000      5.0452     22.4421     25.7665     28.9888     54.5733
  2391.7500      2.4254     22.3922     25.5443     28.4749     54.6066
  2392.0000     -0.0838     22.3256     25.2746     28.1797     55.5563
  2392.2500     -2.5744     22.2432     24.9501     28.2386     56.3642
  2392.5000     -5.1799     22.1409     24.5715     28.5638     57.0250
  2392.7500     -7.9898     22.0103     24.1785     28.9200     56.8429
  2393.0000    -10.9751     21.8459     23.8507     29.0850     55.7757
  2393.2500    -13.9863     21.6560     23.6702     28.9561     54.9631
  2393.5000    -16.8226     21.4644     23.6735     28.5624     54.4646
  2393.7500    -19.3180     21.3008     23.8289     28.0227     54.7653
  2394.0000    -21.3904     21.1875     24.0534     27.4801     55.5772
  2394.2500    -23.0385     21.1295     24.2562     27.0387     55.8539
  2394.5000    -24.3194     21.1164     24.3802     26.7430     55.5080
  2394.7500    -25.3328     21.1315     24.4182     26.6003     54.9571
  2395.0000    -26.1963     21.1623     24.3992     26.5985     54.1921
  2395.2500    -26.9964     21.2013     24.3625     26.6920     53.8815
  2395.5000    -27.7519     21.2413     24.3370     26.7996     53.6253
  2395.7500    -28.4225     21.2732     24.3340     26.8470     53.4711
  2396.0000    -28.9519     21.2945     24.3522     26.8153     53.1298
  2396.2500    -29.3098     21.3206     24.3903     26.7356     52.8321
  2396.5000    -29.5144     21.3811     24.4590     26.6431     52.3918
  2396.7500    -29.6363     21.5029     24.5820     26.5422     52.1403
  2397.0000    -29.7850     21.6931     24.7852     26.4020     51.6772
  2397.2500    -30.0831     21.9379     25.0786     26.1835     51.1455
  2397.5000    -30.6278     22.2150     25.4422     25.8957     49.9102
  2397.7500    -31.4477     22.5054     25.8252     25.6273     48.9616
  2398.0000    -32.4790     22.7931     26.1593     25.5052     47.8135
  2398.2500    -33.5923     23.0601     26.3827     25.6215     47.3463
  2398.5000    -34.6603     23.2881     26.4685     26.0127     46.9242
  2398.7500    -35.6178     23.4703     26.4435     26.6921     46.7578
  2399.0000    -36.4718     23.6223     26.3801     27.6390     46.9764
  2399.2500    -37.2657     23.7751     26.3577     28.7042     47.7091
  2399.5000    -38.0232     23.9531     26.4221     29.5397     49.7237
  2399.7500    -38.7088     24.1545     26.5736     29.7166     51.3616
  2400.0000    -39.2206     24.3508     26.7925     29.0527     53.6855
  2400.2500    -39.4157     24.5018     27.0692     27.9010     55.0425
  2400.5000    -39.1597     24.5722     27.4059     27.0597     56.8051
  2400.7500    -38.3850     24.5365     27.7859     27.2509     57.6620
  2401.0000    -37.1381     24.3806     28.1399     28.5695     57.9283
  2401.2500    -35.5814     24.1035     28.3478     30.4042     57.1672
  2401.5000    -33.9373     23.7209     28.2835     31.8990     54.8424
  2401.7500    -32.4027     23.2660     27.8832     32.5076     53.1427
  2402.0000    -31.0942     22.7849     27.1800     32.1785     51.7895
  2402.2500    -30.0545     22.3268     26.2837     31.1487     52.1639
  2402.5000    -29.3026     21.9307     25.3298     29.6779     54.2972
  2402.7500    -28.8775     21.6133     24.4344     27.9707     56.0475
  2403.0000    -28.8486     21.3647     23.6731     26.2479     58.0115
  2403.2500    -29.2830     21.1561     23.0802     24.7834     58.7631
  2403.5000    -30.1780     20.9535     22.6605     23.8238     59.7881
  2403.7500    -31.3969     20.7311     22.4037     23.4657     60.7475
  2404.0000    -32.6755     20.4808     22.2857     23.6358     62.1744
  2404.2500    -33.7155     20.2176     22.2586     24.1918     62.5822
  2404.5000    -34.2915     19.9801     22.2478     24.9818     62.0466
  2404.7500    -34.3015     19.8228     22.1784     25.7656     61.1782
  2405.0000    -33.7714     19.7991     22.0151     26.1843     59.8524
  2405.2500    -32.8523     19.9331     21.7808     25.9779     59.3783
  2405.5000    -31.8082     20.1923     21.5366     25.2714     59.6500
  2405.7500    -30.9533     20.4809     21.3444     24.5471     60.2518
  2406.0000    -30.5355     20.6772     21.2441     24.2523     60.8315
  2406.2500    -30.6344     20.7071     21.2488     24.4437     60.6782
  2406.5000    -31.1531     20.5922     21.3529     24.8377     60.0364
  2406.7500    -31.9025     20.4218     21.5437     25.1472     59.7569
  2407.0000    -32.7104     20.2866     21.8088     25.2978     59.6896
  2407.2500    -33.4896     20.2350     22.1333     25.3699     59.6339
  2407.5000    -34.2427     20.2726     22.4884     25.4642     59.2365
  2407.7500    -35.0227     20.3807     22.8250     25.6577     58.8265
  2408.0000    -35.8848     20.5326     23.0888     25.9985     58.1991
  2408.2500    -36.8574     20.7024     23.2512     26.4675     57.7041
  2408.5000    -37.9393     20.8677     23.3268     26.9598     56.3824
  2408.7500    -39.1117     21.0129     23.3581     27.3500     54.9702
  2409.0000    -40.3485     21.1316     23.3853     27.5819     52.6590
  2409.2500    -41.6231     21.2245     23.4320     27.6870     51.7338
  2409.5000    -42.9121     21.2921     23.5161     27.7281     52.0406
  2409.7500    -44.1878     21.3213     23.6627     27.7463     52.9930
