~Version Information
VERS.                      2.0: CWLS Log ASCII Standard - VERSION 2.0
WRAP.                       NO: One line per depth step
~Well Information Block
STRT.FT               -12.2500: 
STOP.FT              2595.7500: 
STEP.FT                 0.2500: 
NULL.                -999.2500: 
COMP.          Petrogulf Corporation: COMPANY
WELL.            Montoya 1-44V: WELL
FLD.           Purgatoire River: FIELD
LOC.           753' FSL & 990' FEL--: LOCATION
PROV.                       CO: PROVINCE
CNTY.               Las Aniams: COUNTRY
SRVC.          Patterson Wireline: SERVICE COMPANY
DATE.          Mon Jun 13 11:58:10 2005: LOG DATE
UWI.           05 071 08142 00: UNIQUE WELL ID
~Curve Information Block
DEPT.FT            0 000 00 00: Depth
CCL.                          : Casing Collar Locator
TT3.usec                      : CBL 3' Travel Time
AMP3.mV                       : CBL 3' Amplitude
GR.GAPI                       : Gamma Ray
~Parameter Information Block
~A  Depth       CCL         TT3         AMP3         GR     
# ...
  2399.7500      0.0000    305.7238     31.6111     44.3241
  2400.0000      0.0000    305.6604     31.8407     46.2793
  2400.2500      0.0000    305.5663     31.4320     48.7620
  2400.5000      0.0000    305.4422     30.5439     50.4725
  2400.7500      0.0000    305.3178     29.3617     50.6394
  2401.0000      0.0000    305.2379     28.0214     49.8993
  2401.2500      0.0000    305.2485     26.5748     50.0020
  2401.5000      0.0000    305.3865     25.0227     52.3239
  2401.7500      0.0000    305.6726     23.4019     56.4168
  2402.0000      0.0000    306.1061     21.8354     60.1226
  2402.2500      0.0000    306.6583     20.4991     61.3640
  2402.5000      0.0000    307.2602     19.5495     59.8615
  2402.7500      0.0000    307.7990     19.0799     57.1786
  2403.0000      0.0000    308.1487     19.1097     55.5109
  2403.2500      0.0000    308.2296     19.5893     56.4279
  2403.5000      0.0000    308.0500     20.4283     60.0157
  2403.7500      0.0000    307.6950     21.5440     64.6367
  2404.0000      0.0000    307.2702     22.8972     67.7449
  2404.2500      0.0000    306.8463     24.4912     67.4727
  2404.5000      0.0000    306.4089     26.3636     63.7329
  2404.7500      0.0000    305.7838     28.5854     57.9837
  2405.0000      0.0000    304.5183     31.2339     52.2112
  2405.2500      0.0000    301.8587     34.3147     48.1132
  2405.5000      0.0000    297.0926     37.6906     46.8001
  2405.7500      0.0000    290.2491     41.1055     48.5962
  2406.0000      0.0000    282.5028     44.3028     52.7242
  2406.2500      0.0000    275.6096     47.1344     57.4353
  2406.5000      0.0000    270.7701     49.5676     61.0044
  2406.7500      0.0000    268.0600     51.6042     62.6609
  2407.0000      0.0000    266.8212     53.2185     62.4512
  2407.2500      0.0000    266.3417     54.3910     60.6791
  2407.5000      0.0000    266.1786     55.1984     58.0571
  2407.7500      0.0000    266.1233     55.8464     56.0968
  2408.0000      0.0000    266.0816     56.5831     56.4652
  2408.2500      0.0000    266.0120     57.5555     59.5186
  2408.5000      0.0000    265.9108     58.7283     63.7733
  2408.7500      0.0000    265.8028     59.9246     67.1771
  2409.0000      0.0000    265.7173     60.9434     68.6934
  2409.2500      0.0000    265.6672     61.6671     68.3586
  2409.5000      0.0000    265.6449     62.1056     66.3929
  2409.7500      0.0000    265.6320     62.3604     63.0502
  2410.0000      0.0000    265.6125     62.5415     59.1507
  2410.2500      0.0000    265.5785     62.7079     56.1193
  2410.5000      0.0000    265.5299     62.8721     55.2718
  2410.7500      0.0000    265.4738     63.0300     56.9177
  2411.0000      0.0000    265.4220     63.1721     59.9418
  2411.2500      0.0000    265.3866     63.2835     62.4087
  2411.5000      0.0000    265.3750     63.3480     62.9974
  2411.7500      0.0000    265.3892     63.3432     62.0985
  2412.0000      0.0000    265.4267     63.2290     61.4678
  2412.2500      0.0000    265.4797     62.9570     62.6404
  2412.5000      0.0000    265.5383     62.4926     65.5696
  2412.7500      0.0000    265.6017     61.8035     68.8145
  2413.0000      0.0000    265.6891     60.8236     71.0206
  2413.2500      0.0000    265.8372     59.4707     71.9428
  2413.5000      0.0000    266.1147     57.7183     71.9179
  2413.7500      0.0000    266.6982     55.6201     70.8721
  2414.0000      0.0000    268.0155     53.2501     68.4055
  2414.2500      0.0000    270.7927     50.6345     64.6033
  2414.5000      0.0000    275.7242     47.7573     60.3045
  2414.7500      0.0000    282.7704     44.6517     56.6632
  2415.0000      0.0000    290.7348     41.5129     54.5857
  2415.2500      0.0000    297.8102     38.6927     54.3072
  2415.5000      0.0000    302.7303     36.5124     55.1870
  2415.7500      0.0000    305.3884     35.0570     55.8971
  2416.0000      0.0000    306.4799     34.1606     55.0470
  2416.2500      0.0000    306.7981     33.5668     52.0070
  2416.5000      0.0000    306.8422     33.0862     47.3998
  2416.7500      0.0000    306.8105     32.6426     42.6932
  2417.0000      0.0000    306.7491     32.2181     39.1657
  2417.2500      0.0000    306.6881     31.7698     37.3148
  2417.5000      0.0000    306.7239     31.1913     37.2273
  2417.7500      0.0000    307.0336     30.3569     39.2188
  2418.0000      0.0000    308.1846     29.2145     43.8036
  2418.2500      0.0000    311.8235     27.8357     51.0156
  2418.5000      0.0000    321.6668     26.3419     59.9993
  2418.7500      0.0000    342.9791     24.7741     69.4159
  2419.0000      0.0000    378.6310     23.0677     78.0426
  2419.2500      0.0000    423.5484     21.2042     84.8145
  2419.5000      0.0000    464.4424     19.3830     88.7728
  2419.7500      0.0000    488.6219     17.9668     89.5949
  2420.0000      0.0000    495.4657     17.1646     88.0758
  2420.2500      0.0000    499.3492     16.7980     85.6588
  2420.5000      0.0000    519.3486     16.4831     83.4840
  2420.7500      0.0000    563.7020     16.0139     82.0704
  2421.0000      0.0000    624.2164     15.4705     81.6476
  2421.2500      0.0000    685.2568     14.9994     82.2980
  2421.5000     -2.0000    734.4246     14.6222     83.7191
  2421.7500      0.0000    763.0460     14.2770     85.1209
  2422.0000      0.0000    761.4896     13.9923     85.7129
  2422.2500      0.0000    720.7344     13.9827     85.4731
  2422.5000      0.0000    641.6622     14.5245     85.3212
  2422.7500      0.0000    541.3035     15.6727     86.3908
  2423.0000      0.0000    446.1545     17.1087     89.1455
  2423.2500      0.0000    376.6331     18.3278     93.0494
  2423.5000      0.0000    338.1420     18.9634     96.8798
  2423.7500      0.0000    325.9626     18.9164     99.4440
  2424.0000      0.0000    336.0597     18.2806    100.1339
  2424.2500      0.0000    370.4588     17.2490     98.8620
  2424.5000      0.0000    433.1502     16.0581     95.7584
  2424.7500      0.0000    520.7163     14.9247     91.3573
  2425.0000      0.0000    617.5372     13.9768     86.9863
  2425.2500      0.0000    702.7432     13.2273     84.4221
  2425.5000      0.0000    762.9811     12.6230     84.6115
  2425.7500      0.0000    797.5887     12.1303     86.5653
  2426.0000      0.0000    812.8199     11.7858     87.8559
  2426.2500      0.0000    814.1290     11.6742     86.5923
  2426.5000      0.0000    803.0560     11.8624     82.9633
  2426.7500      0.0000    778.0353     12.3261     78.8542
  2427.0000      0.0000    737.6287     12.9184     76.1420
  2427.2500      0.0000    685.1747     13.4251     75.3768
  2427.5000      0.0000    631.2331     13.6788     75.7918
  2427.7500      0.0000    591.1354     13.6376     76.2455
  2428.0000      0.0000    579.2664     13.3582     76.0692
  2428.2500      0.0000    601.6701     12.9063     75.2853
  2428.5000      0.0000    650.4169     12.3074     74.3570
  2428.7500      0.0000    707.2545     11.5830     73.8205
  2429.0000      0.0000    755.9398     10.8107     73.9816
  2429.2500      0.0000    790.4666     10.1336     74.8787
  2429.5000      0.0000    812.4154      9.6976     76.4620
  2429.7500      0.0000    824.6032      9.5482     78.6598
  2430.0000      0.0000    828.4442      9.5818     81.1198
  2430.2500      0.0000    824.6898      9.6279     82.9167
  2430.5000      0.0000    814.4153      9.5898     82.9259
  2430.7500      0.0000    799.2446      9.4948     80.9043
  2431.0000      0.0000    780.9482      9.4239     77.8771
  2431.2500      0.0000    761.4106      9.4232     74.9259
  2431.5000      0.0000    743.2987      9.4755     71.9692
  2431.7500      0.0000    730.2825      9.5241     68.2319
  2432.0000      0.0000    725.8707      9.5101     63.3962
  2432.2500      0.0000    731.5151      9.3965     57.9159
  2432.5000      0.0000    745.2783      9.1809     52.8318
  2432.7500      0.0000    762.2169      8.9054     49.5560
  2433.0000      0.0000    776.6552      8.6527     49.0482
