~Version Information
VERS.                      2.0: CWLS Log ASCII Standard - VERSION 2.0
WRAP.                       NO: One line per depth step
~Well Information Block
STRT.FT               270.0000: 
STOP.FT              1771.7000: 
STEP.FT                 0.1000: 
NULL.                -999.2500: 
COMP.          Pioneer Natural Resources: COMPANY
WELL.           Labrador 34-30: WELL
FLD.           Purgatoire River: FIELD
LOC.           926' FSL & 2080' FEL: LOCATION
PROV.                 Colorado: PROVINCE
CNTY.               Las Animas: COUNTRY
SRVC.                Patterson: SERVICE COMPANY
DATE.          Mon Dec 06 08:24:34 2004: LOG DATE
UWI.           05 071 08202 00: UNIQUE WELL ID
~Curve Information Block
DEPT.FT            0 000 00 00: Depth
DCAL.in                       : CDL Caliper
RHOB.g/cc                     : CDL Bulk Density
RHOC.g/cc                     : CDL Density Correction
DPOR.pu                       : CDL Density Porosity
NPOR.pu                       : Neutron Porosity
GR.GAPI                       : Gamma Ray
~Parameter Information Block
~A  Depth       DCAL        RHOB        RHOC        DPOR        NPOR         GR     
# ...
  1249.2000      8.0273      2.4691      0.0405     10.9633     23.2319    156.9242
  1249.3000      8.0213      2.4569      0.0422     11.7014     23.4505    159.3212
  1249.4000      8.0213      2.4356      0.0751     12.9931     23.4782    156.3499
  1249.5000      8.0189      2.3878      0.0863     15.8903     23.3238    151.5152
  1249.6000      8.0189      2.3310     -0.0201     19.3341     23.1408    152.5448
  1249.7000      8.0189      2.3101     -0.0658     20.5980     23.4047    156.1582
  1249.8000      8.0148      2.3340      0.0495     19.1486     24.0450    154.3371
  1249.9000      8.0148      2.3671      0.0415     17.1450     24.3678    149.5553
  1250.0000      8.0101      2.3891      0.0414     15.8108     23.9753    149.8726
  1250.1000      8.0101      2.4086      0.0918     14.6286     23.1308    155.3689
  1250.2000      8.0101      2.4268      0.1268     13.5244     22.3202    159.7948
  1250.3000      8.0063      2.4249      0.1710     13.6447     21.8237    159.0969
  1250.4000      8.0063      2.3932      0.0793     15.5615     21.7068    154.6860
  1250.5000      8.0020      2.3522      0.0731     18.0461     22.0121    148.6545
  1250.6000      8.0020      2.3179      0.0968     20.1267     22.6695    142.6356
  1250.7000      8.0020      2.2918      0.0668     21.7112     23.2393    141.6638
  1250.8000      7.9875      2.2866      0.0465     22.0236     23.4022    145.8365
  1250.9000      7.9875      2.3214      0.0333     19.9149     23.3769    146.8434
  1251.0000      7.9578      2.3958      0.0566     15.4052     23.4021    141.0753
  1251.1000      7.9578      2.4827      0.1870     10.1366     23.5789    136.9599
  1251.2000      7.9578      2.5467      0.3026      6.2597     23.9849    139.1117
  1251.3000      7.9280      2.5773      0.2667      4.4088     24.5863    142.4215
  1251.4000      7.9280      2.5908      0.2602      3.5909     25.0832    141.8570
  1251.5000      7.9170      2.5965      0.2281      3.2401     24.9531    136.9609
  1251.6000      7.9170      2.5882      0.2059      3.7434     24.2328    131.9332
  1251.7000      7.9170      2.5619      0.1429      5.3424     23.6749    129.6180
  1251.8000      7.9487      2.5190      0.1349      7.9365     23.6192    128.9278
  1251.9000      7.9487      2.4621      0.0773     11.3860     23.5306    128.2368
  1252.0000      8.0229      2.4044      0.0087     14.8879     23.0145    127.7260
  1252.1000      8.0229      2.3620      0.0677     17.4527     22.3114    128.5947
  1252.2000      8.0229      2.3234      0.1157     19.7955     21.5199    130.5656
  1252.3000      8.0796      2.2577      0.0960     23.7728     20.4672    129.1729
  1252.4000      8.0796      2.1488      0.0333     30.3775     19.2066    123.2663
  1252.5000      8.0840      2.0111     -0.0671     38.7213     17.9907    119.3594
  1252.6000      8.0840      1.8879     -0.1352     46.1900     16.9217    118.7603
  1252.7000      8.0840      1.8098     -0.0689     50.9187     15.8895    114.8217
  1252.8000      8.0876      1.7600     -0.0399     53.9364     14.7245    106.7536
  1252.9000      8.0876      1.7161     -0.1158     56.6017     13.4533     98.4017
  1253.0000      8.1250      1.6997     -0.1244     57.5927     12.2893     92.7843
  1253.1000      8.1250      1.7465     -0.0536     54.7572     11.3914     93.4993
  1253.2000      8.1250      1.8474      0.1545     48.6434     10.7149     98.6986
  1253.3000      8.1661      1.9524      0.2405     42.2802     10.3404    102.2304
  1253.4000      8.1661      2.0307      0.2896     37.5334     10.3770    103.8564
  1253.5000      8.1911      2.0975      0.2423     33.4842     10.6779    105.8732
  1253.6000      8.1911      2.1780      0.2116     28.6062     11.2585    108.8504
  1253.7000      8.1911      2.2579      0.2355     23.7606     12.3078    112.7990
  1253.8000      8.1953      2.3045      0.1994     20.9383     13.5551    117.5542
  1253.9000      8.1953      2.3229      0.0833     19.8258     14.6411    120.0972
  1254.0000      8.1810      2.3375      0.0572     18.9412     15.5129    116.4818
  1254.1000      8.1810      2.3527      0.0992     18.0189     16.1678    110.9010
  1254.2000      8.1810      2.3645      0.1010     17.3028     16.8501    110.2131
  1254.3000      8.1474      2.3786      0.1322     16.4487     17.5850    111.1708
  1254.4000      8.1474      2.4093      0.1111     14.5850     18.0490    109.0214
  1254.5000      8.0984      2.4670      0.1555     11.0896     18.3874    105.3072
  1254.6000      8.0984      2.5383      0.2312      6.7677     19.0380    102.6251
  1254.7000      8.0984      2.5978      0.2434      3.1619     20.0046    102.4413
  1254.8000      8.0587      2.6329      0.2478      1.0385     20.8684    105.5317
  1254.9000      8.0587      2.6383      0.2003      0.7100     21.2977    111.5854
  1255.0000      8.0457      2.6166      0.1215      2.0227     21.6555    116.5970
  1255.1000      8.0457      2.5870      0.1109      3.8201     22.5093    117.1872
  1255.2000      8.0457      2.5693      0.0665      4.8925     23.5084    114.2831
  1255.3000      8.0552      2.5668      0.0597      5.0450     23.8583    109.6817
  1255.4000      8.0552      2.5677      0.0720      4.9893     23.5563    104.8496
  1255.5000      8.0666      2.5610      0.0129      5.3951     22.9996    100.8619
  1255.6000      8.0666      2.5352      0.0647      6.9568     22.6362     98.8790
  1255.7000      8.0666      2.4817      0.0046     10.1991     22.8284    100.3477
  1255.8000      8.0598      2.4226     -0.0150     13.7845     23.3774    105.2992
  1255.9000      8.0598      2.3915     -0.0484     15.6695     23.7673    109.4425
  1256.0000      8.0374      2.3963     -0.0211     15.3747     23.8580    109.8032
  1256.1000      8.0374      2.4211      0.0014     13.8701     23.7961    108.0681
  1256.2000      8.0374      2.4507      0.0342     12.0760     23.6090    105.1502
  1256.3000      8.0102      2.4829      0.0654     10.1258     23.3388    100.7367
  1256.4000      8.0102      2.5185      0.0950      7.9691     23.1286     96.2615
  1256.5000      7.9883      2.5496      0.1227      6.0857     23.1575     94.9137
  1256.6000      7.9883      2.5679      0.1300      4.9779     23.3476     98.9548
  1256.7000      7.9883      2.5723      0.1440      4.7084     23.2679    104.9366
  1256.8000      7.9859      2.5593      0.1277      5.4984     22.9004    106.4982
  1256.9000      7.9859      2.5300      0.0771      7.2733     22.7177    102.7695
  1257.0000      8.0075      2.4991      0.0894      9.1441     22.5523     97.7014
  1257.1000      8.0075      2.4808      0.0243     10.2551     21.9710     96.4974
  1257.2000      8.0075      2.4827      0.0474     10.1387     21.4465     98.8416
  1257.3000      8.0367      2.4999      0.0409      9.0975     21.5207    100.9585
  1257.4000      8.0367      2.5182      0.0589      7.9858     21.8447    101.1067
  1257.5000      8.0543      2.5310      0.0629      7.2144     22.0907     95.3335
  1257.6000      8.0543      2.5444      0.0575      6.3994     22.5243     86.0252
  1257.7000      8.0543      2.5599      0.0745      5.4615     23.1423     82.4624
  1257.8000      8.0468      2.5649      0.1158      5.1576     23.6836     85.6670
  1257.9000      8.0468      2.5577      0.0641      5.5914     24.1177     89.4949
  1258.0000      8.0175      2.5547      0.1159      5.7755     24.6440     89.1990
  1258.1000      8.0175      2.5617      0.0822      5.3534     25.4090     85.4917
  1258.2000      8.0175      2.5721      0.0935      4.7211     26.3000     83.3345
  1258.3000      7.9887      2.5742      0.0979      4.5957     26.9208     84.7831
  1258.4000      7.9887      2.5645      0.0554      5.1836     26.7925     88.2713
  1258.5000      7.9816      2.5602      0.0244      5.4416     26.3468     94.0081
  1258.6000      7.9816      2.5702      0.1089      4.8362     26.2977    104.2753
  1258.7000      7.9816      2.5762      0.1456      4.4741     26.3404    116.5187
