~Version Information
VERS.                      2.0: CWLS Log ASCII Standard - VERSION 2.0
WRAP.                       NO: One line per depth step
~Well Information Block
STRT.FT               840.0000: 
STOP.FT              2448.5000: 
STEP.FT                 0.2500: 
NULL.                -999.2500: 
COMP.          Petrogulf Corporation: COMPANY
WELL.             Leier 17-42V: WELL
FLD.           Purgatorie River: FIELD
LOC.           2309' FNL & 1062' FEL SENE 17 33S 67W: LOCATION
PROV.                 Colorado: PROVINCE
CNTY.               Las Animas: COUNTRY
SRVC.                Patterson: SERVICE COMPANY
DATE.          Thu Sep 22 09:40:29 2005: LOG DATE
UWI.                 071 08409: UNIQUE WELL ID
~Curve Information Block
DEPT.FT            0 000 00 00: Depth
SP.mV                         : DIL Spontaneous Potential
RILD.Ohm-m                    : DIL Deep Resistivity
RILM.Ohm-m                    : DIL Medium Resistivity
RLL3.Ohm-m                    : DIL Shallow Resistivity
GR.GAPI                       : Gamma Ray
~Parameter Information Block
~A  Depth        SP         RILD        RILM        RLL3         GR     
   840.0000   2000.0000      8.7309   -999.2500   2000.0000     85.4852
   840.2500   2000.0000      8.7969   -999.2500   2000.0000     87.1636
   840.5000   2000.0000      8.7533 100000.0000   2000.0000    102.2933
   840.7500   2000.0000      8.7628 100000.0000   2000.0000     93.4878
   841.0000   2000.0000      8.6516 100000.0000   2000.0000     96.8227
   841.2500   2000.0000      8.4624 100000.0000   2000.0000     99.6096
   841.5000   2000.0000      8.3343 100000.0000   2000.0000    104.0682
   841.7500   2000.0000      8.2632 100000.0000   2000.0000     77.5193
   842.0000   2000.0000      8.1535 100000.0000   2000.0000     78.8252
   842.2500   2000.0000      7.9929 100000.0000   2000.0000     87.3549
   842.5000   2000.0000      7.9284 100000.0000   2000.0000     81.3360
   842.7500   2000.0000      7.9065 100000.0000   2000.0000     87.2721
   843.0000   2000.0000      7.9642 100000.0000   2000.0000     92.2519
   843.2500   2000.0000      7.9609 100000.0000   2000.0000     71.8961
   843.5000   2000.0000      7.8156 100000.0000   2000.0000     83.8177
   843.7500   2000.0000      7.8388 100000.0000   2000.0000     68.4328
   844.0000   2000.0000      7.8871 100000.0000   2000.0000     84.9205
   844.2500   2000.0000      7.9874 100000.0000   2000.0000     99.0065
   844.5000   2000.0000      8.0299 100000.0000   2000.0000     98.1731
   844.7500   2000.0000      8.0346 100000.0000   2000.0000     96.3099
   845.0000   2000.0000      7.9225 100000.0000   2000.0000     92.6727
   845.2500   2000.0000      8.0088 100000.0000   2000.0000     90.8926
   845.5000   2000.0000      8.0622 100000.0000   2000.0000     93.3749
   845.7500   2000.0000      8.1261 100000.0000   2000.0000     91.1989
   846.0000   2000.0000      8.1100 100000.0000   2000.0000     92.8056
   846.2500   2000.0000      8.0200 100000.0000   2000.0000     95.3924
   846.5000   2000.0000      8.0330 100000.0000   2000.0000    100.7253
   846.7500   2000.0000      8.0446 100000.0000   2000.0000     89.2944
   847.0000   2000.0000      8.1366 100000.0000   2000.0000     83.0440
   847.2500   2000.0000      8.0926 100000.0000   2000.0000     83.0679
   847.5000   2000.0000      8.1788 100000.0000   2000.0000     78.0517
   847.7500   2000.0000      8.2005 100000.0000   2000.0000     73.4289
   848.0000   2000.0000      8.3588 100000.0000   2000.0000     58.3718
   848.2500   2000.0000      8.9294 100000.0000   2000.0000     57.0210
   848.5000   2000.0000      8.2926 100000.0000   2000.0000     55.7617
   848.7500   2000.0000      8.4051 100000.0000   2000.0000     53.3564
   849.0000   2000.0000      7.9995 100000.0000   2000.0000     53.4191
   849.2500   2000.0000      7.4720 100000.0000   2000.0000     63.6774
   849.5000   2000.0000      8.7262 100000.0000   2000.0000     72.3546
   849.7500   2000.0000     10.4829 100000.0000   2000.0000     70.4910
   850.0000   2000.0000     11.0173 100000.0000   2000.0000     62.8531
   850.2500   2000.0000     10.7153 100000.0000   2000.0000     62.3773
   850.5000   2000.0000     10.1099 100000.0000   2000.0000     59.7473
   850.7500   2000.0000      9.6539 100000.0000   2000.0000     59.8595
   851.0000   2000.0000      9.2180 100000.0000   2000.0000     64.2711
   851.2500   2000.0000      8.8727 100000.0000   2000.0000     45.5959
   851.5000   2000.0000      8.3006 100000.0000   2000.0000     64.8043
   851.7500   2000.0000      8.2288 100000.0000   2000.0000     70.7233
   852.0000   2000.0000      9.2055 100000.0000   2000.0000     74.0927
   852.2500   2000.0000     12.0909 100000.0000   2000.0000     58.2426
   852.5000   2000.0000     18.2309 100000.0000   2000.0000     66.9112
   852.7500   2000.0000     21.1192 100000.0000   2000.0000     57.8596
   853.0000   2000.0000     13.0325 100000.0000   2000.0000     54.0409
   853.2500   2000.0000      8.6308 100000.0000   2000.0000     66.8468
   853.5000   2000.0000      7.4350 100000.0000   2000.0000     75.4680
   853.7500   2000.0000      7.1022 100000.0000   2000.0000     84.1686
   854.0000   2000.0000      7.4049 100000.0000   2000.0000     69.3029
   854.2500   2000.0000      7.6461 100000.0000   2000.0000     74.9552
   854.5000   2000.0000      7.8961 100000.0000   2000.0000     72.6277
   854.7500   2000.0000      7.1859 100000.0000   2000.0000     64.1081
   855.0000   2000.0000      7.0178 100000.0000   2000.0000     88.7010
   855.2500   2000.0000      8.7887 100000.0000   2000.0000     86.0332
   855.5000   2000.0000     27.9269 100000.0000   2000.0000     80.4673
   855.7500   2000.0000 100000.0000 100000.0000   2000.0000     91.2222
   856.0000   2000.0000 100000.0000 100000.0000   2000.0000     86.6406
   856.2500   2000.0000      4.7991 100000.0000   2000.0000     78.0511
   856.5000   2000.0000      2.9736 100000.0000   2000.0000     83.8429
   856.7500   2000.0000      2.9314 100000.0000   2000.0000     77.8699
   857.0000   2000.0000      3.9111 100000.0000   2000.0000    107.1514
   857.2500   2000.0000      4.9296 100000.0000   2000.0000     87.0761
   857.5000   2000.0000      5.7290 100000.0000   2000.0000     82.7773
   857.7500   2000.0000      6.7537 100000.0000   2000.0000     99.5533
   858.0000   2000.0000      9.9233 100000.0000   2000.0000    125.0664
   858.2500   2000.0000    100.3582 100000.0000   2000.0000    107.6973
   858.5000   2000.0000     48.9535 100000.0000   2000.0000    110.9096
   858.7500   2000.0000      4.5291 100000.0000   2000.0000    115.7747
   859.0000   2000.0000      1.6570 100000.0000   2000.0000    134.1210
   859.2500   2000.0000      1.1199 100000.0000   2000.0000    107.5821
   859.5000   2000.0000      1.6939      6.8089   2000.0000     96.2590
   859.7500   2000.0000      4.2313      2.2457   2000.0000     99.3696
   860.0000   2000.0000     12.2985      2.8795   2000.0000    111.1514
   860.2500   2000.0000     41.7413      6.7052   2000.0000    105.1361
   860.5000   2000.0000    396.6975    136.0546   2000.0000    100.6378
   860.7500   2000.0000 100000.0000     35.7908   2000.0000     95.9886
   861.0000   2000.0000 100000.0000     19.5560   2000.0000    103.2822
   861.2500   2000.0000 100000.0000     16.6647   2000.0000    106.1291
   861.5000   2000.0000 100000.0000     15.7384   2000.0000    108.5249
   861.7500   2000.0000 100000.0000     15.6873   2000.0000     99.7094
   862.0000   2000.0000 100000.0000     18.4011   2000.0000     99.8588
   862.2500   2000.0000     15.9742     68.7898   2000.0000    112.0070
   862.5000   2000.0000     11.8126 100000.0000   2000.0000    100.1379
   862.7500   2000.0000     12.3069 100000.0000   2000.0000    103.2162
   863.0000   2000.0000     12.6913     34.4708   2000.0000    119.7375
   863.2500   2000.0000     12.4094     18.4517   2000.0000    118.9324
   863.5000   2000.0000     11.9620     14.8413   2000.0000    111.9984
   863.7500   2000.0000     11.5925     13.0778   2000.0000    116.4108
   864.0000   2000.0000     11.5610     12.0123   2000.0000    130.8601
   864.2500   2000.0000     11.1576     11.3082   2000.0000    143.0878
   864.5000   2000.0000     11.4678     10.5189   2000.0000    140.5320
   864.7500   2000.0000     12.0085      9.5681   2000.0000    133.1024
   865.0000   2000.0000     10.2973      9.2135   2000.0000    139.4633
   865.2500   2000.0000      9.3899      8.4502   2000.0000    128.2082
   865.5000   2000.0000      9.1575      7.7016   2000.0000    123.0379
   865.7500   2000.0000      9.0741      8.0536   2000.0000    124.9186
   866.0000   2000.0000      8.8990      8.1431   2000.0000    115.1281
   866.2500   2000.0000      8.8840      8.0719   2000.0000    116.8168
   866.5000   2000.0000      8.8913      8.0390   2000.0000    128.3790
   866.7500   2000.0000      8.9585      8.0810   2000.0000    132.6009
   867.0000   2000.0000      9.1203      8.1743   2000.0000    123.7276
   867.2500   2000.0000      9.0612      8.2329   2000.0000    142.6558
   867.5000   2000.0000      9.1790      8.3085   2000.0000    139.2896
   867.7500   2000.0000      9.3254      8.5936   2000.0000    142.5856
