~Version Information
 VERS.                      2.0: CWLS Log ASCII Standard - VERSION 2.0
 WRAP.                       NO: One line per depth step
 ~Well Information Block
 STRT.FT               130.0000: 
 STOP.FT              1766.9000: 
 STEP.FT                 0.1000: 
 NULL.                -999.2500: 
 COMP.          Petrogulf Corporation: COMPANY
 WELL.           Parsons 23-15V: WELL
 FLD.           Purgatorie River: FIELD
 LOC.           2095' FSL & 1817' FWL--API 05 071 07556 00----: LOCATION
 CNTY.               Las Animas: COUNTY
 SRVC.                         : SERVICE COMPANY
 DATE.          Fri Apr 19 17:40:55 2002: LOG DATE
 UWI.                          : UNIQUE WELL ID
 STAT.                       CO: STATE
 PROV.                         :Province
 ~Curve Information Block
 DEPT.FT            0 000 00 00: Depth
 DCAL.in                       : CDL Caliper
 RHOB.g/cc                     : CDL Bulk Density
 RHOC.g/cc                     : CDL Density Correction
 DPOR.pu                       : CDL Density Porosity
 GR.GAPI                       : Gamma Ray
 NPOR.pu                       : Neutron Porosity
 ~Parameter Information Block
 ~A  Depth       DCAL        RHOB        RHOC        DPOR         GR         NPOR    
# ...
  1762.0000      7.8793      2.5926      0.0395      3.4803   -999.2500   -999.2500
  1762.1000      7.8793      2.6224      0.0441      1.6724   -999.2500   -999.2500
  1762.2000      7.8793      2.6582      0.0492     -0.4940   -999.2500   -999.2500
  1762.3000      7.8772      2.7004      0.0550     -3.0554   -999.2500   -999.2500
  1762.4000      7.8772      2.7497      0.0613     -6.0453   -999.2500   -999.2500
  1762.5000      7.8696      2.8066      0.0676     -9.4923   -999.2500   -999.2500
  1762.6000      7.8696      2.8713      0.0733    -13.4096   -999.2500   -999.2500
  1762.7000      7.8696      2.9439      0.0776    -17.8107   -999.2500   -999.2500
  1762.8000      7.7870      3.0244      0.0791    -22.6923   -999.2500   -999.2500
  1762.9000      7.7870      3.1125      0.0767    -28.0332   -999.2500   -999.2500
  1763.0000      7.4388      3.2075      0.0687    -33.7890   -999.2500   -999.2500
  1763.1000      7.4388      3.3081      0.0535    -39.8830   -999.2500   -999.2500
  1763.2000      7.4388      3.4122      0.0294    -46.1943   -999.2500   -999.2500
  1763.3000      6.3555      3.5170     -0.0050    -52.5443   -999.2500   -999.2500
  1763.4000      6.3555      3.6183     -0.0513    -58.6820   -999.2500   -999.2500
  1763.5000      4.6975      3.7105     -0.1110    -64.2720   -999.2500   -999.2500
  1763.6000      4.6975      3.7867     -0.1852    -68.8904   -999.2500   -999.2500
  1763.7000      4.6975      3.8386     -0.2751    -72.0341   -999.2500   -999.2500
  1763.8000      3.7070      3.8569     -0.3816    -73.1483   -999.2500   -999.2500
  1763.9000      3.7070      3.8327     -0.5058    -71.6762   -999.2500   -999.2500
  1764.0000      3.4868      3.7576     -0.6483    -67.1269   -999.2500   -999.2500
  1764.1000      3.4868      3.6261     -0.8097    -59.1550   -999.2500   -999.2500
  1764.2000      3.4868      3.4360     -0.9905    -47.6371   -999.2500   -999.2500
  1764.3000   -999.2500      3.1900     -1.1910    -32.7281   -999.2500   -999.2500
  1764.4000   -999.2500      2.8956     -1.4110    -14.8824   -999.2500   -999.2500
  1764.5000   -999.2500      2.5647     -1.6498      5.1714   -999.2500   -999.2500
  1764.6000   -999.2500      2.2127      0.0000     26.5021   -999.2500   -999.2500
  1764.7000   -999.2500      1.8566      0.0000     48.0822   -999.2500   -999.2500
  1764.8000   -999.2500      1.5130      0.0000     68.9106   -999.2500   -999.2500
  1764.9000   -999.2500      1.1959      0.0000     88.1268   -999.2500   -999.2500
  1765.0000   -999.2500      0.9159   -999.2500    105.0962   -999.2500   -999.2500
  1765.1000   -999.2500      0.6790   -999.2500    119.4528   -999.2500   -999.2500
  1765.2000   -999.2500      0.4869   -999.2500    131.0972   -999.2500   -999.2500
  1765.3000   -999.2500      0.3374   -999.2500    140.1560   -999.2500   -999.2500
  1765.4000   -999.2500      0.2259   -999.2500    146.9177   -999.2500   -999.2500
  1765.5000   -999.2500      0.1459   -999.2500    151.7617   -999.2500   -999.2500
  1765.6000   -999.2500      0.0910   -999.2500    155.0928   -999.2500   -999.2500
  1765.7000   -999.2500      0.0547   -999.2500    157.2922   -999.2500   -999.2500
  1765.8000   -999.2500      0.0317   -999.2500    158.6867   -999.2500   -999.2500
  1765.9000   -999.2500      0.0177   -999.2500    159.5357   -999.2500   -999.2500
  1766.0000   -999.2500      0.0095   -999.2500    160.0322   -999.2500   -999.2500
  1766.1000   -999.2500      0.0049   -999.2500    160.3110   -999.2500   -999.2500
  1766.2000   -999.2500      0.0024   -999.2500    160.4615   -999.2500   -999.2500
  1766.3000   -999.2500      0.0011   -999.2500    160.5396   -999.2500   -999.2500
  1766.4000   -999.2500      0.0005   -999.2500    160.5786   -999.2500   -999.2500
  1766.5000   -999.2500      0.0001   -999.2500    160.5973   -999.2500   -999.2500
  1766.6000   -999.2500      0.0000   -999.2500    160.6061   -999.2500   -999.2500
  1766.7000   -999.2500      0.0000   -999.2500    160.6061   -999.2500   -999.2500
  1766.8000   -999.2500      0.0000   -999.2500    160.6061   -999.2500   -999.2500
  1766.9000   -999.2500      0.0000   -999.2500    160.6061   -999.2500   -999.2500
