~Version Information
 VERS.                                  2.0 : CWLS LAS VERSION
 WRAP.                                   NO : WRAPING MODE
 SWARE .                 MController 2.5.0J : SOFTWARE VERSION
~Well Information
 WELL.                       Vision 31-11Tr : WELL
 COMP.    Pioneer Natural Resources USA Inc : COMPANY
 FLD.                      Purgatoire River : FIELD
 LOC.                 NW/NE SEC11 T32S R66W : LOCATION
 DATE.                             10/07/05 : DATE(S) LOGGED
 SRVC.       Blanco Geological Services LLC : SERVICE COMPANY
 STAT.                             Colorado : STATE
 CNTY.                           Las Animas : COUNTY
 CTRY.                                  USA : COUNTRY
 API.                       05-071-08305-00 : API NUMBER
 STRT.FT                             408.00 : START DEPTH
 STOP.FT                            1824.00 : STOP DEPTH
 STEP.FT                               1.00 : DEPTH INCREMENT
 NULL.                                -9999 : NULL VALUE
~Curve information
 DEPTH.FT                                   :
 ROP.MIN/FT                                 :
 GAS.UNITS                                  :
~ASCII Log data
# ...
       608.0         0.17          4.8 
       609.0         0.20          4.8 
       610.0         0.17          5.4 
       611.0         0.20          4.9 
       612.0         0.20          4.6 
       613.0         0.18          4.8 
       614.0         0.20          5.1 
       615.0         0.17          4.8 
       616.0         0.17          4.8 
       617.0         0.20          4.9 
       618.0         0.17          5.6 
       619.0         0.17          4.8 
       620.0         0.23          4.8 
       621.0         0.20          5.0 
       622.0         0.20          5.0 
       623.0         0.20          5.3 
       624.0         0.20          5.3 
       625.0         0.20          5.3 
       626.0         1.75          5.7 
       627.0         0.57          5.2 
       628.0         0.37          5.5 
       629.0         0.23          5.5 
       630.0         0.23          5.6 
       631.0         0.20          5.4 
       632.0         0.27          5.6 
       633.0         0.20          5.7 
       634.0         0.20          5.7 
       635.0         0.17          5.7 
       636.0         0.22          5.8 
       637.0         0.23          5.8 
       638.0         0.20          5.7 
       639.0         0.23          5.4 
       640.0         0.20          5.7 
       641.0         0.17          5.6 
       642.0         0.20          5.7 
       643.0         0.20          5.3 
       644.0         0.17          5.5 
       645.0         0.20          5.2 
       646.0         0.17          5.2 
       647.0         0.20          5.3 
       648.0         0.17          5.5 
       649.0         0.23          5.3 
       650.0         0.20          5.5 
       651.0         0.20          5.6 
       652.0         0.20          5.2 
       653.0         0.18          5.6 
       654.0         0.20          5.7 
       655.0         0.20          5.4 
       656.0         0.77          5.1 
       657.0         0.20          5.2 
       658.0         0.27          5.0 
       659.0         0.37          5.1 
       660.0         0.37          5.0 
       661.0         0.23          5.0 
       662.0         0.27          5.1 
       663.0         0.23          4.9 
       664.0         0.22          5.2 
       665.0         0.20          5.4 
       666.0         0.20          5.3 
       667.0         0.20          5.3 
       668.0         0.17          5.4 
       669.0         0.17          5.8 
       670.0         0.20          6.5 
       671.0         0.17          7.6 
       672.0         0.17          7.6 
       673.0         0.17          7.8 
       674.0         0.17          7.8 
       675.0         0.13          8.3 
       676.0         0.17          8.1 
       677.0         0.13          9.1 
       678.0         0.13          9.1 
       679.0         0.17          9.8 
       680.0         0.13          9.8 
       681.0         0.13          8.9 
       682.0         0.17          8.9 
       683.0         0.27          8.8 
       684.0         0.38          7.0 
       685.0         0.90          7.4 
       686.0         1.23          6.4 
       687.0         0.27          6.1 
       688.0         0.30          5.7 
       689.0         0.23          5.6 
       690.0         0.18          5.6 
       691.0         0.20          5.2 
       692.0         0.20          5.3 
       693.0         0.20          5.2 
       694.0         0.23          5.3 
       695.0         0.23          5.2 
       696.0         0.23          5.7 
       697.0         0.23          5.7 
       698.0         0.23          5.2 
       699.0         0.23          5.4 
       700.0         0.23          5.2 
       701.0         0.23          4.9 
       702.0         0.27          5.5 
       703.0         0.20          5.3 
       704.0         0.20          5.2 
       705.0         0.25          4.5 
       706.0         0.20          4.7 
       707.0         0.20          4.7 
       708.0         0.23          4.7 
       709.0         0.27          5.1 
       710.0         0.20          4.5 
       711.0         0.20          4.5 
       712.0         0.20          4.9 
       713.0         0.20          4.5 
       714.0         0.20          5.1 
       715.0         0.20          4.7 
       716.0         1.35          5.2 
       717.0         0.40          4.5 
       718.0         0.20          4.6 
       719.0         0.33          4.9 
       720.0         0.27          4.7 
       721.0         0.23          4.7 
       722.0         0.20          4.5 
       723.0         0.23          4.8 
       724.0         0.23          5.0 
       725.0         0.27          4.5 
       726.0         0.20          4.5 
       727.0         0.17          4.5 
       728.0         0.20          4.9 
       729.0         0.22          4.7 
       730.0         0.20          4.7 
       731.0         0.20          4.9 
       732.0         0.20          4.7 
       733.0         0.17          4.7 
       734.0         0.17          4.8 
       735.0         0.20          5.1 
       736.0         0.20          4.8 
       737.0         0.30          5.4 
       738.0         0.27          5.2 
       739.0         0.27          5.6 
       740.0         0.20          5.5 
       741.0         0.20          5.7 
       742.0         0.23          5.5 
       743.0         0.23          5.9 
       744.0         0.23          5.2 
       745.0         0.22          5.5 
       746.0         2.50          6.7 
       747.0         0.37          5.2 
       748.0         0.35          5.2 
       749.0         0.33          5.2 
       750.0         0.23          5.1 
       751.0         0.23          5.3 
       752.0         0.20          5.1 
       753.0         0.23          5.5 
       754.0         0.23          4.6 
       755.0         0.27          5.3 
       756.0         0.33          5.1 
       757.0         0.27          5.0 
       758.0         0.30          5.4 
       759.0         0.27          5.4 
       760.0         0.20          4.9 
       761.0         0.25          5.2 
       762.0         0.33          4.9 
       763.0         0.23          4.8 
       764.0         0.23          5.0 
       765.0         0.23          4.7 
       766.0         0.20          5.2 
       767.0         0.30          6.0 
       768.0         0.30         45.6 
       769.0         0.20        113.9 
       770.0         0.33        160.6 
       771.0         0.23        181.6 
       772.0         0.17        184.8 
       773.0         0.17        184.8 
       774.0         0.17        187.6 
       775.0         0.18        190.4 
       776.0         1.67        901.5 
       777.0         0.33        653.1 
       778.0         0.27        618.9 
       779.0         0.27        555.7 
       780.0         0.30        477.8 
       781.0         0.23        463.3 
       782.0         0.25        448.1 
       783.0         0.30        444.2 
       784.0         0.17        444.2 
       785.0         0.17        440.7 
       786.0         0.13        440.0 
       787.0         0.20        176.0 
       788.0         0.23        169.8 
       789.0         0.27        168.2 
       790.0         0.23        166.8 
       791.0         0.27        165.9 
       792.0         0.27        164.6 
       793.0         0.23        160.7 
       794.0         0.17        158.1 
       795.0         0.17        158.1 
       796.0         0.17        157.2 
       797.0         0.20        152.3 
       798.0         0.28        146.8 
       799.0         0.23        140.7 
       800.0         0.20        128.5 
       801.0         0.17        125.8 
       802.0         0.17        115.8 
       803.0         0.20        112.3 
       804.0         0.20        104.6 
       805.0         0.37        102.7 
       806.0         1.27        307.2 
       807.0         0.52        370.1 
