~Version Information
VERS.                      2.0: CWLS Log ASCII Standard - VERSION 2.0
WRAP.                       NO: One line per depth step
~Well Information Block
STRT.FT               521.0000: 
STOP.FT              2732.5000: 
STEP.FT                 0.2500: 
NULL.                -999.2500: 
COMP.          Petrogulf Corporation: COMPANY
WELL.              Silva 6-22V: WELL
FLD.           Purgatorie River: FIELD
LOC.           1936' FNL & 1798' FWL: LOCATION
CNTY.               Las Animas: COUNTY
SRVC.                         : SERVICE COMPANY
DATE.          Tue Nov 09 08:09:38 2004: LOG DATE
UWI.           05 071 08143 00: UNIQUE WELL ID
STAT.                 Colorado: STATE
~Curve Information Block
DEPT.FT            0 000 00 00: Depth
SP.mV                         : DIL Spontaneous Potential
RILD.Ohm-m                    : DIL Deep Resistivity
RILM.Ohm-m                    : DIL Medium Resistivity
RLL3.Ohm-m                    : DIL Shallow Resistivity
GR.GAPI                       : Gamma Ray
~Parameter Information Block
~A  Depth        SP         RILD        RILM        RLL3         GR     
# ...
  2565.0000      9.6658     15.7021     16.0514     18.0106     53.2699
  2565.2500     10.1847     15.7504     16.0454     18.2644     53.4752
  2565.5000     10.5173     15.8217     16.0945     18.5643     54.8293
  2565.7500     10.7012     15.9115     16.2046     18.9129     56.2133
  2566.0000     10.7883     16.0177     16.3803     19.3160     57.9849
  2566.2500     10.8144     16.1406     16.6234     19.7735     58.3123
  2566.5000     10.7818     16.2824     16.9323     20.2726     57.0323
  2566.7500     10.6492     16.4457     17.3016     20.7855     55.2475
  2567.0000     10.3594     16.6329     17.7217     21.2781     52.3865
  2567.2500      9.8711     16.8438     18.1788     21.7232     51.2672
  2567.5000      9.1970     17.0755     18.6549     22.1114     51.8560
  2567.7500      8.4297     17.3216     19.1281     22.4508     53.7001
  2568.0000      7.7393     17.5716     19.5740     22.7559     57.3183
  2568.2500      7.3420     17.8121     19.9676     23.0311     59.2432
  2568.5000      7.4405     18.0287     20.2862     23.2600     60.1955
  2568.7500      8.1538     18.2073     20.5128     23.4074     59.5623
  2569.0000      9.4676     18.3379     20.6399     23.4360     57.8302
  2569.2500     11.2155     18.4156     20.6708     23.3257     56.9725
  2569.5000     13.1077     18.4423     20.6192     23.0877     56.8789
  2569.7500     14.8000     18.4255     20.5061     22.7636     57.4283
  2570.0000     15.9881     18.3762     20.3552     22.4109     58.0474
  2570.2500     16.4895     18.3064     20.1886     22.0833     57.6446
  2570.5000     16.2937     18.2275     20.0246     21.8141     55.5088
  2570.7500     15.5570     18.1483     19.8751     21.6112     53.5043
  2571.0000     14.5565     18.0747     19.7473     21.4629     50.7972
  2571.2500     13.6117     18.0110     19.6432     21.3490     49.6550
  2571.5000     13.0013     17.9601     19.5617     21.2532     49.0459
  2571.7500     12.9022     17.9246     19.4994     21.1700     49.1776
  2572.0000     13.3596     17.9070     19.4521     21.1071     49.7651
  2572.2500     14.2905     17.9087     19.4147     21.0822     50.2567
  2572.5000     15.5249     17.9303     19.3822     21.1178     51.0667
  2572.7500     16.8454     17.9696     19.3498     21.2339     51.6706
  2573.0000     18.0423     18.0225     19.3136     21.4409     52.7222
  2573.2500     18.9500     18.0824     19.2716     21.7331     53.5562
  2573.5000     19.4736     18.1416     19.2245     22.0869     54.9482
  2573.7500     19.5981     18.1928     19.1756     22.4640     55.7785
  2574.0000     19.3788     18.2305     19.1316     22.8221     56.4114
  2574.2500     18.9258     18.2514     19.1011     23.1284     56.2796
  2574.5000     18.3719     18.2552     19.0940     23.3715     55.4328
  2574.7500     17.8428     18.2441     19.1193     23.5677     54.7490
  2575.0000     17.4353     18.2227     19.1846     23.7553     54.1472
  2575.2500     17.1958     18.1975     19.2938     23.9821     54.2178
  2575.5000     17.1209     18.1775     19.4478     24.2873     54.8938
  2575.7500     17.1693     18.1742     19.6435     24.6876     55.4315
  2576.0000     17.2828     18.2018     19.8745     25.1711     55.7258
  2576.2500     17.4191     18.2752     20.1327     25.7020     55.2621
  2576.5000     17.5647     18.4097     20.4096     26.2335     53.4557
  2576.7500     17.7481     18.6174     20.6982     26.7242     51.7912
  2577.0000     18.0270     18.9053     20.9954     27.1524     49.4850
  2577.2500     18.4583     19.2732     21.3028     27.5233     48.5481
  2577.5000     19.0688     19.7125     21.6270     27.8692     48.3590
  2577.7500     19.8370     20.2056     21.9785     28.2389     48.8942
  2578.0000     20.6925     20.7280     22.3698     28.6822     50.1340
  2578.2500     21.5352     21.2523     22.8127     29.2319     50.9460
  2578.5000     22.2726     21.7523     23.3153     29.8914     51.8274
  2578.7500     22.8412     22.2085     23.8809     30.6314     52.1748
  2579.0000     23.2263     22.6114     24.5054     31.3991     52.5582
  2579.2500     23.4481     22.9615     25.1782     32.1375     52.8115
  2579.5000     23.5428     23.2680     25.8812     32.8088     52.9519
  2579.7500     23.5379     23.5438     26.5903     33.4123     52.6463
  2580.0000     23.4330     23.8026     27.2787     33.9908     51.5421
  2580.2500     23.1957     24.0555     27.9193     34.6206     50.5843
  2580.5000     22.7783     24.3103     28.4913     35.3921     49.1297
  2580.7500     22.1365     24.5705     28.9839     36.3859     48.2068
  2581.0000     21.2607     24.8354     29.4004     37.6511     47.0296
  2581.2500     20.1897     25.0994     29.7589     39.1990     46.5011
  2581.5000     19.0106     25.3505     30.0887     41.0084     46.0037
  2581.7500     17.8386     25.5679     30.4238     43.0441     45.6060
  2582.0000     16.7810     25.7221     30.7919     45.2896     44.5524
  2582.2500     15.9036     25.7767     31.2043     47.7830     43.5327
  2582.5000     15.2064     25.6943     31.6446     50.6435     41.5827
  2582.7500     14.6322     25.4447     32.0592     54.0664     40.0256
  2583.0000     14.0988     25.0141     32.3549     58.2639     37.6656
  2583.2500     13.5391     24.4092     32.4057     63.3443     36.4989
  2583.5000     12.9410     23.6571     32.0775     69.1605     35.8596
  2583.7500     12.3606     22.7976     31.2692     75.1906     36.0903
  2584.0000     11.9039     21.8742     29.9547     80.5328     36.9025
  2584.2500     11.6787     20.9252     28.2033     84.0608     37.5350
  2584.5000     11.7418     19.9800     26.1625     84.7199     38.6427
  2584.7500     12.0725     19.0572     24.0118     81.8677     39.7481
  2585.0000     12.5595     18.1674     21.9133     75.5199     42.8605
  2585.2500     13.0378     17.3158     19.9841     66.3935     46.5796
  2585.5000     13.3501     16.5050     18.2893     55.7219     55.2042
  2585.7500     13.4054     15.7374     16.8518     44.9157     62.4620
  2586.0000     13.2193     15.0163     15.6655     35.2054     73.3270
  2586.2500     12.9144     14.3455     14.7081     27.3921     79.1624
  2586.5000     12.6851     13.7294     13.9493     21.7704     84.5331
  2586.7500     12.7375     13.1722     13.3562     18.2069     85.6898
  2587.0000     13.2236     12.6769     12.8961     16.3060     83.7914
  2587.2500     14.2016     12.2454     12.5373     15.5808     80.3352
  2587.5000     15.6267     11.8774     12.2508     15.5776     73.1517
  2587.7500     17.3681     11.5713     12.0107     15.9362     68.1160
  2588.0000     19.2538     11.3240     11.7950     16.4011     61.6309
  2588.2500     21.1141     11.1313     11.5873     16.8059     58.3627
  2588.5000     22.8140     10.9886     11.3767     17.0497     55.1504
  2588.7500     24.2570     10.8909     11.1588     17.0795     54.2161
  2589.0000     25.3841     10.8329     10.9347     16.8799     55.0439
  2589.2500     26.1474     10.8090     10.7104     16.4651     57.4161
  2589.5000     26.4970     10.8132     10.4951     15.8763     63.8855
  2589.7500     26.3748     10.8388     10.2991     15.1782     69.6533
  2590.0000     25.7278     10.8786     10.1330     14.4515     78.5449
  2590.2500     24.5275     10.9255     10.0061     13.7821     83.3457
  2590.5000     22.8004     10.9734      9.9262     13.2481     87.8120
  2590.7500     20.6455     11.0185      9.8991     12.9054     89.3716
  2591.0000     18.2303     11.0595      9.9292     12.7784     91.1425
  2591.2500     15.7683     11.0984     10.0196     12.8583     92.5835
  2591.5000     13.4849     11.1395     10.1723     13.1129     95.2905
  2591.7500     11.5721     11.1883     10.3887     13.5022     97.2232
  2592.0000     10.1563     11.2503     10.6690     13.9971     99.5999
  2592.2500      9.2851     11.3297     11.0121     14.5897    100.2551
  2592.5000      8.9385     11.4289     11.4143     15.2921     99.0222
  2592.7500      9.0505     11.5482     11.8683     16.1206     96.6844
