~Version Information
VERS.                      2.0: CWLS Log ASCII Standard - VERSION 2.0
WRAP.                       NO: One line per depth step
~Well Information Block
STRT.FT               430.0000: 
STOP.FT              1910.2000: 
STEP.FT                 0.1000: 
NULL.                -999.2500: 
COMP.          Pioneer Natural Resources: COMPANY
WELL.          Formula 23-11 Tr: WELL
FLD.           Purgatoire River: FIELD
LOC.           1976' FSL & 1935' FWL--: LOCATION
PROV.                 Colorado: PROVINCE
CNTY.               Las Animas: COUNTRY
SRVC.                Patterson: SERVICE COMPANY
DATE.          Mon Jun 13 07:32:15 2005: LOG DATE
UWI.           05 071 08399 00: UNIQUE WELL ID
~Curve Information Block
DEPT.FT            0 000 00 00: Depth
DCAL.in                       : CDL Caliper
RHOB.g/cc                     : CDL Bulk Density
RHOC.g/cc                     : CDL Density Correction
DPOR.pu                       : CDL Density Porosity
NPOR.pu                       : Neutron Porosity
GR.GAPI                       : Gamma Ray
~Parameter Information Block
~A  Depth       DCAL        RHOB        RHOC        DPOR        NPOR         GR     
# ...
   526.0000      8.1348      2.3569      0.0190     17.7638     12.8846     53.1506
   526.1000      8.1348      2.3623      0.0219     17.4368     12.4372     56.3077
   526.2000      8.1348      2.3686      0.0387     17.0534     12.3127     56.0664
   526.3000      8.1351      2.3715      0.0403     16.8815     12.4762     54.3245
   526.4000      8.1351      2.3754      0.0418     16.6442     12.6612     54.8622
   526.5000      8.1357      2.3826      0.0537     16.2089     12.7923     57.6091
   526.6000      8.1357      2.3867      0.0425     15.9571     12.8326     59.4475
   526.7000      8.1357      2.3853      0.0357     16.0438     12.6664     59.3919
   526.8000      8.1353      2.3835      0.0432     16.1532     12.3898     58.7120
   526.9000      8.1353      2.3829      0.0687     16.1902     12.1784     57.1593
   527.0000      8.1341      2.3808      0.0451     16.3152     12.1305     54.4889
   527.1000      8.1341      2.3810      0.0494     16.3043     12.2472     52.4179
   527.2000      8.1341      2.3868      0.0634     15.9517     12.3235     52.7032
   527.3000      8.1324      2.3940      0.0754     15.5155     12.3761     54.2096
   527.4000      8.1324      2.3944      0.1009     15.4884     12.4945     55.2823
   527.5000      8.1312      2.3865      0.0618     15.9695     12.4391     56.3105
   527.6000      8.1312      2.3812      0.0400     16.2907     12.2838     57.0309
   527.7000      8.1312      2.3837      0.0611     16.1416     12.3608     56.8872
   527.8000      8.1327      2.3891      0.0340     15.8099     12.4627     57.0727
   527.9000      8.1327      2.3927      0.0711     15.5960     12.4983     58.1749
   528.0000      8.1351      2.3846      0.0693     16.0875     12.7382     60.2490
   528.1000      8.1351      2.3613      0.0593     17.4990     12.8596     63.1807
   528.2000      8.1351      2.3332      0.0331     19.1984     12.6144     63.5420
   528.3000      8.1342      2.3158     -0.0211     20.2521     12.4241     60.0320
   528.4000      8.1342      2.3147      0.0345     20.3237     12.3465     55.9376
   528.5000      8.1324      2.3258      0.0134     19.6469     12.0916     51.9438
   528.6000      8.1324      2.3447      0.0600     18.5007     11.7622     48.6013
   528.7000      8.1324      2.3531      0.0744     17.9957     11.6807     48.8414
   528.8000      8.1333      2.3365      0.0604     18.9986     11.8854     52.1750
   528.9000      8.1333      2.3160     -0.0041     20.2454     12.0477     55.1827
   529.0000      8.1344      2.3151      0.0553     20.2977     11.9489     56.2167
   529.1000      8.1344      2.3284      0.0326     19.4924     11.7857     56.2456
   529.2000      8.1344      2.3460      0.0399     18.4222     11.8049     55.1276
   529.3000      8.1358      2.3632      0.0644     17.3830     11.8739     53.4762
   529.4000      8.1358      2.3782      0.0448     16.4707     11.7203     54.3642
   529.5000      8.1358      2.3944      0.0742     15.4904     11.5506     58.0407
   529.6000      8.1358      2.4074      0.0728     14.7058     11.7582     60.4693
   529.7000      8.1358      2.4104      0.0669     14.5208     12.3995     59.5319
   529.8000      8.1337      2.4012      0.0814     15.0778     13.3049     56.5012
   529.9000      8.1337      2.3828      0.0618     16.1919     14.0708     53.3026
   530.0000      8.1311      2.3681      0.0720     17.0865     14.4372     53.0221
   530.1000      8.1311      2.3682      0.0570     17.0795     14.7732     55.2625
   530.2000      8.1311      2.3844      0.0511     16.0967     15.3628     56.9681
   530.3000      8.1308      2.4087      0.0779     14.6247     16.0786     59.3580
   530.4000      8.1308      2.4298      0.0588     13.3464     17.0153     63.1255
   530.5000      8.1331      2.4455      0.0762     12.3922     18.5740     64.8898
   530.6000      8.1331      2.4653      0.0317     11.1917     20.7361     64.8124
   530.7000      8.1331      2.4939      0.0886      9.4619     22.9268     67.5520
   530.8000      8.1350      2.5198      0.0701      7.8915     24.8565     74.6488
   530.9000      8.1350      2.5296      0.1220      7.2996     26.6745     83.6337
   531.0000      8.1343      2.5273      0.0411      7.4336     28.4450     91.9811
   531.1000      8.1343      2.5359      0.0476      6.9135     29.8914    100.2807
   531.2000      8.1343      2.5589      0.0455      5.5196     30.6634    109.4641
   531.3000      8.1316      2.5744      0.0594      4.5794     30.9751    116.8486
   531.4000      8.1316      2.5727      0.0131      4.6875     31.2091    118.4717
   531.5000      8.1312      2.5649      0.0106      5.1550     31.0790    116.7899
   531.6000      8.1312      2.5586      0.0360      5.5376     30.5475    118.2949
   531.7000      8.1312      2.5538      0.0275      5.8282     30.0416    122.7943
   531.8000      8.1332      2.5532      0.0707      5.8655     29.5787    126.2724
   531.9000      8.1332      2.5555      0.0038      5.7271     29.2559    128.1142
   532.0000      8.1339      2.5566      0.0532      5.6614     29.3246    130.2721
   532.1000      8.1339      2.5505      0.0531      6.0300     29.6725    134.6029
   532.2000      8.1339      2.5410      0.0393      6.6045     29.9818    139.8748
   532.3000      8.1332      2.5401      0.0526      6.6595     29.9871    138.7558
   532.4000      8.1332      2.5521      0.0680      5.9346     29.6284    128.7687
   532.5000      8.1333      2.5654      0.1043      5.1280     29.2258    122.3059
   532.6000      8.1333      2.5632      0.0781      5.2626     29.4291    128.0410
   532.7000      8.1333      2.5468      0.0837      6.2542     30.2607    137.1401
   532.8000      8.1346      2.5334      0.0540      7.0679     30.9222    141.4291
   532.9000      8.1346      2.5343      0.0689      7.0112     31.1067    142.3564
   533.0000      8.1372      2.5366      0.0922      6.8699     31.0074    141.6163
   533.1000      8.1372      2.5247      0.0660      7.5934     30.7112    139.8090
   533.2000      8.1372      2.5131      0.0603      8.2985     30.2386    138.3074
   533.3000      8.1396      2.5170      0.0771      8.0623     29.7073    138.3426
   533.4000      8.1396      2.5254      0.0853      7.5491     29.2945    140.3880
   533.5000      8.1414      2.5256      0.0954      7.5382     28.8212    140.0189
   533.6000      8.1414      2.5172      0.0852      8.0498     28.0983    137.8037
   533.7000      8.1414      2.5010      0.0629      9.0321     27.5692    139.9434
   533.8000      8.1410      2.4767      0.0464     10.5010     27.7092    142.7838
   533.9000      8.1410      2.4514      0.0500     12.0353     28.0587    142.1397
   534.0000      8.1382      2.4417      0.0110     12.6259     27.8019    141.2821
   534.1000      8.1382      2.4586      0.0445     11.6029     26.9510    144.0071
   534.2000      8.1382      2.4861      0.0938      9.9304     26.3077    148.8946
   534.3000      8.1366      2.4994      0.1087      9.1279     26.4952    151.1025
   534.4000      8.1366      2.4961      0.0686      9.3299     27.1253    148.3834
   534.5000      8.1376      2.4891      0.0658      9.7492     27.2766    141.8839
   534.6000      8.1376      2.4825      0.1010     10.1518     26.8834    135.4263
   534.7000      8.1376      2.4793      0.0581     10.3445     26.7181    133.1492
   534.8000      8.1382      2.4949      0.0441      9.4018     27.0724    135.6672
   534.9000      8.1382      2.5241      0.1211      7.6314     27.3706    142.0831
   535.0000      8.1360      2.5374      0.1540      6.8227     27.0465    149.1880
   535.1000      8.1360      2.5213      0.0987      7.8015     26.3763    150.1361
   535.2000      8.1360      2.4822      0.1051     10.1700     25.7613    142.1880
   535.3000      8.1352      2.4382      0.0154     12.8371     25.2537    129.4077
   535.4000      8.1352      2.4172      0.0006     14.1071     25.1685    118.3963
   535.5000      8.1413      2.4279      0.0641     13.4617     25.5945    114.0077
