~Version Information
VERS.                      2.0: CWLS Log ASCII Standard - VERSION 2.0
WRAP.                       NO: One line per depth step
~Well Information Block
STRT.FT               491.0000: 
STOP.FT              1056.0000: 
STEP.FT                 0.2500: 
NULL.                -999.2500: 
COMP.          Evergreen Operating Corporation: COMPANY
WELL.              Sunset 24-3: WELL
FLD.           Purgatorie River: FIELD
LOC.           467' FSL & 2262' FWL: LOCATION
PROV.                 Colorado: PROVINCE
CNTY.               Las Animas: COUNTRY
SRVC.                         : SERVICE COMPANY
DATE.          Wed Sep 22 11:23:45 2004: LOG DATE
UWI.           05 071 08158 00: UNIQUE WELL ID
~Curve Information Block
DEPT.FT            0 000 00 00: Depth
SN.Ohm-m                      : IEL Short Normal
SP.mV                         : IEL Spontaneous Potential
DIR.Ohm-m                     : IEL Induction Resistivity
GR.GAPI                       : Gamma Ray
~Parameter Information Block
~A  Depth        SN          SP         DIR          GR     
   491.0000   2000.0000   2000.0000     95.5020     92.7832
   491.2500   2000.0000   2000.0000     86.9042     94.1032
   491.5000   2000.0000   2000.0000     79.0310     95.7150
   491.7500   2000.0000   2000.0000     72.9400     95.6900
   492.0000   2000.0000   2000.0000     69.5928     94.2345
   492.2500   2000.0000   2000.0000     69.7175     93.3289
   492.5000   2000.0000   2000.0000     73.9993     93.4998
   492.7500   2000.0000   2000.0000     83.2726     94.5527
   493.0000   2000.0000   2000.0000     98.3579     96.2714
   493.2500   2000.0000   2000.0000    118.9143     97.0448
   493.5000   2000.0000   2000.0000    140.7242     98.1817
   493.7500   2000.0000   2000.0000    154.5518     99.4738
   494.0000   2000.0000   2000.0000    154.3225    102.1937
   494.2500   2000.0000   2000.0000    145.3645    104.0330
   494.5000   2000.0000   2000.0000    136.6976    106.3326
   494.7500   2000.0000   2000.0000    132.2189    107.6869
   495.0000   2000.0000   2000.0000    130.6491    109.6256
   495.2500   2000.0000   2000.0000    128.5093    110.6695
   495.5000   2000.0000   2000.0000    123.6612    111.6802
   495.7500   2000.0000   2000.0000    116.8682    112.3845
   496.0000   2000.0000   2000.0000    109.7156    114.5812
   496.2500   2000.0000   2000.0000    102.5866    116.9537
   496.5000   2000.0000   2000.0000     95.0436    120.7350
   496.7500   2000.0000   2000.0000     87.1442    122.3991
   497.0000   2000.0000   2000.0000     79.7103    122.6651
   497.2500   2000.0000   2000.0000     73.5924    121.5876
   497.5000   2000.0000   2000.0000     69.0529    119.2034
   497.7500   2000.0000   2000.0000     65.7470    117.4069
   498.0000   2000.0000   2000.0000     63.1379    113.7267
   498.2500   2000.0000   2000.0000     61.0226    110.0463
   498.5000   2000.0000   2000.0000     59.8264    102.6208
   498.7500   2000.0000   2000.0000     60.4087     96.9337
   499.0000   2000.0000   2000.0000     63.6576     88.6688
   499.2500   2000.0000   2000.0000     70.1605     84.3314
   499.5000   2000.0000   2000.0000     79.7544     81.5146
   499.7500   2000.0000   2000.0000     90.7420     82.8304
   500.0000   2000.0000   2000.0000     99.6556     88.8536
   500.2500   2000.0000   2000.0000    103.3340     93.8674
   500.5000   2000.0000   2000.0000    101.7673     99.2345
   500.7500   2000.0000   2000.0000     97.5257     99.9027
   501.0000   2000.0000   2000.0000     93.0523     96.2210
   501.2500   2000.0000   2000.0000     89.4952     86.1849
   501.5000   2000.0000   2000.0000     87.0698     78.5811
   501.7500   2000.0000   2000.0000     85.6393     73.6671
   502.0000   2000.0000   2000.0000     85.0755     66.9870
   502.2500   2000.0000   2000.0000     85.4586     62.9915
   502.5000   2000.0000   2000.0000     87.0736     57.8822
   502.7500   2000.0000   2000.0000     90.1187     55.2819
   503.0000   2000.0000   2000.0000     94.1440     52.7097
   503.2500   2000.0000   2000.0000     97.4653     48.4938
   503.5000   2000.0000   2000.0000     97.4621     47.7986
   503.7500   2000.0000   2000.0000     92.4262     47.6232
   504.0000   2000.0000   2000.0000     83.3865     47.4199
   504.2500   2000.0000   2000.0000     73.4116     47.0532
   504.5000   2000.0000   2000.0000     65.5527     46.0070
   504.7500   2000.0000   2000.0000     62.0500     45.2243
   505.0000   2000.0000   2000.0000     65.2596     44.5554
   505.2500   2000.0000   2000.0000     80.5692     41.6291
   505.5000   2000.0000   2000.0000    127.2284     42.1963
   505.7500   2000.0000   2000.0000    321.7342     42.7373
   506.0000   2000.0000   2000.0000 100000.0000     43.6702
   506.2500   2000.0000   2000.0000 100000.0000     44.3654
   506.5000   2000.0000   2000.0000   1163.5355     45.3733
   506.7500   2000.0000   2000.0000    262.3726     45.8474
   507.0000   2000.0000   2000.0000    153.3007     46.0850
   507.2500   2000.0000   2000.0000    127.6601     45.9839
   507.5000   2000.0000   2000.0000    138.0148     45.6158
   507.7500   2000.0000   2000.0000    207.3024     45.2986
   508.0000   2000.0000   2000.0000    992.9434     45.0201
   508.2500   2000.0000   2000.0000 100000.0000     45.2836
   508.5000   2000.0000   2000.0000 100000.0000     46.6032
   508.7500   2000.0000   2000.0000 100000.0000     47.7663
   509.0000   2000.0000   2000.0000 100000.0000     48.8038
   509.2500   2000.0000   2000.0000    201.8659     48.5697
   509.5000   2000.0000   2000.0000     63.0710     47.1164
   509.7500   2000.0000   2000.0000     41.9995     46.1079
   510.0000   2000.0000   2000.0000     43.5374     45.7885
   510.2500   2000.0000   2000.0000    103.6021     46.6826
   510.5000   2000.0000   2000.0000 100000.0000     49.3151
   510.7500   2000.0000   2000.0000 100000.0000     51.4589
   511.0000   2000.0000   2000.0000 100000.0000     54.5913
   511.2500   2000.0000   2000.0000 100000.0000     56.4123
   511.5000   2000.0000   2000.0000 100000.0000     58.4672
   511.7500   2000.0000   2000.0000 100000.0000     59.2012
   512.0000   2000.0000   2000.0000     70.2134     59.2093
   512.2500   2000.0000   2000.0000      9.0267     58.6978
   512.5000   2000.0000   2000.0000      5.1092     57.8567
   512.7500   2000.0000   2000.0000      4.1835     57.5181
   513.0000   2000.0000   2000.0000      4.2869     57.2652
   513.2500   2000.0000   2000.0000      5.2009     57.0576
   513.5000   2000.0000   2000.0000      7.3448     56.4844
   513.7500   2000.0000   2000.0000     12.6431     56.0062
   514.0000   2000.0000   2000.0000     35.6849     55.5412
   514.2500   2000.0000   2000.0000 100000.0000     55.6003
   514.5000   2000.0000   2000.0000 100000.0000     56.1626
   514.7500   2000.0000   2000.0000 100000.0000     56.5781
   515.0000   2000.0000   2000.0000 100000.0000     56.9428
   515.2500   2000.0000   2000.0000 100000.0000     57.1164
   515.5000   2000.0000   2000.0000 100000.0000     57.6818
   515.7500   2000.0000   2000.0000    102.9494     58.3610
   516.0000   2000.0000   2000.0000     45.4085     59.5860
   516.2500   2000.0000   2000.0000     35.6005     60.2278
   516.5000   2000.0000   2000.0000     33.2541     60.3138
   516.7500   2000.0000   2000.0000     33.1692     59.5384
   517.0000   2000.0000   2000.0000     33.6649     57.2261
   517.2500   2000.0000   2000.0000     33.9021     55.3603
   517.5000   2000.0000   2000.0000     33.4521     53.1917
   517.7500   2000.0000   2000.0000     32.4009     52.6588
   518.0000   2000.0000   2000.0000     31.2445     53.3440
   518.2500   2000.0000   2000.0000     30.4336     54.6054
   518.5000   2000.0000   2000.0000     29.9399     57.6950
   518.7500   2000.0000   2000.0000     29.1942     60.8746
   519.0000   2000.0000   2000.0000     27.5405     68.0788
   519.2500   2000.0000   2000.0000     24.9540     74.8518
   519.5000   2000.0000   2000.0000     22.0794     88.1353
   519.7500   2000.0000   2000.0000     19.5495     98.7475
   520.0000   2000.0000   2000.0000     17.6097    115.6933
   520.2500   2000.0000   2000.0000     16.2322    126.2552
   520.5000   2000.0000   2000.0000     15.3076    138.6691
   520.7500   2000.0000   2000.0000     14.7343    143.9297
   521.0000   2000.0000   2000.0000     14.4237    147.3395
   521.2500   2000.0000   2000.0000     14.2866    146.9982
   521.5000     18.2894   2000.0000     14.2470    142.9574
   521.7500     18.3501   2000.0000     14.2807    138.0179
   522.0000     18.6559   2000.0000     14.4312    128.0035
   522.2500     19.1109   2000.0000     14.7695    120.6319
   522.5000     19.6697    -83.9100     15.3288    110.6402
   522.7500     20.3552    -83.2788     16.0681    105.4851
   523.0000     21.2227    -82.6229     16.9000    100.4588
   523.2500     22.3005    -81.7852     17.7677     99.0134
   523.5000     23.5535    -80.7083     18.7006     99.8512
   523.7500     24.8927    -79.4461     19.7834    102.1630
   524.0000     26.2149    -78.1484     21.0789    106.9816
   524.2500     27.4423    -76.9953     22.5880    110.0725
