~Version Information
VERS.                      2.0: CWLS Log ASCII Standard - VERSION 2.0
WRAP.                       NO: One line per depth step
~Well Information Block
STRT.FT               743.8000: 
STOP.FT              1975.8000: 
STEP.FT                 0.1000: 
NULL.                -999.2500: 
COMP.          Petrogulf Corporation: COMPANY
WELL.            Montoya 6-14V: WELL
FLD.           Purgatorie River: FIELD
LOC.           318' FSL & 882' FWL: LOCATION
CNTY.               Las Animas: COUNTY
SRVC.                         : SERVICE COMPANY
DATE.          Sat Aug 14 09:19:43 2004: LOG DATE
UWI.           05 071 08020 00: UNIQUE WELL ID
STAT.                 Colorado: STATE
~Curve Information Block
DEPT.FT            0 000 00 00: Depth
DCAL.in                       : CDL Caliper
RHOB.g/cc                     : CDL Bulk Density
RHOC.g/cc                     : CDL Density Correction
DPOR.pu                       : CDL Density Porosity
GR.GAPI                       : Gamma Ray
NPOR.pu                       : Neutron Porosity
~Parameter Information Block
~A  Depth       DCAL        RHOB        RHOC        DPOR         GR         NPOR    
# ...
   897.4000      8.2532      2.6578      0.0185     -0.4706    127.3405     27.0605
   897.5000      8.2647      2.6651      0.0096     -0.9140    122.6715     26.9187
   897.6000      8.2647      2.6736     -0.0077     -1.4285    117.1036     26.6416
   897.7000      8.2647      2.6913      0.0114     -2.5036    116.6745     26.1573
   897.8000      8.2798      2.7081     -0.0089     -3.5233    120.4774     25.7291
   897.9000      8.2798      2.7058      0.0021     -3.3797    121.4719     25.6818
   898.0000      8.2594      2.6709     -0.0265     -1.2667    120.7645     25.8745
   898.1000      8.2594      2.6196     -0.0841      1.8442    123.8561     25.8217
   898.2000      8.2594      2.5859     -0.0843      3.8872    129.2272     25.1437
   898.3000      8.2596      2.5771     -0.0872      4.4203    134.5623     23.8984
   898.4000      8.2596      2.5733     -0.0383      4.6488    141.6991     22.4249
   898.5000      8.2579      2.5590     -0.0541      5.5166    149.8215     20.9219
   898.6000      8.2579      2.5399     -0.0307      6.6707    154.3237     19.5009
   898.7000      8.2579      2.5373     -0.0500      6.8322    152.0366     18.5555
   898.8000      8.2871      2.5574      0.0364      5.6093    143.2148     18.3378
   898.9000      8.2871      2.5746      0.0517      4.5708    132.3510     19.2240
   899.0000      8.3067      2.5642      0.0652      5.1998    127.7517     21.9343
   899.1000      8.3067      2.5384     -0.0075      6.7659    132.3557     26.7413
   899.2000      8.3067      2.5256     -0.0167      7.5391    140.7862     33.1843
   899.3000      8.3033      2.5275      0.0074      7.4241    147.1212     39.7991
   899.4000      8.3033      2.5298     -0.0434      7.2845    148.2110      2.8227
   899.5000      8.2984      2.5336     -0.0187      7.0533    146.2607      5.2078
   899.6000      8.2984      2.5404      0.0254      6.6454    144.6909      8.5812
   899.7000      8.2984      2.5419      0.0433      6.5500    144.7117     12.7138
   899.8000      8.2988      2.5370      0.0234      6.8491    147.1490     17.0321
   899.9000      8.2988      2.5281      0.0583      7.3861    150.3953     20.6319
   900.0000      8.3364      2.5156      0.0138      8.1478    152.1195     22.5953
   900.1000      8.3364      2.5056      0.0244      8.7512    151.8136     23.4457
   900.2000      8.3364      2.5041      0.0072      8.8416    149.6560     24.7562
   900.3000      8.3733      2.5098      0.0109      8.4968    146.7392     26.2571
   900.4000      8.3733      2.5192     -0.0165      7.9277    144.9809     26.9502
   900.5000      8.3678      2.5260     -0.0082      7.5134    144.5555     27.1259
   900.6000      8.3678      2.5208     -0.0414      7.8276    143.8197     27.2194
   900.7000      8.3678      2.5110     -0.0713      8.4254    140.7470     27.2414
   900.8000      8.3352      2.5166     -0.0502      8.0826    135.9130     27.0008
   900.9000      8.3352      2.5338      0.0170      7.0443    133.8393     26.2117
   901.0000      8.3236      2.5379      0.0194      6.7929    136.4227     25.3860
   901.1000      8.3236      2.5280     -0.0327      7.3970    138.1020     25.5128
   901.2000      8.3236      2.5254     -0.0210      7.5491    133.4873     26.5606
   901.3000      8.3285      2.5358     -0.0062      6.9203    127.8272     27.4723
   901.4000      8.3285      2.5486      0.0085      6.1484    127.0510     27.5538
   901.5000      8.3200      2.5583      0.0224      5.5561    129.6297     26.8416
   901.6000      8.3200      2.5623      0.0667      5.3156    134.5344     25.8514
   901.7000      8.3200      2.5538      0.0474      5.8303    142.0572     25.6342
   901.8000      8.3197      2.5346      0.0048      6.9949    151.3340     26.3342
   901.9000      8.3197      2.5129      0.0092      8.3061    157.5831     26.7265
   902.0000      8.3017      2.4957     -0.0036      9.3503    157.0273     26.4908
   902.1000      8.3017      2.4851     -0.0435      9.9931    152.3699     26.2088
   902.2000      8.3017      2.4775     -0.0218     10.4557    146.7186     25.9561
   902.3000      8.3069      2.4726     -0.0197     10.7528    143.2170     25.7921
   902.4000      8.3069      2.4743     -0.0113     10.6475    145.8531     25.9438
   902.5000      8.3231      2.4784     -0.0066     10.4018    152.8805     26.4101
   902.6000      8.3231      2.4736      0.0305     10.6932    156.1026     26.7623
   902.7000      8.3231      2.4608     -0.0496     11.4680    152.7392     26.9440
   902.8000      8.2957      2.4436      0.0102     12.5071    148.3242     27.2422
   902.9000      8.2957      2.4097      0.0147     14.5625    146.2829     27.4855
   903.0000      8.2964      2.3594     -0.0603     17.6146    145.9789     27.5963
   903.1000      8.2964      2.3074     -0.0410     20.7609    146.8026     27.4665
   903.2000      8.2964      2.2517     -0.0086     24.1387    149.3698     27.1887
   903.3000      8.2974      2.1949     -0.0528     27.5843    151.7907     27.2969
   903.4000      8.2974      2.1577     -0.0304     29.8365    150.5660     28.0352
   903.5000      8.3046      2.1461     -0.0294     30.5368    143.7229     29.0734
   903.6000      8.3046      2.1538     -0.0430     30.0749    132.7133     29.7413
   903.7000      8.3046      2.1848     -0.0358     28.1951    124.5478     29.8802
   903.8000      8.3650      2.2471      0.0287     24.4162    124.7378     29.5535
   903.9000      8.3650      2.3344      0.1437     19.1276    129.9732     28.9518
   904.0000      8.3928      2.4257      0.2203     13.5939    133.9112     28.8455
   904.1000      8.3928      2.4992      0.2202      9.1422    135.1767     29.2404
   904.2000      8.3928      2.5432      0.1572      6.4755    136.7186     29.2948
   904.3000      8.2679      2.5600      0.0981      5.4554    137.4275     28.7832
   904.4000      8.2679      2.5640      0.0438      5.2117    136.1629     27.8922
   904.5000      8.2536      2.5710      0.0166      4.7900    136.3342     26.8797
   904.6000      8.2536      2.5865      0.0050      3.8489    137.1607     26.4074
   904.7000      8.2536      2.6071      0.0653      2.5972    137.9305     26.2041
   904.8000      8.2496      2.6242      0.0249      1.5610    141.8969     25.6280
   904.9000      8.2496      2.6276      0.0475      1.3580    146.8254     25.3171
   905.0000      8.2540      2.6119      0.0341      2.3095    146.7873     25.4021
   905.1000      8.2540      2.5898     -0.0194      3.6507    141.9261     25.1574
   905.2000      8.2540      2.5778     -0.0087      4.3783    135.6620     24.5195
   905.3000      8.2567      2.5764     -0.0243      4.4620    130.0370     23.8610
   905.4000      8.2567      2.5864     -0.0433      3.8560    123.8516     23.5481
   905.5000      8.2518      2.6116      0.0214      2.3264    115.7036     23.7578
   905.6000      8.2518      2.6439      0.0292      0.3699    111.3432     23.9245
   905.7000      8.2518      2.6673      0.0665     -1.0490    113.2902     23.4881
   905.8000      8.2419      2.6685      0.0402     -1.1233    117.0254     22.7563
   905.9000      8.2419      2.6516      0.0041     -0.0983    120.3522     22.1490
   906.0000      8.2330      2.6366     -0.0016      0.8133    126.6019     21.5585
   906.1000      8.2330      2.6362      0.0181      0.8335    135.9485     21.0558
   906.2000      8.2330      2.6450      0.0043      0.3053    141.6646     20.9275
   906.3000      8.2224      2.6508     -0.0219     -0.0500    139.6297     20.9782
   906.4000      8.2224      2.6426      0.0529      0.4456    133.7301     21.2298
   906.5000      8.2111      2.6175     -0.0106      1.9691    131.6652     21.4541
   906.6000      8.2111      2.5891      0.0046      3.6891    133.8453     21.2876
   906.7000      8.2111      2.5702     -0.0029      4.8355    132.1732     21.4053
   906.8000      8.1997      2.5642     -0.0115      5.1995    127.6510     21.7638
   906.9000      8.1997      2.5721     -0.0173      4.7196    129.1551     21.3082
