~Version Information
 VERS.                                  2.0 : CWLS LAS VERSION
 WRAP.                                   NO : WRAPING MODE
 SWARE .                 MController 2.5.0E : SOFTWARE VERSION
~Well Information
 WELL.                                  N/A : WELL
 COMP.                                  N/A : COMPANY
 FLD.                                   N/A : FIELD
 LOC.                                   N/A : LOCATION
 DATE.                                  N/A : DATE(S) LOGGED
 SRVC.                                  N/A : SERVICE COMPANY
 STAT.                                  N/A : STATE
 CNTY.                                  N/A : COUNTY
 CTRY.                                  N/A : COUNTRY
 API.                                   N/A : API NUMBER
 STRT.FT                              94.00 : START DEPTH
 STOP.FT                            1931.00 : STOP DEPTH
 STEP.FT                               1.00 : DEPTH INCREMENT
 NULL.                                -9999 : NULL VALUE
~Curve information
 DEPTH.FT                                   :
 ROP.MIN/FT                                 :
 GAS.UNITS                                  :
~ASCII Log data
# ...
     1694.00        0.200        126.7 
     1695.00        0.233        125.3 
     1696.00        0.233        125.3 
     1697.00        0.250        124.1 
     1698.00        0.300        122.2 
     1699.00        0.233        119.4 
     1700.00        0.300        116.9 
     1701.00        0.333        118.3 
     1702.00        0.233        113.9 
     1703.00        0.233        102.3 
     1704.00        0.267         91.4 
     1705.00        0.267         84.6 
     1706.00        3.917        228.0 
     1707.00        0.550        225.7 
     1708.00        0.467        215.4 
     1709.00        0.300        213.4 
     1710.00        0.233        209.2 
     1711.00        0.267        202.8 
     1712.00        0.233        201.6 
     1713.00        0.267        184.5 
     1714.00        0.267        183.3 
     1715.00        0.233        172.8 
     1716.00        0.200        164.4 
     1717.00        0.233        163.6 
     1718.00        0.233        153.2 
     1719.00        0.233        147.3 
     1720.00        0.217        146.5 
     1721.00        0.200        138.5 
     1722.00        0.267        136.9 
     1723.00        0.267        131.9 
     1724.00        0.300        131.6 
     1725.00        0.300        126.4 
     1726.00        0.267        124.2 
     1727.00        0.233        122.9 
     1728.00        0.233        123.3 
     1729.00        0.233        124.4 
     1730.00        0.233        121.7 
     1731.00        0.167        117.5 
     1732.00        0.100        117.5 
     1733.00        0.167        104.1 
     1734.00        0.217         94.0 
     1735.00        0.200         93.1 
     1736.00        5.617        257.6 
     1737.00        0.467        238.6 
     1738.00        0.333        234.2 
     1739.00        0.350        233.5 
     1740.00        0.267        212.2 
     1741.00        0.200        200.7 
     1742.00        0.267        193.0 
     1743.00        0.333        185.7 
     1744.00        0.267        170.6 
     1745.00        0.267        158.4 
     1746.00        0.267        155.8 
     1747.00        0.300        144.8 
     1748.00        0.367        144.3 
     1749.00        0.300        143.4 
     1750.00        0.133        142.9 
     1751.00        0.183        142.1 
     1752.00        0.167        141.2 
     1753.00        0.233        139.2 
     1754.00        0.233        137.9 
     1755.00        0.367        137.0 
     1756.00        0.333        129.3 
     1757.00        0.233        126.4 
     1758.00        0.167        124.4 
     1759.00        0.233        123.9 
     1760.00        0.233        121.4 
     1761.00        0.200        115.3 
     1762.00        0.200        111.2 
     1763.00        0.233        101.3 
     1764.00        0.233         99.2 
     1765.00        0.167         90.1 
     1766.00        4.167        240.0 
     1767.00        0.400        232.5 
     1768.00        0.400        232.2 
     1769.00        0.367        230.2 
     1770.00        0.500        225.1 
     1771.00        0.333        203.2 
     1772.00        0.333        190.0 
     1773.00        0.317        174.4 
     1774.00        0.233        167.6 
     1775.00        0.267        155.5 
     1776.00        0.300        152.8 
     1777.00        0.300        144.2 
     1778.00        0.300        139.7 
     1779.00        0.300        137.4 
     1780.00        0.267        134.9 
     1781.00        0.267        134.6 
     1782.00        0.200        129.9 
     1783.00        0.200        129.9 
     1784.00        0.200        127.3 
     1785.00        0.167        126.3 
     1786.00        0.283        125.4 
     1787.00        0.233        124.0 
     1788.00        0.200        124.0 
     1789.00        0.133        123.6 
     1790.00        0.267        119.5 
     1791.00        0.233        117.1 
     1792.00        0.300        110.4 
     1793.00        0.267         99.3 
     1794.00        0.267         89.9 
     1795.00        0.267         89.0 
     1796.00        4.800        247.5 
     1797.00        0.267        224.4 
     1798.00        0.400        225.5 
     1799.00        0.400        224.7 
     1800.00        0.333        211.3 
     1801.00        0.333        202.0 
     1802.00        0.333        189.4 
     1803.00        0.333        175.6 
     1804.00        0.333        170.2 
     1805.00        0.350        160.2 
     1806.00        0.333        152.5 
     1807.00        0.267        142.4 
     1808.00        0.233        139.0 
     1809.00        0.233        137.6 
     1810.00        0.267        135.6 
     1811.00        0.267        130.5 
     1812.00        0.267        128.3 
     1813.00        0.267        125.9 
     1814.00        0.300        123.8 
     1815.00        0.300        120.2 
     1816.00        0.267        117.4 
     1817.00        0.267        114.0 
     1818.00        0.250        112.1 
     1819.00        0.267        111.3 
     1820.00        0.233        110.8 
     1821.00        0.267        109.8 
     1822.00        0.233        103.8 
     1823.00        0.267        100.0 
     1824.00        0.267         81.5 
     1825.00        0.233         80.7 
     1826.00        5.833        314.6 
     1827.00        0.433        226.2 
     1828.00        0.367        226.2 
     1829.00        0.333        213.3 
     1830.00        0.400        202.1 
     1831.00        0.367        181.2 
     1832.00        0.267        172.3 
     1833.00        0.250        171.2 
     1834.00        0.267        155.9 
     1835.00        0.233        154.5 
     1836.00        0.300        145.9 
     1837.00        0.267        144.1 
     1838.00        0.267        136.2 
     1839.00        0.267        132.5 
     1840.00        0.267        130.3 
     1841.00        0.267        131.1 
     1842.00        0.267        133.7 
     1843.00        0.267        135.7 
     1844.00        0.267        135.8 
     1845.00        0.250        135.7 
     1846.00        0.367        135.1 
     1847.00        0.400        133.9 
     1848.00        0.267        130.6 
     1849.00        0.300        129.0 
     1850.00        0.333        126.1 
     1851.00        0.267        125.8 
     1852.00        0.333        130.5 
     1853.00        0.400        128.0 
     1854.00        0.267        111.3 
     1855.00        0.200        105.4 
     1856.00       11.233        388.9 
     1857.00        0.200        202.0 
     1858.00        0.267        200.0 
     1859.00        0.400        199.4 
     1860.00        0.300        179.5 
     1861.00        0.267        172.6 
     1862.00        0.267        166.1 
     1863.00        0.300        165.2 
     1864.00        0.267        149.4 
     1865.00        0.250        147.7 
     1866.00        0.267        137.1 
     1867.00        0.300        134.1 
     1868.00        0.267        133.1 
     1869.00        0.233        133.1 
     1870.00        0.233        134.5 
     1871.00        0.233        135.2 
     1872.00        0.267        135.4 
     1873.00        0.233        134.8 
     1874.00        0.167        133.6 
     1875.00        0.233        131.9 
     1876.00        0.233        130.3 
     1877.00        0.233        128.4 
     1878.00        0.283        126.3 
     1879.00        0.267        124.4 
     1880.00        0.300        120.6 
     1881.00        0.267        110.0 
     1882.00        0.233        107.3 
     1883.00        0.233         96.4 
     1884.00        0.233         88.7 
     1885.00        0.200         86.6 
     1886.00        3.450        239.4 
     1887.00        0.233        238.2 
     1888.00        0.367        230.0 
     1889.00        0.300        221.2 
     1890.00        0.300        215.3 
     1891.00        0.350        210.3 
     1892.00        0.433        202.3 
     1893.00        0.467        184.0 
