~Version Information
VERS.                      2.0: CWLS Log ASCII Standard - VERSION 2.0
WRAP.                       NO: One line per depth step
~Well Information Block
STRT.FT               480.1000: 
STOP.FT              2029.0000: 
STEP.FT                 0.1000: 
NULL.                -999.2500: 
COMP.          Petrogulf Corporation: COMPANY
WELL.            Montoya 7-12R: WELL
FLD.           Purgatorie River: FIELD
LOC.           1769' FNL & 658' FWL: LOCATION
CNTY.               Las Animas: COUNTY
SRVC.                         : SERVICE COMPANY
DATE.          Mon Nov 22 07:21:54 2004: LOG DATE
UWI.           05 071 08240 00: UNIQUE WELL ID
STAT.                 Colorado: STATE
~Curve Information Block
DEPT.FT            0 000 00 00: Depth
DCAL.in                       : CDL Caliper
RHOB.g/cc                     : CDL Bulk Density
RHOC.g/cc                     : CDL Density Correction
DPOR.pu                       : CDL Density Porosity
GR.GAPI                       : Gamma Ray
NPOR.pu                       : Neutron Porosity
~Parameter Information Block
~A  Depth       DCAL        RHOB        RHOC        DPOR         GR         NPOR    
# ...
  1411.3000      7.7008      2.5694      0.1757      4.8823     95.6416     31.5655
  1411.4000      7.7008      2.5959      0.1740      3.2792     97.5313     30.9466
  1411.5000      7.7203      2.6040      0.2111      2.7864    101.0817     30.4506
  1411.6000      7.7203      2.6022      0.1270      2.8967     99.5739     29.8690
  1411.7000      7.7203      2.6086      0.0984      2.5121     91.0670     29.3619
  1411.8000      7.7110      2.6178      0.1170      1.9485     85.5764     28.5658
  1411.9000      7.7110      2.6092      0.0758      2.4722     87.1045     27.2585
  1412.0000      7.7292      2.5858      0.0204      3.8935     88.1176     25.8090
  1412.1000      7.7292      2.5620      0.0420      5.3346     86.3270     24.4657
  1412.2000      7.7292      2.5397      0.0223      6.6830     86.1822     23.6162
  1412.3000      7.7061      2.5230      0.0228      7.6971     89.1172     24.0353
  1412.4000      7.7061      2.5161      0.0040      8.1148     93.0305     25.4604
  1412.5000      7.7358      2.5053      0.1186      8.7715     97.9050     26.8814
  1412.6000      7.7358      2.4797      0.0405     10.3219    104.2356     28.1079
  1412.7000      7.7358      2.4594     -0.0151     11.5541    109.0082     29.1876
  1412.8000      7.6992      2.4644     -0.0052     11.2456    110.4624     30.0981
  1412.9000      7.6992      2.4907     -0.0014      9.6564    111.0371     30.8546
  1413.0000      7.5343      2.5193      0.0947      7.9227    113.5339     31.1185
  1413.1000      7.5343      2.5416      0.0685      6.5722    116.2910     30.9291
  1413.2000      7.5343      2.5643      0.0989      5.1954    117.3040     30.4600
  1413.3000      7.5075      2.5804      0.1266      4.2163    116.0747     29.7104
  1413.4000      7.5075      2.5764      0.1160      4.4627    111.2518     28.8047
  1413.5000      7.5320      2.5647      0.0549      5.1703    104.4205     27.8256
  1413.6000      7.5320      2.5736      0.0404      4.6326    100.0671     27.0356
  1413.7000      7.5320      2.6041      0.0866      2.7803    101.2175     26.6813
  1413.8000      7.5667      2.6231      0.1744      1.6295    104.8243     26.7498
  1413.9000      7.5667      2.6101      0.0902      2.4191    105.6472     26.7548
  1414.0000      7.5144      2.5892      0.0846      3.6863    104.2863     26.3527
  1414.1000      7.5144      2.5858      0.1015      3.8882    104.3706     25.8982
  1414.2000      7.5144      2.5933      0.0930      3.4360    107.7609     25.5895
  1414.3000      7.5086      2.6000      0.0871      3.0325    110.0467     25.4904
  1414.4000      7.5086      2.6118      0.0775      2.3165    104.9360     25.8212
  1414.5000      7.6000      2.6359      0.0853      0.8527     96.0874     26.2226
  1414.6000      7.6000      2.6564      0.1236     -0.3886     90.1787     25.7969
  1414.7000      7.6000      2.6489      0.1193      0.0665     87.1230     24.5473
  1414.8000      7.7292      2.6212      0.0688      1.7448     85.1289     23.5258
  1414.9000      7.7292      2.5975      0.1006      3.1788     85.7616     23.3142
  1415.0000      7.7835      2.5800      0.1011      4.2435     88.7660     23.6554
  1415.1000      7.7835      2.5660      0.0982      5.0899     90.4799     24.0824
  1415.2000      7.7835      2.5648      0.0796      5.1646     87.9811     24.6443
  1415.3000      7.7880      2.5771      0.0710      4.4178     83.1636     25.9271
  1415.4000      7.7880      2.5833      0.0848      4.0410     81.6505     27.4845
  1415.5000      7.8133      2.5759      0.0642      4.4896     87.3232     28.2199
  1415.6000      7.8133      2.5803      0.0897      4.2237     98.4462     28.1796
  1415.7000      7.8133      2.6078      0.1395      2.5548    109.0279     28.0448
  1415.8000      7.7977      2.6290      0.1715      1.2734    113.9198     27.8155
  1415.9000      7.7977      2.6284      0.0897      1.3115    113.2738     27.0301
  1416.0000      7.8117      2.6340      0.0728      0.9672    113.0792     26.3113
  1416.1000      7.8117      2.6492      0.1769      0.0473    114.7349     26.5928
  1416.2000      7.8117      2.6451      0.1112      0.2992    115.1155     27.1407
  1416.3000      7.8223      2.6373      0.0752      0.7682    117.1576     26.6215
  1416.4000      7.8223      2.6517      0.1245     -0.1001    121.4810     25.4656
  1416.5000      7.8296      2.6673      0.1331     -1.0458    122.1687     24.9942
  1416.6000      7.8296      2.6636      0.0909     -0.8234    118.4623     25.0791
  1416.7000      7.8296      2.6494      0.0718      0.0341    115.3263     25.0669
  1416.8000      7.8186      2.6428      0.0174      0.4368    112.6878     25.3466
  1416.9000      7.8186      2.6539      0.0315     -0.2344    107.7302     26.1991
  1417.0000      7.8771      2.6644      0.1255     -0.8755    102.5611     26.6920
  1417.1000      7.8771      2.6527      0.0581     -0.1608     97.6637     26.3907
  1417.2000      7.8771      2.6317      0.0544      1.1076     92.0165     26.1394
  1417.3000      7.8521      2.6280     -0.0080      1.3331     89.4025     26.1936
  1417.4000      7.8521      2.6463      0.0632      0.2255     90.8712     26.2146
  1417.5000      7.8857      2.6653      0.0754     -0.9259     92.8013     26.0738
  1417.6000      7.8857      2.6723      0.0412     -1.3493     91.9484     25.7238
  1417.7000      7.8857      2.6668      0.0924     -1.0209     88.4388     25.2919
  1417.8000      7.9029      2.6460      0.0564      0.2418     88.2856     25.0678
  1417.9000      7.9029      2.6150      0.0517      2.1225     93.3621     25.2292
  1418.0000      7.9548      2.5839      0.0271      4.0087     96.8236     25.7688
  1418.1000      7.9548      2.5722      0.0077      4.7171     95.2209     25.9952
  1418.2000      7.9548      2.5977     -0.0277      3.1690     93.3344     25.3450
  1418.3000      7.9708      2.6341      0.0790      0.9630     94.6667     24.7590
  1418.4000      7.9708      2.6372      0.0988      0.7781     96.4103     25.2428
  1418.5000      7.9574      2.6114      0.0348      2.3409     94.8205     26.4377
  1418.6000      7.9574      2.5955      0.0208      3.3031     91.4596     26.8584
  1418.7000      7.9574      2.6104      0.0535      2.3987     89.1873     25.8994
  1418.8000      7.9123      2.6366      0.1148      0.8099     87.3093     24.4891
  1418.9000      7.9123      2.6437      0.0801      0.3824     85.3399     24.0920
  1419.0000      7.8615      2.6377      0.0737      0.7431     85.6893     25.3737
  1419.1000      7.8615      2.6414      0.1151      0.5195     89.8912     27.1090
  1419.2000      7.8615      2.6503      0.1369     -0.0201     94.2381     27.9187
  1419.3000      7.8369      2.6488      0.1376      0.0703     96.1269     27.6271
  1419.4000      7.8369      2.6402      0.0926      0.5912     96.6990     27.0671
  1419.5000      7.8992      2.6378      0.1432      0.7418     94.3095     27.1932
  1419.6000      7.8992      2.6513      0.0998     -0.0761     87.1576     27.6605
  1419.7000      7.8992      2.6773      0.1551     -1.6540     82.4019     27.7725
  1419.8000      7.9504      2.6945      0.1342     -2.6951     89.6748     27.6722
  1419.9000      7.9504      2.6989      0.0735     -2.9642    104.9691     27.2203
  1420.0000      7.9388      2.6960      0.1276     -2.7883    116.5745     26.5779
  1420.1000      7.9388      2.6679      0.1310     -1.0856    120.7062     26.8974
  1420.2000      7.9388      2.6107      0.0469      2.3814    122.3892     28.4095
  1420.3000      7.9297      2.5519      0.0063      5.9449    124.3503     30.1510
  1420.4000      7.9297      2.5042     -0.0229      8.8375    123.1078     31.1469
  1420.5000      7.9295      2.4599     -0.0665     11.5196    119.3506     30.9557
  1420.6000      7.9295      2.4251     -0.0987     13.6278    118.4183     30.1836
  1420.7000      7.9295      2.4152     -0.0304     14.2295    119.2091     29.8683
  1420.8000      7.9682      2.4401     -0.0490     12.7229    115.3797     30.1194
