~Version Information
VERS.                      2.0: CWLS Log ASCII Standard - VERSION 2.0
WRAP.                       NO: One line per depth step
~Well Information Block
STRT.FT               780.0000: 
STOP.FT              2866.2000: 
STEP.FT                 0.1000: 
NULL.                -999.2500: 
COMP.          Pioneer Natural Resources: COMPANY
WELL.            Sebring 42-29: WELL
FLD.           Purgatoire River: FIELD
LOC.           1751' FNL & 584' FEL--: LOCATION
PROV.                 Colorado: PROVINCE
CNTY.               Las Animas: COUNTRY
SRVC.                Patterson: SERVICE COMPANY
DATE.          Mon Aug 15 07:11:37 2005: LOG DATE
UWI.           05 071 08293 00: UNIQUE WELL ID
~Curve Information Block
DEPT.FT            0 000 00 00: Depth
DCAL.in                       : CDL Caliper
RHOB.g/cc                     : CDL Bulk Density
RHOC.g/cc                     : CDL Density Correction
DPOR.pu                       : CDL Density Porosity
NPOR.pu                       : Neutron Porosity
GR.GAPI                       : Gamma Ray
~Parameter Information Block
~A  Depth       DCAL        RHOB        RHOC        DPOR        NPOR         GR     
# ...
  1874.4000      8.1298      2.5767     -0.1494      4.4429     29.8842    134.4500
  1874.5000      8.1367      2.5568     -0.0738      5.6480     29.8221    144.5102
  1874.6000      8.1367      2.5272     -0.1090      7.4441     29.4512    149.2473
  1874.7000      8.1367      2.4994     -0.1100      9.1277     28.7572    147.8581
  1874.8000      8.1563      2.5003     -0.0436      9.0732     28.1445    141.1542
  1874.9000      8.1563      2.5221      0.0993      7.7510     27.9469    138.0641
  1875.0000      8.1866      2.5395      0.0618      6.6948     27.5311    141.0715
  1875.1000      8.1866      2.5548      0.0764      5.7668     26.6372    143.3417
  1875.2000      8.1866      2.5726      0.1204      4.6900     26.0799    144.8210
  1875.3000      8.2053      2.5757      0.1283      4.5013     26.2433    147.1760
  1875.4000      8.2053      2.5556      0.0685      5.7227     26.8878    150.2555
  1875.5000      8.2100      2.5300      0.0382      7.2744     27.7024    153.2375
  1875.6000      8.2100      2.5189      0.0360      7.9469     28.0039    155.8266
  1875.7000      8.2100      2.5172      0.0379      8.0512     27.7722    156.3044
  1875.8000      8.2133      2.5065      0.0491      8.6992     27.7299    152.9373
  1875.9000      8.2133      2.4925     -0.0238      9.5453     27.7977    147.6755
  1876.0000      8.2177      2.4976      0.0206      9.2356     27.5546    143.0454
  1876.1000      8.2177      2.5191     -0.0006      7.9328     27.3262    138.1259
  1876.2000      8.2177      2.5340      0.0739      7.0295     27.4916    132.0728
  1876.3000      8.2209      2.5314      0.0182      7.1878     27.5920    129.8920
  1876.4000      8.2209      2.5265      0.0534      7.4832     27.2116    134.1655
  1876.5000      8.2230      2.5325      0.0439      7.1196     26.6708    142.1691
  1876.6000      8.2230      2.5404      0.0801      6.6438     26.4479    147.8341
  1876.7000      8.2230      2.5385      0.0491      6.7597     26.8579    146.2018
  1876.8000      8.2285      2.5365      0.0408      6.8779     27.8625    141.5898
  1876.9000      8.2285      2.5448      0.1061      6.3769     28.8545    139.7648
  1877.0000      8.2358      2.5523      0.1163      5.9184     29.1238    140.3450
  1877.1000      8.2358      2.5522      0.0685      5.9253     28.6853    143.8446
  1877.2000      8.2358      2.5547      0.0377      5.7774     27.9648    153.2458
  1877.3000      8.2417      2.5617      0.0534      5.3531     27.3032    160.5705
  1877.4000      8.2417      2.5602      0.0702      5.4424     26.6855    156.5657
  1877.5000      8.2452      2.5468      0.0628      6.2546     26.0916    145.9496
  1877.6000      8.2452      2.5271      0.0756      7.4465     25.8180    139.4789
  1877.7000      8.2452      2.5020      0.0373      8.9673     25.9902    141.7309
  1877.8000      8.2406      2.4726      0.0292     10.7543     26.2519    146.6986
  1877.9000      8.2406      2.4526     -0.0785     11.9650     26.1376    145.3805
  1878.0000      8.2256      2.4607     -0.0047     11.4750     25.8970    137.3777
  1878.1000      8.2256      2.4880      0.0108      9.8199     26.0926    130.4850
  1878.2000      8.2256      2.5053      0.0302      8.7671     26.7378    128.9608
  1878.3000      8.2162      2.4938      0.0196      9.4681     27.3608    129.7409
  1878.4000      8.2162      2.4576      0.0175     11.6635     27.8559    131.0317
  1878.5000      8.2271      2.4228     -0.0128     13.7681     28.4059    134.7510
  1878.6000      8.2271      2.4115      0.0191     14.4561     28.6540    140.9320
  1878.7000      8.2271      2.4168      0.0344     14.1342     28.3985    146.1439
  1878.8000      8.2668      2.4293     -0.0015     13.3767     28.1835    145.8499
  1878.9000      8.2668      2.4529      0.0200     11.9449     28.3893    139.5962
  1879.0000      8.3264      2.4775      0.1004     10.4561     28.8752    134.3875
  1879.1000      8.3264      2.4750      0.1502     10.6084     29.2836    136.0714
  1879.2000      8.3264      2.4343      0.1127     13.0744     29.2014    140.1043
  1879.3000      8.3806      2.3762      0.0689     16.5963     28.8898    141.7404
  1879.4000      8.3806      2.3214      0.0581     19.9130     29.0145    138.7945
  1879.5000      8.4136      2.2751      0.0817     22.7192     29.4639    133.4465
  1879.6000      8.4136      2.2397      0.0837     24.8639     29.7628    132.9953
  1879.7000      8.4136      2.2097      0.0610     26.6875     29.8393    136.6681
  1879.8000      8.4093      2.1635      0.0409     29.4826     29.6954    137.1552
  1879.9000      8.4093      2.0932      0.0013     33.7485     29.5560    133.4899
  1880.0000      8.4079      2.0386     -0.0535     37.0545     29.9441    130.1371
  1880.1000      8.4079      2.0512      0.0499     36.2881     30.9665    128.4866
  1880.2000      8.4079      2.1149      0.2845     32.4302     31.7723    126.5552
  1880.3000      8.5203      2.1686      0.3011     29.1781     31.7470    125.1506
  1880.4000      8.5203      2.1885      0.3196     27.9691     31.4131    124.5744
  1880.5000      8.7902      2.1840      0.3161     28.2430     31.1425    124.5363
  1880.6000      8.7902      2.1686      0.2551     29.1771     30.6783    125.7021
  1880.7000      8.7902      2.1665      0.1894     29.3053     30.1348    126.9999
  1880.8000      9.0329      2.1925      0.2440     27.7269     29.7838    125.8412
  1880.9000      9.0329      2.2310      0.2653     25.3960     29.1690    120.5717
  1881.0000      8.9155      2.2652      0.2070     23.3241     27.9178    111.0908
  1881.1000      8.9155      2.3006      0.1830     21.1747     26.4494     99.7088
  1881.2000      8.9155      2.3493      0.2033     18.2220     25.0697     91.9100
  1881.3000      8.4799      2.4090      0.2383     14.6057     23.8695     89.7111
  1881.4000      8.4799      2.4641      0.2429     11.2651     23.0181     88.3476
  1881.5000      8.1826      2.5071      0.1267      8.6577     22.3347     84.8855
  1881.6000      8.1826      2.5372      0.0793      6.8370     21.7029     83.3418
  1881.7000      8.1826      2.5477      0.0729      6.1993     21.3726     86.6168
  1881.8000      8.0990      2.5441      0.0318      6.4194     21.1753     91.1084
  1881.9000      8.0990      2.5446      0.0404      6.3866     20.8018     93.6863
  1882.0000      8.0814      2.5594      0.0251      5.4901     20.4103     96.1645
  1882.1000      8.0814      2.5785      0.0799      4.3332     20.1669    101.1090
  1882.2000      8.0814      2.5877      0.0381      3.7733     19.9241    106.4225
  1882.3000      8.0781      2.5934      0.0503      3.4291     19.5021    107.7129
  1882.4000      8.0781      2.5998      0.0670      3.0430     18.8138    105.7127
  1882.5000      8.0791      2.5973      0.0604      3.1931     18.0847    104.2380
  1882.6000      8.0791      2.5844      0.0617      3.9739     17.6216    103.9647
  1882.7000      8.0791      2.5746      0.0496      4.5688     17.4565    102.8508
  1882.8000      8.0787      2.5801      0.0245      4.2374     17.5621     97.2978
  1882.9000      8.0787      2.5929      0.0444      3.4580     18.1896     90.9628
  1883.0000      8.0758      2.5921      0.0219      3.5105     19.3753     94.3756
  1883.1000      8.0758      2.5723      0.0380      4.7074     20.4354    105.6000
  1883.2000      8.0758      2.5521     -0.0016      5.9326     21.2873    112.7379
  1883.3000      8.0747      2.5457      0.0003      6.3216     22.2772    114.3583
  1883.4000      8.0747      2.5443      0.0523      6.4034     22.7735    116.1913
  1883.5000      8.0750      2.5417      0.0206      6.5612     22.5146    116.5159
  1883.6000      8.0750      2.5440      0.0401      6.4270     22.1847    112.4721
  1883.7000      8.0750      2.5492      0.0503      6.1100     22.2654    110.1316
  1883.8000      8.0752      2.5575      0.0492      5.6060     22.5372    112.2636
  1883.9000      8.0752      2.5785      0.0684      4.3343     22.3997    111.2952
