~Version Information
VERS.                      2.0: CWLS Log ASCII Standard - VERSION 2.0
WRAP.                       NO: One line per depth step
~Well Information Block
STRT.FT                -7.0500: 
STOP.FT              3072.6000: 
STEP.FT                 0.0500: 
NULL.                -999.2500: 
COMP.          Pioneer Natural Resources: COMPANY
WELL.              Stones 24-8: WELL
FLD.           Purgatoire River: FIELD
LOC.           648' FSL & 2264' FWL--: LOCATION
PROV.                 Colorado: PROVINCE
CNTY.               Las Animas: COUNTRY
SRVC.                Patterson: SERVICE COMPANY
DATE.          Fri Feb 04 12:43:19 2005: LOG DATE
UWI.           05 071 07945 00: UNIQUE WELL ID
~Curve Information Block
DEPT.FT            0 000 00 00: Depth
CCL.                          : Casing Collar Locator
TT3.usec                      : CBL 3' Travel Time
AMP3.mV                       : CBL 3' Amplitude
GR.GAPI                       : Gamma Ray
~Parameter Information Block
~A  Depth       CCL         TT3         AMP3         GR     
# ...
  2853.8500      0.0000    568.1275      2.9699     71.4699
  2853.9000      0.0000    568.1275      2.9699     71.4699
  2853.9500      0.0000    568.1275      2.9699     71.4699
  2854.0000      0.0000    561.8186      2.9252     81.7188
  2854.0500      0.0000    561.8186      2.9252     81.7188
  2854.1000      0.0000    561.8186      2.9252     81.7188
  2854.1500      0.0000    561.8186      2.9252     81.7188
  2854.2000      0.0000    561.8186      2.9252     81.7188
  2854.2500      0.0000    558.1193      2.8840     93.1471
  2854.3000      0.0000    558.1193      2.8840     93.1471
  2854.3500      0.0000    558.1193      2.8840     93.1471
  2854.4000      0.0000    558.1193      2.8840     93.1471
  2854.4500      0.0000    558.1193      2.8840     93.1471
  2854.5000      0.0000    546.0419      2.8582    104.6133
  2854.5500      0.0000    546.0419      2.8582    104.6133
  2854.6000      0.0000    546.0419      2.8582    104.6133
  2854.6500      0.0000    546.0419      2.8582    104.6133
  2854.7000      0.0000    546.0419      2.8582    104.6133
  2854.7500      0.0000    526.2313      2.8598    114.1729
  2854.8000      0.0000    526.2313      2.8598    114.1729
  2854.8500      0.0000    526.2313      2.8598    114.1729
  2854.9000      0.0000    526.2313      2.8598    114.1729
  2854.9500      0.0000    526.2313      2.8598    114.1729
  2855.0000      0.0000    506.4431      2.8943    119.8706
  2855.0500      0.0000    506.4431      2.8943    119.8706
  2855.1000      0.0000    506.4431      2.8943    119.8706
  2855.1500      0.0000    506.4431      2.8943    119.8706
  2855.2000      0.0000    506.4431      2.8943    119.8706
  2855.2500      0.0000    493.2888      2.9573    120.5215
  2855.3000      0.0000    493.2888      2.9573    120.5215
  2855.3500      0.0000    493.2888      2.9573    120.5215
  2855.4000      0.0000    493.2888      2.9573    120.5215
  2855.4500      0.0000    493.2888      2.9573    120.5215
  2855.5000      0.0000    489.3229      3.0345    116.2090
  2855.5500      0.0000    489.3229      3.0345    116.2090
  2855.6000      0.0000    489.3229      3.0345    116.2090
  2855.6500      0.0000    489.3229      3.0345    116.2090
  2855.7000      0.0000    489.3229      3.0345    116.2090
  2855.7500      0.0000    495.0128      3.1055    108.2454
  2855.8000      0.0000    495.0128      3.1055    108.2454
  2855.8500      0.0000    495.0128      3.1055    108.2454
  2855.9000      0.0000    495.0128      3.1055    108.2454
  2855.9500      0.0000    495.0128      3.1055    108.2454
  2856.0000      0.0000    510.0615      3.1513     98.6339
  2856.0500      0.0000    510.0615      3.1513     98.6339
  2856.1000      0.0000    510.0615      3.1513     98.6339
  2856.1500      0.0000    510.0615      3.1513     98.6339
  2856.2000      0.0000    510.0615      3.1513     98.6339
  2856.2500      0.0000    531.5291      3.1606     89.5560
  2856.3000      0.0000    531.5291      3.1606     89.5560
  2856.3500      0.0000    531.5291      3.1606     89.5560
  2856.4000      0.0000    531.5291      3.1606     89.5560
  2856.4500      0.0000    531.5291      3.1606     89.5560
  2856.5000      0.0000    552.3117      3.1268     83.0928
  2856.5500      0.0000    552.3117      3.1268     83.0928
  2856.6000      0.0000    552.3117      3.1268     83.0928
  2856.6500      0.0000    552.3117      3.1268     83.0928
  2856.7000      0.0000    552.3117      3.1268     83.0928
  2856.7500      0.0000    564.6838      3.0380     80.6694
  2856.8000      0.0000    564.6838      3.0380     80.6694
  2856.8500      0.0000    564.6838      3.0380     80.6694
  2856.9000      0.0000    564.6838      3.0380     80.6694
  2856.9500      0.0000    564.6838      3.0380     80.6694
  2857.0000      0.0000    567.4390      2.8732     82.2750
  2857.0500      0.0000    567.4390      2.8732     82.2750
  2857.1000      0.0000    567.4390      2.8732     82.2750
  2857.1500      0.0000    567.4390      2.8732     82.2750
  2857.2000      0.0000    567.4390      2.8732     82.2750
  2857.2500      0.0000    568.5248      2.6196     86.4336
  2857.3000      0.0000    568.5248      2.6196     86.4336
  2857.3500      0.0000    568.5248      2.6196     86.4336
  2857.4000      0.0000    568.5248      2.6196     86.4336
  2857.4500      0.0000    568.5248      2.6196     86.4336
  2857.5000      0.0000    578.2921      2.2995     91.1613
  2857.5500      0.0000    578.2921      2.2995     91.1613
  2857.6000      0.0000    578.2921      2.2995     91.1613
  2857.6500      0.0000    578.2921      2.2995     91.1613
  2857.7000      0.0000    578.2921      2.2995     91.1613
  2857.7500      0.0000    599.6429      1.9746     94.9559
  2857.8000      0.0000    599.6429      1.9746     94.9559
  2857.8500      0.0000    599.6429      1.9746     94.9559
  2857.9000      0.0000    599.6429      1.9746     94.9559
  2857.9500      0.0000    599.6429      1.9746     94.9559
  2858.0000      0.0000    626.6265      1.7134     97.2533
  2858.0500      0.0000    626.6265      1.7134     97.2533
  2858.1000      0.0000    626.6265      1.7134     97.2533
  2858.1500      0.0000    626.6265      1.7134     97.2533
  2858.2000      0.0000    626.6265      1.7134     97.2533
  2858.2500      0.0000    653.2034      1.5456     98.4932
  2858.3000      0.0000    653.2034      1.5456     98.4932
  2858.3500      0.0000    653.2034      1.5456     98.4932
  2858.4000      0.0000    653.2034      1.5456     98.4932
  2858.4500      0.0000    653.2034      1.5456     98.4932
  2858.5000      0.0000    680.4866      1.4494     99.7058
  2858.5500      0.0000    680.4866      1.4494     99.7058
  2858.6000      0.0000    680.4866      1.4494     99.7058
  2858.6500      0.0000    680.4866      1.4494     99.7058
  2858.7000      0.0000    680.4866      1.4494     99.7058
  2858.7500      0.0000    713.6122      1.3830    101.4126
  2858.8000      0.0000    713.6122      1.3830    101.4126
  2858.8500      0.0000    713.6122      1.3830    101.4126
  2858.9000      0.0000    713.6122      1.3830    101.4126
  2858.9500      0.0000    713.6122      1.3830    101.4126
  2859.0000      0.0000    754.7560      1.3214    102.8069
  2859.0500      0.0000    754.7560      1.3214    102.8069
  2859.1000      0.0000    754.7560      1.3214    102.8069
  2859.1500      0.0000    754.7560      1.3214    102.8069
  2859.2000      0.0000    754.7560      1.3214    102.8069
  2859.2500      0.0000    802.1548      1.2621    102.4201
  2859.3000      0.0000    802.1548      1.2621    102.4201
  2859.3500      0.0000    802.1548      1.2621    102.4201
  2859.4000      0.0000    802.1548      1.2621    102.4201
  2859.4500      0.0000    802.1548      1.2621    102.4201
  2859.5000      0.0000    853.6788      1.2084     99.5454
  2859.5500      0.0000    853.6788      1.2084     99.5454
  2859.6000      0.0000    853.6788      1.2084     99.5454
  2859.6500      0.0000    853.6788      1.2084     99.5454
  2859.7000      0.0000    853.6788      1.2084     99.5454
  2859.7500      0.0000    907.3141      1.1622     94.6132
  2859.8000      0.0000    907.3141      1.1622     94.6132
  2859.8500      2.0000    907.3141      1.1622     94.6132
  2859.9000      2.0000    907.3141      1.1622     94.6132
  2859.9500      0.0000    907.3141      1.1622     94.6132
  2860.0000     -2.0000    956.8528      1.1317     88.5523
  2860.0500     -2.0000    956.8528      1.1317     88.5523
  2860.1000      0.0000    956.8528      1.1317     88.5523
  2860.1500      2.0000    956.8528      1.1317     88.5523
  2860.2000      0.0000    956.8528      1.1317     88.5523
  2860.2500      0.0000    988.4971      1.1368     82.4577
  2860.3000      0.0000    988.4971      1.1368     82.4577
  2860.3500      0.0000    988.4971      1.1368     82.4577
  2860.4000      0.0000    988.4971      1.1368     82.4577
  2860.4500      0.0000    988.4971      1.1368     82.4577
  2860.5000      0.0000    986.2307      1.2024     77.5489
