~Version Information
VERS.                      2.0: CWLS Log ASCII Standard - VERSION 2.0
WRAP.                       NO: One line per depth step
~Well Information Block
STRT.FT               250.0000: 
STOP.FT              1017.5000: 
STEP.FT                 0.1000: 
NULL.                -999.2500: 
COMP.          Pioneer Natural Resources: COMPANY
WELL.              Oscar 41-31: WELL
FLD.           Purgatoire River: FIELD
LOC.           412' FNL & 1216' FEL: LOCATION
PROV.                 Colorado: PROVINCE
CNTY.               Las Animas: COUNTRY
SRVC.                Patterson: SERVICE COMPANY
DATE.          Thu Feb 24 15:11:09 2005: LOG DATE
UWI.           05 071 08290 00: UNIQUE WELL ID
~Curve Information Block
DEPT.FT            0 000 00 00: Depth
DCAL.in                       : CDL Caliper
RHOB.g/cc                     : CDL Bulk Density
RHOC.g/cc                     : CDL Density Correction
DPOR.pu                       : CDL Density Porosity
GR.GAPI                       : Gamma Ray
NPOR.pu                       : Neutron Porosity
~Parameter Information Block
~A  Depth       DCAL        RHOB        RHOC        DPOR         GR         NPOR    
# ...
   403.6000      7.9055      2.4150      0.1108     14.2415     59.1174     17.0931
   403.7000      7.9055      2.4419      0.1587     12.6144     57.5994     18.0473
   403.8000      7.9049      2.4649      0.1522     11.2211     58.5656     18.8774
   403.9000      7.9049      2.4900      0.1427      9.6959     58.5079     18.9445
   404.0000      7.9040      2.5297      0.1777      7.2922     56.6080     18.2541
   404.1000      7.9040      2.5790      0.1797      4.3011     55.5453     17.6634
   404.2000      7.9040      2.6127      0.2116      2.2587     56.5263     17.6015
   404.3000      7.9031      2.6152      0.1491      2.1072     57.3768     17.9560
   404.4000      7.9031      2.5998      0.1187      3.0427     56.1854     18.0144
   404.5000      7.9033      2.5791      0.1080      4.2995     55.3764     17.2522
   404.6000      7.9033      2.5569      0.0687      5.6453     57.0490     16.4351
   404.7000      7.9033      2.5423      0.0400      6.5270     59.5328     16.2340
   404.8000      7.9039      2.5320      0.0872      7.1521     61.1056     16.1474
   404.9000      7.9039      2.5118      0.0540      8.3740     61.4379     15.8637
   405.0000      7.9046      2.4934      0.0058      9.4924     60.2402     15.9304
   405.1000      7.9046      2.4976      0.0504      9.2374     58.8435     16.5289
   405.2000      7.9046      2.5124      0.1047      8.3384     58.9933     17.2094
   405.3000      7.9047      2.5181      0.0905      7.9941     59.8540     17.7717
   405.4000      7.9047      2.5272      0.0752      7.4440     60.6618     18.4868
   405.5000      7.9037      2.5549      0.1516      5.7651     62.4896     19.1148
   405.6000      7.9037      2.5867      0.1936      3.8338     64.8014     19.1427
   405.7000      7.9037      2.6041      0.1842      2.7808     65.3332     18.7279
   405.8000      7.9038      2.6001      0.1869      3.0272     63.1280     18.3221
   405.9000      7.9038      2.5801      0.1408      4.2346     59.8261     17.9745
   406.0000      7.9057      2.5605      0.1247      5.4220     59.7028     17.7735
   406.1000      7.9057      2.5513      0.1074      5.9803     61.9694     17.9229
   406.2000      7.9057      2.5525      0.0568      5.9090     62.7211     18.1093
   406.3000      7.9055      2.5557      0.0857      5.7127     62.5398     17.9976
   406.4000      7.9055      2.5497      0.0820      6.0805     64.0343     17.7840
   406.5000      7.9049      2.5374      0.0639      6.8257     67.8829     17.6340
   406.6000      7.9049      2.5346      0.0731      6.9966     70.9899     17.3674
   406.7000      7.9049      2.5481      0.1128      6.1757     70.3714     17.2570
   406.8000      7.9052      2.5720      0.1187      4.7282     66.4051     17.7206
   406.9000      7.9052      2.6000      0.1132      3.0277     61.1403     18.4233
   407.0000      7.9057      2.6303      0.1479      1.1943     56.0541     18.9117
   407.1000      7.9057      2.6590      0.1493     -0.5430     51.5491     18.7472
   407.2000      7.9057      2.6767      0.2142     -1.6209     49.1279     17.7446
   407.3000      7.9051      2.6786      0.1482     -1.7355     49.8321     16.5679
   407.4000      7.9051      2.6785      0.1480     -1.7281     52.0669     16.1570
   407.5000      7.9039      2.6872      0.1488     -2.2568     54.3735     16.6215
   407.6000      7.9039      2.6910      0.1388     -2.4831     54.7510     16.9949
   407.7000      7.9039      2.6708      0.1087     -1.2625     51.8944     16.4741
   407.8000      7.9035      2.6260      0.0625      1.4535     48.5250     15.3297
   407.9000      7.9035      2.5767      0.0177      4.4409     47.0613     14.3427
   408.0000      7.9037      2.5498      0.0012      6.0739     47.5709     13.9856
   408.1000      7.9037      2.5566     -0.0311      5.6636     49.8478     14.1150
   408.2000      7.9037      2.5808      0.0206      4.1915     53.0055     14.2606
   408.3000      7.9038      2.5930      0.0277      3.4550     54.3612     14.1456
   408.4000      7.9038      2.5872      0.0156      3.8081     54.9738     13.7378
   408.5000      7.9035      2.5864     -0.0255      3.8542     59.4058     13.0338
   408.6000      7.9035      2.6029      0.0280      2.8562     66.5734     12.2432
   408.7000      7.9035      2.6162      0.0549      2.0458     70.4690     11.8728
   408.8000      7.9025      2.6034      0.0264      2.8236     69.3767     12.0047
   408.9000      7.9025      2.5655      0.0352      5.1208     67.5461     12.2758
   409.0000      7.9014      2.5240      0.0221      7.6351     68.0666     12.6118
   409.1000      7.9014      2.4940      0.0231      9.4567     69.5680     13.2389
   409.2000      7.9014      2.4632      0.0402     11.3223     70.4028     14.0347
   409.3000      7.9002      2.4211     -0.0123     13.8709     71.2523     14.6102
   409.4000      7.9002      2.3796      0.0087     16.3877     73.5622     14.7385
   409.5000      7.8981      2.3474      0.0137     18.3415     77.1975     14.8103
   409.6000      7.8981      2.3266      0.0133     19.5976     81.6772     15.4168
   409.7000      7.8981      2.3270      0.0200     19.5728     87.2613     16.2932
   409.8000      7.8970      2.3550      0.1193     17.8815     92.6414     16.9245
   409.9000      7.8970      2.3985      0.1627     15.2398     94.8875     17.4838
   410.0000      7.9123      2.4403      0.2106     12.7088     96.6482     18.2618
   410.1000      7.9123      2.4713      0.2297     10.8333    103.8422     19.1079
   410.2000      7.9123      2.4899      0.2307      9.7045    115.6887     19.5655
   410.3000      7.9506      2.4975      0.2006      9.2402    125.0706     19.4626
   410.4000      7.9506      2.4998      0.1474      9.1046    129.5638     19.4821
   410.5000      8.0015      2.5078      0.1196      8.6175    134.1859     20.0550
   410.6000      8.0015      2.5274      0.1332      7.4319    143.4468     20.3889
   410.7000      8.0015      2.5388      0.2120      6.7402    154.5036     20.0117
   410.8000      8.1064      2.5103      0.1942      8.4652    162.0896     19.5953
   410.9000      8.1064      2.4468      0.1633     12.3158    166.9468     19.7296
   411.0000      8.3050      2.3823      0.1906     16.2260    170.1146     20.3028
   411.1000      8.3050      2.3333      0.1577     19.1923    170.4453     20.8892
   411.2000      8.3050      2.3084      0.0388     20.7008    169.0638     21.3229
   411.3000      8.5054      2.3192      0.0975     20.0478    165.5599     22.0413
   411.4000      8.5054      2.3664      0.0612     17.1889    161.6897     23.0991
   411.5000      8.5346      2.4366      0.1880     12.9315    161.9052     23.7410
   411.6000      8.5346      2.4991      0.3091      9.1435    163.5052     23.7707
   411.7000      8.5346      2.5289      0.3517      7.3378    161.4995     23.5140
   411.8000      8.3483      2.5237      0.3507      7.6568    159.5033     22.9836
   411.9000      8.3483      2.4995      0.1911      9.1225    163.8896     22.6836
   412.0000      8.0914      2.4797      0.2194     10.3239    171.8127     23.3262
   412.1000      8.0914      2.4601      0.2283     11.5071    173.2786     24.2503
   412.2000      8.0914      2.4182      0.1604     14.0481    168.3137     24.1941
   412.3000      7.9528      2.3683      0.0377     17.0743    166.6665     23.8549
   412.4000      7.9528      2.3461      0.0610     18.4211    168.8714     24.6370
   412.5000      7.9236      2.3471      0.0751     18.3572    167.6801     26.2836
   412.6000      7.9236      2.3421      0.1023     18.6625    163.2781     27.5062
   412.7000      7.9236      2.3297      0.0484     19.4122    161.5826     27.4986
   412.8000      7.9263      2.3320      0.0987     19.2757    164.1815     26.2180
   412.9000      7.9263      2.3481      0.1675     18.2980    168.0491     24.3360
   413.0000      7.9316      2.3564      0.1634     17.7959    167.2823     22.5171
   413.1000      7.9316      2.3490      0.1036     18.2428    159.2382     21.2452
