~Version Information
VERS.                      2.0: CWLS Log ASCII Standard - VERSION 2.0
WRAP.                       NO: One line per depth step
~Well Information Block
STRT.FT               185.2500: 
STOP.FT              2109.7500: 
STEP.FT                 0.2500: 
NULL.                -999.2500: 
COMP.    Petrogulf Corporation: COMPANY
WELL.             State 16-44V: WELL
FLD.          Purgatorie River: FIELD
LOC.       320' FSL & 320' FEL: LOCATION
PROV.                 Colorado: PROVINCE
CNTY.               Las Animas: COUNTRY
SRVC.                Patterson: SERVICE COMPANY
DATE. Thu Aug 11 12:58:04 2005: LOG DATE
UWI.               071-08263  : UNIQUE WELL ID
~Curve Information Block
DEPT.FT            0 000 00 00: Depth
GR.GAPI                       : Gamma Ray
CCL.                          : Casing Collar Locator
TT3.usec                      : CBL 3' Travel Time
AMP3.mV                       : CBL 3' Amplitude
~Parameter Information Block
~A  Depth        GR         CCL         TT3         AMP3    
# ...
   319.2500     43.0659      0.0000    670.5536     12.7392
   319.5000     41.4975      0.0000    670.5195     12.7116
   319.7500     43.6448      0.0000    668.3269     12.7493
   320.0000     48.5153      0.0000    667.6462     12.8027
   320.2500     53.9163      0.0000    667.8469     12.8567
   320.5000     57.6716      0.0000    669.1071     12.9293
   320.7500     58.9117      0.0000    672.9991     13.0116
   321.0000     58.4008      0.0000    677.8737     13.0697
   321.2500     57.5229      0.0000    680.8037     13.0833
   321.5000     56.9721      0.0000    681.5435     13.0372
   321.7500     56.5835      0.0000    681.4542     12.9298
   322.0000     56.1704      0.0000    681.3190     12.8080
   322.2500     55.9245      0.0000    681.2175     12.7399
   322.5000     55.8646      0.0000    681.1885     12.7458
   322.7500     55.3772      0.0000    681.3223     12.8059
   323.0000     53.6568      0.0000    681.3987     12.9178
   323.2500     50.5566      0.0000    680.2975     13.0786
   323.5000     46.8950      0.0000    674.3835     13.2503
   323.7500     43.9082      0.0000    656.3419     13.3853
   324.0000     42.3845      0.0000    621.7578     13.4583
   324.2500     42.2578      0.0000    581.7323     13.4830
   324.5000     42.9044      0.0000    559.5244     13.4779
   324.7500     43.6476      0.0000    566.6522     13.4277
   325.0000     43.9814      0.0000    588.7992     13.3359
   325.2500     43.6242      0.0000    597.8715     13.2473
   325.5000     42.6914      0.0000    573.8253     13.1893
   325.7500     41.7385      0.0000    518.4742     13.1594
   326.0000     41.3954      0.0000    454.9556     13.1486
   326.2500     41.9088      0.0000    408.9570     13.1557
   326.5000     43.0274      0.0000    388.9189     13.1685
   326.7500     44.2149      0.0000    391.5177     13.0746
   327.0000     45.0492      0.0000    418.9005     12.6305
   327.2500     45.5726      0.0000    473.7243     11.7120
   327.5000     46.1023      0.0000    536.3741     10.5862
   327.7500     46.5626      0.0000    571.6254      9.6830
   328.0000     46.2247      0.0000    571.7916      9.2061
   328.2500     44.3009      0.0000    569.4180      9.0975
   328.5000     40.7943      0.0000    592.0194      9.1635
   328.7500     36.8372      0.0000    623.7598      9.2463
   329.0000     34.2007     -2.0000    629.3258      9.3305
   329.2500     34.1863     -2.0000    599.1971      9.4444
   329.5000     36.6803      0.0000    555.3105      9.5644
   329.7500     40.2359      0.0000    527.5604      9.6849
   330.0000     43.2212      0.0000    524.5113      9.8874
   330.2500     45.0364      0.0000    522.7775     10.2523
   330.5000     46.2747      0.0000    502.3448     10.8278
   330.7500     47.7896      0.0000    481.9472     11.6636
   331.0000     49.7734      0.0000    492.9291     12.6028
   331.2500     51.6858      0.0000    527.8434     13.2779
   331.5000     52.8293      0.0000    546.6390     13.5220
   331.7500     53.0027      0.0000    525.1980     13.4755
   332.0000     52.8153      0.0000    479.0875     13.3160
   332.2500     53.2987      0.0000    450.1013     13.1143
   332.5000     54.9433      0.0000    469.7911     12.8837
   332.7500     57.0978      0.0000    532.7365     12.6439
   333.0000     58.4487      0.0000    605.0449     12.4279
   333.2500     58.1501      0.0000    656.0499     12.2528
   333.5000     56.5680      0.0000    679.7287     12.1129
   333.7500     55.1084      0.0000    686.7026     11.9964
   334.0000     55.1446      0.0000    686.6378     11.8858
   334.2500     56.5575      0.0000    683.0839     11.7710
   334.5000     57.2749      0.0000    677.9225     11.6668
   334.7500     55.0487      0.0000    674.6367     11.5911
   335.0000     50.1381      0.0000    674.7094     11.5411
   335.2500     45.7017      0.0000    673.9654     11.5028
   335.5000     45.1254      0.0000    667.9483     11.4698
   335.7500     49.2233      0.0000    659.0942     11.4385
   336.0000     56.0787      0.0000    654.7762     11.3971
   336.2500     62.9982      0.0000    659.0919     11.3271
   336.5000     68.2409      0.0000    668.7727     11.2117
   336.7500     71.3547      0.0000    677.4383     11.0631
   337.0000     72.6885      0.0000    682.0507     10.9270
   337.2500     72.9139      0.0000    683.6896     10.8328
   337.5000     72.6861      0.0000    684.2060     10.7674
   337.7500     72.4429      0.0000    684.4486     10.7030
   338.0000     72.4776      0.0000    684.6140     10.6164
   338.2500     73.1338      0.0000    684.7825     10.5028
   338.5000     74.6926      0.0000    685.0259     10.3949
   338.7500     77.0041      0.0000    685.3279     10.3321
   339.0000     79.3353      0.0000    685.6069     10.3152
   339.2500     80.6372      0.0000    685.8519     10.3251
   339.5000     80.0771      0.0000    686.1030     10.3519
   339.7500     77.6313      0.0000    686.1037     10.3849
   340.0000     74.4449      0.0000    684.9099     10.4067
   340.2500     72.3760      0.0000    681.3574     10.4138
   340.5000     72.6700      0.0000    676.0916     10.4242
   340.7500     75.0322      0.0000    672.0551     10.4557
   341.0000     78.2498      0.0000    669.8152     10.5046
   341.2500     81.5727      0.0000    665.4378     10.5473
   341.5000     85.1359      0.0000    657.0759     10.5679
   341.7500     89.1085      0.0000    647.7318     10.5801
   342.0000     92.7975      0.0000    638.6610     10.6110
   342.2500     94.9063      0.0000    624.8607     10.6606
   342.5000     94.8135      0.0000    596.6829     10.6911
   342.7500     93.5062      0.0000    547.9243     10.6664
   343.0000     92.9621      0.0000    489.5571     10.5846
   343.2500     94.5560      0.0000    448.2495     10.4662
   343.5000     98.2030      0.0000    444.2927     10.3339
   343.7500    102.8417      0.0000    477.1177     10.2129
   344.0000    107.2481      0.0000    526.3530     10.1266
   344.2500    110.2868      0.0000    565.3747     10.0784
   344.5000    110.9649      0.0000    582.0212     10.0521
   344.7500    108.8224      0.0000    583.1163     10.0290
   345.0000    104.4221      0.0000    581.7209      9.9857
   345.2500     99.3798      0.0000    585.7317      9.9032
   345.5000     95.7442      0.0000    595.5090      9.7943
   345.7500     95.0949      0.0000    607.8270      9.6963
   346.0000     97.8486      0.0000    618.3113      9.6499
   346.2500    102.9738      0.0000    623.8497      9.6903
   346.5000    108.2327      0.0000    626.6217      9.8274
   346.7500    111.2783      0.0000    630.5123     10.0423
   347.0000    111.2222      0.0000    634.7001     10.3200
   347.2500    109.2243      0.0000    637.2495     10.6557
   347.5000    107.3280      0.0000    643.0339     11.0263
   347.7500    106.6803      0.0000    662.7430     11.3990
   348.0000    106.7204      0.0000    698.1368     11.7801
   348.2500    105.8136      0.0000    729.9719     12.2254
   348.5000    102.6841      0.0000    731.1595     12.8032
   348.7500     97.3985      0.0000    691.3709     13.5499
   349.0000     91.0738      0.0000    622.7649     14.4513
   349.2500     84.7964      0.0000    543.8510     15.4506
   349.5000     79.0489      0.0000    466.3503     16.4445
   349.7500     74.0499      0.0000    400.9475     17.2737
   350.0000     70.1922      0.0000    359.8656     17.8012
   350.2500     67.8984      0.0000    348.3450     18.0237
   350.5000     67.1013      0.0000    364.7722     18.0328
   350.7500     67.0114      0.0000    402.4417     17.8790
   351.0000     66.5832      0.0000    449.5637     17.5447
   351.2500     65.5312      0.0000    503.5386     17.0199
   351.5000     64.9365      0.0000    568.1169     16.3332
   351.7500     66.3765      0.0000    626.3882     15.5263
   352.0000     70.1493      0.0000    653.8702     14.6487
   352.2500     74.6197      0.0000    651.9874     13.7467
   352.5000     77.6845      0.0000    640.2042     12.8352
