~Version Information
VERS.                      2.0: CWLS Log ASCII Standard - VERSION 2.0
WRAP.                       NO: One line per depth step
~Well Information Block
STRT.FT               582.2500: 
STOP.FT              2642.5000: 
STEP.FT                 0.2500: 
NULL.                -999.2500: 
COMP.          Petrogulf Corporation: COMPANY
WELL.           Montoya 12-41V: WELL
FLD.           Purgatorie River: FIELD
LOC.           1081' FNL & 605' FEL: LOCATION
CNTY.               Las Animas: COUNTY
SRVC.                         : SERVICE COMPANY
DATE.          Tue Aug 10 10:59:28 2004: LOG DATE
UWI.           05 071 08094 00: UNIQUE WELL ID
STAT.                 Colorado: STATE
~Curve Information Block
DEPT.FT            0 000 00 00: Depth
SP.mV                         : DIL Spontaneous Potential
RILD.Ohm-m                    : DIL Deep Resistivity
RILM.Ohm-m                    : DIL Medium Resistivity
RLL3.Ohm-m                    : DIL Shallow Resistivity
GR.GAPI                       : Gamma Ray
~Parameter Information Block
~A  Depth        SP         RILD        RILM        RLL3         GR     
# ...
  1674.2500    -47.5324     11.9046     13.4215     23.6236    150.2330
  1674.5000    -47.9518     12.1015     13.7139     23.9566    144.4198
  1674.7500    -48.4760     12.3458     13.9847     23.5866    143.0418
  1675.0000    -49.0335     12.6130     14.2470     22.7799    144.7727
  1675.2500    -49.5114     12.8732     14.5141     21.9346    147.6556
  1675.5000    -49.7922     13.1024     14.7922     21.4604    152.0763
  1675.7500    -49.7980     13.2916     15.0772     21.6605    153.5522
  1676.0000    -49.5214     13.4457     15.3531     22.6392    152.0922
  1676.2500    -49.0186     13.5744     15.5966     24.2573    148.8845
  1676.5000    -48.3742     13.6829     15.7836     26.1576    142.5987
  1676.7500    -47.6566     13.7672     15.8980     27.8603    138.8542
  1677.0000    -46.8900     13.8191     15.9385     28.9070    136.1724
  1677.2500    -46.0667     13.8327     15.9201     28.9973    137.1999
  1677.5000    -45.1870     13.8118     15.8713     28.0695    142.7447
  1677.7500    -44.2956     13.7705     15.8283     26.3017    147.8898
  1678.0000    -43.4971     13.7302     15.8282     24.0507    155.1763
  1678.2500    -42.9287     13.7139     15.9048     21.7768    158.8503
  1678.5000    -42.7158     13.7407     16.0857     19.9916    162.3569
  1678.7500    -42.9283     13.8214     16.3899     19.2476    163.4041
  1679.0000    -43.5554     13.9560     16.8271     20.1471    162.6163
  1679.2500    -44.5078     14.1341     17.3945     23.3114    160.0248
  1679.5000    -45.6438     14.3380     18.0741     29.2436    152.2202
  1679.7500    -46.7957     14.5503     18.8322     38.0625    144.1790
  1680.0000    -47.8009     14.7603     19.6210     49.1896    128.4977
  1680.2500    -48.5231     14.9683     20.3858     61.1812    116.8968
  1680.5000    -48.8779     15.1871     21.0774     71.9059    101.2559
  1680.7500    -48.8469     15.4378     21.6635     79.1253     94.1533
  1681.0000    -48.4800     15.7425     22.1373     81.2742     90.8288
  1681.2500    -47.8831     16.1148     22.5150     78.0581     93.5900
  1681.5000    -47.1842     16.5500     22.8292     70.5387    103.4475
  1681.7500    -46.4967     17.0202     23.1187     60.6669    112.2432
  1682.0000    -45.8864     17.4793     23.4199     50.5370    125.9385
  1682.2500    -45.3592     17.8778     23.7636     41.7526    133.9213
  1682.5000    -44.8764     18.1820     24.1721     35.1596    142.4341
  1682.7500    -44.3864     18.3855     24.6596     30.9434    145.5780
  1683.0000    -43.8640     18.5077     25.2320     28.9069    147.4735
  1683.2500    -43.3249     18.5855     25.8861     28.7246    147.6836
  1683.5000    -42.8202     18.6643     26.6105     30.0639    147.0750
  1683.7500    -42.3973     18.7927     27.3883     32.5839    145.8752
  1684.0000    -42.0634     19.0164     28.2000     35.8848    142.3961
  1684.2500    -41.7573     19.3695     29.0279     39.4838    138.9683
  1684.5000    -41.3545     19.8663     29.8592     42.8551    132.7966
  1684.7500    -40.7074     20.4939     30.6866     45.5339    128.6017
  1685.0000    -39.7061     21.2132     31.5071     47.2355    123.4170
  1685.2500    -38.3273     21.9678     32.3203     47.9275    121.2979
  1685.5000    -36.6618     22.7036     33.1257     47.8101    120.2832
  1685.7500    -34.8930     23.3884     33.9203     47.2065    120.4317
  1686.0000    -33.2408     24.0194     34.6982     46.4215    120.1074
  1686.2500    -31.8942     24.6101     35.4476     45.6356    118.7720
  1686.5000    -30.9521     25.1632     36.1435     44.8840    115.4165
  1686.7500    -30.3962     25.6512     36.7495     44.1132    113.2708
  1687.0000    -30.1036     26.0199     37.2190     43.2689    111.6698
  1687.2500    -29.8954     26.2182     37.5079     42.3620    111.7049
  1687.5000    -29.6018     26.2327     37.5946     41.4815    112.2836
  1687.7500    -29.1166     26.1033     37.4916     40.7611    112.3246
  1688.0000    -28.4348     25.9090     37.2480     40.3271    111.3839
  1688.2500    -27.6506     25.7408     36.9366     40.2558    110.3170
  1688.5000    -26.9234     25.6804     36.6319     40.5547    109.1901
  1688.7500    -26.4284     25.7906     36.3926     41.1687    109.4552
  1689.0000    -26.3088     26.1064     36.2482     41.9972    111.5267
  1689.2500    -26.6401     26.6227     36.2006     42.9123    113.3204
  1689.5000    -27.4211     27.2815     36.2344     43.7738    114.9407
  1689.7500    -28.5814     27.9706     36.3295     44.4464    114.6409
  1690.0000    -29.9982     28.5443     36.4759     44.8264    112.1431
  1690.2500    -31.5195     28.8774     36.6846     44.8734    109.7984
  1690.5000    -32.9816     28.9182     36.9852     44.6333    106.8074
  1690.7500    -34.2295     28.7089     37.4208     44.2382    105.6531
  1691.0000    -35.1336     28.3629     38.0357     43.8775    104.9617
  1691.2500    -35.6066     28.0269     38.8660     43.7549    104.9027
  1691.5000    -35.6186     27.8503     39.9323     44.0513    105.4899
  1691.7500    -35.2023     27.9723     41.2393     44.9076    106.6816
  1692.0000    -34.4486     28.5075     42.7715     46.4227    110.0540
  1692.2500    -33.4890     29.5224     44.4927     48.6544    112.9589
  1692.5000    -32.4693     30.9995     46.3460     51.6159    116.0391
  1692.7500    -31.5101     32.7984     48.2529     55.2649    115.4855
  1693.0000    -30.6711     34.6429     50.1257     59.4984    109.1645
  1693.2500    -29.9324     36.1966     51.8806     64.1499    102.0303
  1693.5000    -29.2010     37.2284     53.4604     68.9915     90.2663
  1693.7500    -28.3528     37.7492     54.8537     73.7377     83.5870
  1694.0000    -27.2897     37.9898     56.0914     78.0574     76.7083
  1694.2500    -25.9926     38.2458     57.2266     81.6103     73.9864
  1694.5000    -24.5350     38.7312     58.3063     84.1149     71.7202
  1694.7500    -23.0585     39.5300     59.3449     85.4360     71.0327
  1695.0000    -21.7154     40.6174     60.3049     85.6629     70.8294
  1695.2500    -20.6062     41.9188     61.0997     85.1422     70.9245
  1695.5000    -19.7498     43.3581     61.6106     84.4369     70.8091
  1695.7500    -19.0869     44.8718     61.7242     84.2146     70.4315
  1696.0000    -18.5246     46.3976     61.3802     85.0854     69.6654
  1696.2500    -17.9875     47.8567     60.5973     87.4406     69.2117
  1696.5000    -17.4582     49.1629     59.4843     91.3388     68.7213
  1696.7500    -16.9861     50.2554     58.2061     96.4748     68.5714
  1697.0000    -16.6698     51.1124     56.9424    102.2315     68.8010
  1697.2500    -16.6182     51.7255     55.8405    107.7881     69.1472
  1697.5000    -16.9122     52.0608     54.9956    112.2484     69.1407
  1697.7500    -17.5846     52.0723     54.4376    114.7761     68.4700
  1698.0000    -18.6087     51.7498     54.1408    114.7387     67.3689
  1698.2500    -19.9089     51.1808     54.0330    111.8553     67.7142
  1698.5000    -21.3738     50.5335     54.0112    106.3110     70.9883
  1698.7500    -22.8781     49.9835     53.9640     98.7740     74.5169
  1699.0000    -24.3091     49.6173     53.7956     90.2650     79.8417
  1699.2500    -25.5878     49.3804     53.4427     81.8990     82.6600
  1699.5000    -26.6784     49.0856     52.8919     74.5915     86.0694
  1699.7500    -27.5796     48.5023     52.1753     68.8500     88.3559
  1700.0000    -28.3011     47.4827     51.3534     64.7288     92.0971
  1700.2500    -28.8375     46.0432     50.4962     61.9367     94.3925
  1700.5000    -29.1520     44.3390     49.6592     60.0255     96.4450
  1700.7500    -29.1849     42.5612     48.8697     58.5685     96.4807
  1701.0000    -28.8765     40.8579     48.1270     57.2711     94.8218
  1701.2500    -28.1973     39.3260     47.4133     55.9998     93.2664
  1701.5000    -27.1698     38.0362     46.7078     54.7490     91.5332
  1701.7500    -25.8748     37.0499     46.0005     53.5816     91.0969
  1702.0000    -24.4338     36.4047     45.3009     52.5730     91.1632
