~Version Information
VERS.                      2.0: CWLS Log ASCII Standard - VERSION 2.0
WRAP.                       NO: One line per depth step
~Well Information Block
STRT.FT               650.0000: 
STOP.FT              1080.5000: 
STEP.FT                 0.1000: 
NULL.                -999.2500: 
COMP.          Pioneer Natural Resources: COMPANY
WELL.            Galileo 21-11: WELL
FLD.           Purgatoire River: FIELD
LOC.           407' FNL & 2394' FWL: LOCATION
PROV.                 Colorado: PROVINCE
CNTY.               Las Animas: COUNTRY
SRVC.                Patterson: SERVICE COMPANY
DATE.          Mon Apr 11 16:20:08 2005: LOG DATE
UWI.           05 071 08353 00: UNIQUE WELL ID
~Curve Information Block
DEPT.FT            0 000 00 00: Depth
DCAL.in                       : CDL Caliper
RHOB.g/cc                     : CDL Bulk Density
RHOC.g/cc                     : CDL Density Correction
DPOR.pu                       : CDL Density Porosity
GR.GAPI                       : Gamma Ray
NPOR.pu                       : Neutron Porosity
~Parameter Information Block
~A  Depth       DCAL        RHOB        RHOC        DPOR         GR         NPOR    
   650.0000      8.3144      2.1812     -0.5206     28.4148     30.3132     20.2912
   650.1000      8.3144      2.1356     -0.4142     31.1746     31.6125     21.2646
   650.2000      8.3144      2.0561     -0.5281     35.9919     33.5780     21.9863
   650.3000      8.3158      1.9668     -0.5664     41.4073     34.1304     22.3796
   650.4000      8.3158      1.9016     -0.5749     45.3586     35.3495     22.4007
   650.5000      8.3096      1.8683     -0.6186     47.3752     38.3364     22.6927
   650.6000      8.3096      1.8624     -0.6099     47.7335     40.1060     23.8370
   650.7000      8.3096      1.8832     -0.6250     46.4715     38.9968     25.2440
   650.8000      8.3178      1.9372     -0.6666     43.2020     36.9439     26.1887
   650.9000      8.3178      2.0176     -0.5588     38.3294     35.9209     26.4646
   651.0000      8.3168      2.0969     -0.5124     33.5207     35.4978     25.9370
   651.1000      8.3168      2.1582     -0.5354     29.8031     34.7338     24.7756
   651.2000      8.3168      2.2071     -0.5001     26.8395     33.5736     23.9668
   651.3000      8.3158      2.2508     -0.4504     24.1929     32.2055     23.8201
   651.4000      8.3158      2.2798     -0.4239     22.4373     30.9517     23.3113
   651.5000      8.3171      2.2841     -0.4692     22.1756     30.2204     22.3925
   651.6000      8.3171      2.2690     -0.4663     23.0895     30.6521     21.9720
   651.7000      8.3171      2.2460     -0.4750     24.4835     32.0297     21.7848
   651.8000      8.3178      2.2364     -0.4720     25.0691     32.6674     21.0685
   651.9000      8.3178      2.2615     -0.4679     23.5462     31.4300     20.4577
   652.0000      8.3153      2.3096     -0.4180     20.6320     29.1021     20.9457
   652.1000      8.3153      2.3397     -0.3995     18.8035     27.4797     21.9212
   652.2000      8.3153      2.3298     -0.4269     19.4066     27.7043     22.3188
   652.3000      8.3154      2.2953     -0.4395     21.4974     29.5856     22.1290
   652.4000      8.3154      2.2647     -0.4705     23.3543     32.0227     21.6394
   652.5000      8.3154      2.2543     -0.4839     23.9817     33.6851     21.1241
   652.6000      8.3154      2.2565     -0.4023     23.8497     34.0280     20.8277
   652.7000      8.3154      2.2548     -0.4066     23.9488     33.2842     20.8275
   652.8000      8.2964      2.2461     -0.4207     24.4815     32.2395     21.0908
   652.9000      8.2964      2.2329     -0.4037     25.2785     30.9414     21.1321
   653.0000      8.3129      2.2219     -0.4675     25.9483     30.3284     20.6831
   653.1000      8.3129      2.2228     -0.4459     25.8904     32.0256     20.3709
   653.2000      8.3129      2.2368     -0.4569     25.0429     34.8714     20.6797
   653.3000      8.3153      2.2566     -0.4746     23.8398     36.1869     20.8406
   653.4000      8.3153      2.2701     -0.3781     23.0231     35.7597     20.3249
   653.5000      8.3169      2.2696     -0.4104     23.0524     35.7665     20.1746
   653.6000      8.3169      2.2671     -0.4369     23.2060     37.3331     21.0270
   653.7000      8.3169      2.2738     -0.4112     22.7980     38.8408     21.9982
   653.8000      8.3166      2.2808     -0.3654     22.3765     38.4882     22.2300
   653.9000      8.3166      2.2763     -0.3913     22.6506     36.6147     22.0702
   654.0000      8.3155      2.2635     -0.4143     23.4230     34.1282     22.3698
   654.1000      8.3155      2.2509     -0.4224     24.1876     31.8766     23.4164
   654.2000      8.3155      2.2357     -0.4396     25.1098     30.8554     24.3111
   654.3000      8.3142      2.2089     -0.4471     26.7324     30.7097     24.4858
   654.4000      8.3142      2.1801     -0.5527     28.4768     29.9984     24.2651
   654.5000      8.3149      2.1747     -0.5366     28.8086     29.0290     23.7707
   654.6000      8.3149      2.1901     -0.4636     27.8720     30.0363     23.4186
   654.7000      8.3149      2.1935     -0.4291     27.6691     32.8282     23.8161
   654.8000      8.3154      2.1553     -0.4811     29.9815     34.7126     24.3052
   654.9000      8.3154      2.0641     -0.4707     35.5079     35.0283     23.9166
   655.0000      8.3150      1.9443     -0.6899     42.7672     34.0086     22.7723
   655.1000      8.3150      1.8455     -0.6618     48.7586     32.1116     21.6595
   655.2000      8.3150      1.7699     -0.5967     53.3406     30.2317     21.5722
   655.3000      8.3147      1.6859     -0.7025     58.4313     28.7896     22.6846
   655.4000      8.3147      1.6058     -0.7835     63.2843     27.5512     23.8570
   655.5000      8.3159      1.5595     -0.7552     66.0894     25.5984     24.3285
   655.6000      8.3159      1.5495     -0.7760     66.6940     23.7167     24.4922
   655.7000      8.3159      1.5732     -0.7871     65.2594     23.9467     24.6359
   655.8000      8.3160      1.6236     -0.7481     62.2047     26.0784     24.6696
   655.9000      8.3160      1.6859     -0.7127     58.4284     27.5584     24.4916
   656.0000      8.3152      1.7543     -0.7095     54.2828     27.5488     24.1644
   656.1000      8.3152      1.8250     -0.6647     49.9975     27.5414     23.7972
   656.2000      8.3152      1.8889     -0.6394     46.1255     28.1158     23.2928
   656.3000      8.3160      1.9470     -0.6245     42.6061     28.5298     23.0024
   656.4000      8.3160      2.0048     -0.5403     39.1019     28.7225     23.3795
   656.5000      8.3164      2.0618     -0.5467     35.6512     29.4117     23.9592
   656.6000      8.3164      2.1108     -0.4858     32.6806     30.7194     23.8369
   656.7000      8.3164      2.1373     -0.4212     31.0717     31.7229     23.2045
   656.8000      8.3151      2.1431     -0.4786     30.7185     31.6103     23.2894
   656.9000      8.3151      2.1477     -0.5202     30.4452     30.8954     24.3679
   657.0000      8.3133      2.1562     -0.4413     29.9244     31.0663     25.2136
   657.1000      8.3133      2.1588     -0.5192     29.7716     32.3989     25.3145
   657.2000      8.3133      2.1558     -0.4742     29.9494     33.0975     25.3571
   657.3000      8.3053      2.1594     -0.5038     29.7361     31.8477     25.5104
   657.4000      8.3053      2.1657     -0.4405     29.3515     29.7101     25.3516
   657.5000      8.3123      2.1563     -0.4654     29.9215     28.6771     24.5241
   657.6000      8.3123      2.1346     -0.5197     31.2364     29.1081     23.4906
   657.7000      8.3123      2.1178     -0.4901     32.2570     30.2236     23.3205
   657.8000      8.3142      2.1085     -0.5110     32.8175     31.1853     23.9871
   657.9000      8.3142      2.1061     -0.5091     32.9644     31.1954     24.3926
   658.0000      8.3136      2.1108     -0.5076     32.6788     30.9446     24.1434
   658.1000      8.3136      2.1172     -0.4843     32.2882     30.3766     23.7912
   658.2000      8.3136      2.1217     -0.4567     32.0190     29.6991     23.7966
   658.3000      8.3143      2.1251     -0.4917     31.8102     31.1609     24.3931
   658.4000      8.3143      2.1217     -0.4550     32.0188     34.8340     25.0620
   658.5000      8.3139      2.1005     -0.4654     33.3029     37.7725     25.0471
   658.6000      8.3139      2.0684     -0.5275     35.2513     37.2609     24.4526
   658.7000      8.3139      2.0422     -0.5115     36.8369     34.2739     24.1419
   658.8000      8.3136      2.0280     -0.4903     37.6976     32.4886     24.7279
   658.9000      8.3136      2.0246     -0.5236     37.9032     33.2868     25.3316
   659.0000      8.3146      2.0219     -0.4899     38.0675     34.2775     24.8981
   659.1000      8.3146      2.0125     -0.5686     38.6341     33.7102     24.2201
   659.2000      8.3146      2.0114     -0.5535     38.7013     33.4622     24.4635
   659.3000      8.3137      2.0278     -0.5222     37.7071     34.5407     25.3007
   659.4000      8.3137      2.0404     -0.5214     36.9461     34.7550     25.6216
   659.5000      8.3146      2.0327     -0.5721     37.4107     32.8609     25.4757
