~Version Information
VERS.                      2.0: CWLS Log ASCII Standard - VERSION 2.0
WRAP.                       NO: One line per depth step
~Well Information Block
STRT.FT               890.0000: 
STOP.FT              1589.0000: 
STEP.FT                 0.2500: 
NULL.                -999.2500: 
COMP.          Evergreen Operating Corporation: COMPANY
WELL.            Tomahawk 44-9: WELL
FLD.           Purgatorie River: FIELD
LOC.           434' FSL & 491' FEL: LOCATION
PROV.                 Colorado: PROVINCE
CNTY.               Las Animas: COUNTRY
SRVC.                         : SERVICE COMPANY
DATE.          Sat Sep 11 23:05:26 2004: LOG DATE
UWI.           05 071 08133 00: UNIQUE WELL ID
~Curve Information Block
DEPT.FT            0 000 00 00: Depth
LTEN.lb                       : Surface Line Tension
SN.Ohm-m                      : IEL Short Normal
SP.mV                         : IEL Spontaneous Potential
DIR.Ohm-m                     : IEL Induction Resistivity
GR.GAPI                       : Gamma Ray
~Parameter Information Block
~A  Depth       LTEN         SN          SP         DIR          GR     
   890.0000    803.0700   2000.0000   2040.0000     76.6009     81.1501
   890.2500    806.0526   2000.0000   2040.0000     75.0161     81.9853
   890.5000    808.1919   2000.0000   2040.0000     72.7321     86.1597
   890.7500    808.4542   2000.0000   2040.0000     70.1059     90.5179
   891.0000    807.2893   2000.0000   2040.0000     67.9143     98.2479
   891.2500    806.8629   2000.0000   2040.0000     66.8385    103.4828
   891.5000    809.5253   2000.0000   2040.0000     67.4305    111.0443
   891.7500    815.4347   2000.0000   2040.0000     70.3179    116.1854
   892.0000    821.8223   2000.0000   2040.0000     76.2850    124.5573
   892.2500    825.0063   2000.0000   2040.0000     85.9640    130.5053
   892.5000    823.2197   2000.0000   2040.0000     99.0624    139.4658
   892.7500    817.5157   2000.0000   2040.0000    113.3346    145.1284
   893.0000    810.4294   2000.0000   2040.0000    124.8980    152.5280
   893.2500    804.4443   2000.0000   2040.0000    130.9436    156.3609
   893.5000    801.3808   2000.0000   2040.0000    131.6664    159.8067
   893.7500    801.8625   2000.0000   2040.0000    128.7702    159.9501
   894.0000    804.6920   2000.0000   2040.0000    123.8178    155.5741
   894.2500    807.3466   2000.0000   2040.0000    118.2649    149.3551
   894.5000    807.7233   2000.0000   2040.0000    113.8341    136.6936
   894.7500    805.5045   2000.0000   2040.0000    112.2301    127.8001
   895.0000    801.8815   2000.0000   2040.0000    114.7030    116.7706
   895.2500    798.3284   2000.0000   2040.0000    121.8697    112.3045
   895.5000    795.9720   2000.0000   2040.0000    133.5507    111.2807
   895.7500    795.6672   2000.0000   2040.0000    148.5891    114.1926
   896.0000    797.6643   2000.0000   2040.0000    164.7869    121.4722
   896.2500    800.9914   2000.0000   2040.0000    179.6173    117.0418
   896.5000    803.9422   2000.0000   2040.0000    191.6477    120.0637
   896.7500    805.4949   2000.0000   2040.0000    201.3960    119.3107
   897.0000    805.8656   2000.0000   2040.0000    210.0064    115.4817
   897.2500    805.7980   2000.0000   2040.0000    216.4490    112.7559
   897.5000    805.8360   2000.0000   2040.0000    216.4931    110.7336
   897.7500    806.0985   2000.0000   2040.0000    207.0615    111.1856
   898.0000    806.2217   2000.0000   2040.0000    191.3946    113.7669
   898.2500    805.6024   2000.0000   2040.0000    176.0796    115.8575
   898.5000    804.0314   2000.0000   2040.0000    164.7567    117.8906
   898.7500    802.0330   2000.0000   2040.0000    157.0021    117.6483
   899.0000    800.3367   2000.0000   2040.0000    150.6410    114.0878
   899.2500    799.2017   2000.0000   2040.0000    144.4093    101.3742
   899.5000    798.6189   2000.0000   2040.0000    138.8283     94.2521
   899.7500    799.0150   2000.0000   2040.0000    135.0306     89.6509
   900.0000    801.1656   2000.0000   2040.0000    133.1923     83.9485
   900.2500    805.3414   2000.0000   2040.0000    132.1517     81.0125
   900.5000    810.9261   2000.0000   2040.0000    129.9802     77.7337
   900.7500    816.7346   2000.0000   2040.0000    124.8301     76.4265
   901.0000    821.2098   2000.0000   2040.0000    115.7980     76.4064
   901.2500    822.5768   2000.0000   2040.0000    103.7638     77.8053
   901.5000    819.8895   2000.0000   2040.0000     91.1648     80.9939
   901.7500    814.4182   2000.0000   2040.0000     80.4288     82.7543
   902.0000    809.3602   2000.0000   2040.0000     72.7946     83.4776
   902.2500    807.4944   2000.0000   2040.0000     68.3833     75.8324
   902.5000    809.0314   2000.0000   2040.0000     66.6534     74.3656
   902.7500    811.7546   2000.0000   2040.0000     66.6347     74.0587
   903.0000    812.9108   2000.0000   2040.0000     67.0164     75.7985
   903.2500    811.0140   2000.0000   2040.0000     66.5661     78.6297
   903.5000    806.6552   2000.0000   2040.0000     64.8598     84.9746
   903.7500    802.1619   2000.0000   2040.0000     62.4668     90.0992
   904.0000    800.1790   2000.0000   2040.0000     60.3950     98.0723
   904.2500    802.0854   2000.0000   2040.0000     59.7562     93.5551
   904.5000    807.3993   2000.0000   2040.0000     62.1685     98.6223
   904.7500    814.0294   2000.0000   2040.0000     71.0404    100.8361
   905.0000    818.9893   2000.0000   2040.0000     96.0295    102.9919
   905.2500    820.0327   2000.0000   2040.0000    182.6101    104.0433
   905.5000    817.5576   2000.0000   2040.0000   2417.3855    104.8194
   905.7500    814.1584   2000.0000   2040.0000 100000.0000    104.3942
   906.0000    811.7417   2000.0000   2040.0000 100000.0000    102.6593
   906.2500    809.9980   2000.0000   2040.0000 100000.0000    101.6930
   906.5000    808.1261   2000.0000   2040.0000 100000.0000    101.8585
   906.7500    806.8467   2000.0000   2040.0000 100000.0000    103.0489
   907.0000    807.6981   2000.0000   2040.0000 100000.0000    105.6426
   907.2500    810.7753   2000.0000   2040.0000 100000.0000    107.5530
   907.5000    814.0143   2000.0000   2040.0000 100000.0000    110.5123
   907.7500    814.9051   2000.0000   2040.0000 100000.0000    112.4238
   908.0000    812.5899   2000.0000   2040.0000 100000.0000    114.6248
   908.2500    808.2917   2000.0000   2040.0000 100000.0000    115.2936
   908.5000    804.2552   2000.0000   2040.0000 100000.0000    115.1280
   908.7500    802.3784   2000.0000   2040.0000 100000.0000    114.6654
   909.0000    803.1482   2000.0000   2040.0000 100000.0000    113.8665
   909.2500    805.3491   2000.0000   2040.0000 100000.0000    112.7189
   909.5000    807.0197   2000.0000   2040.0000 100000.0000    108.3058
   909.7500    806.9610   2000.0000   2040.0000 100000.0000    103.2194
   910.0000    805.4768   2000.0000   2040.0000 100000.0000     94.2733
   910.2500    803.8906   2000.0000   2040.0000 100000.0000     89.2958
   910.5000    803.5220   2000.0000   2040.0000 100000.0000     85.1745
   910.7500    804.9088   2000.0000   2040.0000 100000.0000     84.2861
   911.0000    807.6048   2000.0000   2040.0000 100000.0000     83.8258
   911.2500    810.5271   2000.0000   2040.0000 100000.0000     83.4695
   911.5000    812.7459   2000.0000   2040.0000 100000.0000     83.6373
   911.7500    814.2351   2000.0000   2040.0000     29.5155     85.1588
   912.0000    815.7477   2000.0000   2040.0000      7.2226     90.2338
   912.2500    817.8290   2000.0000   2040.0000      4.4434     95.0533
   912.5000    820.1743   2000.0000   2040.0000      3.7446    103.3614
   912.7500    821.9163   2000.0000   2040.0000      3.8262    109.3879
   913.0000    822.2306   2000.0000   2040.0000      4.4641    119.1071
   913.2500    820.8174   2000.0000   2040.0000      5.7284    125.6319
   913.5000    818.3350   2000.0000   2040.0000      7.9926    134.1295
   913.7500    816.2927   2000.0000   2040.0000     12.5129    138.3085
   914.0000    815.5810   2000.0000   2040.0000     24.5091    142.1561
   914.2500    814.8471   2000.0000   2040.0000     89.2070    143.3740
   914.5000    811.5349   2000.0000   2040.0000 100000.0000    143.7371
   914.7500    805.1508   2000.0000   2040.0000 100000.0000    143.0445
   915.0000    798.4877   2000.0000   2040.0000     87.1301    139.9678
   915.2500    795.1889   2000.0000   2040.0000     27.8914    136.2564
   915.5000    796.8481   2000.0000   2040.0000     16.2745    129.0192
   915.7500    802.4776   2000.0000   2040.0000     12.1875    124.3085
   916.0000    809.8932   2000.0000   2040.0000     10.4800    119.5021
   916.2500    817.3468   2000.0000   2040.0000      9.7540    118.4837
   916.5000    824.2194   2000.0000   2040.0000      9.4738    120.5088
   916.7500    830.3519   2000.0000   2040.0000      9.3847    123.9683
   917.0000    835.0670   2000.0000   2040.0000      9.3451    130.8674
   917.2500    837.1290   2000.0000   2040.0000      9.2792    135.1364
   917.5000    835.4332   2000.0000   2040.0000      9.1770    138.5249
   917.7500    829.6685   2000.0000   2040.0000      9.0867    138.1469
