~Version Information
VERS.                      2.0: CWLS Log ASCII Standard - VERSION 2.0
WRAP.                       NO: One line per depth step
~Well Information Block
STRT.FT               720.0000: 
STOP.FT              2730.2000: 
STEP.FT                 0.1000: 
NULL.                -999.2500: 
COMP.          Evergreen Operating Corporation: COMPANY
WELL.            Rangely 22-28: WELL
FLD.           Purgatoire River: FIELD
LOC.           1741' FNL & 2335' FWL: LOCATION
PROV.                 Colorado: PROVINCE
CNTY.               Las Animas: COUNTRY
SRVC.                Patterson: SERVICE COMPANY
DATE.          Thu Sep 16 15:10:36 2004: LOG DATE
UWI.           05 071 08044 00: UNIQUE WELL ID
~Curve Information Block
DEPT.FT            0 000 00 00: Depth
DCAL.in                       : CDL Caliper
DPOR.pu                       : CDL Density Porosity
NPOR.pu                       : Neutron Porosity
RHOB.g/cc                     : CDL Bulk Density
RHOC.g/cc                     : CDL Density Correction
GR.GAPI                       : Gamma Ray
~Parameter Information Block
~A  Depth       DCAL        DPOR        NPOR        RHOB        RHOC         GR     
# ...
  1507.2000      8.2181     20.5861     25.0756      2.3103     -0.0060    139.9627
  1507.3000      8.2281     27.1969     24.9081      2.2013     -0.0386    134.9671
  1507.4000      8.2281     35.0058     24.3907      2.0724     -0.1148    134.0152
  1507.5000      8.2577     42.5414     23.4984      1.9481     -0.1584    134.7353
  1507.6000      8.2577     49.4882     22.5883      1.8334     -0.1474    131.0378
  1507.7000      8.2577     57.0418     21.6473      1.7088     -0.1737    122.8102
  1507.8000      8.3210     65.7339     19.9557      1.5654     -0.2077    113.2841
  1507.9000      8.3210     74.6155     17.1803      1.4188     -0.2439    104.5604
  1508.0000      8.4527     82.7638     13.8591      1.2844     -0.2561     97.5831
  1508.1000      8.4527     89.7616     10.5623      1.1689     -0.2033     91.1942
  1508.2000      8.4527     94.9751      7.3565      1.0829     -0.2205     83.2535
  1508.3000      8.6442     98.5598      4.0073      1.0238     -0.1220     75.2414
  1508.4000      8.6442    102.7213      0.5765      0.9551     -0.0579     70.4357
  1508.5000      8.8065    109.3775     -2.4721      0.8453     -0.0685     66.9235
  1508.6000      8.8065    117.3053     -4.2462      0.7145     -0.1106     62.7549
  1508.7000      8.8065    122.4353     -4.2368      0.6298     -0.2021     62.0137
  1508.8000      9.0114    120.7365     -2.7059      0.6578     -0.1535     67.6427
  1508.9000      9.0114    111.9411     -0.2052      0.8030      0.0042     74.6561
  1509.0000      9.4209     99.9391      2.7618      1.0010      0.1473     76.6052
  1509.1000      9.4209     87.9378      6.0903      1.1990      0.1821     74.6179
  1509.2000      9.4209     75.5746      9.7573      1.4030      0.2587     72.8879
  1509.3000      9.8468     63.0860     13.3196      1.6091      0.3722     72.1769
  1509.4000      9.8468     53.7861     15.9948      1.7625      0.4486     73.1405
  1509.5000      9.7617     49.6529     17.3397      1.8307      0.4018     77.2571
  1509.6000      9.7617     48.4767     17.6274      1.8501      0.3209     82.7516
  1509.7000      9.7617     47.7026     17.3774      1.8629      0.2999     87.0566
  1509.8000      9.1167     48.2058     16.8691      1.8546      0.2553     91.0028
  1509.9000      9.1167     51.7359     15.9187      1.7964      0.0429     94.2098
  1510.0000      8.5851     57.3667     14.2926      1.7034     -0.1136     94.6049
  1510.1000      8.5851     62.3728     12.5818      1.6208     -0.1814     94.5375
  1510.2000      8.5851     64.1565     11.6115      1.5914     -0.1459     97.2830
  1510.3000      8.4843     61.6789     11.5102      1.6323     -0.0573    100.2788
  1510.4000      8.4843     55.8627     11.8958      1.7283      0.1361    100.9932
  1510.5000      8.5491     48.3822     12.4245      1.8517      0.2458    102.0868
  1510.6000      8.5491     40.8949     13.0830      1.9752      0.4088    104.5796
  1510.7000      8.5491     34.4155     13.9302      2.0821      0.3463    108.4035
  1510.8000      8.4748     28.5277     14.8910      2.1793      0.2792    115.8442
  1510.9000      8.4748     23.1138     15.9168      2.2686      0.2704    123.1300
  1511.0000      8.2880     19.0132     17.0087      2.3363      0.2185    123.5890
  1511.1000      8.2880     16.2099     18.1553      2.3825      0.1262    120.1786
  1511.2000      8.2880     14.3141     19.2403      2.4138      0.0997    119.1358
  1511.3000      8.1787     13.6701     20.1710      2.4244      0.0628    121.9751
  1511.4000      8.1787     13.8039     20.9765      2.4222      0.0199    127.8145
  1511.5000      8.1564     13.2996     21.6161      2.4306      0.0252    133.1060
  1511.6000      8.1564     12.0790     21.9756      2.4507      0.0630    136.5102
  1511.7000      8.1564     11.3738     22.1609      2.4623      0.0387    138.8294
  1511.8000      8.1556     11.3150     22.4533      2.4633     -0.0161    137.0394
  1511.9000      8.1556     10.9715     22.8622      2.4690     -0.0197    131.2315
  1512.0000      8.1559     10.4415     23.1938      2.4777      0.0375    127.0451
  1512.1000      8.1559     10.5553     23.2078      2.4758      0.0151    127.9204
  1512.2000      8.1559     11.5278     22.9070      2.4598      0.0201    131.0775
  1512.3000      8.1550     12.6444     22.4813      2.4414     -0.0122    130.2578
  1512.4000      8.1550     12.5665     21.9157      2.4427     -0.0159    124.1334
  1512.5000      8.1533     11.2112     21.4089      2.4650      0.0257    122.1771
  1512.6000      8.1533     10.5329     21.5546      2.4762      0.0849    130.4783
  1512.7000      8.1533     11.2848     22.4101      2.4638      0.0097    138.6276
  1512.8000      8.1520     11.8383     23.1319      2.4547      0.0388    135.1830
  1512.9000      8.1520     11.1403     23.1525      2.4662      0.0216    123.8955
  1513.0000      8.1515      9.9006     22.6961      2.4866      0.0481    116.2815
  1513.1000      8.1515      9.2393     22.2979      2.4976      0.0491    116.1827
  1513.2000      8.1515      8.9307     22.3962      2.5026      0.0239    118.6573
  1513.3000      8.1530      8.1829     22.8847      2.5150      0.0561    119.4056
  1513.4000      8.1530      7.2210     23.4533      2.5309      0.0652    120.1611
  1513.5000      8.1558      6.7701     24.2332      2.5383      0.0854    120.8880
  1513.6000      8.1558      6.8381     25.0896      2.5372      0.0440    118.1690
  1513.7000      8.1558      6.9524     25.5743      2.5353      0.0675    116.6220
  1513.8000      8.1545      7.3328     25.9720      2.5290      0.0619    120.6385
  1513.9000      8.1545      8.1087     26.5235      2.5162     -0.0042    125.3068
  1514.0000      8.1411      8.9580     26.6050      2.5022      0.0315    125.7454
  1514.1000      8.1411     10.1901     26.0987      2.4819      0.0331    124.3948
  1514.2000      8.1411     11.1946     25.7316      2.4653     -0.0466    123.5217
  1514.3000      8.1115     10.7067     25.6005      2.4733      0.0122    122.0358
  1514.4000      8.1115      9.8682     25.4003      2.4872      0.0885    123.3368
  1514.5000      8.0806     10.1183     25.2013      2.4830     -0.0025    129.6564
  1514.6000      8.0806     10.4787     25.0699      2.4771     -0.0011    134.7367
  1514.7000      8.0806     10.3763     25.0096      2.4788      0.0381    133.5446
  1514.8000      8.0649     10.4433     24.8640      2.4777      0.0259    129.5060
  1514.9000      8.0649     10.4402     24.4028      2.4777      0.0093    130.0475
  1515.0000      8.0581     10.0979     23.8427      2.4834      0.0117    133.5396
  1515.1000      8.0581     10.0485     23.5224      2.4842      0.0299    132.0315
  1515.2000      8.0581     10.5652     23.4654      2.4757      0.0261    126.5816
  1515.3000      8.0543     11.0522     23.5373      2.4676      0.0065    122.0204
  1515.4000      8.0543     10.7555     23.5233      2.4725      0.0160    119.0400
  1515.5000      8.0590      9.5632     23.2328      2.4922      0.0428    118.0558
  1515.6000      8.0590      8.4742     22.8639      2.5102      0.0729    118.6448
  1515.7000      8.0590      8.3106     22.8692      2.5129      0.0484    119.7655
  1515.8000      8.0642      8.2649     23.3041      2.5136      0.0061    122.3999
  1515.9000      8.0642      7.7990     23.6303      2.5213      0.0776    122.9524
  1516.0000      8.0659      7.8695     23.5058      2.5202      0.0684    119.1525
  1516.1000      8.0659      8.2592     23.4085      2.5137     -0.0065    116.6236
  1516.2000      8.0659      7.6640     23.7100      2.5235      0.0588    117.5166
  1516.3000      8.0656      6.4631     24.1044      2.5434      0.0737    117.7811
  1516.4000      8.0656      5.7433     24.4244      2.5552      0.0973    114.9110
  1516.5000      8.0590      5.6228     24.8396      2.5572      0.0362    111.4776
  1516.6000      8.0590      5.3947     25.2210      2.5610      0.0358    112.7019
  1516.7000      8.0590      4.5806     25.3802      2.5744      0.0464    117.3497
