~Version Information
VERS.                      2.0: CWLS Log ASCII Standard - VERSION 2.0
WRAP.                       NO: One line per depth step
~Well Information Block
STRT.FT               -11.5000: 
STOP.FT              2395.2500: 
STEP.FT                 0.2500: 
NULL.                -999.2500: 
COMP.          Petrogulf Corporation: COMPANY
WELL.            Montoya 7-21V: WELL
FLD.           Purgatorie River: FIELD
LOC.           738' FSL & 2070' FWL--: LOCATION
CNTY.               Las Animas: COUNTY
SRVC.                         : SERVICE COMPANY
DATE.          Mon Aug 30 15:10:00 2004: LOG DATE
UWI.                          : UNIQUE WELL ID
STAT.                       CO: STATE
~Curve Information Block
DEPT.FT            0 000 00 00: Depth
CCL.                          : Casing Collar Locator
TT3.usec                      : CBL 3' Travel Time
AMP3.mV                       : CBL 3' Amplitude
GR.GAPI                       : Gamma Ray
~Parameter Information Block
~A  Depth       CCL         TT3         AMP3         GR     
# ...
  1094.0000      0.0000    264.1719     50.1579    100.9828
  1094.2500      0.0000    264.1843     50.4520    100.5714
  1094.5000      0.0000    264.1869     50.6659    106.1947
  1094.7500      0.0000    264.1836     50.7960    117.2399
  1095.0000      0.0000    264.1779     50.8776    130.6547
  1095.2500      0.0000    264.1680     50.9998    142.8364
  1095.5000      0.0000    264.1514     51.2478    151.2017
  1095.7500      0.0000    264.1281     51.6417    154.5498
  1096.0000      0.0000    264.0999     52.1417    153.0092
  1096.2500      0.0000    264.0712     52.6841    148.1693
  1096.5000      0.0000    264.0485     53.1908    142.6024
  1096.7500      0.0000    264.0384     53.5732    138.3942
  1097.0000      0.0000    264.0425     53.7758    136.0793
  1097.2500      0.0000    264.0552     53.8188    135.0184
  1097.5000      0.0000    264.0644     53.7735    134.4366
  1097.7500      0.0000    264.0583     53.6909    134.2493
  1098.0000      0.0000    264.0363     53.5694    135.2083
  1098.2500      0.0000    264.0146     53.3969    137.9664
  1098.5000      0.0000    264.0152     53.2108    141.7459
  1098.7500      0.0000    264.0463     53.0930    144.5798
  1099.0000      0.0000    264.0949     53.0911    145.3168
  1099.2500      0.0000    264.1422     53.1530    144.8884
  1099.5000      0.0000    264.1805     53.1631    145.2433
  1099.7500      0.0000    264.2114     53.0569    147.2913
  1100.0000      0.0000    264.2323     52.8846    150.0222
  1100.2500      0.0000    264.2334     52.7517    151.6251
  1100.5000      0.0000    264.2095     52.7086    151.6091
  1100.7500      0.0000    264.1679     52.7110    151.7236
  1101.0000      0.0000    264.1248     52.6628    154.4135
  1101.2500      0.0000    264.0940     52.4613    160.4278
  1101.5000      0.0000    264.0780     51.9995    168.1789
  1101.7500      0.0000    264.0723     51.1651    175.1194
  1102.0000      0.0000    264.0796     49.8639    179.3899
  1102.2500      0.0000    264.1214     48.0497    180.3752
  1102.5000      0.0000    264.2317     45.7372    178.2556
  1102.7500      0.0000    264.4433     43.0109    173.8314
  1103.0000      0.0000    264.8194     40.0356    168.8545
  1103.2500      0.0000    265.5560     37.0332    165.4850
  1103.5000      0.0000    267.1186     34.1997    164.5747
  1103.7500      0.0000    270.2469     31.6108    164.7990
  1104.0000      0.0000    275.5822     29.2097    164.0360
  1104.2500      0.0000    282.9745     26.8937    161.4840
  1104.5000      0.0000    291.1377     24.6207    157.9575
  1104.7500      0.0000    298.2821     22.4474    154.4869
  1105.0000      0.0000    303.2570     20.4877    151.6199
  1105.2500      0.0000    306.0584     18.8458    150.1030
  1105.5000      0.0000    307.3773     17.5770    151.1056
  1105.7500      0.0000    307.9108     16.6852    155.0434
  1106.0000      0.0000    308.0658     16.1358    160.5700
  1106.2500      0.0000    308.0242     15.8801    165.3554
  1106.5000      0.0000    307.8815     15.8753    167.9232
  1106.7500      0.0000    307.7080     16.0774    168.4949
  1107.0000      0.0000    307.5446     16.4230    167.9186
  1107.2500      0.0000    307.3908     16.8420    166.1438
  1107.5000      0.0000    307.2278     17.2943    162.3509
  1107.7500      0.0000    307.0552     17.7792    156.4891
  1108.0000      0.0000    306.9038     18.3074    149.8313
  1108.2500      0.0000    306.8735     18.8701    143.7175
  1108.5000      0.0000    307.2326     19.4214    138.3241
  1108.7500      0.0000    308.5450     19.8538    132.8922
  1109.0000      0.0000    311.5424     19.9982    126.7216
  1109.2500      0.0000    316.5675     19.7094    119.8360
  1109.5000      0.0000    323.3552     18.9853    113.1524
  1109.7500      0.0000    332.6052     17.9505    108.2576
  1110.0000      0.0000    348.8719     16.7065    106.8164
  1110.2500      0.0000    380.6894     15.2851    109.7001
  1110.5000      0.0000    434.5244     13.7647    116.2330
  1110.7500      0.0000    506.5338     12.3227    124.2264
  1111.0000      2.0000    581.6555     11.1153    131.1192
  1111.2500      0.0000    643.0906     10.1573    135.4805
  1111.5000     -1.9757    682.7124      9.3516    137.3496
  1111.7500      0.0000    701.4562      8.6225    137.3045
  1112.0000      0.0000    702.5548      8.0123    135.9532
  1112.2500      0.0000    689.6697      7.6417    134.5014
  1112.5000      0.0000    672.0486      7.5617    134.8634
  1112.7500      0.0000    664.7644      7.6581    138.4060
  1113.0000      0.0000    677.7621      7.7375    144.6041
  1113.2500      0.0000    706.4340      7.6994    150.9581
  1113.5000      0.0000    736.7659      7.5925    154.1574
  1113.7500      0.0000    758.2079      7.5256    151.9552
  1114.0000      0.0000    769.4638      7.5618    144.9497
  1114.2500      0.0000    774.7652      7.6762    136.7094
  1114.5000      0.0000    778.0842      7.7772    131.3950
  1114.7500      0.0000    780.5569      7.7709    130.8203
  1115.0000      0.0000    781.3401      7.6364    133.7378
  1115.2500      0.0000    779.9407      7.4452    137.4521
  1115.5000      0.0000    777.5447      7.2860    139.8249
  1115.7500      0.0000    776.0806      7.1676    140.3717
  1116.0000      0.0000    776.5100      7.0130    139.9028
  1116.2500      0.0000    778.2675      6.7488    139.0544
  1116.5000      0.0000    779.9754      6.3792    137.4870
  1116.7500      0.0000    780.2441      5.9663    134.6271
  1117.0000      0.0000    777.9050      5.5640    130.3640
  1117.2500      0.0000    772.4222      5.1937    124.6561
  1117.5000      0.0000    764.8555      4.8667    117.2341
  1117.7500      0.0000    757.8925      4.6064    108.1008
  1118.0000      0.0000    753.6970      4.4421     97.8274
  1118.2500      0.0000    751.6965      4.3894     87.3390
  1118.5000      0.0000    749.2397      4.4359     77.8111
  1118.7500      0.0000    744.3247      4.5423     70.4968
  1119.0000      0.0000    737.2115      4.6636     65.9544
  1119.2500      0.0000    729.9160      4.7719     63.4022
  1119.5000      0.0000    724.7306      4.8632     61.1774
  1119.7500      0.0000    722.8947      4.9541     57.9368
  1120.0000      0.0000    724.2502      5.0683     53.4624
  1120.2500      0.0000    727.7520      5.2154     48.5626
  1120.5000      0.0000    731.5760      5.3819     44.4533
  1120.7500      0.0000    732.5146      5.5438     42.0825
  1121.0000      0.0000    726.6468      5.6939     41.8125
  1121.2500      0.0000    712.2137      5.8535     43.6883
  1121.5000      0.0000    691.9197      6.0549     47.8140
  1121.7500      0.0000    671.1095      6.3108     54.0475
  1122.0000      0.0000    653.4899      6.5955     61.2074
  1122.2500      0.0000    640.2299      6.8495     67.1106
  1122.5000      0.0000    633.4413      7.0056     70.0193
  1122.7500      0.0000    637.0726      7.0314     70.1292
  1123.0000      0.0000    651.7238      6.9546     69.3269
  1123.2500      0.0000    670.8071      6.8304     69.5089
  1123.5000      0.0000    684.6211      6.6840     71.3940
  1123.7500      0.0000    687.3174      6.5075     74.6489
  1124.0000      0.0000    679.1268      6.3028     78.5159
  1124.2500      0.0000    664.4113      6.1000     82.3046
  1124.5000      0.0000    650.0638      5.9324     85.7892
  1124.7500      0.0000    644.3848      5.8113     89.3222
  1125.0000      0.0000    653.2911      5.7256     93.4284
  1125.2500      0.0000    675.0507      5.6488     98.1769
  1125.5000      0.0000    700.1448      5.5501    102.9722
  1125.7500      0.0000    718.2925      5.4042    107.1310
  1126.0000      0.0000    725.8151      5.1973    110.6588
  1126.2500      0.0000    726.3679      4.9358    114.3046
  1126.5000      0.0000    726.2054      4.6536    118.9768
  1126.7500      0.0000    729.5035      4.4005    125.2159
  1127.0000      0.0000    736.6888      4.2099    132.7314
  1127.2500      0.0000    745.1318      4.0831    139.9248
