~Version Information
VERS.                      2.0: CWLS Log ASCII Standard - VERSION 2.0
WRAP.                       NO: One line per depth step
~Well Information Block
STRT.FT                -3.0000: 
STOP.FT              1828.0000: 
STEP.FT                 0.2500: 
NULL.                -999.2500: 
COMP.          Pioneer Natural Resources: COMPANY
WELL.           Guajardo 24-16: WELL
FLD.           Purgatorie River: FIELD
LOC.           883' FSL & 2147' FWL--: LOCATION
PROV.                       CO: PROVINCE
CNTY.               Las Animas: COUNTRY
SRVC.          Patterson Wireline: SERVICE COMPANY
DATE.          Wed Aug 10 11:02:25 2005: LOG DATE
UWI.           05 071 08377 00: UNIQUE WELL ID
~Curve Information Block
DEPT.FT            0 000 00 00: Depth
CCL.                          : Casing Collar Locator
TT3.usec                      : CBL 3' Travel Time
AMP3.mV                       : CBL 3' Amplitude
GR.GAPI                       : Gamma Ray
~Parameter Information Block
~A  Depth       CCL         TT3         AMP3         GR     
# ...
   131.0000      0.0000    890.9998      8.5052     54.5293
   131.2500      0.0000    880.9866      8.5266     57.6538
   131.5000      0.0000    871.9731      8.5533     59.7094
   131.7500      0.0000    864.3455      8.5729     60.7817
   132.0000      0.0000    859.0338      8.5727     60.8835
   132.2500      0.0000    856.1316      8.5482     59.8970
   132.5000      0.0000    854.9156      8.5073     57.9631
   132.7500      0.0000    854.5377      8.4641     55.7868
   133.0000      0.0000    854.4539      8.4304     54.3019
   133.2500      0.0000    854.4247      8.4109     54.0116
   133.5000      0.0000    854.3910      8.4040     54.9043
   133.7500      0.0000    854.3776      8.4044     56.9975
   134.0000      0.0000    854.4255      8.4086     60.4392
   134.2500      0.0000    854.5582      8.4162     64.7343
   134.5000      0.0000    854.7715      8.4274     68.3481
   134.7500      0.0000    855.0310      8.4400     69.6186
   135.0000      0.0000    855.2715      8.4503     68.0832
   135.2500      0.0000    855.4162      8.4560     64.8247
   135.5000      0.0000    855.4189      8.4587     61.6449
   135.7500      0.0000    855.2952      8.4604     59.8558
   136.0000      0.0000    855.1103      8.4600     59.5645
   136.2500      0.0000    854.9367      8.4520     59.8735
   136.5000      0.0000    854.8145      8.4320     59.7632
   136.7500      0.0000    854.7417      8.4024     58.8468
   137.0000      0.0000    854.6939      8.3726     57.4996
   137.2500      0.0000    854.6470      8.3529     56.4933
   137.5000      0.0000    854.5850      8.3477     56.5515
   137.7500      0.0000    854.4980      8.3535     58.1208
   138.0000      0.0000    854.3828      8.3616     61.3041
   138.2500      0.0000    854.2477      8.3649     65.8392
   138.5000      0.0000    854.1129      8.3617     71.2939
   138.7500      0.0000    854.0023      8.3537     77.3502
   139.0000      0.0000    853.9305      8.3442     83.4994
   139.2500      0.0000    853.8967      8.3354     88.3483
   139.5000      0.0000    853.8890      8.3289     90.0578
   139.7500      0.0000    853.8970      8.3253     88.0321
   140.0000      0.0000    853.9200      8.3264     83.6663
   140.2500      0.0000    853.9697      8.3356     79.0300
   140.5000      0.0000    854.0652      8.3558     75.3269
   140.7500      0.0000    854.2269      8.3865     72.9223
   141.0000      0.0000    854.4628      8.4231     72.2263
   141.2500      0.0000    854.7418      8.4620     73.8376
   141.5000      0.0000    854.9699      8.5061     77.9234
   141.7500      0.0000    854.9565      8.5623     83.8679
   142.0000      0.0000    854.3046      8.6348     90.4367
   142.2500      0.0000    852.1766      8.7204     96.0643
   142.5000      0.0000    847.2053      8.8084     99.2569
   142.7500      0.0000    838.1738      8.8875     99.2598
   143.0000      0.0000    825.5493      8.9518     96.4845
   143.2500      0.0000    812.5668      9.0036     92.1695
   143.5000      0.0000    804.1874      9.0506     87.7556
   143.7500      0.0000    804.1641      9.0993     84.6398
   144.0000      0.0000    812.5240      9.1512     83.9321
   144.2500      0.0000    825.5625      9.2015     85.7163
   144.5000      0.0000    838.3478      9.2425     88.6315
   144.7500      0.0000    847.6465      9.2691     90.7162
   145.0000      0.0000    852.9695      9.2837     90.8097
   145.2500      0.0000    855.5041      9.2967     88.9830
   145.5000      0.0000    856.5861      9.3190     85.8785
   145.7500      0.0000    857.0035      9.3539     82.1347
   146.0000      0.0000    857.0752      9.3949     78.3229
   146.2500      0.0000    856.9139      9.4308     74.8624
   146.5000      0.0000    856.5848      9.4548     71.9864
   146.7500      0.0000    856.1575      9.4689     70.0470
   147.0000      0.0000    855.7084      9.4809     69.3511
   147.2500      0.0000    855.3068      9.4970     69.2896
   147.5000      0.0000    854.9818      9.5179     68.3961
   147.7500      0.0000    854.6448      9.5397     66.0499
   148.0000      0.0000    853.9359      9.5578     63.6336
   148.2500      0.0000    851.9848      9.5709     63.2028
   148.5000      0.0000    847.4055      9.5830     65.1392
   148.7500      0.0000    839.1270      9.5996     67.6934
   149.0000      0.0000    828.0703      9.6227     68.7327
   149.2500      0.0000    818.0043      9.6486     67.4245
   149.5000      0.0000    813.5500      9.6697     64.3562
   149.7500      0.0000    816.1254      9.6793     60.6846
   150.0000      0.0000    821.8594      9.6777     57.4088
   150.2500      0.0000    824.3524      9.6719     55.0778
   150.5000      0.0000    820.1183      9.6705     53.7927
   150.7500      0.0000    811.5735      9.6773     53.3621
   151.0000      0.0000    804.9882      9.6910     53.3931
   151.2500      0.0000    805.6569      9.7084     53.2765
   151.5000      0.0000    814.4107      9.7284     52.3101
   151.7500      0.0000    827.6807      9.7529     50.0404
   152.0000      0.0000    840.4544      9.7836     46.6253
   152.2500      0.0000    849.5444      9.8205     43.0340
   152.5000      0.0000    854.9454      9.8607     40.7664
   152.7500      0.0000    859.3183      9.8998     40.9227
   153.0000      0.0000    867.1678      9.9329     43.3369
   153.2500      0.0000    883.6993      9.9567     46.7900
   153.5000      0.0000    911.2343      9.9685     50.0487
   153.7500      0.0000    943.8000      9.9678     52.3945
   154.0000      0.0000    966.7759      9.9568     53.4328
   154.2500      0.0000    966.8041      9.9418     53.1230
   154.5000      0.0000    943.8533      9.9295     51.9953
   154.7500      0.0000    911.2340      9.9229     50.6591
   155.0000      0.0000    883.5677      9.9200     49.0697
   155.2500      0.0000    866.9501      9.9157     46.8471
   155.5000      0.0000    859.4648      9.9046     44.2094
   155.7500      0.0000    856.8326      9.8818     41.9760
   156.0000      0.0000    856.0420      9.8461     40.6442
   156.2500      0.0000    855.7554      9.8026     40.0281
   156.5000      0.0000    855.5389      9.7599     39.9939
   156.7500      0.0000    855.1949      9.7241     41.1128
   157.0000      0.0000    854.3527      9.6941     44.0582
   157.2500      0.0000    852.1491      9.6641     48.3353
   157.5000      0.0000    847.1345      9.6291     52.2423
   157.7500      0.0000    837.9338      9.5883     54.4725
   158.0000      0.0000    824.6317      9.5448     55.4516
   158.2500      0.0000    809.5801      9.5019     56.7911
   158.5000      0.0000    796.2740      9.4601     59.6106
   158.7500      0.0000    787.0824      9.4180     63.6081
   159.0000      0.0000    782.1154      9.3778     67.6612
   159.2500      0.0000    780.0153      9.3475     70.9741
   159.5000      0.0000    779.3275      9.3327     73.3744
   159.7500      0.0000    779.1646      9.3268     74.7473
   160.0000      0.0000    779.1488      9.3147     74.8674
   160.2500      0.0000    779.1605      9.2875     73.9919
   160.5000      0.0000    779.1796      9.2496     72.9966
   160.7500      0.0000    779.2170      9.2107     72.5476
   161.0000      0.0000    779.2825      9.1762     72.5231
   161.2500      0.0000    779.3669      9.1471     72.4763
   161.5000      0.0000    779.4518      9.1245     72.3573
   161.7500      0.0000    779.5215      9.1126     72.5756
   162.0000      0.0000    779.5634      9.1180     73.5149
   162.2500      0.0000    779.5682      9.1423     75.0415
   162.5000      0.0000    779.5439      9.1754     76.3070
   162.7500      0.0000    779.5184      9.1981     76.1870
   163.0000      0.0000    779.5121      9.1967     74.4608
   163.2500      0.0000    779.5085      9.1747     72.5347
   163.5000      0.0000    779.4593      9.1469     72.2451
   163.7500      0.0000    779.2952      9.1198     73.8402
   164.0000      0.0000    778.9322      9.0806     75.9534
   164.2500      0.0000    778.3380      9.0088     77.4734
