~Version Information
VERS.                      2.0: CWLS Log ASCII Standard - VERSION 2.0
WRAP.                       NO: One line per depth step
~Well Information Block
STRT.FT                -8.5000: 
STOP.FT              1597.7500: 
STEP.FT                 0.2500: 
NULL.                -999.2500: 
COMP.          Pioneer Natural Resources: COMPANY
WELL.          Dude Canyon 22-32 Tr: WELL
FLD.           Purgatorie River: FIELD
LOC.           1741' FnL & 2331' FWL--: LOCATION
PROV.                       CO: PROVINCE
CNTY.               Las Animas: COUNTRY
SRVC.          Patterson Wireline: SERVICE COMPANY
DATE.          Fri Jul 15 14:44:37 2005: LOG DATE
UWI.           05 071 08421 00: UNIQUE WELL ID
~Curve Information Block
DEPT.FT            0 000 00 00: Depth
CCL.                          : Casing Collar Locator
TT3.usec                      : CBL 3' Travel Time
AMP3.mV                       : CBL 3' Amplitude
GR.GAPI                       : Gamma Ray
~Parameter Information Block
~A  Depth       CCL         TT3         AMP3         GR     
# ...
    92.0000      0.0000    872.6508      8.5235     51.3652
    92.2500      0.0000    886.4559      8.1644     53.3155
    92.5000      0.0000    920.0665      7.7467     54.9694
    92.7500      0.0000    973.1289      7.2877     55.5264
    93.0000      0.0000   1033.0486      6.8306     54.8699
    93.2500      0.0000   1084.2925      6.4553     53.3565
    93.5000      0.0000   1118.4163      6.2276     51.2705
    93.7500      0.0000   1134.5537      6.1552     48.5922
    94.0000     -2.0000   1134.4290      6.2189     45.3032
    94.2500     -1.5298   1118.3075      6.4406     41.8626
    94.5000      0.0000   1081.4375      6.9039     39.2414
    94.7500      0.0000   1013.3289      7.6758     38.2881
    95.0000      0.0000    907.6307      8.6733     38.9856
    95.2500      0.0000    779.8694      9.6265     40.4002
    95.5000      0.0000    672.1010     10.2423     41.5585
    95.7500      0.0000    629.9215     10.4308     42.3507
    96.0000      0.0000    668.5106     10.3406     43.3652
    96.2500      0.0000    761.0008     10.1867     44.9473
    96.5000      0.0000    860.7347     10.0904     46.8156
    96.7500      0.0000    934.4470     10.0637     48.5281
    97.0000      0.0000    976.6761     10.0722     49.8711
    97.2500      0.0000   1000.1342     10.0827     50.7537
    97.5000      0.0000   1019.0002     10.0765     51.2382
    97.7500      0.0000   1040.1699     10.0505     51.8749
    98.0000      0.0000   1063.1740     10.0176     53.6155
    98.2500      0.0000   1081.9971     10.0017     57.1845
    98.5000      0.0000   1086.2294     10.0232     62.5733
    98.7500      0.0000   1065.4845     10.0819     69.0027
    99.0000      0.0000   1017.9924     10.1540     75.2488
    99.2500      0.0000    955.5024     10.2065     80.2309
    99.5000      0.0000    896.8442     10.2196     83.5510
    99.7500      0.0000    855.3653     10.2003     85.4484
   100.0000      0.0000    832.7563     10.1755     86.2687
   100.2500      0.0000    823.0098     10.1717     86.1381
   100.5000      0.0000    819.3636     10.1982     85.0479
   100.7500      0.0000    817.7790     10.2497     83.1287
   101.0000      0.0000    817.0395     10.3187     81.0274
   101.2500      0.0000    818.1119     10.4010     79.8262
   101.5000      0.0000    823.2018     10.4926     80.0605
   101.7500      0.0000    833.2228     10.5853     80.8587
   102.0000      0.0000    844.8743     10.6651     80.6361
   102.2500      0.0000    851.5817     10.7156     78.7365
   102.5000      0.0000    849.1362     10.7252     76.1286
   102.7500      0.0000    839.6166     10.6964     74.4678
   103.0000      0.0000    828.6174     10.6514     74.5717
   103.2500      0.0000    819.8876     10.6253     75.8349
   103.5000      0.0000    813.7407     10.6473     77.0295
   103.7500      0.0000    809.1473     10.7226     77.4066
   104.0000      0.0000    805.5018     10.8297     76.8114
   104.2500      0.0000    802.6283     10.9357     75.1819
   104.5000      0.0000    800.5330     11.0175     72.6253
   104.7500      0.0000    799.5249     11.0756     69.7475
   105.0000      0.0000    799.3798     11.1310     67.1623
   105.2500      0.0000    797.7642     11.2059     64.7311
   105.5000      0.0000    790.6135     11.3047     61.8215
   105.7500      0.0000    775.5716     11.4132     58.3137
   106.0000      0.0000    755.0435     11.5175     54.9894
   106.2500      0.0000    734.9120     11.6194     52.7609
   106.5000      0.0000    720.0763     11.7309     51.6878
   106.7500      0.0000    711.6494     11.8529     50.9699
   107.0000      0.0000    707.9110     11.9616     49.9283
   107.2500      0.0000    706.7180     12.0203     48.7710
   107.5000      0.0000    707.0699     12.0057     48.2803
   107.7500      0.0000    709.7543     11.9234     48.9059
   108.0000      0.0000    717.9941     11.7996     50.2489
   108.2500      0.0000    737.2318     11.6582     51.3806
   108.5000      0.0000    772.0943     11.5068     51.5961
   108.7500      0.0000    820.8674     11.3419     50.8859
   109.0000      0.0000    872.7159     11.1653     49.7285
   109.2500      0.0000    912.7401     10.9897     48.4591
   109.5000      0.0000    932.6857     10.8275     47.0147
   109.7500      0.0000    937.9382     10.6803     45.4999
   110.0000      0.0000    943.3789     10.5433     44.6728
   110.2500      0.0000    961.3282     10.4128     45.2634
   110.5000      0.0000    993.2637     10.2869     46.9375
   110.7500      0.0000   1030.9371     10.1630     48.5911
   111.0000      0.0000   1060.9473     10.0380     49.6026
   111.2500      0.0000   1068.4175      9.9134     50.1291
   111.5000      0.0000   1043.4227      9.7979     50.2157
   111.7500      0.0000    989.5979      9.7002     49.4132
   112.0000      0.0000    926.4158      9.6196     47.5378
   112.2500      0.0000    880.0161      9.5395     45.2506
   112.5000      0.0000    868.7343      9.4380     43.4849
   112.7500      0.0000    893.5176      9.3113     42.5573
   113.0000      0.0000    938.8659      9.1881     42.0965
   113.2500      0.0000    982.5478      9.1112     41.6859
   113.5000      0.0000   1007.4603      9.1008     41.3660
   113.7500      0.0000   1007.9828      9.1414     41.4977
   114.0000      0.0000    988.6014      9.2034     42.1275
   114.2500      0.0000    958.2899      9.2670     42.6430
   114.5000      0.0000    925.3641      9.3228     42.3668
   114.7500      0.0000    895.4565      9.3595     41.4094
   115.0000      0.0000    871.9409      9.3621     40.5668
   115.2500      0.0000    856.2265      9.3257     40.3630
   115.5000      0.0000    847.5132      9.2661     40.4603
   115.7500      0.0000    843.4547      9.2153     40.0659
   116.0000      0.0000    841.8091      9.2042     38.7727
   116.2500      0.0000    841.5829      9.2456     36.9685
   116.5000      0.0000    843.0148      9.3326     35.4839
   116.7500      0.0000    846.7131      9.4511     34.9621
   117.0000      0.0000    852.5927      9.5872     35.6414
   117.2500      0.0000    859.2375      9.7239     37.5624
   117.5000      0.0000    864.2836      9.8356     40.6201
   117.7500      0.0000    865.2421      9.8963     44.4338
   118.0000      0.0000    860.2248      9.9012     48.4674
   118.2500      0.0000    848.9083      9.8800     52.1875
   118.5000      0.0000    833.9032      9.8810     54.8362
   118.7500      0.0000    820.8081      9.9325     55.4682
   119.0000      0.0000    815.4826     10.0178     53.9576
   119.2500      0.0000    820.1456     10.0884     51.8419
   119.5000      0.0000    831.7501     10.1055     51.3206
   119.7500      0.0000    844.4643     10.0676     53.0549
   120.0000      0.0000    854.7232      9.9993     55.3152
   120.2500      0.0000    864.1691      9.9174     55.6052
   120.5000      0.0000    877.0433      9.8120     53.0221
   120.7500      0.0000    894.9714      9.6580     48.9141
   121.0000      0.0000    915.7619      9.4435     45.4601
   121.2500      0.0000    936.8393      9.1847     43.9384
   121.5000      0.0000    957.0129      8.9185     44.2519
   121.7500      0.0000    974.1980      8.6800     45.6312
   122.0000      0.0000    985.0836      8.4853     47.5134
   122.2500      0.0000    988.9991      8.3287     49.7446
   122.5000      0.0000    989.6503      8.1952     51.9986
   122.7500      0.0000    991.5839      8.0733     53.3387
   123.0000      0.0000    997.0313      7.9589     52.8103
   123.2500      0.0000   1007.2776      7.8466     50.5006
   123.5000      0.0000   1023.9384      7.7233     47.7181
   123.7500      0.0000   1045.9658      7.5759     46.0264
   124.0000      0.0000   1067.8030      7.4064     46.1608
   124.2500      0.0000   1083.7646      7.2385     47.8016
   124.5000      0.0000   1092.6261      7.1066     50.2066
   124.7500      0.0000   1095.6910      7.0336     52.9221
   125.0000      0.0000   1092.2896      7.0188     55.9285
   125.2500      0.0000   1079.3868      7.0459     59.3115
