~Version Information
 VERS.                                  2.0 : CWLS LAS VERSION
 WRAP.                                   NO : WRAPING MODE
 SWARE .                 MController 2.5.0N : SOFTWARE VERSION
~Well Information
 WELL.                          Cluck 21-25 : WELL
 COMP.    PIONEER NATURAL RESOURCES USA INC : COMPANY
 FLD.                      PURGATOIRE RIVER : FIELD
 LOC.                  NE/NW Sec 25 32S 67W : LOCATION
 DATE.                           6/5-6/2005 : DATE(S) LOGGED
 SRVC.       BLANCO GEOLOGICAL SERVICES LLC : SERVICE COMPANY
 STAT.                                   CO : STATE
 CNTY.                           LAS ANIMAS : COUNTY
 CTRY.                                  USA : COUNTRY
 API.                       05-071-08397-00 : API NUMBER
 STRT.FT                             296.00 : START DEPTH
 STOP.FT                            2730.00 : STOP DEPTH
 STEP.FT                               1.00 : DEPTH INCREMENT
 NULL.                                -9999 : NULL VALUE
~Curve information
 DEPTH.FT                                   :
 ROP.MIN/FT                                 :
 GAS.UNITS                                  :
~ASCII Log data
# ...
       896.0         0.10         14.0 
       897.0         0.15         11.8 
       898.0         0.07         11.8 
       899.0         0.20         10.9 
       900.0         0.27         10.9 
       901.0        10.65         13.7 
       902.0         0.10         12.0 
       903.0         0.73         12.6 
       904.0         1.48         13.2 
       905.0         0.07         12.7 
       906.0         0.10         12.7 
       907.0         0.10         12.4 
       908.0         0.10         12.4 
       909.0         0.10         11.1 
       910.0         0.07         11.1 
       911.0         0.13         11.1 
       912.0         0.07         11.7 
       913.0         0.13         11.7 
       914.0         0.10         12.2 
       915.0         0.10         12.2 
       916.0         0.10         11.7 
       917.0         0.13         11.7 
       918.0         0.07         11.7 
       919.0         0.13         13.6 
       920.0         0.07         13.6 
       921.0         0.83         12.7 
       922.0         1.78         12.0 
       923.0         1.57         10.0 
       924.0         1.65          9.5 
       925.0         1.30          8.7 
       926.0         0.63          8.1 
       927.0         0.10          8.1 
       928.0         0.37          6.9 
       929.0         0.35          6.8 
       930.0         0.53          5.4 
       931.0         0.30          4.8 
       932.0         0.70          5.9 
       933.0         0.67          6.4 
       934.0         0.53          7.3 
       935.0         0.30          5.7 
       936.0         0.32          5.8 
       937.0         0.37          5.7 
       938.0         0.40          5.7 
       939.0         0.33          5.5 
       940.0         0.33          5.8 
       941.0         0.37          4.7 
       942.0         0.33          4.9 
       943.0         0.25          3.2 
       944.0         0.17          3.2 
       945.0         0.20          3.2 
       946.0         0.17          2.2 
       947.0         0.20          2.5 
       948.0         0.30          2.6 
       949.0         0.73          2.3 
       950.0         0.43          1.4 
       951.0         0.17          1.2 
       952.0         0.17          0.3 
       953.0         0.17          0.3 
       954.0         0.13          0.5 
       955.0         0.17          0.4 
       956.0         0.23          0.4 
       957.0         0.35          0.3 
       958.0         1.97          0.3 
       959.0         1.28          1.5 
       960.0         0.20          0.5 
       961.0         4.18         11.6 
       962.0         0.17         14.6 
       963.0         0.17         14.6 
       964.0         0.10         16.1 
       965.0         0.17         16.1 
       966.0         0.13         13.8 
       967.0         0.13          9.8 
       968.0         0.13          9.8 
       969.0         0.17          5.1 
       970.0         0.18          4.5 
       971.0         0.17          2.8 
       972.0         0.17          3.5 
       973.0         0.23          4.1 
       974.0         0.27          5.0 
       975.0         0.27          6.1 
       976.0         0.27          5.8 
       977.0         0.13          4.0 
       978.0         0.23          3.1 
       979.0         0.23          3.1 
       980.0         0.33          3.0 
       981.0         0.50          4.0 
       982.0         0.48          4.6 
       983.0         0.27          6.2 
       984.0         0.27          6.7 
       985.0         0.47          6.7 
       986.0         0.13          4.7 
       987.0         0.10          4.7 
       988.0         0.13          4.7 
       989.0         0.10          4.7 
       990.0         0.33          4.7 
       991.0         7.37         10.9 
       992.0         0.40          4.6 
       993.0         0.33          1.7 
       994.0         0.35          1.2 
       995.0         0.47          0.1 
       996.0         0.47         -0.4 
       997.0         0.30          0.8 
       998.0         0.40          1.4 
       999.0         0.40          3.6 
      1000.0         0.23          3.1 
      1001.0         0.13          3.1 
      1002.0         0.10          3.1 
      1003.0         0.10          6.5 
      1004.0         0.17          6.5 
      1005.0         0.25          8.9 
      1006.0         0.17          7.4 
      1007.0         0.13          7.4 
      1008.0         0.10          6.4 
      1009.0         0.13          3.0 
      1010.0         0.10          3.0 
      1011.0         0.20          2.3 
      1012.0         0.23          1.4 
      1013.0         0.30          0.8 
      1014.0         0.13          0.3 
      1015.0         0.10          0.3 
      1016.0         0.13          0.6 
      1017.0         0.17          0.5 
      1018.0         0.17          0.5 
      1019.0         0.20          0.2 
      1020.0         0.60          0.4 
      1021.0         7.55         21.7 
      1022.0         0.30          2.4 
      1023.0         0.13          1.0 
      1024.0         0.17          0.4 
      1025.0         0.23          0.4 
      1026.0         0.20          1.4 
      1027.0         0.20          1.4 
      1028.0         0.17          0.7 
      1029.0         0.13          0.6 
      1030.0         0.13          0.2 
      1031.0         0.17         -1.1 
      1032.0         0.17         -1.6 
      1033.0         0.13         -0.5 
      1034.0         0.20          0.1 
      1035.0         0.17          0.1 
      1036.0         0.17          2.3 
      1037.0         0.22          4.0 
      1038.0         0.13          4.0 
      1039.0         0.13          3.4 
      1040.0         0.17          3.4 
      1041.0         0.10          1.7 
      1042.0         0.10          1.7 
      1043.0         0.17          0.1 
      1044.0         0.20         -0.4 
      1045.0         0.20         -0.6 
      1046.0         0.23          0.1 
      1047.0         0.20          0.1 
      1048.0         0.23          0.0 
      1049.0         0.23         -0.4 
      1050.0         0.27         -1.2 
      1051.0         7.78         16.7 
      1052.0         0.40          3.0 
      1053.0         0.33          3.2 
      1054.0         0.43          2.4 
      1055.0         0.43          2.2 
      1056.0         0.30          3.1 
      1057.0         0.37          3.2 
      1058.0         0.37          3.6 
      1059.0         0.30          4.0 
      1060.0         0.32          4.5 
      1061.0         0.30          4.5 
      1062.0         0.30          3.4 
      1063.0         0.47          4.4 
      1064.0         0.30          2.4 
      1065.0         0.33          3.5 
      1066.0         0.27          4.2 
      1067.0         0.30          3.6 
      1068.0         0.33          4.1 
      1069.0         0.33          4.7 
      1070.0         0.28          3.7 
      1071.0         0.27          4.3 
      1072.0         0.23          4.7 
      1073.0         0.27          5.3 
      1074.0         0.27          4.0 
      1075.0         0.27          4.5 
      1076.0         0.27          5.2 
      1077.0         0.37          6.0 
      1078.0         0.23          5.6 
      1079.0         0.27          4.8 
      1080.0         0.47          5.8 
      1081.0        14.72         25.9 
      1082.0         0.33         81.4 
      1083.0         0.23         53.6 
      1084.0         0.17         37.4 
      1085.0         0.20         36.5 
      1086.0         0.20         20.5 
      1087.0         0.27         16.0 
      1088.0         0.27         11.9 
      1089.0         0.20         12.8 
      1090.0         0.13         12.5 
      1091.0         0.13         10.5 
      1092.0         0.17          8.8 
      1093.0         0.22          7.8 
      1094.0         0.23          6.7 
      1095.0         0.30          6.6 
