~Version Information
VERS.                      2.0: CWLS Log ASCII Standard - VERSION 2.0
WRAP.                       NO: One line per depth step
~Well Information Block
STRT.FT               400.0000: 
STOP.FT              2201.0000: 
STEP.FT                 0.1000: 
NULL.                -999.2500: 
COMP.          Evergreen Operating Corporation: COMPANY
WELL.            Triumph 13-10: WELL
FLD.           Purgatorie River: FIELD
LOC.           1551' FSL & 522' FWL: LOCATION
PROV.                 Colorado: PROVINCE
CNTY.               Las Animas: COUNTRY
SRVC.                Patterson: SERVICE COMPANY
DATE.          Mon Jul 26 07:55:18 2004: LOG DATE
UWI.           05 071 08108 00: UNIQUE WELL ID
~Curve Information Block
DEPT.FT            0 000 00 00: Depth
DCAL.in                       : CDL Caliper
RHOB.g/cc                     : CDL Bulk Density
RHOC.g/cc                     : CDL Density Correction
DPOR.pu                       : CDL Density Porosity
NPOR.pu                       : Neutron Porosity
GR.GAPI                       : Gamma Ray
~Parameter Information Block
~A  Depth       DCAL        RHOB        RHOC        DPOR        NPOR         GR     
# ...
  1696.0000      8.0178      2.5209      0.0940      7.8235     20.4694     51.5407
  1696.1000      8.0178      2.5039      0.0660      8.8554     21.2637     55.4215
  1696.2000      8.0178      2.4928      0.0314      9.5278     21.5768     56.0596
  1696.3000      8.0140      2.4973      0.0819      9.2536     21.3855     56.7034
  1696.4000      8.0140      2.5076      0.0445      8.6291     21.2439     57.9305
  1696.5000      8.0164      2.5109      0.0698      8.4277     21.2048     57.9432
  1696.6000      8.0164      2.5042      0.0628      8.8348     21.0431     58.9254
  1696.7000      8.0164      2.4898      0.0556      9.7076     20.6908     61.5754
  1696.8000      8.0179      2.4728      0.0059     10.7377     20.3644     64.3135
  1696.9000      8.0179      2.4561      0.0193     11.7518     20.2827     64.9316
  1697.0000      8.0129      2.4374      0.0295     12.8830     20.1668     62.9297
  1697.1000      8.0129      2.4238     -0.0452     13.7076     19.7690     60.4003
  1697.2000      8.0129      2.4267      0.0298     13.5335     19.3238     58.0928
  1697.3000      8.0209      2.4403      0.0430     12.7080     19.0497     55.7951
  1697.4000      8.0209      2.4582      0.0126     11.6215     18.9775     52.6726
  1697.5000      8.0589      2.4799      0.0371     10.3115     19.2140     49.0980
  1697.6000      8.0589      2.4921      0.0918      9.5695     19.8765     48.2195
  1697.7000      8.0589      2.4892      0.0463      9.7427     20.9427     52.6467
  1697.8000      8.0214      2.4881      0.0658      9.8103     21.8708     60.8684
  1697.9000      8.0214      2.4954      0.0772      9.3722     21.8781     65.4794
  1698.0000      8.0161      2.4978      0.0997      9.2267     21.0632     61.6189
  1698.1000      8.0161      2.4932      0.0342      9.5058     20.6777     56.3975
  1698.2000      8.0161      2.4934      0.0815      9.4932     21.2577     55.9003
  1698.3000      8.0127      2.5046      0.0595      8.8115     21.6321     58.0601
  1698.4000      8.0127      2.5247      0.0688      7.5918     21.0500     57.7181
  1698.5000      8.0078      2.5382      0.1234      6.7751     20.3830     51.8944
  1698.6000      8.0078      2.5377      0.0715      6.8044     20.4425     45.9439
  1698.7000      8.0078      2.5311      0.1108      7.2062     20.9097     46.0241
  1698.8000      8.0096      2.5149      0.0903      8.1895     20.9364     51.7991
  1698.9000      8.0096      2.4943      0.0068      9.4348     20.3778     58.0513
  1699.0000      8.0197      2.4839      0.0985     10.0669     20.1773     61.2376
  1699.1000      8.0197      2.4789      0.0216     10.3674     20.7891     62.5140
  1699.2000      8.0197      2.4768      0.0370     10.4953     21.5170     60.8321
  1699.3000      8.0690      2.4826      0.0317     10.1472     22.0057     56.9238
  1699.4000      8.0690      2.4938      0.0254      9.4676     22.1745     58.0140
  1699.5000      8.1143      2.5074      0.0202      8.6418     21.8617     64.2470
  1699.6000      8.1143      2.5162      0.0695      8.1105     21.5932     67.5709
  1699.7000      8.1143      2.5150      0.0431      8.1814     21.7308     65.6719
  1699.8000      8.1621      2.5179      0.0578      8.0052     21.7214     63.3809
  1699.9000      8.1621      2.5310      0.0212      7.2107     21.5801     65.2894
  1700.0000      8.0520      2.5378      0.0515      6.7972     21.9212     70.4711
  1700.1000      8.0520      2.5287      0.0180      7.3539     22.3948     74.0391
  1700.2000      8.0520      2.5112      0.0310      8.4103     22.5282     74.3910
  1700.3000      8.0446      2.4952      0.0014      9.3822     22.5645     72.2211
  1700.4000      8.0446      2.4858     -0.0064      9.9512     22.7414     67.8744
  1700.5000      8.0471      2.4891     -0.0113      9.7527     23.1451     62.5987
  1700.6000      8.0471      2.5092      0.0103      8.5319     23.7585     58.0520
  1700.7000      8.0471      2.5350      0.0288      6.9712     24.1855     56.3224
  1700.8000      8.0461      2.5463      0.0205      6.2827     24.2319     59.1231
  1700.9000      8.0461      2.5372      0.0543      6.8375     24.1942     63.9421
  1701.0000      8.0592      2.5190      0.0005      7.9400     24.1937     67.2352
  1701.1000      8.0592      2.5125      0.0249      8.3319     24.2578     70.0059
  1701.2000      8.0592      2.5210      0.0423      7.8195     24.2863     74.3998
  1701.3000      8.0213      2.5253      0.0176      7.5554     24.0840     79.4140
  1701.4000      8.0213      2.5170      0.0017      8.0585     23.7051     79.7352
  1701.5000      8.0122      2.5008      0.0281      9.0417     23.1311     71.4452
  1701.6000      8.0122      2.4858     -0.0296      9.9494     22.4548     59.8064
  1701.7000      8.0122      2.4832     -0.0108     10.1083     22.0168     53.7077
  1701.8000      8.0191      2.4867      0.0041      9.8977     22.1394     54.9149
  1701.9000      8.0191      2.4825      0.0634     10.1491     22.8731     58.2736
  1702.0000      8.0195      2.4741      0.0149     10.6624     23.8894     60.7246
  1702.1000      8.0195      2.4700      0.0742     10.9107     24.5013     63.1745
  1702.2000      8.0195      2.4645      0.0155     11.2433     24.2674     65.9850
  1702.3000      8.0147      2.4540      0.0530     11.8807     23.4315     68.3851
  1702.4000      8.0147      2.4475     -0.0040     12.2749     22.6146     68.4946
  1702.5000      8.0136      2.4515      0.0155     12.0283     22.1781     65.1542
  1702.6000      8.0136      2.4604      0.0523     11.4924     21.8450     62.4167
  1702.7000      8.0136      2.4729      0.0015     10.7325     21.2740     61.7357
  1702.8000      8.0171      2.4907      0.0931      9.6566     20.6079     61.2563
  1702.9000      8.0171      2.5003      0.0625      9.0716     20.1972     64.8827
  1703.0000      8.0166      2.4946      0.0801      9.4184     20.4281     71.0593
  1703.1000      8.0166      2.4830      0.0504     10.1195     21.4058     71.3519
  1703.2000      8.0166      2.4846      0.0141     10.0236     22.4172     65.7656
  1703.3000      8.0127      2.5026      0.0646      8.9337     22.6879     59.9214
  1703.4000      8.0127      2.5127      0.0360      8.3212     22.3143     56.6922
  1703.5000      7.9943      2.5020      0.0630      8.9671     21.9852     56.9974
  1703.6000      7.9943      2.4879      0.0208      9.8214     22.0739     61.5530
  1703.7000      7.9943      2.4905      0.0238      9.6664     22.2517     65.2848
  1703.8000      8.0108      2.5094      0.0265      8.5186     22.1444     61.5632
  1703.9000      8.0108      2.5289      0.0605      7.3397     21.9823     53.6020
  1704.0000      8.0163      2.5310      0.0818      7.2150     22.1151     48.9443
  1704.1000      8.0163      2.5157      0.0114      8.1413     22.2843     50.2949
  1704.2000      8.0163      2.5010      0.0332      9.0309     22.0299     55.2095
  1704.3000      8.0203      2.4920      0.0323      9.5745     21.6965     58.3116
  1704.4000      8.0203      2.4833      0.0265     10.1010     21.6558     56.5222
  1704.5000      8.0399      2.4755      0.0244     10.5769     21.6106     51.1774
  1704.6000      8.0399      2.4661      0.0102     11.1445     21.3608     46.8223
  1704.7000      8.0399      2.4509      0.0279     12.0672     21.1396     46.0401
  1704.8000      8.0395      2.4378      0.0041     12.8610     21.2565     46.1617
  1704.9000      8.0395      2.4343      0.0065     13.0714     21.6363     43.2792
  1705.0000      8.0443      2.4346      0.0379     13.0564     21.6992     38.6132
  1705.1000      8.0443      2.4366      0.0089     12.9307     21.1095     37.1293
  1705.2000      8.0443      2.4447      0.0576     12.4438     20.4392     37.7503
  1705.3000      8.0417      2.4563      0.0111     11.7413     20.2785     37.5610
  1705.4000      8.0417      2.4693      0.0490     10.9491     20.5434     39.7624
  1705.5000      8.0354      2.4840      0.0232     10.0608     21.1948     45.4441
