~Version Information
 VERS.                                  2.0 : CWLS LAS VERSION
 WRAP.                                   NO : WRAPING MODE
 SWARE .                 MController 2.5.0E : SOFTWARE VERSION
~Well Information
 WELL.                                  N/A : WELL
 COMP.                                  N/A : COMPANY
 FLD.                                   N/A : FIELD
 LOC.                                   N/A : LOCATION
 DATE.                                  N/A : DATE(S) LOGGED
 SRVC.                                  N/A : SERVICE COMPANY
 STAT.                                  N/A : STATE
 CNTY.                                  N/A : COUNTY
 CTRY.                                  N/A : COUNTRY
 API.                                   N/A : API NUMBER
 STRT.FT                             838.00 : START DEPTH
 STOP.FT                            2499.00 : STOP DEPTH
 STEP.FT                               1.00 : DEPTH INCREMENT
 NULL.                                -9999 : NULL VALUE
~Curve information
 DEPTH.FT                                   :
 ROP.MIN/FT                                 :
 GAS.UNITS                                  :
~ASCII Log data
# ...
     2038.00        2.550         21.4 
     2039.00        0.467         21.6 
     2040.00        0.367         18.4 
     2041.00        0.400         15.9 
     2042.00        0.267         14.3 
     2043.00        0.333          7.0 
     2044.00        0.267          5.1 
     2045.00        0.300          2.3 
     2046.00        0.267          2.5 
     2047.00        0.233          3.3 
     2048.00        0.233          5.9 
     2049.00        0.283          6.8 
     2050.00        0.200          6.9 
     2051.00        0.233          5.1 
     2052.00        0.233          4.5 
     2053.00        0.233          4.1 
     2054.00        0.233          3.7 
     2055.00        0.233          4.0 
     2056.00        0.233          3.6 
     2057.00        0.267          3.9 
     2058.00        0.233          3.6 
     2059.00        0.233          3.7 
     2060.00        0.233          3.7 
     2061.00        0.267          5.0 
     2062.00        0.233          7.3 
     2063.00        0.250          7.0 
     2064.00        0.267          4.1 
     2065.00        0.267          3.1 
     2066.00        0.233         -0.6 
     2067.00        0.267         -1.4 
     2068.00        3.017         35.1 
     2069.00        0.733         34.4 
     2070.00        0.467         26.1 
     2071.00        0.533         36.8 
     2072.00        0.433         35.6 
     2073.00        0.550         33.5 
     2074.00        0.433         31.0 
     2075.00        0.400         29.3 
     2076.00        0.367         29.7 
     2077.00        0.367         29.6 
     2078.00        0.300         28.7 
     2079.00        0.300         28.6 
     2080.00        0.300         30.2 
     2081.00        0.333         30.6 
     2082.00        0.383         30.9 
     2083.00        0.200         31.3 
     2084.00        0.233         30.6 
     2085.00        0.267         30.6 
     2086.00        0.200         30.1 
     2087.00        0.233         29.8 
     2088.00        0.200         29.8 
     2089.00        0.233         29.5 
     2090.00        0.300         28.3 
     2091.00        0.233         29.0 
     2092.00        0.267         30.6 
     2093.00        0.233         29.9 
     2094.00        0.267         27.7 
     2095.00        0.233         26.2 
     2096.00        0.283         23.5 
     2097.00        0.267         24.3 
     2098.00        3.283         47.7 
     2099.00        0.433         54.6 
     2100.00        0.533         50.3 
     2101.00        0.400         45.8 
     2102.00        0.400         35.4 
     2103.00        0.600         31.2 
     2104.00        0.333         28.5 
     2105.00        0.233         28.2 
     2106.00        0.217         28.6 
     2107.00        0.200         28.6 
     2108.00        0.200         30.7 
     2109.00        0.133         30.7 
     2110.00        0.167         30.9 
     2111.00        0.133         30.9 
     2112.00        0.200         30.6 
     2113.00        0.267         29.5 
     2114.00        0.233         28.8 
     2115.00        0.233         28.8 
     2116.00        0.267         28.9 
     2117.00        0.233         27.0 
     2118.00        0.233         27.2 
     2119.00        0.167         27.5 
     2120.00        0.233         27.5 
     2121.00        0.233         27.0 
     2122.00        0.250         29.2 
     2123.00        0.233         28.2 
     2124.00        0.233         25.6 
     2125.00        0.233         24.0 
     2126.00        0.167         24.0 
     2127.00        0.200         23.4 
     2128.00        3.217         47.2 
     2129.00        0.433         49.7 
     2130.00        0.400         43.0 
     2131.00        0.367         40.3 
     2132.00        0.300         35.4 
     2133.00        0.300         32.2 
     2134.00        0.300         31.8 
     2135.00        0.317         29.6 
     2136.00        0.300         27.9 
     2137.00        0.267         26.1 
     2138.00        0.267         26.1 
     2139.00        0.300         26.8 
     2140.00        0.367         26.9 
     2141.00        0.333         26.6 
     2142.00        0.300         26.2 
     2143.00        0.300         26.4 
     2144.00        0.267         25.9 
     2145.00        0.233         25.6 
     2146.00        0.233         26.1 
     2147.00        0.283         25.1 
     2148.00        0.233         25.6 
     2149.00        0.200         25.6 
     2150.00        0.133         27.5 
     2151.00        0.167         27.9 
     2152.00        0.200         26.7 
     2153.00        0.233         24.8 
     2154.00        0.200         22.3 
     2155.00        0.167         22.3 
     2156.00        0.200         22.6 
     2157.00        0.200         21.6 
     2158.00        3.017         42.6 
     2159.00        0.667         44.7 
     2160.00        0.333         42.1 
     2161.00        0.333         37.2 
     2162.00        0.317         33.8 
     2163.00        0.267         31.3 
     2164.00        0.300         29.7 
     2165.00        0.267         29.0 
     2166.00        0.267         27.0 
     2167.00        0.300         26.2 
     2168.00        0.400         26.1 
     2169.00        0.367         26.5 
     2170.00        0.300         26.6 
     2171.00        0.300         25.7 
     2172.00        0.300         25.9 
     2173.00        0.283         25.6 
     2174.00        0.267         26.1 
     2175.00        0.233         25.5 
     2176.00        0.267         26.3 
     2177.00        0.233         26.0 
     2178.00        0.233         26.0 
     2179.00        0.167         24.8 
     2180.00        0.233         25.5 
     2181.00        0.200         25.5 
     2182.00        0.200         25.7 
     2183.00        0.200         25.2 
     2184.00        0.233         23.5 
     2185.00        0.200         21.9 
     2186.00        0.233         22.5 
     2187.00        0.200         22.5 
     2188.00        3.867         55.2 
     2189.00        0.700         47.0 
     2190.00        0.600         31.4 
     2191.00        0.433         29.7 
     2192.00        0.433         27.5 
     2193.00        0.300         26.1 
     2194.00        0.400         26.2 
     2195.00        0.483         27.2 
     2196.00        0.300         28.2 
     2197.00        0.300         29.6 
     2198.00        0.267         30.4 
     2199.00        0.133         29.1 
     2200.00        0.133         28.7 
     2201.00        0.200         29.0 
     2202.00        0.200         28.3 
     2203.00        0.167         27.7 
     2204.00        0.300         27.4 
     2205.00        0.333         26.2 
     2206.00        0.300         31.3 
     2207.00        0.283         34.2 
     2208.00        0.200         34.2 
     2209.00        0.200         32.0 
     2210.00        0.133         28.0 
     2211.00        0.133         28.0 
     2212.00        0.067         28.0 
     2213.00        0.100         26.2 
     2214.00        0.067         26.2 
     2215.00        0.133         24.7 
     2216.00        0.167         24.7 
     2217.00        0.533         24.6 
     2218.00        3.283         49.5 
     2219.00        0.533         53.3 
     2220.00        0.433         46.4 
     2221.00        0.467         39.8 
     2222.00        0.417         34.4 
     2223.00        0.333         30.8 
     2224.00        0.333         29.7 
     2225.00        0.267         27.7 
     2226.00        0.167         27.0 
     2227.00        0.300         27.6 
     2228.00        0.267         27.2 
     2229.00        0.267         28.2 
     2230.00        0.233         26.7 
     2231.00        0.200         27.2 
     2232.00        0.300         27.3 
     2233.00        0.300         25.2 
     2234.00        0.283         25.2 
     2235.00        0.267         25.2 
     2236.00        0.267         25.0 
     2237.00        0.233         25.0 
