~Version Information
VERS.                      2.0: CWLS Log ASCII Standard - VERSION 2.0
WRAP.                       NO: One line per depth step
~Well Information Block
STRT.FT                -7.2500: 
STOP.FT               862.2500: 
STEP.FT                 0.2500: 
NULL.                -999.2500: 
COMP.          Pioneer Natural Resources: COMPANY
WELL.          Santisteven 13-22: WELL
FLD.           Purgatorie River: FIELD
LOC.           1861' FSL & 992' FWL--: LOCATION
PROV.                       CO: PROVINCE
CNTY.               Las Animas: COUNTRY
SRVC.          Patterson Wireline: SERVICE COMPANY
DATE.          Thu Apr 07 09:08:11 2005: LOG DATE
UWI.           05 071 08337 00: UNIQUE WELL ID
~Curve Information Block
DEPT.FT            0 000 00 00: Depth
CCL.                          : Casing Collar Locator
TT3.usec                      : CBL 3' Travel Time
AMP3.mV                       : CBL 3' Amplitude
GR.GAPI                       : Gamma Ray
~Parameter Information Block
~A  Depth       CCL         TT3         AMP3         GR     
# ...
   160.2500      0.0000    827.0402      5.6587     93.3536
   160.5000      0.0000    828.7831      5.5261     87.4953
   160.7500      0.0000    834.2230      5.3647     82.4849
   161.0000      0.0000    844.0517      5.2121     79.6304
   161.2500      0.0000    858.5336      5.1245     79.1334
   161.5000      0.0000    874.7706      5.1280     79.7692
   161.7500      0.0000    885.7550      5.1814     79.6559
   162.0000      0.0000    884.9503      5.2173     77.5501
   162.2500      0.0000    873.9395      5.2153     73.6173
   162.5000      0.0000    864.0856      5.2031     69.2829
   162.7500      0.0000    867.3799      5.2027     66.4761
   163.0000      0.0000    885.1012      5.2098     66.6372
   163.2500      2.0000    906.6290      5.2194     69.9532
   163.5000      0.0000    918.8603      5.2495     75.3354
   163.7500      0.0000    915.5836      5.3437     81.1321
   164.0000      0.0000    899.2724      5.5450     85.9071
   164.2500      0.0000    877.4603      5.8448     88.9002
   164.5000      0.0000    858.2607      6.1602     90.2261
   164.7500      0.0000    846.4750      6.3895     90.6173
   165.0000      0.0000    841.7217      6.4913     90.6114
   165.2500      0.0000    840.2192      6.4936     90.0288
   165.5000      0.0000    838.5620      6.4439     88.4641
   165.7500      0.0000    835.8606      6.3746     86.1018
   166.0000      0.0000    833.0054      6.3067     83.9201
   166.2500      0.0000    830.9553      6.2554     83.2853
   166.5000      0.0000    829.9592      6.2193     85.1930
   166.7500      0.0000    829.7423      6.1808     89.4952
   167.0000      0.0000    829.9324      6.1314     94.8604
   167.2500      0.0000    830.2570      6.0910     99.6687
   167.5000      0.0000    830.5771      6.0943    102.8896
   167.7500      0.0000    830.8456      6.1607    104.3448
   168.0000      0.0000    831.0484      6.2750    104.6078
   168.2500      0.0000    831.1878      6.3934    104.6546
   168.5000      0.0000    831.2925      6.4768    105.1015
   168.7500      0.0000    831.4066      6.5238    105.5642
   169.0000      0.0000    831.5411      6.5628    105.0633
   169.2500      0.0000    831.6478      6.6137    103.4745
   169.5000      0.0000    831.6563      6.6673    102.4720
   169.7500      0.0000    831.5405      6.7016    104.3744
   170.0000      0.0000    831.3451      6.7108    109.6915
   170.2500      0.0000    831.1607      6.7243    116.2183
   170.5000      0.0000    831.0737      6.7934    120.9465
   170.7500      0.0000    831.1135      6.9416    122.5918
   171.0000      0.0000    831.2056      7.1300    122.0412
   171.2500      0.0000    831.1287      7.2870    120.9667
   171.5000      0.0000    830.4731      7.3735    120.6014
   171.7500      0.0000    828.6982      7.4047    121.3957
   172.0000      0.0000    825.5403      7.4088    122.9102
   172.2500      0.0000    821.6979      7.3928    123.9838
   172.5000      0.0000    818.9500      7.3612    123.5152
   172.7500      0.0000    818.9892      7.3487    121.2600
   173.0000      0.0000    821.9008      7.4074    117.9471
   173.2500      0.0000    826.0941      7.5626    114.7885
   173.5000      0.0000    829.7769      7.7933    112.6997
   173.7500      0.0000    832.1890      8.0504    111.7690
   174.0000      0.0000    833.5173      8.2762    111.5622
   174.2500      0.0000    834.1622      8.4139    111.7343
   174.5000      0.0000    834.2946      8.4300    111.9780
   174.7500      0.0000    833.8287      8.3409    111.7270
   175.0000      0.0000    832.4590      8.1981    110.5415
   175.2500      0.0000    829.6874      8.0380    108.6806
   175.5000      0.0000    825.1337      7.8610    106.9102
   175.7500      0.0000    819.2503      7.6634    105.7965
   176.0000      0.0000    813.7542      7.4709    105.2737
   176.2500      0.0000    810.7975      7.3233    104.8905
   176.5000      0.0000    811.2660      7.2288    104.5403
   176.7500      0.0000    814.0991      7.1496    104.8763
   177.0000      0.0000    817.5294      7.0421    106.8237
   177.2500      0.0000    820.5750      6.9089    110.6223
   177.5000      0.0000    822.9245      6.7985    115.3283
   177.7500      0.0000    823.9706      6.7538    119.4030
   178.0000      0.0000    822.9741      6.7694    122.1472
   178.2500      0.0000    820.3254      6.8060    124.4503
   178.5000      0.0000    817.9606      6.8328    127.5488
   178.7500      0.0000    817.9337      6.8409    131.0225
   179.0000      0.0000    820.5895      6.8295    132.6035
   179.2500      0.0000    824.4377      6.7995    130.1056
   179.5000      0.0000    827.7007      6.7617    123.1154
   179.7500      0.0000    829.6273      6.7331    112.8051
   180.0000      0.0000    830.4653      6.7234    100.7717
   180.2500      0.0000    830.7390      6.7333     88.3908
   180.5000      0.0000    830.7975      6.7591     76.7471
   180.7500      0.0000    830.7947      6.7958     66.6457
   181.0000      0.0000    830.7947      6.8387     58.6774
   181.2500      0.0000    830.8157      6.8850     53.2697
   181.5000      0.0000    830.8342      6.9298     50.5774
   181.7500      0.0000    830.8096      6.9581     50.3551
   182.0000      0.0000    830.7239      6.9515     51.9365
   182.2500      0.0000    830.5977      6.9059     54.2695
   182.5000      0.0000    830.4737      6.8394     56.1309
   182.7500      0.0000    830.3871      6.7704     56.6957
   183.0000      0.0000    830.3514      6.6982     56.0543
   183.2500      0.0000    830.3650      6.6163     55.0434
   183.5000      0.0000    830.4164      6.5396     54.4864
   183.7500      0.0000    830.4796      6.4984     54.6191
   184.0000      0.0000    830.5220      6.5043     55.1079
   184.2500      0.0000    830.5325      6.5307     55.4485
   184.5000      0.0000    830.5300      6.5299     55.2837
   184.7500      0.0000    830.5358      6.4653     54.4753
   185.0000      0.0000    830.5542      6.3343     53.0703
   185.2500      0.0000    830.5959      6.1723     51.3256
   185.5000      0.0000    830.6973      6.0321     49.8103
   185.7500      0.0000    830.8843      5.9458     49.3107
   186.0000      0.0000    831.1193      5.9024     50.3084
   186.2500      0.0000    831.3060      5.8678     52.3912
   186.5000      0.0000    831.3491      5.8289     54.3414
   186.7500      0.0000    831.2051      5.8075     55.0096
   187.0000      0.0000    830.8961      5.8283     54.2506
   187.2500      0.0000    830.4914      5.8835     53.0602
   187.5000      0.0000    830.0518      5.9395     52.7277
   187.7500      0.0000    829.5742      5.9677     53.7357
   188.0000      0.0000    829.0059      5.9609     55.3209
   188.2500      0.0000    828.3331      5.9252     55.9271
   188.5000      0.0000    827.6487      5.8694     54.2981
   188.7500      0.0000    827.1157      5.8048     50.6663
   189.0000      0.0000    826.8621      5.7523     46.9142
   189.2500      0.0000    826.9106      5.7409     45.1297
   189.5000      0.0000    827.1872      5.7900     45.9106
   189.7500      0.0000    827.5418      5.8914     48.2262
   190.0000      0.0000    827.7338      6.0109     50.7192
   190.2500      0.0000    827.4141      6.1081     52.7726
   190.5000      0.0000    826.2568      6.1549     54.4163
   190.7500      0.0000    824.3585      6.1431     55.7107
   191.0000      0.0000    822.5866      6.0865     56.5444
   191.2500      0.0000    822.1949      6.0176     56.9472
   191.5000      0.0000    823.7375      5.9735     57.3566
   191.7500      0.0000    826.4919      5.9745     58.2939
   192.0000      0.0000    829.1502      6.0151     59.6245
   192.2500      0.0000    830.8727      6.0710     60.4065
   192.5000      0.0000    831.5754      6.1153     59.7999
   192.7500      0.0000    831.5663      6.1305     57.9530
   193.0000      0.0000    831.2087      6.1154     55.8004
   193.2500      0.0000    830.8168      6.0833     54.2912
   193.5000      0.0000    830.6192      6.0511     53.9839
