~Version Information
VERS.                      2.0: CWLS Log ASCII Standard - VERSION 2.0
WRAP.                       NO: One line per depth step
~Well Information Block
STRT.FT               -11.0000: 
STOP.FT              2634.5000: 
STEP.FT                 0.2500: 
NULL.                -999.2500: 
COMP.          Evergreen Operating Corporation: COMPANY
WELL.          Sand PebbleS 13-33: WELL
FLD.           Purgatorie River: FIELD
LOC.           1883' FSL & 63' FWL--: LOCATION
PROV.                 Colorado: PROVINCE
CNTY.               Las Animas: COUNTRY
SRVC.          Patterson Wireline: SERVICE COMPANY
DATE.          Fri Mar 18 09:37:20 2005: LOG DATE
UWI.          005 071 08224 : UNIQUE WELL ID
~Curve Information Block
DEPT.FT            0 000 00 00: Depth
CCL.                          : Casing Collar Locator
TT3.usec                      : CBL 3' Travel Time
AMP3.mV                       : CBL 3' Amplitude
GR.GAPI                       : Gamma Ray
~Parameter Information Block
~A  Depth       CCL         TT3         AMP3         GR     
# ...
  2602.0000      0.0000    606.3310      5.0813     91.7566
  2602.2500      2.0000    596.2634      5.0336     89.4369
  2602.5000      0.0000    591.0072      4.9096     87.5371
  2602.7500      0.0000    593.4067      4.7898     86.3959
  2603.0000      0.0000    601.3965      4.7814     85.6955
  2603.2500      0.0000    608.0114      4.9603     84.6313
  2603.5000      0.0000    605.3198      5.3019     82.8135
  2603.7500      0.0000    590.6051      5.6821     81.0577
  2604.0000      0.0000    568.0948      5.9762     80.8170
  2604.2500      0.0000    545.0164      6.1466     82.4373
  2604.5000      0.0000    526.9924      6.2260     84.2946
  2604.7500      0.0000    516.0098      6.2481     84.0896
  2605.0000      0.0000    510.6187      6.2226     80.8069
  2605.2500      0.0000    507.6505      6.1579     75.2857
  2605.5000      0.0000    504.4698      6.0785     69.6299
  2605.7500      0.0000    500.2591      6.0102     66.4434
  2606.0000      0.0000    495.7007      5.9586     67.7279
  2606.2500      0.0000    491.7930      5.9094     73.5829
  2606.5000      0.0000    488.9776      5.8493     82.0156
  2606.7500      0.0000    487.1491      5.7824     90.2011
  2607.0000      0.0000    486.1891      5.7242     95.8044
  2607.2500      0.0000    486.3796      5.6845     97.3375
  2607.5000      0.0000    488.4235      5.6585     94.2678
  2607.7500      0.0000    492.9931      5.6334     87.5320
  2608.0000      0.0000    499.9501      5.5990     79.5988
  2608.2500      0.0000    507.9063      5.5536     73.1879
  2608.5000      0.0000    514.8699      5.5022     69.4255
  2608.7500      0.0000    519.5385      5.4530     67.3890
  2609.0000      0.0000    521.9326      5.4137     65.7694
  2609.2500      0.0000    522.8878      5.3845     64.5214
  2609.5000      0.0000    523.2115      5.3553     64.2167
  2609.7500      0.0000    523.2826      5.3119     64.3555
  2610.0000      0.0000    523.0457      5.2459     63.5479
  2610.2500      0.0000    522.0305      5.1626     61.3478
  2610.5000      0.0000    519.4324      5.0844     58.9150
  2610.7500      0.0000    514.6297      5.0410     57.6779
  2611.0000      0.0000    508.1433      5.0456     58.0363
  2611.2500      0.0000    502.2262      5.0861     59.6051
  2611.5000      0.0000    500.1241      5.1427     62.1851
  2611.7500      0.0000    504.4832      5.2033     65.9022
  2612.0000      0.0000    516.4217      5.2596     70.6267
  2612.2500      0.0000    535.6005      5.2990     75.9025
  2612.5000      0.0000    560.0205      5.3117     81.3217
  2612.7500      0.0000    585.4745      5.3063     86.3299
  2613.0000      0.0000    606.6269      5.3135     89.8153
  2613.2500      0.0000    620.1544      5.3647     90.5000
  2613.5000      0.0000    627.0344      5.4633     87.8352
  2613.7500      0.0000    631.1560      5.5822     82.4449
  2614.0000      0.0000    635.3067      5.6839     75.9245
  2614.2500      0.0000    638.6306      5.7323     70.3189
  2614.5000      0.0000    638.3246      5.6960     67.4938
  2614.7500      0.0000    633.5233      5.5653     68.4794
  2615.0000      0.0000    626.6075      5.3781     72.8140
  2615.2500      0.0000    620.5496      5.2157     78.3453
  2615.5000      0.0000    615.6817      5.1573     82.1832
  2615.7500      0.0000    609.2017      5.2235     82.4849
  2616.0000      0.0000    597.3611      5.3543     79.5967
  2616.2500      0.0000    578.4746      5.4456     75.5481
  2616.5000      0.0000    554.6207      5.4196     72.4121
  2616.7500      0.0000    530.6071      5.2719     70.9076
  2617.0000      0.0000    511.0016      5.0614     70.3895
  2617.2500      0.0000    497.8268      4.8629     70.0265
  2617.5000      0.0000    490.4568      4.7344     69.6752
  2617.7500      0.0000    486.9683      4.7110     69.6422
  2618.0000      0.0000    485.4942      4.8002     70.1428
  2618.2500      0.0000    484.8375      4.9719     71.4435
  2618.5000      0.0000    484.4411      5.1696     74.1847
  2618.7500      0.0000    484.1274      5.3445     78.8856
  2619.0000      0.0000    483.8880      5.4768     84.9741
  2619.2500      0.0000    483.7736      5.5676     90.7426
  2619.5000      0.0000    483.8119      5.6237     94.5924
  2619.7500      0.0000    483.9548      5.6534     96.1936
  2620.0000      0.0000    484.0886      5.6689     96.1445
  2620.2500      0.0000    484.1142      5.6812     94.4008
  2620.5000      0.0000    484.0232      5.6912     89.2133
  2620.7500      0.0000    483.8897      5.6907     78.1652
  2621.0000      0.0000    483.7933      5.6721     60.8964
  2621.2500      0.0000    483.7487      5.6328     40.6973
  2621.5000      0.0000    483.6955      5.5673     22.7096
  2621.7500      0.0000    483.5460      5.4644     10.3810
  2622.0000      0.0000    483.2593      5.3231      3.8354
  2622.2500      0.0000    482.8938      5.1736      1.1344
  2622.5000      0.0000    482.5832      5.0758      0.2663
  2622.7500      0.0000    482.4528      5.0846      0.0489
  2623.0000      0.0000    482.5829      5.2133      0.0063
  2623.2500      0.0000    483.0811      5.4290      0.0000
  2623.5000      0.0000    484.2052      5.6776   -999.2500
  2623.7500      0.0000    486.3256      5.9109   -999.2500
  2624.0000      0.0000    489.6391      6.0964   -999.2500
  2624.2500      0.0000    493.9493      6.2196   -999.2500
  2624.5000      0.0000    498.9703      6.2858   -999.2500
  2624.7500      0.0000    504.6276      6.3173   -999.2500
  2625.0000      0.0000    509.8659      6.3386   -999.2500
  2625.2500      0.0000    510.2887      6.3496   -999.2500
  2625.5000      0.0000    497.2531      6.2940   -999.2500
  2625.7500      0.0000    460.3805      6.0523   -999.2500
  2626.0000      0.0000    393.2216      5.4997   -999.2500
  2626.2500      0.0000    300.0445      4.6219   -999.2500
  2626.5000      0.0000    198.1983      3.5849   -999.2500
  2626.7500      0.0000    110.2713      2.6504   -999.2500
  2627.0000      0.0000     50.5647      2.0013   -999.2500
  2627.2500      0.0000     18.8044      1.6521   -999.2500
  2627.5000      0.0000      5.6051      1.5061   -999.2500
  2627.7500      0.0000      1.3258      1.4586   -999.2500
  2628.0000      0.0000      0.2454      1.4466   -999.2500
  2628.2500      0.0000      0.0326      1.4443   -999.2500
  2628.5000      0.0000   -999.2500   -999.2500   -999.2500
  2628.7500      0.0000   -999.2500   -999.2500   -999.2500
  2629.0000      0.0000   -999.2500   -999.2500   -999.2500
  2629.2500      0.0000   -999.2500   -999.2500   -999.2500
  2629.5000      0.0000   -999.2500   -999.2500   -999.2500
  2629.7500      0.0000   -999.2500   -999.2500   -999.2500
  2630.0000      0.0000   -999.2500   -999.2500   -999.2500
  2630.2500      0.0000   -999.2500   -999.2500   -999.2500
  2630.5000      0.0000   -999.2500   -999.2500   -999.2500
  2630.7500      0.0000   -999.2500   -999.2500   -999.2500
  2631.0000      0.0000   -999.2500   -999.2500   -999.2500
  2631.2500      0.0000   -999.2500   -999.2500   -999.2500
  2631.5000      0.0000   -999.2500   -999.2500   -999.2500
  2631.7500      0.0000   -999.2500   -999.2500   -999.2500
  2632.0000      0.0000   -999.2500   -999.2500   -999.2500
  2632.2500      0.0000   -999.2500   -999.2500   -999.2500
  2632.5000      0.0000   -999.2500   -999.2500   -999.2500
  2632.7500      0.0000   -999.2500   -999.2500   -999.2500
  2633.0000      0.0000   -999.2500   -999.2500   -999.2500
  2633.2500      0.0000   -999.2500   -999.2500   -999.2500
  2633.5000      0.0000   -999.2500   -999.2500   -999.2500
  2633.7500      0.0000   -999.2500   -999.2500   -999.2500
  2634.0000   -999.2500   -999.2500   -999.2500   -999.2500
  2634.2500   -999.2500   -999.2500   -999.2500   -999.2500
  2634.5000   -999.2500   -999.2500   -999.2500   -999.2500
