~Version Information
 VERS.                      2.0: CWLS Log ASCII Standard - VERSION 2.0
 WRAP.                       NO: One line per depth step
 ~Well Information Block
 STRT.FT               762.3000: 
 STOP.FT              2573.7000: 
 STEP.FT                 0.1000: 
 NULL.                -999.2500: 
 COMP.          Petrogulf Corporation: COMPANY
 WELL.               J&P 12-33V: WELL
 FLD.           Purgatorie River: FIELD
 LOC.           2005' FSL & 1928' FEL: LOCATION
 CNTY.               Las Animas: COUNTY
 SRVC.                         : SERVICE COMPANY
 DATE.          Sat Aug 28 11:34:36 2004: LOG DATE
 UWI.           05 071 08092 00: UNIQUE WELL ID
 STAT.                 Colorado: STATE
 PROV.                         :Province
 ~Curve Information Block
 DEPT.FT            0 000 00 00: Depth
 GR.GAPI                       : Gamma Ray
 DCAL.in                       : CDL Caliper
 DPOR.pu                       : CDL Density Porosity
 NPOR.pu                       : Neutron Porosity
 RHOB.g/cc                     : CDL Bulk Density
 RHOC.g/cc                     : CDL Density Correction
 ~Parameter Information Block
 ~A  Depth        GR         DCAL        DPOR        NPOR        RHOB        RHOC    
# ...
  1616.7000     70.7993      8.1614      7.5402     12.0934      2.5256     -0.0093
  1616.8000     71.1940      8.1614      7.2829     12.7443      2.5298      0.0280
  1616.9000     70.4454      8.1614      6.6030     13.3549      2.5411      0.0424
  1617.0000     65.0084      8.1613      6.6856     13.4904      2.5397      0.0440
  1617.1000     58.5686      8.1613      7.3909     13.3060      2.5280     -0.0127
  1617.2000     58.2070      8.1613      7.7124     13.2366      2.5227      0.0414
  1617.3000     64.3169      8.1606      7.8131     13.4971      2.5211      0.0392
  1617.4000     73.8079      8.1606      8.2198     13.8984      2.5144      0.0399
  1617.5000     83.3332      8.1604      8.5936     14.0303      2.5082      0.0183
  1617.6000     90.6098      8.1604      8.6110     13.7566      2.5079      0.0260
  1617.7000     91.6715      8.1604      8.6579     13.4649      2.5071      0.0568
  1617.8000     83.8432      8.1600      8.7625     13.5816      2.5054      0.0186
  1617.9000     74.9658      8.1600      8.2848     13.9714      2.5133      0.0474
  1618.0000     73.1837      8.1598      7.2588     14.3565      2.5302      0.0802
  1618.1000     75.5265      8.1598      6.4381     14.5970      2.5438      0.0719
  1618.2000     77.1065      8.1598      6.5499     14.3948      2.5419      0.0736
  1618.3000     77.3715      8.1611      7.5711     13.8684      2.5251      0.0529
  1618.4000     78.1746      8.1611      8.3351     13.7389      2.5125      0.0216
  1618.5000     84.1274      8.1608      8.0077     14.0345      2.5179      0.0098
  1618.6000     95.2131      8.1608      7.2180     14.0916      2.5309      0.0333
  1618.7000    104.2208      8.1608      6.9390     13.9174      2.5355      0.0203
  1618.8000    108.2490      8.1623      7.1943     13.8927      2.5313      0.0218
  1618.9000    109.8179      8.1623      7.2385     13.9369      2.5306      0.0195
  1619.0000    112.2775      8.1605      6.8804     14.0283      2.5365      0.0495
  1619.1000    117.2461      8.1605      6.6667     14.0475      2.5400      0.0153
  1619.2000    120.8816      8.1605      6.6748     13.8965      2.5399      0.0430
  1619.3000    122.0365      8.1616      6.5010     13.7247      2.5427      0.0148
  1619.4000    124.5428      8.1616      6.3045     13.8519      2.5460      0.0424
  1619.5000    125.4120      8.1613      6.7124     14.5188      2.5392      0.0372
  1619.6000    120.5087      8.1613      7.6490     15.4878      2.5238      0.0264
  1619.7000    115.2691      8.1613      8.1204     16.3310      2.5160      0.0175
  1619.8000    116.5286      8.1603      7.2437     16.8841      2.5305      0.0039
  1619.9000    123.7013      8.1603      5.5528     17.1594      2.5584      0.0614
  1620.0000    130.5534      8.1609      4.3746     17.2740      2.5778      0.0612
  1620.1000    132.6335      8.1609      3.9824     17.3820      2.5843      0.0585
  1620.2000    132.0879      8.1609      3.7056     17.5683      2.5889      0.0604
  1620.3000    133.5514      8.1574      3.2467     17.7152      2.5964      0.0542
  1620.4000    138.3147      8.1574      3.3992     17.8153      2.5939      0.0891
  1620.5000    142.2372      8.1526      4.5443     17.8331      2.5750      0.0705
  1620.6000    139.6957      8.1526      5.4444     17.4026      2.5602      0.0206
  1620.7000    135.0161      8.1526      5.4391     16.4443      2.5603      0.0409
  1620.8000    137.0055      8.1551      5.4936     15.7848      2.5594      0.0328
  1620.9000    142.4094      8.1551      5.6575     15.8171      2.5567      0.0126
  1621.0000    142.7072      8.1537      5.0626     16.0149      2.5665      0.0504
  1621.1000    139.2326      8.1537      4.2739     16.2384      2.5795      0.0453
  1621.2000    140.1463      8.1537      4.2735     16.7607      2.5795      0.0417
  1621.3000    145.3831      8.1536      4.6877     17.4082      2.5727      0.0456
  1621.4000    149.2620      8.1536      4.8492     18.1187      2.5700      0.0633
  1621.5000    150.9028      8.1547      4.9296     19.2808      2.5687      0.0681
  1621.6000    148.7315      8.1547      5.2127     20.5570      2.5640      0.0751
  1621.7000    141.0547      8.1547      5.3387     20.9467      2.5619      0.0853
  1621.8000    131.2721      8.1554      4.7890     20.2155      2.5710      0.0875
  1621.9000    124.2427      8.1554      3.8712     19.5557      2.5861      0.0958
  1622.0000    121.2744      8.1599      3.4493     19.7179      2.5931      0.0934
  1622.1000    119.0934      8.1599      3.7248     19.9373      2.5885      0.0705
  1622.2000    112.7159      8.1599      4.0695     19.9924      2.5829      0.0766
  1622.3000    102.3561      8.1608      4.1862     20.4127      2.5809      0.1056
  1622.4000     92.2081      8.1608      4.0907     20.7228      2.5825      0.0571
  1622.5000     84.9330      8.1597      3.8161     20.2336      2.5870      0.0854
  1622.6000     80.7891      8.1597      4.0632     19.3570      2.5830      0.0705
  1622.7000     77.1428      8.1597      5.0326     18.5997      2.5670      0.0625
  1622.8000     73.0319      8.1574      5.4428     18.0899      2.5602      0.0187
  1622.9000     70.8446      8.1574      4.3828     17.7402      2.5777      0.0411
  1623.0000     71.4410      8.1592      2.9824     17.0297      2.6008      0.0964
  1623.1000     72.1693      8.1592      2.4887     15.9804      2.6089      0.0424
  1623.2000     70.2665      8.1592      2.4830     15.2929      2.6090      0.0708
  1623.3000     66.2625      8.1595      2.5744     14.8903      2.6075      0.0816
  1623.4000     62.9254      8.1595      2.9884     14.2587      2.6007      0.0522
  1623.5000     62.3360      8.1596      3.5890     13.8139      2.5908      0.0474
  1623.6000     65.6401      8.1596      4.0734     14.0631      2.5828      0.0287
  1623.7000     71.9676      8.1596      4.5225     14.6614      2.5754      0.0254
  1623.8000     75.7710      8.1605      5.0475     15.0538      2.5667      0.0323
  1623.9000     75.2360      8.1605      5.5562     15.0572      2.5583      0.0227
  1624.0000     75.6550      8.1611      6.1059     14.7702      2.5493      0.0230
  1624.1000     80.9416      8.1611      6.7357     14.1914      2.5389      0.0388
  1624.2000     89.0998      8.1611      7.0863     13.2238      2.5331      0.0373
  1624.3000     93.6695      8.1595      7.0409     12.4174      2.5338      0.0196
  1624.4000     94.1072      8.1595      6.9816     12.4357      2.5348      0.0127
  1624.5000    101.5117      8.1607      6.9067     12.8548      2.5360     -0.0002
  1624.6000    120.2721      8.1607      6.6015     13.0492      2.5411      0.0184
  1624.7000    138.2195      8.1607      6.2950     13.1900      2.5461      0.0067
  1624.8000    148.6985      8.1632      6.2491     13.5789      2.5469      0.0470
  1624.9000    155.2184      8.1632      6.3160     14.3368      2.5458      0.0309
  1625.0000    155.7667      8.1625      6.0875     15.5403      2.5496     -0.0025
  1625.1000    148.6300      8.1625      5.6300     16.9234      2.5571     -0.0066
  1625.2000    144.1966      8.1625      5.4464     17.9144      2.5601      0.0126
  1625.3000    151.4922      8.1632      5.7600     18.2880      2.5550      0.0416
  1625.4000    163.7454      8.1632      6.5384     18.4486      2.5421      0.0395
  1625.5000    172.1263      8.1664      7.5823     19.2997      2.5249      0.0163
  1625.6000    174.2999      8.1664      8.7436     21.1605      2.5057      0.0382
  1625.7000    170.3415      8.1664      9.8730     22.8811      2.4871      0.0112
  1625.8000    161.9271      8.1672     10.7950     23.5727      2.4719      0.0096
  1625.9000    154.6523      8.1672     11.5614     23.9585      2.4592     -0.0042
  1626.0000    153.4313      8.1821     12.1077     24.7369      2.4502      0.0524
  1626.1000    155.9201      8.1821     12.4009     25.6504      2.4454      0.1173
  1626.2000    155.3212      8.1821     12.4833     26.3733      2.4440      0.1224
