~Version Information
 VERS.                                  2.0 : CWLS LAS VERSION
 WRAP.                                   NO : WRAPING MODE
 SWARE .                 MController 2.5.0E : SOFTWARE VERSION
~Well Information
 WELL.                                  N/A : WELL
 COMP.                                  N/A : COMPANY
 FLD.                                   N/A : FIELD
 LOC.                                   N/A : LOCATION
 DATE.                                  N/A : DATE(S) LOGGED
 SRVC.                                  N/A : SERVICE COMPANY
 STAT.                                  N/A : STATE
 CNTY.                                  N/A : COUNTY
 CTRY.                                  N/A : COUNTRY
 API.                                   N/A : API NUMBER
 STRT.FT                              94.00 : START DEPTH
 STOP.FT                            1931.00 : STOP DEPTH
 STEP.FT                               1.00 : DEPTH INCREMENT
 NULL.                                -9999 : NULL VALUE
~Curve information
 DEPTH.FT                                   :
 ROP.MIN/FT                                 :
 GAS.UNITS                                  :
~ASCII Log data
       94.00    -9999.000         -4.7 
       95.00       19.567         -4.9 
       96.00        6.433          1.3 
       97.00        0.367          0.8 
       98.00        0.200          1.0 
       99.00        0.200          1.0 
      100.00        0.233          0.9 
      101.00        0.200          1.2 
      102.00        0.067          0.7 
      103.00        0.133          1.3 
      104.00        0.200          1.1 
      105.00        0.200          0.6 
      106.00        0.200          0.8 
      107.00        0.200          1.0 
      108.00        0.200          0.7 
      109.00        0.233          0.7 
      110.00        0.233          1.0 
      111.00        0.250          1.3 
      112.00        0.233          0.7 
      113.00        0.200          0.8 
      114.00        0.267          1.0 
      115.00        0.200          0.7 
      116.00        0.233          0.6 
      117.00        0.200          0.5 
      118.00        0.267          0.5 
      119.00        0.267          4.7 
      120.00        0.267          6.3 
      121.00        0.433          6.5 
      122.00        0.267          5.7 
      123.00        0.333          5.6 
      124.00        0.183          5.9 
      125.00        0.233          5.8 
      126.00        0.233          6.1 
      127.00        0.233          6.5 
      128.00        0.233          6.3 
      129.00        0.233          6.3 
      130.00        0.200          6.1 
      131.00        0.233          6.3 
      132.00        0.233          6.2 
      133.00        0.200          6.7 
      134.00        0.200          6.2 
      135.00        0.200          6.5 
      136.00        0.233          6.3 
      137.00        0.233          6.4 
      138.00        0.233          6.3 
      139.00        0.250          6.9 
      140.00        0.267          6.2 
      141.00        0.267          6.9 
      142.00        0.233          6.8 
      143.00        0.233          6.4 
      144.00        0.233          6.9 
      145.00        0.233          6.6 
      146.00        0.200          6.3 
      147.00        0.233          6.6 
      148.00        0.200          6.4 
      149.00        0.233          6.6 
      150.00        0.267          6.7 
      151.00        0.267          6.7 
      152.00        0.233          6.9 
      153.00        0.283          6.5 
      154.00        0.267          6.8 
      155.00        0.267          7.1 
      156.00        0.267          7.3 
      157.00        0.267          6.7 
      158.00        0.267          7.3 
      159.00        0.200          6.5 
      160.00        0.333          6.9 
      161.00        0.233          6.8 
      162.00        0.233          6.7 
      163.00        0.233          6.9 
      164.00        0.200          7.1 
      165.00        0.200          7.3 
      166.00        0.283          7.9 
      167.00        0.267          7.8 
      168.00        0.233          7.2 
      169.00        0.200          7.7 
      170.00        0.167          7.7 
      171.00        0.200          7.1 
      172.00        0.200          7.2 
      173.00        0.233          7.8 
      174.00        0.267          7.9 
      175.00        0.233          7.5 
      176.00        0.267          7.5 
      177.00        0.233          8.2 
      178.00        0.233          7.5 
      179.00        0.233          7.6 
      180.00        0.317          7.6 
      181.00        0.233          7.5 
      182.00        0.200          7.6 
      183.00        0.167          7.6 
      184.00        0.200          7.6 
      185.00        0.233          7.7 
      186.00        0.200          8.1 
      187.00        0.267          7.3 
      188.00        0.200          7.4 
      189.00        0.267          7.7 
      190.00        0.267          7.6 
      191.00        0.267          7.8 
      192.00        0.267          7.9 
      193.00        0.267          7.7 
      194.00        0.267          7.6 
      195.00        0.283          7.6 
      196.00        0.267          7.3 
      197.00        0.267          7.8 
      198.00        0.267          7.9 
      199.00        0.433          8.3 
      200.00        0.233          7.6 
      201.00        0.233          8.3 
      202.00        0.233          8.3 
      203.00        0.233          7.7 
      204.00        0.233          7.7 
      205.00        0.200          8.4 
      206.00        0.233          7.8 
      207.00        0.233          7.7 
      208.00        0.250          8.4 
      209.00        0.233          7.8 
      210.00        0.200          7.9 
      211.00        0.233          8.1 
      212.00        0.233          8.7 
      213.00        0.267          8.2 
      214.00        0.233          8.1 
      215.00        0.200          8.1 
      216.00        0.200          8.1 
      217.00        0.233          8.2 
      218.00        0.233          8.6 
      219.00        0.233          8.3 
      220.00        0.233          8.4 
      221.00        0.233          8.3 
      222.00        0.250          8.4 
      223.00        0.233          8.7 
      224.00        0.200          8.5 
      225.00        0.233          8.5 
      226.00        0.200          8.5 
      227.00        0.233         12.4 
      228.00        0.233         65.0 
      229.00        0.267         88.9 
      230.00        0.267         71.0 
      231.00        0.267         56.8 
      232.00        0.267         46.0 
      233.00        0.267         36.4 
      234.00        0.267         29.4 
      235.00        0.267         23.3 
      236.00        0.283         20.3 
      237.00        0.267         17.8 
      238.00        0.267         14.5 
      239.00        0.267         12.3 
      240.00        0.267         10.8 
      241.00        0.267         11.1 
      242.00        0.133          9.3 
      243.00        0.133          9.3 
      244.00        0.233          9.8 
      245.00        0.267          9.2 
      246.00        0.267          8.5 
      247.00        0.267          8.0 
      248.00        0.267          8.4 
      249.00        0.317          8.5 
      250.00        0.267          8.6 
      251.00        0.267          8.9 
      252.00        0.267          9.8 
      253.00        0.267          8.9 
      254.00        0.267          9.5 
      255.00        0.267         10.3 
      256.00        0.267          9.5 
      257.00        0.267          9.6 
      258.00        0.233         10.0 
      259.00        0.233         10.5 
      260.00        0.233         10.2 
      261.00        0.267         10.0 
      262.00        0.283          9.7 
      263.00        0.267          9.8 
      264.00        0.267          9.8 
      265.00        0.233          0.0 
      266.00        0.267          0.0 
      267.00        0.233          0.0 
      268.00        0.233          0.0 
      269.00       12.733         12.3 
      270.00        0.267         11.7 
      271.00        0.167         -4.1 
      272.00        0.267          6.4 
      273.00        0.233          1.8 
      274.00        0.233          1.3 
      275.00        0.233          0.3 
      276.00        0.233          0.0 
      277.00        0.267          1.2 
      278.00        0.300         -0.9 
      279.00        0.283         -1.5 
      280.00        0.300          0.5 
      281.00        0.200         -5.0 
      282.00        0.233         11.5 
      283.00        0.233         11.9 
      284.00        0.233         12.0 
      285.00        0.200         11.3 
      286.00        0.233         11.1 
      287.00        0.233          9.0 
      288.00        0.200          8.6 
      289.00        0.233          8.6 
      290.00        0.233          5.5 
      291.00        0.200          4.8 
      292.00        1.183          4.9 
      293.00        0.267          5.6 
