~Version Information
 VERS.                                  2.0 : CWLS LAS VERSION
 WRAP.                                   NO : WRAPING MODE
 SWARE .                 MController 2.5.0J : SOFTWARE VERSION
~Well Information
 WELL.                         McLeod 9-42V: WELL
 COMP.                       Petrogulf Corp : COMPANY
 FLD.                       Purgatoire River: FIELD
 LOC.                  SE/NE Sec 9 T33S R67W: LOCATION
 DATE.                             11/11/04 : DATE(S) LOGGED
 SRVC.        Blanco Geological Services LLC: SERVICE COMPANY
 STAT.                                    CO: STATE
 CNTY.                            Las Animas: COUNTY
 CTRY.                                   USA: COUNTRY
 API.                           05-071-08071: API NUMBER
 STRT.FT                             424.00 : START DEPTH
 STOP.FT                            2270.00 : STOP DEPTH
 STEP.FT                               1.00 : DEPTH INCREMENT
 NULL.                                -9999 : NULL VALUE
~Curve information
 DEPTH.FT                                   :
 ROP.MIN/FT                                 :
 GAS.UNITS                                  :
~ASCII Log data
# ...
      2024.0         0.20         36.9 
      2025.0         0.20         35.4 
      2026.0         0.20         35.0 
      2027.0         0.27         32.7 
      2028.0         0.13         30.6 
      2029.0         0.28         29.7 
      2030.0         0.27         30.3 
      2031.0         0.27         30.5 
      2032.0         0.27         29.3 
      2033.0         0.17         28.3 
      2034.0         0.13         26.6 
      2035.0         0.27         56.3 
      2036.0         0.23         56.9 
      2037.0         0.17         55.5 
      2038.0         0.13         54.4 
      2039.0         0.13         53.7 
      2040.0         0.17         53.9 
      2041.0         0.13         55.0 
      2042.0         0.13         55.8 
      2043.0         0.23         57.1 
      2044.0         0.27         56.3 
      2045.0         0.23         53.6 
      2046.0         0.30         49.2 
      2047.0         0.23         48.3 
      2048.0         0.17         46.9 
      2049.0         0.15         47.3 
      2050.0         0.13         47.1 
      2051.0         0.30         49.0 
      2052.0         0.27         51.6 
      2053.0         0.13         52.5 
      2054.0         0.23         54.5 
      2055.0         0.27         55.2 
      2056.0         0.23         53.7 
      2057.0         0.27         52.1 
      2058.0         0.37         49.2 
      2059.0         0.20         47.4 
      2060.0         0.23         46.2 
      2061.0         0.23         45.0 
      2062.0         0.23         43.6 
      2063.0         0.38         42.8 
      2064.0         0.27         39.4 
      2065.0         0.17         38.2 
      2066.0         0.27         63.9 
      2067.0         0.40         68.7 
      2068.0         0.33         62.6 
      2069.0         0.37         52.9 
      2070.0         0.40         52.4 
      2071.0         0.37         52.9 
      2072.0         0.33         52.8 
      2073.0         0.35         49.0 
      2074.0         0.33         44.5 
      2075.0         0.33         39.0 
      2076.0         0.33         38.0 
      2077.0         0.37         37.7 
      2078.0         0.37         36.7 
      2079.0         0.37         35.3 
      2080.0         0.40         33.1 
      2081.0         0.40         31.2 
      2082.0         0.38         30.7 
      2083.0         0.30         30.9 
      2084.0         0.30         29.9 
      2085.0         0.30         29.8 
      2086.0         0.27         28.7 
      2087.0         0.30         26.9 
      2088.0         0.27         27.6 
      2089.0         0.30         28.1 
      2090.0         0.27         30.2 
      2091.0         0.30         30.0 
      2092.0         0.33         30.1 
      2093.0         0.35         31.6 
      2094.0         0.37         32.3 
      2095.0         0.27         33.6 
      2096.0         0.30         49.0 
      2097.0         0.40         60.9 
      2098.0         0.30         61.7 
      2099.0         0.30         56.4 
      2100.0         0.33         51.2 
      2101.0         0.23         51.3 
      2102.0         0.23         53.0 
      2103.0         0.17         54.0 
      2104.0         0.17         54.8 
      2105.0         0.15         54.0 
      2106.0         0.17         53.1 
      2107.0         0.23         50.7 
      2108.0         0.30         46.5 
      2109.0         0.27         42.3 
      2110.0         0.27         39.3 
      2111.0         0.23         37.1 
      2112.0         0.23         40.1 
      2113.0         0.27         46.1 
      2114.0         0.23         53.7 
      2115.0         0.20         60.3 
      2116.0         0.20         65.5 
      2117.0         0.20         67.9 
      2118.0         0.30         67.3 
      2119.0         0.35         63.9 
      2120.0         0.23         61.2 
      2121.0         0.20         58.2 
      2122.0         0.27         53.3 
      2123.0         0.30         50.2 
      2124.0         0.30         48.3 
      2125.0         0.27         47.9 
      2126.0         0.27         40.4 
      2127.0         0.40         55.7 
      2128.0         0.33         70.2 
      2129.0         0.33         74.2 
      2130.0         0.30         70.7 
      2131.0         0.35         64.7 
      2132.0         0.33         64.9 
      2133.0         0.33         68.2 
      2134.0         0.27         67.9 
      2135.0         0.30         64.8 
      2136.0         0.30         59.3 
      2137.0         0.27         54.5 
      2138.0         0.30         50.8 
      2139.0         0.27         47.9 
      2140.0         0.27         46.5 
      2141.0         0.30         45.5 
      2142.0         0.32         43.6 
      2143.0         0.27         43.3 
      2144.0         0.30         41.5 
      2145.0         0.27         39.9 
      2146.0         0.27         39.7 
      2147.0         0.30         38.4 
      2148.0         0.30         37.2 
      2149.0         0.30         36.7 
      2150.0         0.27         36.7 
      2151.0         0.30         37.0 
      2152.0         0.27         35.6 
      2153.0         0.30         35.4 
      2154.0         0.28         34.2 
      2155.0         0.33         35.3 
      2156.0         0.30         51.5 
      2157.0         0.37         59.9 
      2158.0         0.40         58.5 
      2159.0         0.33         52.6 
      2160.0         0.30         49.6 
      2161.0         0.30         52.4 
      2162.0         0.32         56.8 
      2163.0         0.33         58.4 
      2164.0         0.30         56.1 
      2165.0         0.37         50.6 
      2166.0         0.37         45.4 
      2167.0         0.33         42.5 
      2168.0         0.30         39.6 
      2169.0         0.30         37.4 
      2170.0         0.27         36.4 
      2171.0         0.27         35.9 
      2172.0         0.27         34.2 
      2173.0         0.28         34.1 
      2174.0         0.23         33.2 
      2175.0         0.27         32.9 
      2176.0         0.23         32.1 
      2177.0         0.27         32.9 
      2178.0         0.23         32.4 
      2179.0         0.27         33.3 
      2180.0         0.27         33.4 
      2181.0         0.27         33.9 
      2182.0         0.27         34.4 
      2183.0         0.27         33.9 
      2184.0         0.40         35.4 
      2185.0         1.32         37.0 
      2186.0         0.47         32.1 
      2187.0         0.43         26.5 
      2188.0         0.13         26.0 
      2189.0         1.58         49.5 
      2190.0         0.10         52.9 
      2191.0         0.13         59.1 
      2192.0         0.50         68.0 
      2193.0         0.40         59.0 
      2194.0         0.40         47.0 
      2195.0         0.43         40.6 
      2196.0         0.33         42.2 
      2197.0         0.30         46.5 
      2198.0         0.35         47.8 
      2199.0         0.30         47.8 
      2200.0         0.33         44.1 
      2201.0         0.33         42.6 
      2202.0         0.37         40.0 
      2203.0         0.37         37.1 
      2204.0         0.40         36.2 
      2205.0         0.37         33.5 
      2206.0         0.33         33.1 
      2207.0         0.33         32.0 
      2208.0         0.38         31.5 
      2209.0         0.33         31.4 
      2210.0         0.37         31.3 
      2211.0         0.37         31.0 
      2212.0         0.37         30.6 
      2213.0         0.40         29.8 
      2214.0         0.37         29.4 
      2215.0         0.40         29.4 
      2216.0         0.40         28.6 
      2217.0         0.45         28.8 
      2218.0         0.43         27.3 
      2219.0         0.37         28.4 
      2220.0         0.43         26.6 
      2221.0         0.30         64.4 
      2222.0         0.40         64.9 
      2223.0         0.42         56.5 
