~Version Information
VERS.                      2.0: CWLS Log ASCII Standard - VERSION 2.0
WRAP.                       NO: One line per depth step
~Well Information Block
STRT.FT               548.0000: 
STOP.FT              1916.0000: 
STEP.FT                 0.2500: 
NULL.                -999.2500: 
COMP.          Pioneer Natural Resources: COMPANY
WELL.          Blackjack 32-11 Tr: WELL
FLD.           Purgatorie River: FIELD
LOC.           2066' FNL & 1453' FEL: LOCATION
PROV.                 Colorado: PROVINCE
CNTY.               Las Animas: COUNTRY
SRVC.                Patterson: SERVICE COMPANY
DATE.          Tue Aug 16 12:08:23 2005: LOG DATE
UWI.                          : UNIQUE WELL ID
~Curve Information Block
DEPT.FT            0 000 00 00: Depth
SN.Ohm-m                      : IEL Short Normal
SP.mV                         : IEL Spontaneous Potential
DIR.Ohm-m                     : IEL Induction Resistivity
GR.GAPI                       : Gamma Ray
~Parameter Information Block
~A  Depth        SN          SP         DIR          GR     
# ...
  1519.5000     36.3027    -23.2996     33.2620    106.2883
  1519.7500     38.0470    -22.1215     34.1640    106.4422
  1520.0000     38.9213    -22.6538     33.7073    116.0213
  1520.2500     40.7294    -22.0728     34.0330    121.0744
  1520.5000     40.8760    -19.6264     33.0629    124.2532
  1520.7500     40.1803    -19.9251     30.5414    116.1361
  1521.0000     39.7383    -19.8799     24.8130    110.2484
  1521.2500     38.5109    -19.4137     27.6785    104.4327
  1521.5000     37.8057    -20.1184     27.1515    113.8640
  1521.7500     36.7230    -21.0914     26.6589    111.5046
  1522.0000     35.2866    -20.9487     22.9502    108.2417
  1522.2500     33.7491    -21.4921     24.2359    109.9740
  1522.5000     31.8677    -21.7445     23.8817    126.7940
  1522.7500     30.5994    -21.9540     22.2473    139.4203
  1523.0000     28.6574    -23.3200     21.4377    143.2556
  1523.2500     27.7089    -24.1664     18.8073    143.0382
  1523.5000     24.4867    -21.8741     17.4728    133.5724
  1523.7500     22.4809    -20.9979     16.0194    126.5160
  1524.0000     18.5367    -20.8942     14.0853    114.9641
  1524.2500     16.6339    -20.8594     13.5168    115.5141
  1524.5000     14.3601    -21.5187     12.8116    124.8446
  1524.7500     14.0421    -21.0802     11.5752    146.1337
  1525.0000     13.4948    -20.9449     11.6649    161.3362
  1525.2500     13.0610    -21.1757     11.7267    160.4899
  1525.5000     12.5011    -21.8408     11.5319    171.2890
  1525.7500     12.3834    -22.4337     10.9957    175.3913
  1526.0000     12.4648    -23.1875     10.8644    162.1367
  1526.2500     12.6316    -23.3236     10.4784    166.1873
  1526.5000     13.2692    -22.4621     10.3165    163.8145
  1526.7500     13.8317    -23.3209     10.4307    162.0194
  1527.0000     14.3794    -23.4446     10.4277    146.9049
  1527.2500     14.1882    -22.0537     10.1317    153.4435
  1527.5000     14.4056    -22.8126     10.2625    153.1032
  1527.7500     14.4775    -23.0646     10.6610    151.8179
  1528.0000     13.5046    -22.6126     10.5559    133.3224
  1528.2500     12.3146    -23.0961     10.1372    128.2144
  1528.5000     11.1644    -22.5537     10.7253    129.6491
  1528.7500     10.4737    -22.1792     10.5087    122.1851
  1529.0000     10.5808    -20.7431     11.2024    129.5405
  1529.2500     11.7060    -19.9826     11.0842    138.5272
  1529.5000     13.4246    -18.4098     11.7164    146.1824
  1529.7500     15.0679    -18.8097     11.9833    153.5261
  1530.0000     16.4489    -18.2063     12.5004    154.4943
  1530.2500     17.2753    -19.0295     13.2321    159.4443
  1530.5000     17.8549    -19.8486     13.2928    153.3749
  1530.7500     18.2055    -20.3750     14.4184    158.7789
  1531.0000     19.0769    -20.9611     14.0491    151.5626
  1531.2500     19.5672    -22.5199     15.4316    157.7953
  1531.5000     20.4613    -25.6165     16.7533    138.1430
  1531.7500     22.2834    -21.4155     18.2267    133.7613
  1532.0000     23.4482    -18.1272     18.3852    138.5909
  1532.2500     26.0853    -17.1071     20.5578    128.5406
  1532.5000     27.7730    -14.7358     20.3293    108.9559
  1532.7500     31.9611    -15.6287     20.6786     96.7394
  1533.0000     34.1673    -18.1221     25.4332     77.7865
  1533.2500     38.2619    -22.0268     29.1877     72.2007
  1533.5000     40.2976    -23.0829     29.5939     79.0892
  1533.7500     44.4778    -22.1258     28.0557     91.7840
  1534.0000     46.9549    -22.1682     36.9321     95.5479
  1534.2500     49.5209    -22.3364     34.6628     89.9984
  1534.5000     50.4441    -21.3062     43.8424     92.2666
  1534.7500     50.9150    -23.1413     42.6926     86.3729
  1535.0000     51.2577    -24.7136     33.4816     84.4827
  1535.2500     50.3369    -21.8511     40.0717     86.9189
  1535.5000     50.5411    -21.1783     34.6593     84.2036
  1535.7500     51.8532    -17.5414     31.4281     82.0774
  1536.0000     52.6198    -19.5939     43.3744     94.5453
  1536.2500     52.2962    -19.5488     46.0765     86.4777
  1536.5000     51.6643    -22.3497     48.4380     79.2689
  1536.7500     51.4530    -22.6536     39.4873     72.4243
  1537.0000     51.3746    -22.9986     39.4034     79.3653
  1537.2500     51.7238    -22.9840     44.5172     83.6679
  1537.5000     51.3639    -23.5978     48.9871     84.7227
  1537.7500     50.7754    -23.7138     48.6386     81.6813
  1538.0000     50.0564    -24.4570     41.4365     81.2842
  1538.2500     49.8534    -24.8347     39.8270     81.5533
  1538.5000     49.4587    -24.8040     28.7512     90.5972
  1538.7500     49.7168    -25.6397     29.6174     89.1054
  1539.0000     50.5825    -25.7507     40.8871     93.8679
  1539.2500     50.4095    -26.9239     45.6553     86.6567
  1539.5000     49.6329    -27.6008     42.9177     85.5637
  1539.7500     49.0681    -28.8941     25.0001     84.8615
  1540.0000     48.7969    -31.0661     37.6853     84.0607
  1540.2500     48.2599    -34.6196     39.3422     79.9943
  1540.5000     48.2571    -37.3485     44.5993     70.4624
  1540.7500     48.0781    -30.8729     41.0644     64.7670
  1541.0000     48.3750    -29.6622     37.3754     61.0555
  1541.2500     49.4481    -27.5548     42.4974     62.7128
  1541.5000     49.2916    -28.8271     43.8138     64.1176
  1541.7500     49.8776    -33.2723     29.7565     57.9889
  1542.0000     49.8946    -34.8993     41.7863     56.2609
  1542.2500     49.9328    -36.6120     48.5106     63.5085
  1542.5000     49.9499    -36.4566     47.0941     61.8098
  1542.7500     50.5971    -36.6203     35.9902     58.4131
  1543.0000     50.8425    -37.5719     28.5818     61.0999
  1543.2500     51.5683    -38.7472     38.1327     61.2355
  1543.5000     51.5478    -40.2619     38.0929     51.1016
  1543.7500     51.0974    -41.4315     26.1362     58.6927
  1544.0000     49.6342    -42.1028     33.8852     54.2339
  1544.2500     46.5413    -42.7995     31.3718     53.0551
  1544.5000     43.5104    -44.8341     31.7021     62.1076
  1544.7500     39.0953    -47.2918     27.6647     67.5463
  1545.0000     36.2869    -46.5106     28.6689     86.5976
  1545.2500     32.3479    -41.2137     28.1483    100.3002
  1545.5000     30.0075    -40.2271     27.4834    120.6176
  1545.7500     27.3399    -39.5600     25.6766    134.4347
  1546.0000     26.6476    -41.1025     23.1869    135.7218
  1546.2500     23.7770    -41.4760     22.3483    141.8743
  1546.5000     22.7960    -40.8957     22.5053    142.4574
  1546.7500     22.4709    -39.1519     19.8176    141.4362
  1547.0000     22.3708    -40.1562     19.4154    135.2582
  1547.2500     22.4707    -39.9978     19.4462    137.5750
  1547.5000     22.6857    -40.0763     18.5887    129.0992
  1547.7500     22.5612    -39.8471     17.0122    127.2625
  1548.0000     23.0372    -39.3903     17.1270    129.3452
  1548.2500     22.4588    -38.7128     16.8577    137.0765
  1548.5000     22.0167    -37.9219     17.7287    136.3075
  1548.7500     21.8975    -37.0102     16.9337    133.2660
  1549.0000     21.7650    -36.8565     17.4664    134.4293
  1549.2500     22.4948    -36.7850     19.7193    141.8347
  1549.5000     22.3044    -37.0274     20.4924    138.4386
  1549.7500     22.6994    -37.3617     19.7792    129.3960
  1550.0000     24.1914    -37.3067     20.0227    105.9400
  1550.2500     25.4102    -37.6177     18.7498    105.6983
  1550.5000     27.8799    -37.0908     20.8439    107.7518
  1550.7500     29.1872    -36.5724     20.1055    103.9324
  1551.0000     30.9968    -36.0980     20.0468     96.7621
  1551.2500     32.0429    -35.8390     19.8141     94.6815
  1551.5000     31.2509    -35.7865     20.7735     84.6463
  1551.7500     30.2957    -35.7047     21.5466     81.9698
  1552.0000     28.9510    -34.8897     19.8838    107.2458
  1552.2500     27.8798    -34.4379     19.6460    116.0244
  1552.5000     26.8562    -33.3689     18.6892    122.7716
  1552.7500     25.8144    -31.7029     16.2407    122.3283
