~Version Information
VERS.                      2.0: CWLS Log ASCII Standard - VERSION 2.0
WRAP.                       NO: One line per depth step
~Well Information Block
STRT.FT               710.0000: 
STOP.FT              2922.5000: 
STEP.FT                 0.2500: 
NULL.                -999.2500: 
COMP.          Petrogulf Corporation: COMPANY
WELL.            Montoya 1-41V: WELL
FLD.           Purgatorie River: FIELD
LOC.           610' FNL & 1205' FEL: LOCATION
PROV.                 Colorado: PROVINCE
CNTY.               Las Animas: COUNTRY
SRVC.                Patterson: SERVICE COMPANY
DATE.          Mon Aug 22 08:00:56 2005: LOG DATE
UWI.                          : UNIQUE WELL ID
~Curve Information Block
DEPT.FT            0 000 00 00: Depth
SP.mV                         : DIL Spontaneous Potential
RILD.Ohm-m                    : DIL Deep Resistivity
RILM.Ohm-m                    : DIL Medium Resistivity
RLL3.Ohm-m                    : DIL Shallow Resistivity
GR.GAPI                       : Gamma Ray
~Parameter Information Block
~A  Depth        SP         RILD        RILM        RLL3         GR     
# ...
  1298.0000     -0.2214     11.6406     11.4182     20.4402    151.5044
  1298.2500      0.3549     11.4687     11.6804     21.4490    138.7789
  1298.5000      1.0493     11.3810     11.8869     23.7169    141.9143
  1298.7500      1.8288     11.1485     12.2245     26.5072    125.1980
  1299.0000      2.4649     11.4510     12.4641     27.7739    131.3088
  1299.2500      2.6736     11.6822     12.3026     27.2551    148.0620
  1299.5000      2.4334     11.7307     12.7308     27.1921    125.9091
  1299.7500      1.7716     12.0865     12.6036     26.6096    133.1019
  1300.0000      0.6572     12.3514     12.7099     25.8108    130.9489
  1300.2500     -1.0456     12.3678     12.8152     25.2483    144.2447
  1300.5000     -3.4492     12.4899     13.1020     24.8139    157.6670
  1300.7500     -6.3024     13.0767     13.2478     24.1173    171.4904
  1301.0000     -9.6009     13.0673     13.5785     24.1366    145.8228
  1301.2500    -13.0664     12.4365     13.8079     25.6063    152.6552
  1301.5000    -16.4073     13.0882     13.9483     27.0721    126.9752
  1301.7500    -19.6616     13.4900     14.2738     28.2301    118.0985
  1302.0000    -22.3064     13.1725     14.6080     29.8469    105.8808
  1302.2500    -24.4960     13.2587     14.6739     30.9296    122.2903
  1302.5000    -26.2533     13.4314     14.6173     28.5526    135.3609
  1302.7500    -27.9127     13.2880     14.1328     25.7276    125.1062
  1303.0000    -29.4237     13.3465     14.0229     24.7808    154.0349
  1303.2500    -30.7568     13.3586     14.2935     24.5735    162.5578
  1303.5000    -31.9105     13.5219     14.1648     25.8603    151.3582
  1303.7500    -32.7841     13.5266     14.1615     27.2601    134.4639
  1304.0000    -33.5938     13.6978     14.5324     28.4469    136.3319
  1304.2500    -34.4099     13.6275     14.4291     28.5881    143.2275
  1304.5000    -35.3002     13.6909     14.3207     26.8685    168.3076
  1304.7500    -36.1895     13.7250     14.5300     25.0728    147.4128
  1305.0000    -37.1247     13.1041     14.9383     23.1794    147.7061
  1305.2500    -37.9835     13.0866     14.4703     21.2511    161.7968
  1305.5000    -38.6875     13.6248     14.5562     24.1450    146.8297
  1305.7500    -39.1976     13.5519     15.0053     26.3786    156.4386
  1306.0000    -39.5063     13.2925     14.9274     27.7654    156.0116
  1306.2500    -39.7221     13.1856     14.8565     29.3747    132.0205
  1306.5000    -39.8202     12.9154     14.6636     29.6689    153.9712
  1306.7500    -39.7234     12.7522     14.2132     28.0560    154.0843
  1307.0000    -39.5029     12.8074     14.1105     25.8724    156.4167
  1307.2500    -39.0991     12.6046     13.7298     24.9527    168.5200
  1307.5000    -38.6615     12.5512     13.5073     24.0723    158.8146
  1307.7500    -38.1588     12.7619     13.0885     23.9241    166.9661
  1308.0000    -37.7517     12.4405     13.0734     24.3025    142.0770
  1308.2500    -37.5446     12.2329     12.8742     24.1663    135.0313
  1308.5000    -37.7342     12.1627     12.8797     23.6580    149.4593
  1308.7500    -38.3464     11.9796     13.1406     23.8992    153.1760
  1309.0000    -39.0616     11.9503     12.9070     24.2883    139.0514
  1309.2500    -39.9314     11.6968     12.1723     24.2693    162.8186
  1309.5000    -40.6420     11.7300     11.9239     24.0050    171.2063
  1309.7500    -41.1812     11.7764     11.8293     23.0674    165.9478
  1310.0000    -41.6469     12.1631     11.9359     22.3709    167.6324
  1310.2500    -41.9687     12.4954     12.1064     22.2060    189.5961
  1310.5000    -42.0941     12.8986     12.2969     22.0188    156.5841
  1310.7500    -42.1086     13.4344     12.7183     22.9218    152.5900
  1311.0000    -41.8696     13.7262     13.4394     24.2896    168.0142
  1311.2500    -41.3843     14.0628     14.4318     25.8526    157.9093
  1311.5000    -40.5701     14.1251     15.1440     28.4117    131.3685
  1311.7500    -39.3003     14.2071     16.0414     32.8922    140.7035
  1312.0000    -37.7909     14.1013     17.2278     38.9516    123.7256
  1312.2500    -35.8991     14.6489     17.8766     44.8122    129.9783
  1312.5000    -34.0464     15.0904     18.8532     48.1145    122.4309
  1312.7500    -32.3508     15.4062     18.6889     48.9134    125.9170
  1313.0000    -31.0676     15.7044     19.1394     46.0256    135.9072
  1313.2500    -30.0799     15.9813     19.1346     38.7096    135.7827
  1313.5000    -29.6131     16.5747     19.1203     32.1487    148.7373
  1313.7500    -29.4731     16.5396     18.5306     29.4242    158.9510
  1314.0000    -29.3990     16.1934     18.2778     28.8353    154.9221
  1314.2500    -29.2920     16.6693     17.9447     29.9951    143.4237
  1314.5000    -29.3096     16.2180     17.3257     30.7702    135.8409
  1314.7500    -29.2472     15.3728     16.6825     30.0823    142.3985
  1315.0000    -29.0863     15.4401     16.0599     29.2543    157.4349
  1315.2500    -28.9861     14.6320     15.7687     27.1261    149.0392
  1315.5000    -28.9377     14.5341     14.8486     25.1811    150.4138
  1315.7500    -28.8495     13.9784     14.4996     24.1792    157.0341
  1316.0000    -28.6595     13.8586     14.2773     24.2712    176.2198
  1316.2500    -28.1606     13.8431     13.9712     24.2010    171.5549
  1316.5000    -27.4942     14.2290     13.8322     24.2097    164.0689
  1316.7500    -26.5655     13.9956     13.5752     24.5978    173.4580
  1317.0000    -25.5397     13.5453     13.6274     25.0841    182.7376
  1317.2500    -24.5371     13.5956     13.4311     25.4906    188.6974
  1317.5000    -23.6538     13.7934     14.0513     26.6026    167.7246
  1317.7500    -22.9554     13.3707     14.2568     28.7190    165.8985
  1318.0000    -22.4409     13.3619     13.9042     29.3508    140.8546
  1318.2500    -22.1729     13.6539     13.8512     28.7453    147.5593
  1318.5000    -22.0778     13.9319     14.0820     28.4421    158.1234
  1318.7500    -22.1554     13.9328     14.0598     27.8032    165.9411
  1319.0000    -22.3546     13.8575     14.2984     27.0303    159.9418
  1319.2500    -22.6846     13.9934     14.0460     26.7137    160.7942
  1319.5000    -23.0513     13.9635     14.0632     26.7295    162.5238
  1319.7500    -23.3578     13.4808     14.2518     27.7235    142.2296
  1320.0000    -23.6201     13.4585     14.1601     28.8467    148.7171
  1320.2500    -23.9533     13.4940     13.9384     28.8241    149.5237
  1320.5000    -24.2166     13.6820     13.5944     29.1183    128.7678
  1320.7500    -24.3599     12.7949     13.5899     29.8341    137.0002
  1321.0000    -24.4285     13.1595     13.2955     29.2175    161.0003
  1321.2500    -24.3259     13.3965     12.6925     28.1243    180.7215
  1321.5000    -24.1652     13.8930     12.5397     26.8573    150.4764
  1321.7500    -23.8913     14.1072     12.4215     24.7549    137.5609
  1322.0000    -23.7061     14.9093     12.4255     22.5946    138.9774
  1322.2500    -23.5232     15.2507     12.7975     21.8505    150.4368
  1322.5000    -23.1798     15.9469     13.6803     22.9786    159.6681
  1322.7500    -22.1992     16.4640     15.0510     28.4892    143.9126
  1323.0000    -20.5190     17.0511     16.3177     37.4857    141.7055
  1323.2500    -18.3708     17.5514     18.1976     50.6813    130.7704
  1323.5000    -15.8894     17.2698     21.0532     76.5666    103.3611
  1323.7500    -12.6562     17.3093     22.7296    120.8517     94.0949
  1324.0000     -9.4756     17.0881     23.6010    215.7196     81.5993
  1324.2500     -6.1639     18.4745     23.9031    291.6402     72.2399
  1324.5000     -2.2668     18.9214     25.3716    195.8949    107.4568
  1324.7500      1.2663     20.6118     23.3624    143.8525    111.7724
  1325.0000      4.5265     22.2707     22.7664    114.8607    129.0797
  1325.2500      7.6066     22.9228     22.1260     58.3754    136.2955
  1325.5000     10.2786     25.4541     22.7824     37.5632    158.3164
  1325.7500     12.5067     26.3334     22.7346     33.8422    168.7680
