~Version Information
 VERS.                                  2.0 : CWLS LAS VERSION
 WRAP.                                   NO : WRAPING MODE
 SWARE .                 MController 2.5.0N : SOFTWARE VERSION
~Well Information
 WELL.                      Piggyback 33-25 : WELL
 COMP.    Pioneer Natural Resources USA Inc : COMPANY
 FLD.                      Purgatoire River : FIELD
 LOC.                NW/SE Sec 25 T34S R65W : LOCATION
 DATE.                               4/29/05: DATE(S) LOGGED
 SRVC.       Blanco Geological Services LLC : SERVICE COMPANY
 STAT.                                   CO : STATE
 CNTY.                           Las Animas : COUNTY
 CTRY.                                  USA : COUNTRY
 API.                       05-071-08233-00 : API NUMBER
 STRT.FT                             260.00 : START DEPTH
 STOP.FT                            1000.00 : STOP DEPTH
 STEP.FT                               1.00 : DEPTH INCREMENT
 NULL.                                -9999 : NULL VALUE
~Curve information
 DEPTH.FT                                   :
 ROP.MIN/FT                                 :
 GAS.UNITS                                  :
~ASCII Log data
# ...
       860.0         0.23        219.7 
       861.0         0.23        219.6 
       862.0         0.27        219.8 
       863.0         0.28        220.2 
       864.0         0.23        219.3 
       865.0         0.27        217.6 
       866.0         3.22       1804.2 
       867.0         0.40       1692.7 
       868.0         0.33       1238.0 
       869.0         0.30        736.2 
       870.0         0.30        723.3 
       871.0         0.30        594.7 
       872.0         0.30        528.0 
       873.0         0.30        484.5 
       874.0         0.27        459.4 
       875.0         0.30        440.0 
       876.0         0.32        221.4 
       877.0         0.27        216.4 
       878.0         0.27        213.7 
       879.0         0.27        213.1 
       880.0         0.23        212.5 
       881.0         0.27        212.0 
       882.0         0.27        211.6 
       883.0         0.23        211.6 
       884.0         0.23        211.3 
       885.0         0.27        210.8 
       886.0         0.37        210.1 
       887.0         0.27        207.9 
       888.0         0.25        204.4 
       889.0         0.33        207.1 
       890.0         0.50        208.5 
       891.0         0.37        208.0 
       892.0         0.27        208.9 
       893.0         0.27        207.4 
       894.0         0.33        203.1 
       895.0         0.17        203.1 
       896.0         1.68        357.5 
       897.0         0.33       1075.9 
       898.0         0.73       2186.4 
       899.0         0.37       1760.4 
       900.0         0.30       1255.4 
       901.0         0.53        870.6 
       902.0         0.48        580.9 
       903.0         0.53        460.0 
       904.0         0.40        215.4 
       905.0         0.37        209.9 
       906.0         0.27        206.7 
       907.0         0.30        216.9 
       908.0         0.27        219.5 
       909.0         0.33        219.5 
       910.0         0.27        214.0 
       911.0         0.30        209.6 
       912.0         0.28        203.6 
       913.0         0.27        203.5 
       914.0         0.23        204.8 
       915.0         0.27        206.1 
       916.0         0.23        205.9 
       917.0         0.23        205.8 
       918.0         0.20        205.8 
       919.0         0.23        204.6 
       920.0         0.27        203.3 
       921.0         0.30        199.0 
       922.0         0.23        193.5 
       923.0         0.23        167.6 
       924.0         0.20        160.0 
       925.0         0.27        122.2 
       926.0         2.48        411.5 
       927.0         0.27       1352.1 
       928.0         0.72       1769.4 
       929.0         0.33        992.7 
       930.0         0.43        763.9 
       931.0         0.30        605.0 
       932.0         0.27        534.5 
       933.0         0.23        485.8 
       934.0         0.27        470.7 
       935.0         0.27        440.0 
       936.0         0.23        440.0 
       937.0         0.23        212.7 
       938.0         0.23        210.4 
       939.0         0.27        203.4 
       940.0         0.25        202.3 
       941.0         0.23        202.9 
       942.0         0.23        202.9 
       943.0         0.23        202.8 
       944.0         0.23        201.8 
       945.0         0.27        201.0 
       946.0         0.30        200.9 
       947.0         0.27        201.2 
       948.0         0.23        202.4 
       949.0         0.23        202.9 
       950.0         0.20        202.9 
       951.0         0.27        202.6 
       952.0         0.30        202.5 
       953.0         0.23        202.7 
       954.0         0.28        206.4 
       955.0         0.23        203.8 
       956.0         1.93        347.1 
       957.0         0.30        402.8 
       958.0         0.30       1314.7 
       959.0         0.55       1969.8 
       960.0         0.37       1366.9 
       961.0         0.37        760.4 
       962.0         0.30        737.5 
       963.0         0.30        601.2 
       964.0         0.30        528.0 
       965.0         0.30        454.2 
       966.0         0.27        440.0 
       967.0         0.27        440.0 
       968.0         0.27        209.1 
       969.0         0.30        200.5 
       970.0         0.32        200.1 
       971.0         0.27        197.0 
       972.0         0.30        194.4 
       973.0         0.30        195.0 
       974.0         0.30        194.9 
       975.0         0.27        194.7 
       976.0         0.27        193.6 
       977.0         0.30        191.8 
       978.0         0.27        192.2 
       979.0         0.27        193.1 
       980.0         0.30        193.2 
       981.0         0.35        194.2 
       982.0         0.27        195.5 
       983.0         0.30        195.3 
       984.0         0.23        188.8 
       985.0         0.30        181.1 
       986.0         3.55       1570.2 
       987.0         0.43       1289.5 
       988.0         0.30        837.7 
       989.0         0.27        682.1 
       990.0         0.27        579.3 
       991.0         0.27        483.2 
       992.0         0.23        470.7 
       993.0         0.28        458.7 
       994.0         0.23        440.0 
       995.0         0.23        212.0 
       996.0         0.27        207.1 
       997.0         0.23        203.7 
       998.0         0.27        201.6 
       999.0         0.27        198.3 
      1000.0         0.27        192.9 
