~Version Information
VERS.                      2.0: CWLS Log ASCII Standard - VERSION 2.0
WRAP.                       NO: One line per depth step
~Well Information Block
STRT.FT                -3.5000: 
STOP.FT              1745.0000: 
STEP.FT                 0.2500: 
NULL.                -999.2500: 
COMP.          Pioneer Natural Resources: COMPANY
WELL.           Labrador 34-30: WELL
FLD.           Purgatorie River: FIELD
LOC.           926' FSL & 2080' FEL--: LOCATION
PROV.                       CO: PROVINCE
CNTY.               Las Animas: COUNTRY
SRVC.                         : SERVICE COMPANY
DATE.          Fri Dec 10 09:58:23 2004: LOG DATE
UWI.                071-08202 : UNIQUE WELL ID
~Curve Information Block
DEPT.FT            0 000 00 00: Depth
GR.GAPI                       : Gamma Ray
CCL.                          : Casing Collar Locator
TT3.usec                      : CBL 3' Travel Time
AMP3.mV                       : CBL 3' Amplitude
~Parameter Information Block
~A  Depth        GR         CCL         TT3         AMP3    
# ...
   666.5000    160.1823      0.0000    764.0983     10.7964
   666.7500    156.2172      0.0000    764.2719     10.8827
   667.0000    153.2668      0.0000    764.7587     11.0055
   667.2500    149.9828      0.0000    766.0069     11.1238
   667.5000    144.7170      0.0000    768.8010     11.2039
   667.7500    137.8809      0.0000    773.8170     11.2508
   668.0000    132.1004      0.0000    780.6838     11.2953
   668.2500    130.0054      0.0000    787.4912     11.3597
   668.5000    132.2843      0.0000    791.7125     11.4330
   668.7500    137.8463      0.0000    791.9323     11.4774
   669.0000    144.9971      0.0000    788.6294     11.4622
   669.2500    152.0914      0.0000    783.5438     11.3930
   669.5000    157.5786      0.0000    778.8781     11.3053
   669.7500    160.0652      0.0000    776.9528     11.2296
   670.0000    158.7138      0.0000    779.4455     11.1655
   670.2500    153.9314      0.0000    785.9177     11.0841
   670.5000    147.5967      0.0000    793.1753     10.9549
   670.7500    141.9783      0.0000    797.1767     10.7781
   671.0000    138.0116      0.0000    796.4980     10.5939
   671.2500    134.7932      0.0000    793.7180     10.4534
   671.5000    130.8250      0.0000    792.8043     10.3715
   671.7500    125.6057      0.0000    795.3849     10.3171
   672.0000    120.2499      0.0000    799.9183     10.2511
   672.2500    116.9374      0.0000    803.8439     10.1672
   672.5000    117.4829      0.0000    805.6456     10.0867
   672.7500    121.9761      0.0000    805.1926     10.0273
   673.0000    128.8146      0.0000    803.2667      9.9916
   673.2500    136.1422      0.0000    801.2352      9.9843
   673.5000    142.7856      0.0000    800.5364     10.0267
   673.7500    147.7769      0.0000    801.7388     10.1442
   674.0000    149.9790      0.0000    804.1125     10.3406
   674.2500    149.0005      0.0000    806.3492     10.5860
   674.5000    146.0017      0.0000    807.5043     10.8287
   674.7500    143.0286      0.0000    807.0639     11.0188
   675.0000    141.6656      0.0000    804.4661     11.1300
   675.2500    142.3639      0.0000    799.1304     11.1671
   675.5000    144.6285      0.0000    791.2220     11.1562
   675.7500    147.5303      0.0000    782.1968     11.1234
   676.0000    150.1278      0.0000    774.1771     11.0763
   676.2500    151.7186      0.0000    768.6188     11.0061
   676.5000    152.0088      0.0000    765.6239     10.9081
   676.7500    151.1089      0.0000    764.3945     10.8003
   677.0000    149.1055      0.0000    764.0482     10.7176
   677.2500    145.7428      0.0000    764.0406     10.6836
   677.5000    140.9355      0.0000    764.1526     10.6887
   677.7500    135.3740      0.0000    764.3234     10.7017
   678.0000    130.0155      0.0000    764.5258     10.7040
   678.2500    125.0698      0.0000    764.7384     10.7058
   678.5000    120.0603      0.0000    765.0159     10.7282
   678.7500    114.9905      0.0000    765.5995     10.7815
   679.0000    110.9862      0.0000    766.9913     10.8622
   679.2500    109.4308      0.0000    769.8206     10.9573
   679.5000    110.7091      0.0000    774.3140     11.0442
   679.7500    114.2453      0.0000    779.6304     11.0958
   680.0000    119.6328      0.0000    784.0635     11.0984
   680.2500    126.9395      0.0000    786.5850     11.0617
   680.5000    135.5824      0.0000    788.1694     11.0099
   680.7500    143.5421      0.0000    790.8820     10.9671
   681.0000    148.4136      0.0000    795.5723     10.9508
   681.2500    149.1227      0.0000    801.0754     10.9672
   681.5000    146.2731      0.0000    805.6404     11.0056
   681.7500    141.1864      0.0000    808.4655     11.0463
   682.0000    135.0840      0.0000    809.8010     11.0811
   682.2500    128.9037      0.0000    810.1824     11.1202
   682.5000    123.4267      0.0000    809.8337     11.1723
   682.7500    119.5592      0.0000    808.4768     11.2260
   683.0000    118.2199      0.0000    805.4102     11.2589
   683.2500    119.4123      0.0000    799.9437     11.2642
   683.5000    121.6494      0.0000    792.1726     11.2612
   683.7500    123.1734      0.0000    783.4200     11.2797
   684.0000    123.8466      0.0000    775.6314     11.3352
   684.2500    125.1055      0.0000    770.1474     11.4136
   684.5000    127.9566      0.0000    767.1252     11.4793
   684.7500    131.6878      0.0000    766.0662     11.5008
   685.0000    134.6309      0.0000    766.7274     11.4715
   685.2500    135.5667      0.0000    769.5368     11.4123
   685.5000    134.2836      0.0000    775.1442     11.3550
   685.7500    131.3509      0.0000    783.4104     11.3222
   686.0000    127.8002      0.0000    792.8174     11.3127
   686.2500    124.7672      0.0000    801.1360     11.3037
   686.5000    122.7718      0.0000    806.8276     11.2695
   686.7500    121.2796      0.0000    809.7590     11.2046
   687.0000    119.4087      0.0000    810.7164     11.1273
   687.2500    116.9935      0.0000    810.4916     11.0612
   687.5000    114.5484      0.0000    809.3436     11.0083
   687.7500    112.5506      0.0000    807.0202     10.9393
   688.0000    111.2983      0.0000    803.3331     10.8179
   688.2500    111.3680      0.0000    799.0240     10.6320
   688.5000    113.6966      0.0000    795.9691     10.3871
   688.7500    118.9414      0.0000    795.9058     10.0710
   689.0000    126.6232      0.0000    798.7131      9.6684
   689.2500    134.8158      0.0000    802.2989      9.2206
   689.5000    140.8608      0.0000    804.3738      8.8263
   689.7500    142.8294      0.0000    804.3193      8.5617
   690.0000    140.6693      0.0000    803.6054      8.4242
   690.2500    136.1175     -2.0000    804.6679      8.3629
   690.5000    131.5404     -2.0000    808.8514      8.3427
   690.7500    128.7090      0.0000    814.5814      8.3881
   691.0000    128.2998      0.0000    817.4789      8.5857
   691.2500    130.0456      0.0000    813.3514      9.0163
   691.5000    133.1123      0.0000    802.0524      9.6427
   691.7500    136.5484      0.0000    788.0925     10.2835
   692.0000    139.6082      0.0000    776.9664     10.7459
   692.2500    141.7700      0.0000    771.3344     10.9728
   692.5000    142.6379      0.0000    770.6234     11.0351
   692.7500    142.2080      0.0000    772.8093     11.0227
   693.0000    141.0832      0.0000    775.7689     10.9869
   693.2500    139.7489      0.0000    777.9902     10.9532
   693.5000    137.5275      0.0000    779.2927     10.9366
   693.7500    132.9374      0.0000    780.7396     10.9334
   694.0000    125.3604      0.0000    783.0936     10.9143
   694.2500    115.9225      0.0000    785.6130     10.8382
   694.5000    106.5459      0.0000    787.0173     10.6764
   694.7500     98.4904      0.0000    787.3533     10.4325
   695.0000     91.9971      0.0000    788.0583     10.1435
   695.2500     86.9097      0.0000    790.2718      9.8650
   695.5000     83.1270      0.0000    793.6416      9.6483
   695.7500     80.5129      0.0000    796.6370      9.5194
   696.0000     78.8394      0.0000    797.6537      9.4685
   696.2500     77.9914      0.0000    796.1028      9.4548
   696.5000     77.9907      0.0000    792.8336      9.4341
   696.7500     78.9911      0.0000    789.5928      9.3901
   697.0000     81.6061      0.0000    787.8878      9.3439
   697.2500     86.8555      0.0000    787.8846      9.3324
   697.5000     95.2141      0.0000    788.1344      9.3827
   697.7500    105.8287      0.0000    786.8788      9.5053
   698.0000    116.6972      0.0000    784.0505      9.6984
   698.2500    125.2986      0.0000    781.6378      9.9466
   698.5000    129.5363      0.0000    781.7283     10.2146
   698.7500    129.1289      0.0000    784.3823     10.4545
   699.0000    126.2784      0.0000    787.6376     10.6272
   699.2500    124.5330      0.0000    789.6080     10.7172
   699.5000    126.5759      0.0000    790.2262     10.7329
   699.7500    132.5947      0.0000    790.5975     10.6983
