~Version Information
VERS.                      2.0: CWLS Log ASCII Standard - VERSION 2.0
WRAP.                       NO: One line per depth step
~Well Information Block
STRT.FT               350.0000: 
STOP.FT              1391.5000: 
STEP.FT                 0.2500: 
NULL.                -999.2500: 
COMP.          Petrogulf Corporation: COMPANY
WELL.             Leier 17-42R: WELL
FLD.           Purgatorie River: FIELD
LOC.           2398' FNL & 1109' FEL: LOCATION
PROV.                 Colorado: PROVINCE
CNTY.               Las Animas: COUNTRY
SRVC.                Patterson: SERVICE COMPANY
DATE.          Mon Oct 17 09:42:26 2005: LOG DATE
UWI.                          : UNIQUE WELL ID
~Curve Information Block
DEPT.FT            0 000 00 00: Depth
SP.mV                         : DIL Spontaneous Potential
RILD.Ohm-m                    : DIL Deep Resistivity
RILM.Ohm-m                    : DIL Medium Resistivity
RLL3.Ohm-m                    : DIL Shallow Resistivity
GR.GAPI                       : Gamma Ray
~Parameter Information Block
~A  Depth        SP         RILD        RILM        RLL3         GR     
# ...
  1162.0000    235.4872     52.4079     96.7221    903.5974     17.1240
  1162.2500    234.8299     51.5346    101.5523    904.0004     17.3182
  1162.5000    234.7030     49.9513    103.4542    892.1426     18.2368
  1162.7500    235.1864     47.5858    101.2120    862.9404     19.3873
  1163.0000    236.3219     44.4883     94.4732    817.0652     21.9665
  1163.2500    238.1022     40.8662     84.1537    757.9611     24.1962
  1163.5000    240.4729     37.0247     72.0561    685.9907     28.2165
  1163.7500    243.3493     33.2535     60.0069    596.8268     31.3797
  1164.0000    246.6325     29.7490     49.2289    487.6407     37.1908
  1164.2500    250.2108     26.6083     40.2376    365.4610     42.1690
  1164.5000    253.9436     23.8603     33.0528    247.6060     51.9250
  1164.7500    257.6544     21.4974     27.4519    152.1168     59.9673
  1165.0000    261.1559     19.4920     23.1408     87.3901     73.6137
  1165.2500    264.2973     17.8030     19.8402     50.1603     83.1771
  1165.5000    266.9935     16.3812     17.3164     31.2299     97.4216
  1165.7500    269.2170     15.1774     15.3851     22.0355    106.4860
  1166.0000    270.9766     14.1507     13.9053     17.4284    118.5036
  1166.2500    272.3119     13.2711     12.7704     15.0909    124.5702
  1166.5000    273.2965     12.5193     11.8999     14.0427    129.2142
  1166.7500    274.0284     11.8837     11.2330     13.7460    129.1559
  1167.0000    274.6060     11.3573     10.7247     13.8677    125.9209
  1167.2500    275.1037     10.9364     10.3420     14.2334    123.2104
  1167.5000    275.5602     10.6201     10.0624     14.7235    120.4966
  1167.7500    275.9814     10.4083      9.8715     15.1734    120.1500
  1168.0000    276.3521     10.2994      9.7620     15.4039    121.6083
  1168.2500    276.6481     10.2883      9.7314     15.3508    123.3464
  1168.5000    276.8445     10.3643      9.7805     15.1270    126.0941
  1168.7500    276.9187     10.5095      9.9110     14.9466    127.6819
  1169.0000    276.8516     10.6994     10.1228     15.0655    129.4103
  1169.2500    276.6331     10.9039     10.4108     15.8844    129.8359
  1169.5000    276.2738     11.0921     10.7608     18.0592    128.4838
  1169.7500    275.8140     11.2389     11.1468     22.2288    125.7782
  1170.0000    275.3219     11.3321     11.5293     28.2468    118.9239
  1170.2500    274.8759     11.3772     11.8603     34.5589    112.9629
  1170.5000    274.5366     11.3949     12.0944     38.6906    103.4779
  1170.7500    274.3204     11.4150     12.2030     38.8358     98.0663
  1171.0000    274.1914     11.4666     12.1870     35.1248     93.8437
  1171.2500    274.0807     11.5698     12.0765     29.3263     94.7624
  1171.5000    273.9260     11.7308     11.9208     23.4716    101.7877
  1171.7500    273.7055     11.9402     11.7736     18.8152    108.8584
  1172.0000    273.4416     12.1751     11.6808     15.7373    119.3179
  1172.2500    273.1780     12.4032     11.6742     14.1628    124.4062
  1172.5000    272.9546     12.5891     11.7707     13.9659    128.5168
  1172.7500    272.7986     12.7024     11.9726     15.2001    129.5514
  1173.0000    272.7300     12.7264     12.2684     18.1713    129.0621
  1173.2500    272.7695     12.6654     12.6336     23.2899    126.8304
  1173.5000    272.9398     12.5433     13.0315     30.5406    120.1209
  1173.7500    273.2570     12.3930     13.4167     38.6950    114.2720
  1174.0000    273.7156     12.2430     13.7400     45.1302    105.7356
  1174.2500    274.2769     12.1080     13.9565     47.1510    100.8913
  1174.5000    274.8727     11.9881     14.0320     44.1184     94.9760
  1174.7500    275.4318     11.8738     13.9486     38.1593     92.1489
  1175.0000    275.9153     11.7520     13.7064     32.4233     90.7389
  1175.2500    276.3300     11.6089     13.3227     28.6332     92.2770
  1175.5000    276.7085     11.4314     12.8290     26.3098     98.0249
  1175.7500    277.0717     11.2087     12.2652     23.9849    103.1155
  1176.0000    277.4108     10.9365     11.6727     20.8256    110.1305
  1176.2500    277.7004     10.6205     11.0878     17.1934    113.2328
  1176.5000    277.9217     10.2758     10.5371     14.0258    115.2382
  1176.7500    278.0728      9.9215     10.0365     11.9562    115.6642
  1177.0000    278.1597      9.5750      9.5925     10.9794    116.8549
  1177.2500    278.1851      9.2493      9.2047     10.6968    118.5876
  1177.5000    278.1461      8.9544      8.8700     10.6937    122.2616
  1177.7500    278.0400      8.6992      8.5845     10.7330    124.8297
  1178.0000    277.8705      8.4920      8.3455     10.7404    127.8073
  1178.2500    277.6454      8.3393      8.1520     10.7078    128.7009
  1178.5000    277.3728      8.2441      8.0047     10.6297    127.8198
  1178.7500    277.0577      8.2054      7.9054     10.5098    125.7662
  1179.0000    276.7046      8.2182      7.8558     10.3879    121.5439
  1179.2500    276.3183      8.2758      7.8578     10.3296    119.0584
  1179.5000    275.9001      8.3711      7.9123     10.3878    117.3267
  1179.7500    275.4412      8.4979      8.0192     10.5799    117.6569
  1180.0000    274.9256      8.6510      8.1774     10.8970    119.7712
  1180.2500    274.3427      8.8264      8.3847     11.3195    121.7675
  1180.5000    273.7006      9.0221      8.6377     11.8191    124.5649
  1180.7500    273.0239      9.2376      8.9319     12.3553    125.6241
  1181.0000    272.3328      9.4735      9.2617     12.8768    125.6484
  1181.2500    271.6220      9.7284      9.6204     13.3310    125.0003
  1181.5000    270.8573      9.9978     10.0002     13.6827    123.7926
  1181.7500    269.9960     10.2728     10.3921     13.9335    122.9612
  1182.0000    269.0159     10.5416     10.7852     14.1237    121.6521
  1182.2500    267.9362     10.7917     11.1664     14.3018    120.8775
  1182.5000    266.8126     11.0123     11.5211     14.4840    120.3688
  1182.7500    265.7065     11.1946     11.8330     14.6444    120.5984
  1183.0000    264.6510     11.3337     12.0867     14.7506    121.2575
  1183.2500    263.6418     11.4290     12.2704     14.8053    121.2651
  1183.5000    262.6556     11.4858     12.3786     14.8397    119.7396
  1183.7500    261.6746     11.5151     12.4151     14.8635    117.5542
  1184.0000    260.6979     11.5308     12.3925     14.8415    112.8027
  1184.2500    259.7324     11.5469     12.3308     14.7380    109.0939
  1184.5000    258.7792     11.5747     12.2535     14.5737    104.1965
  1184.7500    257.8315     11.6217     12.1843     14.4203    102.5442
  1185.0000    256.8857     11.6912     12.1437     14.3381    103.8492
  1185.2500    255.9506     11.7830     12.1481     14.3377    107.0373
  1185.5000    255.0484     11.8949     12.2087     14.4059    113.3807
  1185.7500    254.2088     12.0238     12.3314     14.5615    117.2481
  1186.0000    253.4563     12.1687     12.5177     14.8766    120.4938
  1186.2500    252.7924     12.3304     12.7640     15.4433    120.1394
  1186.5000    252.1865     12.5107     13.0628     16.3172    115.6646
  1186.7500    251.5886     12.7108     13.4028     17.4835    111.1061
  1187.0000    250.9602     12.9324     13.7703     18.8645    104.8434
  1187.2500    250.2964     13.1793     14.1516     20.3346    102.1463
  1187.5000    249.6242     13.4599     14.5356     21.7072    100.0976
  1187.7500    248.9843     13.7851     14.9170     22.7258     99.5016
  1188.0000    248.4166     14.1650     15.2986     23.1435     99.4101
  1188.2500    247.9556     14.6058     15.6918     22.8842     99.7492
  1188.5000    247.6299     15.1075     16.1154     22.1456    100.0004
  1188.7500    247.4619     15.6637     16.5934     21.3107     99.4541
  1189.0000    247.4709     16.2585     17.1508     20.7370     97.5578
  1189.2500    247.6794     16.8630     17.8089     20.6526     96.0984
  1189.5000    248.1214     17.4328     18.5796     21.3570     94.6098
  1189.7500    248.8450     17.9124     19.4568     23.7475     94.4005
