~Version Information
 VERS.                                  2.0 : CWLS LAS VERSION
 WRAP.                                   NO : WRAPING MODE
 SWARE .                 MController 2.5.0J : SOFTWARE VERSION
~Well Information
 WELL.                         Squeal 11-26 : WELL
 COMP.    Pioneer Natural Resources USA Inc : COMPANY
 FLD.                      Purgatoire River : FIELD
 LOC.                NW/NW Sec 26 T32S R67W : LOCATION
 DATE.                         6/13-14/2005 : DATE(S) LOGGED
 SRVC.       Blanco Geological Services LLC : SERVICE COMPANY
 STAT.                                   CO : STATE
 CNTY.                           Las Animas : COUNTY
 CTRY.                                  USA : COUNTRY
 API.                       05-071-08404-00 : API NUMBER
 STRT.FT                             285.00 : START DEPTH
 STOP.FT                            2760.00 : STOP DEPTH
 STEP.FT                               1.00 : DEPTH INCREMENT
 NULL.                                -9999 : NULL VALUE
~Curve information
 DEPTH.FT                                   :
 ROP.MIN/FT                                 :
 GAS.UNITS                                  :
~ASCII Log data
# ...
       885.0         0.47         10.0 
       886.0         0.47          9.8 
       887.0         0.47          9.9 
       888.0         0.35         10.3 
       889.0         0.37         10.2 
       890.0         0.37         10.3 
       891.0         0.77         10.9 
       892.0         0.27         13.6 
       893.0         0.17         15.3 
       894.0         0.10         16.3 
       895.0         0.10         16.5 
       896.0         0.10         16.5 
       897.0         0.10         15.5 
       898.0         0.13         15.6 
       899.0         0.13         15.4 
       900.0         6.90         15.7 
       901.0         0.52         10.7 
       902.0         0.27         11.5 
       903.0         0.37         11.8 
       904.0         0.17         12.2 
       905.0         0.20         12.4 
       906.0         0.20         12.4 
       907.0         0.20         11.8 
       908.0         0.17         11.8 
       909.0         0.60         11.0 
       910.0         0.40         11.0 
       911.0         0.40         10.6 
       912.0         0.42         11.3 
       913.0         0.33         11.2 
       914.0         0.50         11.2 
       915.0         0.43         11.1 
       916.0         0.53         10.9 
       917.0         0.50         11.1 
       918.0         0.47         11.3 
       919.0         0.45         11.2 
       920.0         0.30         11.5 
       921.0         0.33         10.9 
       922.0         0.30         10.8 
       923.0         0.30         10.7 
       924.0         0.30         10.6 
       925.0         0.37         10.5 
       926.0         0.40         10.7 
       927.0         0.43         10.8 
       928.0         0.33         11.3 
       929.0         0.28         11.1 
       930.0        12.22         12.4 
       931.0         0.43         11.4 
       932.0         0.37         11.3 
       933.0         0.38         11.2 
       934.0         0.40         11.6 
       935.0         0.47         11.2 
       936.0         0.47         11.5 
       937.0         0.47         11.5 
       938.0         0.37         11.2 
       939.0         0.40         11.2 
       940.0         0.52         11.4 
       941.0         0.50         11.5 
       942.0         0.83         11.4 
       943.0         0.37         11.4 
       944.0         0.17         11.1 
       945.0         0.17         11.3 
       946.0         0.20         11.3 
       947.0         0.27         11.8 
       948.0         0.30         11.0 
       949.0         0.43         11.1 
       950.0         0.32         11.0 
       951.0         0.27         11.2 
       952.0         0.33         10.9 
       953.0         0.30         11.5 
       954.0         0.30         11.1 
       955.0         0.27         11.0 
       956.0         0.27         11.2 
       957.0         0.30         10.8 
       958.0         0.30         10.9 
       959.0         6.03         13.3 
       960.0         0.80         11.1 
       961.0         0.47         11.4 
       962.0         0.55         11.5 
       963.0         0.90         11.6 
       964.0         0.53         12.1 
       965.0         0.57         12.1 
       966.0         0.57         11.6 
       967.0         0.30         12.0 
       968.0         0.42         11.8 
       969.0         0.87         11.5 
       970.0         0.43         11.5 
       971.0         0.33         11.6 
       972.0         0.27         11.9 
       973.0         0.23         11.9 
       974.0         0.33         11.9 
       975.0         0.47         11.5 
       976.0         0.62         12.0 
       977.0         0.73         11.6 
       978.0         0.80         11.8 
       979.0         0.67         11.9 
       980.0         0.78         12.2 
       981.0         0.67         11.9 
       982.0         0.63         11.8 
       983.0         0.37         11.5 
       984.0         0.50         11.6 
       985.0         0.57         11.7 
       986.0         0.75         12.0 
       987.0         0.57         12.0 
       988.0         0.60         11.9 
       989.0         0.77         11.8 
       990.0        10.32         40.9 
       991.0         0.37         14.8 
       992.0         0.40         11.3 
       993.0         0.35         10.9 
       994.0         0.27         10.8 
       995.0         0.23         11.0 
       996.0         0.30         10.9 
       997.0         0.27         10.9 
       998.0         0.43         11.0 
       999.0         0.27         10.8 
      1000.0         0.30         11.0 
      1001.0         0.33         10.9 
      1002.0         0.37         10.9 
      1003.0         0.32         10.9 
      1004.0         0.30         10.9 
      1005.0         0.33         11.1 
      1006.0         0.47         11.5 
      1007.0         0.53         11.1 
      1008.0         0.50         11.2 
      1009.0         0.40         11.4 
      1010.0         0.47         11.3 
      1011.0         0.58         11.6 
      1012.0         0.43         11.6 
      1013.0         0.23         11.3 
      1014.0         0.43         11.9 
      1015.0         0.60         12.5 
      1016.0         0.53         12.1 
      1017.0         0.33         11.8 
      1018.0         0.37         12.2 
      1019.0         0.35         12.2 
      1020.0         6.32         25.8 
      1021.0         0.48         11.1 
      1022.0         0.40         11.0 
      1023.0         0.37         11.0 
      1024.0         0.33         11.2 
      1025.0         0.43         11.6 
      1026.0         0.40         11.8 
      1027.0         0.37         11.7 
      1028.0         0.30         11.7 
      1029.0         0.48         11.9 
      1030.0         0.40         12.0 
      1031.0         0.53         12.1 
      1032.0         0.37         12.3 
      1033.0         0.43         12.3 
      1034.0         0.23         12.2 
      1035.0         0.27         12.3 
      1036.0         0.27         12.2 
      1037.0         0.30         11.8 
      1038.0         0.30         11.7 
      1039.0         0.28         11.8 
      1040.0         0.27         12.0 
      1041.0         0.27         11.6 
      1042.0         0.30         11.5 
      1043.0         0.30         12.0 
      1044.0         0.33         11.7 
      1045.0         0.27         11.5 
      1046.0         0.20         11.8 
      1047.0         0.30         11.5 
      1048.0         0.30         11.9 
      1049.0         0.57         11.6 
      1050.0        12.20         37.3 
      1051.0         0.43         12.6 
      1052.0         0.30         14.0 
      1053.0         0.27         15.2 
      1054.0         0.27         16.5 
      1055.0         0.32         16.8 
      1056.0         0.30         15.7 
      1057.0         0.37         14.9 
      1058.0         0.33         12.5 
      1059.0         0.43         11.8 
      1060.0         0.37         11.8 
      1061.0         0.37         11.9 
      1062.0         0.43         12.0 
      1063.0         0.37         11.7 
      1064.0         0.35         11.5 
      1065.0         0.37         11.7 
      1066.0         0.40         12.1 
      1067.0         0.37         11.5 
      1068.0         0.63         11.7 
      1069.0         0.53         12.0 
      1070.0         0.43         11.7 
      1071.0         0.27         12.2 
      1072.0         0.25         11.6 
      1073.0         0.27         12.5 
      1074.0         0.27         12.3 
      1075.0         0.47         12.3 
      1076.0         0.40         12.1 
      1077.0         0.30         12.0 
      1078.0         0.40         11.9 
      1079.0         0.70         12.0 
      1080.0         6.43         31.5 
      1081.0         0.65         13.0 
      1082.0         0.43         12.6 
      1083.0         0.33         12.3 
      1084.0         0.33         12.9 
