~Version Information
VERS.                      2.0: CWLS Log ASCII Standard - VERSION 2.0
WRAP.                       NO: One line per depth step
~Well Information Block
STRT.FT               741.2000: 
STOP.FT              2461.0000: 
STEP.FT                 0.1000: 
NULL.                -999.2500: 
COMP.          Petrogulf Corporation: COMPANY
WELL.           Montoya 12-44V: WELL
FLD.           Purgatorie River: FIELD
LOC.           698' FSL & 599' FEL: LOCATION
CNTY.               Las Animas: COUNTY
SRVC.                         : SERVICE COMPANY
DATE.          Mon Aug 09 06:09:04 2004: LOG DATE
UWI.           05 071 08094 00: UNIQUE WELL ID
STAT.                 Colorado: STATE
~Curve Information Block
DEPT.FT            0 000 00 00: Depth
DCAL.in                       : CDL Caliper
RHOB.g/cc                     : CDL Bulk Density
RHOC.g/cc                     : CDL Density Correction
DPOR.pu                       : CDL Density Porosity
GR.GAPI                       : Gamma Ray
NPOR.pu                       : Neutron Porosity
~Parameter Information Block
~A  Depth       DCAL        RHOB        RHOC        DPOR         GR         NPOR    
# ...
   981.2000      8.1688      2.6210      0.1359      1.7599     53.9762     15.3798
   981.3000      8.1824      2.5971      0.0939      3.2038     51.5220     15.5991
   981.4000      8.1824      2.5797      0.1039      4.2598     51.3051     15.7638
   981.5000      8.1712      2.5719      0.1243      4.7352     52.4799     16.3237
   981.6000      8.1712      2.5498      0.1403      6.0732     54.8404     17.0781
   981.7000      8.1712      2.5081      0.0611      8.6000     57.3714     17.1381
   981.8000      8.2002      2.4789      0.0020     10.3697     61.8781     16.6698
   981.9000      8.2002      2.4823      0.0426     10.1648     69.7615     16.0708
   982.0000      8.2362      2.5000      0.0506      9.0883     75.0150     15.2750
   982.1000      8.2362      2.5120      0.0628      8.3634     73.3590     14.7716
   982.2000      8.2362      2.5163      0.0390      8.1042     67.8736     14.9702
   982.3000      8.2399      2.5202      0.0014      7.8646     62.7737     15.7935
   982.4000      8.2399      2.5208      0.0842      7.8327     60.4407     17.0803
   982.5000      8.2397      2.5102      0.0178      8.4729     61.7097     18.2405
   982.6000      8.2397      2.5012     -0.0063      9.0164     64.6261     18.5824
   982.7000      8.2397      2.5096     -0.0167      8.5088     64.6345     18.2625
   982.8000      8.2388      2.5295      0.0106      7.3012     62.6813     18.0242
   982.9000      8.2388      2.5406      0.0615      6.6283     64.0925     18.3625
   983.0000      8.2378      2.5360      0.0228      6.9067     66.0915     19.1276
   983.1000      8.2378      2.5327     -0.0070      7.1091     64.8281     19.7236
   983.2000      8.2378      2.5404      0.0185      6.6431     66.5815     20.0377
   983.3000      8.2414      2.5543      0.0083      5.8024     75.6784     20.7097
   983.4000      8.2414      2.5707      0.0556      4.8051     86.0400     22.0476
   983.5000      8.2376      2.5867      0.0395      3.8337     93.8395     23.5723
   983.6000      8.2376      2.5997      0.0389      3.0458     98.3053     24.7840
   983.7000      8.2376      2.6047      0.0765      2.7457     95.9900     25.4193
   983.8000      8.2402      2.6067      0.0675      2.6246     90.9413     25.6316
   983.9000      8.2402      2.6197      0.0672      1.8369     93.6497     25.6234
   984.0000      8.2419      2.6396      0.1217      0.6278    104.0030     25.4496
   984.1000      8.2419      2.6535      0.0846     -0.2102    114.1020     25.5213
   984.2000      8.2419      2.6595      0.0828     -0.5760    117.4039     26.1832
   984.3000      8.2371      2.6572      0.1213     -0.4376    113.3113     27.0377
   984.4000      8.2371      2.6477      0.0922      0.1423    109.0826     27.5160
   984.5000      8.2452      2.6364      0.0622      0.8233    108.9386     27.5274
   984.6000      8.2452      2.6237      0.0355      1.5944    110.0081     27.0652
   984.7000      8.2452      2.6096      0.0246      2.4463    111.6685     26.2204
   984.8000      8.2488      2.5967      0.0028      3.2288    114.9818     25.5299
   984.9000      8.2488      2.5840      0.0052      3.9986    116.7318     25.3259
   985.0000      8.2651      2.5704      0.0090      4.8238    113.9481     24.9921
   985.1000      8.2651      2.5667     -0.0310      5.0501    112.7365     24.1540
   985.2000      8.2651      2.5822      0.0467      4.1097    118.4226     23.3614
   985.3000      8.2610      2.5927      0.0851      3.4741    123.6740     22.9941
   985.4000      8.2610      2.5714      0.0372      4.7661    121.9806     22.9797
   985.5000      8.2858      2.5344     -0.0308      7.0053    116.9291     23.5242
   985.6000      8.2858      2.5093      0.0031      8.5266    114.3174     24.7425
   985.7000      8.2858      2.4935      0.0016      9.4857    117.7391     26.3029
   985.8000      8.2978      2.4709     -0.0037     10.8537    123.9684     27.7253
   985.9000      8.2978      2.4388     -0.0029     12.8001    124.9007     28.6035
   986.0000      8.3274      2.4061     -0.0066     14.7798    123.3689     28.6508
   986.1000      8.3274      2.3780     -0.0188     16.4846    124.0220     28.1942
   986.2000      8.3274      2.3617     -0.0415     17.4733    122.8974     28.0731
   986.3000      8.3397      2.3646     -0.0001     17.2999    119.8475     28.4278
   986.4000      8.3397      2.3818     -0.0238     16.2541    119.9129     28.8901
   986.5000      8.3565      2.4030      0.0615     14.9713    124.6396     29.1462
   986.6000      8.3565      2.4207      0.0584     13.8974    129.5595     29.1523
   986.7000      8.3565      2.4372      0.0641     12.8963    131.5876     29.4071
   986.8000      8.3574      2.4519      0.1195     12.0045    134.2227     29.9034
   986.9000      8.3574      2.4556      0.1756     11.7823    140.9233     29.8912
   987.0000      8.3682      2.4492      0.1153     12.1721    147.1736     29.2766
   987.1000      8.3682      2.4463      0.1163     12.3440    146.7351     28.8037
   987.2000      8.3682      2.4569      0.0530     11.7024    142.3522     28.7380
   987.3000      8.4237      2.4797      0.0837     10.3242    141.1932     28.7169
   987.4000      8.4237      2.4965      0.1385      9.3017    143.5310     28.7838
   987.5000      8.4337      2.4894      0.0818      9.7355    143.6470     28.9855
   987.6000      8.4337      2.4737      0.0564     10.6863    141.5950     29.2911
   987.7000      8.4337      2.4758      0.0584     10.5563    144.1437     29.4169
   987.8000      8.4228      2.4820      0.1122     10.1840    149.0548     28.8510
   987.9000      8.4228      2.4630      0.0853     11.3350    146.8605     28.0878
   988.0000      8.3110      2.4238      0.0353     13.7089    140.0802     27.7276
   988.1000      8.3110      2.3917      0.0363     15.6575    138.0642     27.6448
   988.2000      8.3110      2.3794      0.0572     16.4022    139.0409     27.9948
   988.3000      8.2862      2.3841      0.0416     16.1177    139.6700     28.7924
   988.4000      8.2862      2.3989      0.0925     15.2178    141.8080     29.5679
   988.5000      8.2963      2.4086      0.1054     14.6330    141.4210     30.0250
   988.6000      8.2963      2.4152      0.0562     14.2306    135.5686     29.9900
   988.7000      8.2963      2.4439      0.0707     12.4908    129.9437     29.6546
   988.8000      8.2952      2.4888      0.1599      9.7692    129.8556     29.3168
   988.9000      8.2952      2.5163      0.1407      8.1026    134.8616     28.6698
   989.0000      8.2812      2.5264      0.0829      7.4933    138.9308     27.5424
   989.1000      8.2812      2.5357      0.0779      6.9274    136.0398     26.5291
   989.2000      8.2812      2.5356      0.0888      6.9324    130.1206     26.3088
   989.3000      8.2800      2.5224      0.0370      7.7361    125.6375     26.5539
   989.4000      8.2800      2.5159      0.0401      8.1267    121.4579     26.4581
   989.5000      8.2800      2.5249      0.0516      7.5789    120.1736     26.4655
   989.6000      8.2800      2.5429      0.0152      6.4907    124.9382     27.1747
   989.7000      8.2800      2.5663      0.0559      5.0705    132.6055     27.6609
   989.8000      8.2817      2.5966      0.0506      3.2365    136.1058     27.2982
   989.9000      8.2817      2.6341      0.0762      0.9639    133.4108     27.1841
   990.0000      8.2807      2.6682      0.1091     -1.1052    132.1365     27.7281
   990.1000      8.2807      2.6905      0.0670     -2.4552    136.0923     27.9720
   990.2000      8.2807      2.7026      0.0860     -3.1875    137.8606     27.6072
   990.3000      8.2763      2.7053      0.0566     -3.3486    130.1386     26.9166
   990.4000      8.2763      2.7001      0.0570     -3.0354    117.8001     25.8299
   990.5000      8.2945      2.6880      0.0424     -2.3001    114.3477     24.5593
   990.6000      8.2945      2.6698      0.0319     -1.2002    122.6101     23.9598
   990.7000      8.2945      2.6432      0.0051      0.4106    132.4792     24.6156
