~Version Information
VERS.                      2.0: CWLS Log ASCII Standard - VERSION 2.0
WRAP.                       NO: One line per depth step
~Well Information Block
STRT.FT                -7.5000: 
STOP.FT              2226.0000: 
STEP.FT                 0.2500: 
NULL.                -999.2500: 
COMP.          Pioneer Natural Resources: COMPANY
WELL.              Tonto 42-23: WELL
FLD.           Purgatorie River: FIELD
LOC.           2217' FNL & 423' FEL----: LOCATION
PROV.                       CO: PROVINCE
CNTY.               Las Animas: COUNTRY
SRVC.          Patterson Wireline: SERVICE COMPANY
DATE.          Fri Apr 22 11:40:07 2005: LOG DATE
UWI.           05 071 08335 00: UNIQUE WELL ID
~Curve Information Block
DEPT.FT            0 000 00 00: Depth
CCL.                          : Casing Collar Locator
TT3.usec                      : CBL 3' Travel Time
AMP3.mV                       : CBL 3' Amplitude
GR.GAPI                       : Gamma Ray
~Parameter Information Block
~A  Depth       CCL         TT3         AMP3         GR     
# ...
  1332.5000      2.0000    764.4450      5.1671    118.9396
  1332.7500      2.0000    759.2275      5.2971    116.4591
  1333.0000      0.0000    758.3011      5.3454    117.6117
  1333.2500      0.0000    762.0207      5.3367    122.2266
  1333.5000      0.0000    765.4030      5.2809    128.7763
  1333.7500      0.0000    764.1820      5.1932    134.8978
  1334.0000      0.0000    759.2397      5.1517    138.8105
  1334.2500      0.0000    754.9175      5.2799    140.2426
  1334.5000      0.0000    754.1818      5.6402    139.7823
  1334.7500      0.0000    756.4451      6.1506    137.5265
  1335.0000      0.0000    759.4034      6.6275    132.8069
  1335.2500      0.0000    761.5983      6.9357    125.3983
  1335.5000      0.0000    763.2084      7.0898    116.6153
  1335.7500      0.0000    765.4315      7.1985    108.8287
  1336.0000      0.0000    769.5201      7.3311    104.0795
  1336.2500      0.0000    775.8284      7.4643    103.3599
  1336.5000      0.0000    783.3992      7.5363    106.6310
  1336.7500      0.0000    790.6658      7.5171    112.7637
  1337.0000      0.0000    796.7523      7.4310    119.8126
  1337.2500      0.0000    801.9810      7.3339    126.1925
  1337.5000      0.0000    807.0256      7.2732    131.6577
  1337.7500      0.0000    811.6388      7.2504    136.8330
  1338.0000      0.0000    814.3663      7.2123    141.8927
  1338.2500      0.0000    813.5341      7.0908    145.6911
  1338.5000      0.0000    808.4197      6.8758    145.8003
  1338.7500      0.0000    799.6968      6.6565    139.5433
  1339.0000      0.0000    789.3438      6.5612    126.0127
  1339.2500      0.0000    780.0717      6.6372    107.6187
  1339.5000      0.0000    773.9588      6.7993     89.0688
  1339.7500      0.0000    771.0615      6.9011     74.3634
  1340.0000      0.0000    769.1739      6.8465     64.8499
  1340.2500      0.0000    764.7576      6.6508     59.7492
  1340.5000      0.0000    754.5366      6.4310     57.6607
  1340.7500      0.0000    736.9880      6.3307     57.3948
  1341.0000      0.0000    712.6554      6.4089     58.0798
  1341.2500      0.0000    683.9529      6.5830     59.1386
  1341.5000      0.0000    656.3326      6.7027     60.3277
  1341.7500      0.0000    638.7380      6.6863     61.6410
  1342.0000      0.0000    639.2355      6.5788     63.0607
  1342.2500      0.0000    658.4690      6.4964     64.5074
  1342.5000      0.0000    688.3764      6.5351     66.1487
  1342.7500      0.0000    717.6202      6.7055     68.5140
  1343.0000      0.0000    738.3144      6.9198     71.9285
  1343.2500      0.0000    749.1660      7.0482     75.7858
  1343.5000      0.0000    754.0226      7.0128     78.5601
  1343.7500      0.0000    757.6917      6.8379     78.7300
  1344.0000      0.0000    762.3975      6.6200     75.9441
  1344.2500      0.0000    767.4281      6.4700     71.4925
  1344.5000      0.0000    771.2640      6.4637     67.5089
  1344.7500      0.0000    773.3727      6.6039     65.3790
  1345.0000      0.0000    774.2508      6.8067     64.7410
  1345.2500      0.0000    774.5660      6.9512     64.0238
  1345.5000      0.0000    774.6439      6.9610     61.8811
  1345.7500      0.0000    774.5150      6.8451     58.1323
  1346.0000      0.0000    774.0651      6.6722     53.7017
  1346.2500      0.0000    773.0098      6.5270     50.1172
  1346.5000      0.0000    770.8300      6.4704     48.8956
  1346.7500      0.0000    767.0547      6.5089     50.6075
  1347.0000      0.0000    761.9070      6.6001     54.1020
  1347.2500      0.0000    756.5461      6.6943     57.1357
  1347.5000      0.0000    752.3591      6.7603     58.2917
  1347.7500      0.0000    750.1047      6.7713     58.0668
  1348.0000      0.0000    749.8807      6.6912     57.8063
  1348.2500      0.0000    751.2831      6.4960     58.0377
  1348.5000      0.0000    753.0301      6.2091     58.2978
  1348.7500      0.0000    753.0881      5.9116     58.1416
  1349.0000      0.0000    750.0980      5.7069     57.7369
  1349.2500      0.0000    744.6461      5.6653     57.5878
  1349.5000      0.0000    738.7455      5.7951     57.9288
  1349.7500      0.0000    734.1769      6.0501     58.3777
  1350.0000      0.0000    731.4919      6.3523     58.2963
  1350.2500      0.0000    730.2657      6.6182     57.6044
  1350.5000      0.0000    729.8034      6.7923     56.9375
  1350.7500      0.0000    729.4997      6.8698     56.8552
  1351.0000      0.0000    728.6913      6.8894     57.1968
  1351.2500      0.0000    726.4153      6.8959     57.3374
  1351.5000      0.0000    721.6944      6.9011     56.7728
  1351.7500      0.0000    714.4286      6.8781     55.4421
  1352.0000      0.0000    706.0079      6.7968     53.7167
  1352.2500      0.0000    698.7339      6.6732     52.0635
  1352.5000      0.0000    694.5771      6.5845     50.6030
  1352.7500      0.0000    694.5116      6.6193     49.1067
  1353.0000      0.0000    698.4980      6.7980     47.4608
  1353.2500      0.0000    705.3179      7.0531     46.0377
  1353.5000      0.0000    712.5458      7.2999     45.6418
  1353.7500      0.0000    717.8912      7.5113     47.2964
  1354.0000      0.0000    721.3672      7.7082     52.0333
  1354.2500      0.0000    725.4808      7.9051     60.4725
  1354.5000      0.0000    732.1743      8.0945     72.2266
  1354.7500      0.0000    739.8389      8.2658     85.8578
  1355.0000      0.0000    744.8557      8.4074     99.7423
  1355.2500      0.0000    746.5835      8.5038    112.9060
  1355.5000      0.0000    749.3760      8.5546    124.7676
  1355.7500      0.0000    758.1949      8.5838    134.2312
  1356.0000      0.0000    772.6325      8.6097    139.5019
  1356.2500      0.0000    786.2488      8.6172    139.2692
  1356.5000      0.0000    791.4006      8.5747    134.2744
  1356.7500      0.0000    784.2909      8.4706    127.5266
  1357.0000      0.0000    766.9437      8.3197    122.4933
  1357.2500      0.0000    746.0763      8.1435    120.8582
  1357.5000      0.0000    729.7197      7.9678    122.0448
  1357.7500      0.0000    723.5485      7.8345    124.4253
  1358.0000      0.0000    729.1213      7.7945    126.3169
  1358.2500      0.0000    743.6268      7.8759    126.3574
  1358.5000      0.0000    760.5117      8.0569    124.1304
  1358.7500      0.0000    772.4661      8.2658    120.7163
  1359.0000      0.0000    776.0953      8.4127    118.1313
  1359.2500      0.0000    773.4265      8.4418    117.9858
  1359.5000      0.0000    768.4606      8.3619    120.6040
  1359.7500      0.0000    763.6921      8.2259    125.1851
  1360.0000      0.0000    760.7050      8.0861    130.5220
  1360.2500      0.0000    761.9987      7.9711    135.4674
  1360.5000      0.0000    769.6888      7.8947    139.0727
  1360.7500      0.0000    782.5686      7.8661    140.9285
  1361.0000      0.0000    796.2453      7.8820    141.6309
  1361.2500      0.0000    806.5046      7.9141    142.4554
  1361.5000      0.0000    811.5824      7.9153    144.0075
  1361.7500      0.0000    811.2484      7.8362    145.3190
  1362.0000      0.0000    805.1533      7.6451    144.7228
  1362.2500      0.0000    793.3849      7.3557    141.6673
  1362.5000      0.0000    778.9581      7.0465    137.2575
  1362.7500      0.0000    768.3245      6.8315    132.9384
  1363.0000      0.0000    767.0754      6.7775    129.0901
  1363.2500      0.0000    774.3207      6.8427    125.2322
  1363.5000      0.0000    782.5399      6.9099    121.3127
  1363.7500      0.0000    783.8577      6.8918    118.2986
  1364.0000      0.0000    776.2955      6.8005    117.3265
  1364.2500      0.0000    764.2745      6.7116    118.5466
  1364.5000      0.0000    753.9694      6.6795    121.0523
  1364.7500      0.0000    748.6685      6.7061    123.7609
  1365.0000      0.0000    747.9992      6.7741    126.1963
  1365.2500      0.0000    749.7538      6.8785    128.5912
  1365.5000      0.0000    751.2840      7.0211    131.4315
  1365.7500      0.0000    750.2429      7.2055    134.7987
