~Version Information
VERS.                      2.0: CWLS Log ASCII Standard - VERSION 2.0
WRAP.                       NO: One line per depth step
~Well Information Block
STRT.FT               811.0000: 
STOP.FT              2507.0000: 
STEP.FT                 0.1000: 
NULL.                -999.2500: 
COMP.          Petrogulf Corporation: COMPANY
WELL.               YWAM 7-32V: WELL
FLD.           Purgatoire River: FIELD
LOC.           2423' FNL & 2412' FEL: LOCATION
PROV.                 Colorado: PROVINCE
CNTY.               Las Animas: COUNTRY
SRVC.                Patterson: SERVICE COMPANY
DATE.          Mon Dec 15 07:18:47 2003: LOG DATE
UWI.                          : UNIQUE WELL ID
~Curve Information Block
DEPT.FT            0 000 00 00: Depth
DCAL.in                       : CDL Caliper
RHOB.g/cc                     : CDL Bulk Density
RHOC.g/cc                     : CDL Density Correction
DPOR.pu                       : CDL Density Porosity
NPOR.pu                       : Neutron Porosity
GR.GAPI                       : Gamma Ray
~Parameter Information Block
~A  Depth       DCAL        RHOB        RHOC        DPOR        NPOR         GR     
# ...
   820.6000   -999.2500   -999.2500   -999.2500   -999.2500     37.4262     26.2716
   820.7000   -999.2500   -999.2500   -999.2500   -999.2500     36.8410     20.6237
   820.8000   -999.2500   -999.2500   -999.2500   -999.2500     35.9004     17.4416
   820.9000   -999.2500   -999.2500   -999.2500   -999.2500     35.7508     20.7361
   821.0000   -999.2500   -999.2500   -999.2500   -999.2500     36.2715     28.0386
   821.1000   -999.2500   -999.2500   -999.2500   -999.2500     36.1220     36.5516
   821.2000   -999.2500   -999.2500   -999.2500   -999.2500     34.8133     43.4712
   821.3000   -999.2500   -999.2500   -999.2500   -999.2500     32.8607     48.0162
   821.4000   -999.2500   -999.2500   -999.2500   -999.2500     30.9720     53.7466
   821.5000   -999.2500   -999.2500   -999.2500   -999.2500     30.0291     61.8487
   821.6000   -999.2500   -999.2500   -999.2500   -999.2500     29.8135     68.8372
   821.7000   -999.2500   -999.2500   -999.2500   -999.2500     29.3119     72.9272
   821.8000   -999.2500   -999.2500   -999.2500   -999.2500     29.2012     75.6081
   821.9000   -999.2500   -999.2500   -999.2500   -999.2500     30.4904     74.3151
   822.0000   -999.2500   -999.2500   -999.2500   -999.2500     32.3883     65.9715
   822.1000   -999.2500   -999.2500   -999.2500   -999.2500     33.7265     57.8733
   822.2000   -999.2500   -999.2500   -999.2500   -999.2500     34.4201     56.2366
   822.3000   -999.2500   -999.2500   -999.2500   -999.2500     34.7058     61.2423
   822.4000   -999.2500   -999.2500   -999.2500   -999.2500     34.7444     70.6332
   822.5000   -999.2500   -999.2500   -999.2500   -999.2500     35.0314     75.6418
   822.6000   -999.2500   -999.2500   -999.2500   -999.2500     35.7122     73.2571
   822.7000   -999.2500   -999.2500   -999.2500   -999.2500     36.2388     68.7587
   822.8000   -999.2500   -999.2500   -999.2500   -999.2500     36.3527     64.0322
   822.9000   -999.2500   -999.2500   -999.2500   -999.2500     36.0931     59.4014
   823.0000   -999.2500   -999.2500   -999.2500   -999.2500     35.6934     57.0195
   823.1000   -999.2500   -999.2500   -999.2500   -999.2500     35.8587     60.4187
   823.2000   -999.2500   -999.2500   -999.2500   -999.2500     36.3005     69.3091
   823.3000   -999.2500   -999.2500   -999.2500   -999.2500     36.1463     73.5148
   823.4000   -999.2500   -999.2500   -999.2500   -999.2500     35.3637     66.3865
   823.5000   -999.2500   -999.2500   -999.2500   -999.2500     34.4687     57.9209
   823.6000   -999.2500   -999.2500   -999.2500   -999.2500     34.0916     56.2612
   823.7000   -999.2500   -999.2500   -999.2500   -999.2500     34.2318     55.8442
   823.8000   -999.2500   -999.2500   -999.2500   -999.2500     34.2325     52.7400
   823.9000   -999.2500   -999.2500   -999.2500   -999.2500     34.1099     51.5808
   824.0000   -999.2500   -999.2500   -999.2500   -999.2500     34.4690     55.6763
   824.1000   -999.2500   -999.2500   -999.2500   -999.2500     34.9867     61.7635
   824.2000   -999.2500   -999.2500   -999.2500   -999.2500     34.6752     67.8012
   824.3000   -999.2500   -999.2500   -999.2500   -999.2500     34.0471     74.5975
   824.4000   -999.2500   -999.2500      0.2400   -999.2500     34.1023     79.7552
   824.5000      2.2057   -999.2500      0.2669   -999.2500     34.2183     79.8421
   824.6000      2.2057   -999.2500      0.2608   -999.2500     33.3831     76.0467
   824.7000      2.2057   -999.2500      0.2182   -999.2500     31.6215     71.8590
   824.8000      2.2034   -999.2500      0.2225   -999.2500     29.8765     68.2193
   824.9000      2.2034      1.8963      0.2781     45.6801     29.0410     65.9520
   825.0000      2.2050      1.8775      0.2160     46.8200     29.1905     66.0664
   825.1000      2.2050      1.8503      0.1993     48.4669     29.6251     68.3781
   825.2000      2.2050      1.8314      0.1900     49.6117     29.8149     70.0747
   825.3000      2.1996      1.8186      0.2043     50.3900     29.3510     67.2119
   825.4000      2.1996      1.7955      0.2172     51.7864     28.5540     63.6008
   825.5000      2.2020      1.7606      0.2023     53.9015     28.9897     65.6411
   825.6000      2.2020      1.7279      0.1900     55.8829     30.5136     69.7460
   825.7000      2.2020      1.7056      0.1798     57.2374     31.2583     69.5119
   825.8000      2.1952      1.6915      0.1880     58.0924     31.0006     68.3773
   825.9000      2.1952      1.6812      0.1754     58.7126     31.0329     70.3411
   826.0000      2.1965      1.6751      0.1795     59.0849     32.1471     72.7945
   826.1000      2.1965      1.6772      0.1629     58.9555     33.7618     73.2629
   826.2000      2.1965      1.6895      0.1875     58.2113     34.4849     73.0471
   826.3000      2.1885      1.7074      0.1661     57.1268     33.9060     72.6378
   826.4000      2.1885      1.7226      0.2245     56.2072     32.8674     65.7443
   826.5000      2.1934      1.7335      0.1699     55.5430     32.2892     51.9771
   826.6000      2.1934      1.7464      0.2135     54.7665     32.6475     39.9046
   826.7000      2.1934      1.7530      0.2355     54.3621     33.6347     34.9020
   826.8000      2.1970      1.7423      0.2117     55.0092     34.4974     37.7079
   826.9000      2.1970      1.7207      0.2198     56.3211     35.2219     46.6538
   827.0000      2.1921      1.6954      0.2060     57.8563     35.7390     57.5728
   827.1000      2.1921      1.6699      0.1697     59.4024     35.4102     64.5219
   827.2000      2.1921      1.6509      0.1707     60.5517     34.4379     64.4930
   827.3000      2.1880      1.6397      0.1793     61.2312     33.9097     62.1965
   827.4000      2.1880      1.6346      0.1641     61.5378     34.4034     63.8755
   827.5000      2.1877      1.6361      0.2001     61.4495     35.2416     69.4555
   827.6000      2.1877      1.6405      0.1875     61.1789     35.3370     73.9471
   827.7000      2.1877      1.6451      0.1808     60.9060     34.9199     77.5681
   827.8000      2.1842      1.6460      0.2169     60.8499     35.2637     82.8568
   827.9000      2.1842      1.6397      0.1893     61.2300     36.2798     84.4743
   828.0000      2.1898      1.6294      0.1975     61.8562     36.6937     81.9495
   828.1000      2.1898      1.6194      0.1818     62.4589     36.2694     81.0333
   828.2000      2.1898      1.6126      0.1869     62.8724     35.8642     80.8467
   828.3000      2.1982      1.6116      0.1813     62.9318     35.7957     82.6043
   828.4000      2.1982      1.6186      0.1827     62.5113     35.8721     88.1597
   828.5000      2.1884      1.6306      0.1923     61.7819     36.3463     90.8851
   828.6000      2.1884      1.6413      0.1904     61.1334     37.1020     88.1022
   828.7000      2.1884      1.6496      0.1906     60.6292     37.4530     85.0015
   828.8000      2.1832      1.6603      0.1757     59.9813     37.0013     83.5275
   828.9000      2.1832      1.6736      0.2124     59.1760     35.8579     81.9625
   829.0000      2.1817      1.6864      0.1968     58.3981     34.6504     80.9265
   829.1000      2.1817      1.7017      0.2158     57.4710     34.1763     80.0693
   829.2000      2.1817      1.7199      0.2196     56.3719     34.5446     74.5906
   829.3000      2.1846      1.7381      0.2011     55.2669     35.3462     63.8685
   829.4000      2.1846      1.7532      0.2485     54.3513     36.4138     56.3275
   829.5000      2.1863      1.7582      0.2363     54.0514     37.2414     60.0359
   829.6000      2.1863      1.7572      0.2093     54.1089     37.3564     71.1649
   829.7000      2.1863      1.7647      0.2461     53.6536     37.1462     81.5400
   829.8000      2.1864      1.7872      0.2059     52.2919     37.0518     86.2343
   829.9000      2.1864      1.8180      0.2799     50.4227     37.2273     81.2998
   830.0000      2.1873      1.8417      0.2666     48.9887     37.8147     71.4647
   830.1000      2.1873      1.8504      0.2767     48.4584     38.7365     65.6409
