~Version Information
VERS.                      2.0: CWLS Log ASCII Standard - VERSION 2.0
WRAP.                       NO: One line per depth step
~Well Information Block
STRT.FT               970.5000: 
STOP.FT              2720.0000: 
STEP.FT                 0.1000: 
NULL.                -999.2500: 
COMP.          Petrogulf Corporation: COMPANY
WELL.             Burson 8-31V: WELL
FLD.           Purgatorie River: FIELD
LOC.           1113' FNL & 2152' FEL: LOCATION
CNTY.               Las Animas: COUNTY
SRVC.                         : SERVICE COMPANY
DATE.          Wed Nov 12 14:59:14 2003: LOG DATE
UWI.                          : UNIQUE WELL ID
STAT.                 Colorado: STATE
~Curve Information Block
DEPT.FT            0 000 00 00: Depth
DCAL.in                       : CDL Caliper
DPOR.pu                       : CDL Density Porosity
NEU.NAPI                      : Neutron
NPOR.pu                       : Neutron Porosity
RHOB.g/cc                     : CDL Bulk Density
RHOC.g/cc                     : CDL Density Correction
GR.GAPI                       : Gamma Ray
~Parameter Information Block
~A  Depth       DCAL        DPOR        NEU         NPOR        RHOB        RHOC         GR     
# ...
  1113.3000      8.3568     20.3783   1428.0000      8.5532      2.3138      0.1767    141.9648
  1113.4000      8.3568     22.4141   1459.5286      7.4092      2.2802      0.1052    141.9648
  1113.5000      8.4136     26.6067   1483.5481      6.5624      2.2110      0.0813    128.6020
  1113.6000      8.4136     32.5316   1483.3961      6.5677      2.1132      0.1143    128.6020
  1113.7000      8.4136     40.3438   1451.9722      7.6798      1.9843      0.0936    128.6020
  1113.8000      8.3923     49.3904   1408.5867      9.2789      1.8351      0.0078    116.6535
  1113.9000      8.3923     58.3835   1377.6744     10.4728      1.6867     -0.1156    116.6535
  1114.0000      8.4032     66.6450   1354.2880     11.4108      1.5504     -0.0888    105.9219
  1114.1000      8.4032     73.1254   1318.5197     12.9100      1.4434     -0.1059    105.9219
  1114.2000      8.4032     75.5394   1270.4957     15.0445      1.4036     -0.0795    105.9219
  1114.3000      8.3774     73.5582   1224.6674     17.1988      1.4363      0.0911    105.8827
  1114.4000      8.3774     69.3875   1187.7335     19.0091      1.5051      0.1893    105.8827
  1114.5000      8.4024     64.2186   1161.2733     20.3426      1.5904      0.1362     81.5719
  1114.6000      8.4024     58.1326   1148.6210     20.9901      1.6908      0.2249     81.5719
  1114.7000      8.4024     51.3357   1144.7572     21.1891      1.8030      0.2092     81.5719
  1114.8000      8.3851     43.5243   1136.4579     21.6183      1.9318      0.2447     91.2283
  1114.9000      8.3851     35.0581   1120.0051     22.4764      2.0715      0.2923     91.2283
  1115.0000      8.3563     27.2719   1109.2153     23.0442      2.2000      0.3388     89.5856
  1115.1000      8.3563     20.6084   1111.0906     22.9452      2.3100      0.3711     89.5856
  1115.2000      8.3563     14.6670   1112.6511     22.8630      2.4080      0.2469     89.5856
  1115.3000      8.3716     10.1846   1108.2435     23.0955      2.4820      0.3444    112.6724
  1115.4000      8.3716      9.1417   1101.5824     23.4481      2.4992      0.2183    112.6724
  1115.5000      8.4161     11.2834   1093.3037     23.8883      2.4638      0.0879    122.2990
  1115.6000      8.4161     13.8130   1086.8322     24.2338      2.4221      0.0321    122.2990
  1115.7000      8.4161     15.2444   1083.1531     24.4308      2.3985      0.0285    122.2990
  1115.8000      8.3657     15.9150   1079.3151     24.6367      2.3874     -0.0335    139.7262
  1115.9000      8.3657     15.7024   1074.0536     24.9196      2.3909      0.0023    139.7262
  1116.0000      8.3943     14.5418   1063.7832     25.4741      2.4101     -0.0131    145.9170
  1116.1000      8.3943     13.1953   1047.6885     26.3484      2.4323      0.0489    145.9170
  1116.2000      8.3943     11.7314   1038.2146     26.8660      2.4564     -0.0051    145.9170
  1116.3000      8.3374      9.9029   1045.9491     26.4433      2.4866      0.0605    152.7731
  1116.4000      8.3374      8.4591   1057.5780     25.8104      2.5104      0.0811    152.7731
  1116.5000      8.3829      8.0989   1058.4873     25.7610      2.5164      0.0787    147.2110
  1116.6000      8.3829      9.1245   1053.3970     26.0376      2.4994      0.0670    147.2110
  1116.7000      8.3829     10.8200   1046.5017     26.4131      2.4715     -0.0477    147.2110
  1116.8000      8.3660     11.4836   1037.5704     26.9012      2.4605      0.0266    139.3463
  1116.9000      8.3660     10.9683   1027.6876     27.4435      2.4690      0.0407    139.3463
  1117.0000      8.3436     10.2001   1020.3503     27.8473      2.4817     -0.0031    129.7154
  1117.1000      8.3436      9.1478   1022.5343     27.7270      2.4991      0.0435    129.7154
  1117.2000      8.3436      7.2901   1034.2197     27.0848      2.5297      0.0626    129.7154
  1117.3000      8.3657      5.2664   1049.7150     26.2380      2.5631      0.0873    126.7379
  1117.4000      8.3657      4.7545   1067.2592     25.2861      2.5716      0.1422    126.7379
  1117.5000      8.3341      5.9984   1080.4026     24.5783      2.5510      0.0585    141.9198
  1117.6000      8.3341      7.9337   1081.7577     24.5056      2.5191      0.0569    141.9198
  1117.7000      8.3341     10.2589   1074.1749     24.9131      2.4807     -0.0162    141.9198
  1117.8000      8.2772     11.9881   1066.8296     25.3093      2.4522     -0.1134    119.1647
  1117.9000      8.2772     11.7875   1063.8765     25.4690      2.4555     -0.0816    119.1647
  1118.0000      8.2771     10.9163   1055.0264     25.9490      2.4699     -0.0002    127.1076
  1118.1000      8.2771     11.1068   1031.7404     27.2208      2.4667      0.0036    127.1076
  1118.2000      8.2771     11.3720   1008.2705     28.5146      2.4624     -0.0508    127.1076
  1118.3000      8.2707     10.6148   1002.3038     28.8452      2.4749      0.0028    130.3791
  1118.4000      8.2707      9.4618   1013.2570     28.2388      2.4939     -0.0155    130.3791
  1118.5000      8.2767      8.1183   1031.5103     27.2335      2.5160     -0.0422    124.0361
  1118.6000      8.2767      6.0660   1047.5085     26.3582      2.5499      0.0421    124.0361
  1118.7000      8.2767      2.9231   1053.8939     26.0105      2.6018      0.0013    124.0361
  1118.8000      8.2818     -0.5971   1050.2914     26.2066      2.6599      0.1104    126.8650
  1118.9000      8.2818     -2.3096   1044.3374     26.5312      2.6881      0.0913    126.8650
  1119.0000      8.2776     -1.9578   1042.3877     26.6377      2.6823      0.0272    128.6092
  1119.1000      8.2776     -1.5748   1047.6643     26.3497      2.6760      0.0070    128.6092
  1119.2000      8.2776     -1.7168   1060.5227     25.6507      2.6783      0.0259    128.6092
  1119.3000      8.2698     -0.9324   1076.1252     24.8081      2.6654      0.0843    134.6665
  1119.4000      8.2698      1.0902   1089.4299     24.0950      2.6320     -0.0115    134.6665
  1119.5000      8.2753      2.4532   1096.4137     23.7227      2.6095     -0.0365    140.4542
  1119.6000      8.2753      2.3175   1100.4912     23.5060      2.6118      0.0105    140.4542
  1119.7000      8.2753      2.1579   1105.3368     23.2492      2.6144      0.0121    140.4542
  1119.8000      8.2647      3.1189   1110.7106     22.9653      2.5985     -0.0143    148.6507
  1119.9000      8.2647      4.9719   1120.1572     22.4684      2.5680      0.0730    148.6507
  1120.0000      8.2755      7.2095   1127.2273     22.0986      2.5310      0.0445    134.0134
  1120.1000      8.2755      9.4277   1123.1445     22.3120      2.4944      0.0354    134.0134
  1120.2000      8.2755     11.6231   1113.8606     22.7993      2.4582     -0.0381    134.0134
  1120.3000      8.2891     12.9878   1111.6854     22.9139      2.4357     -0.0512    125.6692
  1120.4000      8.2891     12.3920   1116.0760     22.6827      2.4455     -0.0215    125.6692
  1120.5000      8.2583     10.5660   1112.8602     22.8520      2.4757      0.0467    133.6929
  1120.6000      8.2583      9.1301   1101.7963     23.4368      2.4994      0.0416    133.6929
  1120.7000      8.2583      8.8822   1097.2010     23.6808      2.5034      0.0966    133.6929
  1120.8000      8.2669      9.5382   1102.2706     23.4116      2.4926      0.0371    138.3650
  1120.9000      8.2669     10.2458   1101.7579     23.4388      2.4809      0.0907    138.3650
  1121.0000      8.2771     11.0392   1085.3086     24.3153      2.4679      0.1610    134.5230
  1121.1000      8.2771     12.4245   1062.0020     25.5705      2.4450      0.1046    134.5230
  1121.2000      8.2771     14.4517   1042.2312     26.6463      2.4115      0.1410    134.5230
  1121.3000      8.2875     16.8479   1030.7169     27.2770      2.3720      0.0233    141.3046
  1121.4000      8.2875     18.0961   1031.6754     27.2244      2.3514     -0.0316    141.3046
  1121.5000      8.2954     16.8316   1042.7487     26.6180      2.3723     -0.0410    150.5913
  1121.6000      8.2954     14.2513   1046.6174     26.4068      2.4149      0.0400    150.5913
