~Version Information
VERS.                      2.0: CWLS Log ASCII Standard - VERSION 2.0
WRAP.                       NO: One line per depth step
~Well Information Block
STRT.FT                -2.5000: 
STOP.FT              2329.5000: 
STEP.FT                 0.2500: 
NULL.                -999.2500: 
COMP.          Pioneer Natural Resources: COMPANY
WELL.              Whinny 42-2: WELL
FLD.           Purgatorie River: FIELD
LOC.           1836' FNL & 466' FEL--: LOCATION
PROV.                       CO: PROVINCE
CNTY.               Las Animas: COUNTRY
SRVC.          Patterson Wireline: SERVICE COMPANY
DATE.          Mon Aug 29 13:18:04 2005: LOG DATE
UWI.           05 071 08406 00: UNIQUE WELL ID
~Curve Information Block
DEPT.FT            0 000 00 00: Depth
CCL.                          : Casing Collar Locator
TT3.usec                      : CBL 3' Travel Time
AMP3.mV                       : CBL 3' Amplitude
GR.GAPI                       : Gamma Ray
~Parameter Information Block
~A  Depth       CCL         TT3         AMP3         GR     
# ...
   935.5000      0.0000    650.2040     11.9676    117.8859
   935.7500      0.0000    616.6774     12.2921    116.7653
   936.0000      0.0000    595.7651     12.3724    115.3532
   936.2500      0.0000    601.7783     12.1297    113.7303
   936.5000      0.0000    633.5355     11.5437    112.5563
   936.7500      0.0000    674.7791     10.6739    113.2114
   937.0000      0.0000    708.2592      9.6538    115.9629
   937.2500      0.0000    727.1264      8.6482    118.3476
   937.5000      0.0000    733.9346      7.7902    116.5268
   937.7500      0.0000    733.7320      7.1322    108.7764
   938.0000      0.0000    730.3094      6.6445     97.4397
   938.2500      0.0000    726.5304      6.2586     87.2328
   938.5000      0.0000    724.8754      5.9196     81.6257
   938.7500      0.0000    726.4843      5.6123     80.9912
   939.0000      0.0000    730.4825      5.3561     83.8090
   939.2500      0.0000    735.2208      5.1886     88.6131
   939.5000      0.0000    739.9990      5.1511     94.5877
   939.7500      0.0000    745.2126      5.2753    101.3911
   940.0000      0.0000    751.3829      5.5668    108.9184
   940.2500      0.0000    758.6808      5.9914    116.6089
   940.5000      0.0000    767.0258      6.4778    122.8030
   940.7500      0.0000    775.8443      6.9369    125.5101
   941.0000      0.0000    783.8309      7.2893    124.1781
   941.2500      0.0000    789.6526      7.4888    120.4834
   941.5000      0.0000    792.9332      7.5347    117.1549
   941.7500      0.0000    794.2607      7.4679    116.0113
   942.0000      0.0000    794.3892      7.3493    117.0974
   942.2500      0.0000    793.7608      7.2307    119.3474
   942.5000      0.0000    792.7655      7.1365    121.6913
   942.7500      0.0000    792.2306      7.0680    123.6405
   943.0000      0.0000    793.2648      7.0258    125.1727
   943.2500      0.0000    796.2307      7.0208    126.1996
   943.5000      0.0000    799.8785      7.0628    126.3333
   943.7500      0.0000    802.0399      7.1434    125.3947
   944.0000      0.0000    801.4960      7.2377    123.8992
   944.2500      0.0000    798.8624      7.3223    122.5795
   944.5000      0.0000    795.4350      7.3895    121.3448
   944.7500      0.0000    791.4554      7.4455    119.0728
   945.0000      0.0000    785.8509      7.5028    114.7742
   945.2500      0.0000    777.7170      7.5758    108.9455
   945.5000      0.0000    767.6457      7.6753    103.4209
   945.7500      0.0000    756.8059      7.8019     99.7557
   946.0000      0.0000    744.8077      7.9410     97.9430
   946.2500      0.0000    730.1033      8.0672     96.7066
   946.5000      0.0000    713.2169      8.1533     94.6287
   946.7500      0.0000    697.8907      8.1789     90.8352
   947.0000      0.0000    687.8117      8.1375     85.1260
   947.2500      0.0000    683.1738      8.0436     77.9743
   947.5000      0.0000    681.2010      7.9310     70.4262
   947.7500      0.0000    679.2648      7.8383     63.7016
   948.0000      0.0000    676.8231      7.7893     58.7252
   948.2500      0.0000    674.9930      7.7822     55.9767
   948.5000      0.0000    675.4964      7.7922     55.4946
   948.7500      0.0000    680.4044      7.7877     56.6798
   949.0000      0.0000    691.8717      7.7530     58.1942
   949.2500      0.0000    710.4249      7.7009     58.5428
   949.5000      0.0000    732.7598      7.6639     56.9980
   949.7500      0.0000    752.3684      7.6740     54.0167
   950.0000      0.0000    763.9392      7.7472     50.9137
   950.2500      0.0000    767.2111      7.8769     49.1513
   950.5000      0.0000    766.0307      8.0358     49.5479
   950.7500      0.0000    764.4883      8.1877     51.6606
   951.0000      0.0000    764.5859      8.3016     53.7757
   951.2500      0.0000    766.0885      8.3614     53.8563
   951.5000      0.0000    767.0901      8.3661     50.8686
   951.7500      0.0000    765.4368      8.3235     45.2994
   952.0000      0.0000    760.7466      8.2471     38.6026
   952.2500      0.0000    754.8578      8.1558     32.4706
   952.5000      0.0000    750.0493      8.0736     28.4272
   952.7500      0.0000    747.2682      8.0224     27.3233
   953.0000      0.0000    746.0610      8.0138     28.8029
   953.2500      0.0000    745.5522      8.0452     31.5563
   953.5000      0.0000    745.1727      8.1028     34.2971
   953.7500      0.0000    744.7828      8.1674     36.3702
   954.0000      0.0000    744.4670      8.2198     37.5723
   954.2500      0.0000    744.2988      8.2461     37.8648
   954.5000      0.0000    744.1910      8.2444     37.4665
   954.7500      0.0000    743.8420      8.2267     37.0206
   955.0000      0.0000    742.7241      8.2077     37.4180
   955.2500      0.0000    740.2695      8.1895     39.3874
   955.5000      0.0000    736.5113      8.1559     43.2136
   955.7500      0.0000    732.7650      8.0872     48.7657
   956.0000      0.0000    731.1362      7.9830     55.7092
   956.2500      0.0000    732.7072      7.8701     63.6146
   956.5000      0.0000    736.3590      7.7846     71.7152
   956.7500      0.0000    739.6624      7.7417     78.6664
   957.0000      0.0000    740.4954      7.7252     83.1257
   957.2500      0.0000    737.6414      7.7054     85.1502
   957.5000      0.0000    730.8466      7.6690     86.8938
   957.7500      0.0000    721.3023      7.6252     91.2871
   958.0000      0.0000    711.6270      7.5863     99.5410
   958.2500      0.0000    704.3120      7.5471    110.0324
   958.5000      0.0000    700.0372      7.4907    119.8659
   958.7500      0.0000    697.7743      7.4092    127.3465
   959.0000      0.0000    695.9347      7.3167    132.5714
   959.2500      0.0000    693.1894      7.2420    135.9939
   959.5000      0.0000    689.2233      7.2067    137.3783
   959.7500      0.0000    685.3309      7.2104    136.5537
   960.0000      0.0000    683.5745      7.2351    134.6018
   960.2500      0.0000    684.7673      7.2619    133.5185
   960.5000      0.0000    687.3514      7.2820    134.6202
   960.7500      0.0000    688.5314      7.2955    137.6643
   961.0000      0.0000    686.7053      7.3084    141.4872
   961.2500      0.0000    682.6912      7.3315    145.0122
   961.5000      0.0000    678.5616      7.3776    147.5489
   961.7500      0.0000    675.7204      7.4526    148.6522
   962.0000      0.0000    674.2772      7.5495    148.0575
   962.2500      0.0000    673.6835      7.6503    145.7814
   962.5000      0.0000    673.4257      7.7364    142.3739
   962.7500      0.0000    673.2571      7.7984    139.0914
   963.0000      0.0000    673.1342      7.8389    137.3325
   963.2500      0.0000    673.0933      7.8672    137.5438
   963.5000      0.0000    673.1491      7.8918    138.8313
   963.7500      0.0000    673.2658      7.9157    139.8369
   964.0000      0.0000    673.3842      7.9416    139.9167
   964.2500      0.0000    673.4796      7.9789    139.4774
   964.5000      0.0000    673.6508      8.0393    139.2954
   964.7500      0.0000    674.2213      8.1205    139.6193
   965.0000      0.0000    675.8333      8.1988    139.9974
   965.2500      0.0000    679.3527      8.2443    139.8032
   965.5000      0.0000    685.3668      8.2478    138.5476
   965.7500      0.0000    693.5252      8.2278    135.7219
   966.0000      0.0000    702.4192      8.2103    131.0533
   966.2500      0.0000    710.1640      8.2056    125.3290
   966.5000      0.0000    715.0700      8.2088    120.5095
   966.7500      0.0000    715.9739      8.2170    118.3864
   967.0000      0.0000    712.4606      8.2317    119.2789
   967.2500      0.0000    705.5086      8.2296    122.3713
   967.5000      0.0000    698.4952      8.1436    126.8058
   967.7500      0.0000    696.4149      7.9032    131.7491
   968.0000      0.0000    701.7861      7.5146    135.5845
   968.2500      0.0000    711.4052      7.0844    135.8485
   968.5000      0.0000    719.4506      6.7445    130.8030
   968.7500      0.0000    723.8539      6.5551    121.5056
