~Version Information
VERS.                      2.0: CWLS Log ASCII Standard - VERSION 2.0
WRAP.                       NO: One line per depth step
~Well Information Block
STRT.FT                -8.2500: 
STOP.FT              2725.7500: 
STEP.FT                 0.2500: 
NULL.                -999.2500: 
COMP.          Pioneer Natural Resources: COMPANY
WELL.          Rabbit Bush Federal 44-19: WELL
FLD.           Purgatoire River: FIELD
LOC.           826' FSL & 1127' FEL: LOCATION
CNTY.               Las Animas: COUNTY
SRVC.                Patterson: SERVICE COMPANY
DATE.          Thu Sep 14 10:51:19 2006: LOG DATE
UWI.           05 071 08149 00: UNIQUE WELL ID
STAT.                       CO: STATE
~Curve Information Block
DEPT.FT            0 000 00 00: Depth
GR.GAPI                       : Gamma Ray
CCL.                          : Casing Collar Locator
TT3.usec                      : CBL 3' Travel Time
AMP3.mV                       : CBL 3' Amplitude
~Parameter Information Block
~A  Depth        GR         CCL         TT3         AMP3    
# ...
   159.2500     71.4997      0.0000   1200.0000      3.4348
   159.5000     72.1084      0.0000   1200.0000      3.4138
   159.7500     73.7988      0.0000   1200.0000      3.4162
   160.0000     75.2532      0.0000   1200.0000      3.4408
   160.2500     75.7340      0.0000   1200.0000      3.4785
   160.5000     75.3198      0.0000   1200.0000      3.5142
   160.7500     74.2510      0.0000   1200.0000      3.5420
   161.0000     72.6804      0.0000   1200.0000      3.5740
   161.2500     71.1417      0.0000   1200.0000      3.6285
   161.5000     70.7633      0.0000   1200.0000      3.7083
   161.7500     72.7396      0.0000   1200.0000      3.7927
   162.0000     77.8882      0.0000   1200.0000      3.8552
   162.2500     86.5113      0.0000   1200.0000      3.8858
   162.5000     97.5709      0.0000   1200.0000      3.8974
   162.7500    107.5203      0.0000   1200.0000      3.9145
   163.0000    111.3294      0.0000   1200.0000      3.9573
   163.2500    106.2146      0.0000   1200.0000      4.0280
   163.5000     94.3091      0.0000   1200.0000      4.1043
   163.7500     80.9487      0.0000   1200.0000      4.1510
   164.0000     70.5873      0.0000   1200.0000      4.1503
   164.2500     64.5655      0.0000   1200.0000      4.1210
   164.5000     61.7231      0.0000   1200.0000      4.1001
   164.7500     59.9328      0.0000   1200.0000      4.1071
   165.0000     57.2930      0.0000   1200.0000      4.1329
   165.2500     53.0210      0.0000   1200.0000      4.1602
   165.5000     47.9020      0.0000   1200.0000      4.1849
   165.7500     43.6203      0.0000   1200.0000      4.2112
   166.0000     41.2201      0.0000   1200.0000      4.2315
   166.2500     40.2802      0.0000   1200.0000      4.2202
   166.5000     39.6975      0.0000   1200.0000      4.1503
   166.7500     38.9634      0.0000   1200.0000      4.0209
   167.0000     38.4764      0.0000   1200.0000      3.8712
   167.2500     38.7899      0.0000   1200.0000      3.7640
   167.5000     39.8463      0.0000   1200.0000      3.7384
   167.7500     41.0290      0.0000   1200.0000      3.7799
   168.0000     41.7430      0.0000   1200.0000      3.8426
   168.2500     41.6764      0.0000   1200.0000      3.8981
   168.5000     40.6021      0.0000   1200.0000      3.9561
   168.7500     38.3361      0.0000   1200.0000      4.0454
   169.0000     35.2075      0.0000   1200.0000      4.1836
   169.2500     32.4174      0.0000   1200.0000      4.3617
   169.5000     31.4592      0.0000   1200.0000      4.5534
   169.7500     32.9146      0.0000   1200.0000      4.7371
   170.0000     35.8709      0.0000   1200.0000      4.9066
   170.2500     38.6583      0.0000   1200.0000      5.0616
   170.5000     40.2352      0.0000   1200.0000      5.1975
   170.7500     40.8734      0.0000   1200.0000      5.3053
   171.0000     41.5848      0.0000   1200.0000      5.3783
   171.2500     43.0885      0.0000   1200.0000      5.4116
   171.5000     45.4490      0.0000   1200.0000      5.3999
   171.7500     48.3615      0.0000   1200.0000      5.3459
   172.0000     51.2746      0.0000   1200.0000      5.2722
   172.2500     53.3629      0.0000   1200.0000      5.2141
   172.5000     53.9811      0.0000   1200.0000      5.1949
   172.7500     53.2837      0.0000   1200.0000      5.2107
   173.0000     52.1022      0.0000   1200.0000      5.2371
   173.2500     51.0499      0.0000   1200.0000      5.2528
   173.5000     49.8822      0.0000   1200.0000      5.2607
   173.7500     47.8717      0.0000   1200.0000      5.2864
   174.0000     44.7814      0.0000   1200.0000      5.3485
   174.2500     41.4348      0.0000   1200.0000      5.4345
   174.5000     39.3147      0.0000   1200.0000      5.5135
   174.7500     39.4454      0.0000   1200.0000      5.5725
   175.0000     41.4766      0.0000   1200.0000      5.6302
   175.2500     43.8851      0.0000   1200.0000      5.7119
   175.5000     45.3896      0.0000   1200.0000      5.8182
   175.7500     46.1797      0.0000   1200.0000      5.9222
   176.0000     47.4726      0.0000   1200.0000      5.9894
   176.2500     49.9535      0.0000   1200.0000      5.9909
   176.5000     53.0481      0.0000   1200.0000      5.8956
   176.7500     55.6445      0.0000   1200.0000      5.6573
   177.0000     57.0584      0.0000   1200.0000      5.2296
   177.2500     57.2581      0.0000   1200.0000      4.6177
   177.5000     56.5294      0.0000   1200.0000      3.9179
   177.7500     54.9693      0.0000   1200.0000      3.2819
   178.0000     52.3231      0.0000   1200.0000      2.8220
   178.2500     48.5582      0.0000   1200.0000      2.5526
   178.5000     44.3962      1.9568   1200.0000      2.4226
   178.7500     40.7723      0.0000   1200.0000      2.3808
   179.0000     37.9301      0.0000   1200.0000      2.4037
   179.2500     35.5991      0.0000   1200.0000      2.4855
   179.5000     33.9659      0.0000   1200.0000      2.6403
   179.7500     33.9480      0.0000   1200.0000      2.9217
   180.0000     36.3730      0.0000   1200.0000      3.4047
   180.2500     40.9888      0.0000   1200.0000      4.1063
   180.5000     46.2829      0.0000   1200.0000      4.9248
   180.7500     50.2560      0.0000   1200.0000      5.6907
   181.0000     51.6058      0.0000   1200.0000      6.2806
   181.2500     50.6023      0.0000   1200.0000      6.6710
   181.5000     49.0043      0.0000   1200.0000      6.9066
   181.7500     48.8558      0.0000   1200.0000      7.0501
   182.0000     50.9864      0.0000   1200.0000      7.1554
   182.2500     54.5835      0.0000   1200.0000      7.2559
   182.5000     58.1340      0.0000   1200.0000      7.3612
   182.7500     60.5926      0.0000   1200.0000      7.4649
   183.0000     61.8516      0.0000   1200.0000      7.5599
   183.2500     62.4627      0.0000   1200.0000      7.6494
   183.5000     62.8527      0.0000   1200.0000      7.7460
   183.7500     62.7624      0.0000   1200.0000      7.8543
   184.0000     61.7962      0.0000   1200.0000      7.9560
   184.2500     60.5167      0.0000   1200.0000      8.0164
   184.5000     60.3163      0.0000   1200.0000      8.0134
   184.7500     61.8675      0.0000   1200.0000      7.9593
   185.0000     64.2095      0.0000   1200.0000      7.8924
   185.2500     65.6789      0.0000   1200.0000      7.8428
   185.5000     65.3958      0.0000   1200.0000      7.8068
   185.7500     63.6920      0.0000   1200.0000      7.7588
   186.0000     61.5283      0.0000   1200.0000      7.6861
   186.2500     59.6860      0.0000   1200.0000      7.6047
   186.5000     58.1831      0.0000   1200.0000      7.5424
   186.7500     56.3441      0.0000   1200.0000      7.5100
   187.0000     53.6107      0.0000   1200.0000      7.4951
   187.2500     50.2078      0.0000   1200.0000      7.4826
   187.5000     46.7876      0.0000   1200.0000      7.4773
   187.7500     43.6238      0.0000   1200.0000      7.5007
   188.0000     40.6056      0.0000   1200.0000      7.5735
   188.2500     37.9805      0.0000   1200.0000      7.7042
   188.5000     36.6188      0.0000   1200.0000      7.8859
   188.7500     37.3367      0.0000   1200.0000      8.0919
   189.0000     40.1305      0.0000   1200.0000      8.2795
   189.2500     44.1628      0.0000   1200.0000      8.4144
   189.5000     48.4086      0.0000   1200.0000      8.5013
   189.7500     52.1837      0.0000   1200.0000      8.5826
   190.0000     55.1463      0.0000   1200.0000      8.7004
   190.2500     57.1620      0.0000   1200.0000      8.8628
   190.5000     58.3503      0.0000   1200.0000      9.0396
   190.7500     58.9849      0.0000   1200.0000      9.1838
   191.0000     59.2747      0.0000   1200.0000      9.2600
   191.2500     59.4093      0.0000   1200.0000      9.2608
   191.5000     59.6063      0.0000   1200.0000      9.2036
   191.7500     59.7711      0.0000   1200.0000      9.1200
   192.0000     59.2586      0.0000   1200.0000      9.0495
   192.2500     57.3527      0.0000   1200.0000      9.0296
   192.5000     54.1124      0.0000   1200.0000      9.0693
