~Version Information
VERS.                      2.0: CWLS Log ASCII Standard - VERSION 2.0
WRAP.                       NO: One line per depth step
~Well Information Block
STRT.FT               910.3000: 
STOP.FT              1932.5000: 
STEP.FT                 0.1000: 
NULL.                -999.2500: 
COMP.          Petrogulf Corporation: COMPANY
WELL.             State 16-34R: WELL
FLD.           Purgatorie River: FIELD
LOC.           1095' FSL & 1498' FEL: LOCATION
CNTY.               Las Animas: COUNTY
SRVC.                         : SERVICE COMPANY
DATE.          Thu May 06 14:28:18 2004: LOG DATE
UWI.           05 071 08032 00: UNIQUE WELL ID
STAT.                 Colorado: STATE
~Curve Information Block
DEPT.FT            0 000 00 00: Depth
DCAL.in                       : CDL Caliper
RHOB.g/cc                     : CDL Bulk Density
RHOC.g/cc                     : CDL Density Correction
DPOR.pu                       : CDL Density Porosity
NPOR.pu                       : Neutron Porosity
GR.GAPI                       : Gamma Ray
~Parameter Information Block
~A  Depth       DCAL        RHOB        RHOC        DPOR        NPOR         GR     
# ...
  1246.3000      7.9410      2.4531      0.0783     11.9329     17.4013     99.7632
  1246.4000      7.9410      2.4562      0.0639     11.7459     17.6161     97.2740
  1246.5000      7.9396      2.4669      0.0660     11.0997     17.8451     95.5003
  1246.6000      7.9396      2.4789      0.0761     10.3696     18.0828     96.4116
  1246.7000      7.9396      2.4768      0.0222     10.4965     18.1929     97.3341
  1246.8000      7.9426      2.4626      0.0167     11.3577     18.0926     96.5367
  1246.9000      7.9426      2.4501      0.0200     12.1152     17.8501     93.5104
  1247.0000      7.9401      2.4494      0.0203     12.1597     17.6300     89.8708
  1247.1000      7.9401      2.4670      0.0188     11.0919     17.5000     90.2176
  1247.2000      7.9401      2.4932      0.1066      9.5017     17.6885     94.6136
  1247.3000      7.9503      2.5083      0.0829      8.5865     18.3014     98.0067
  1247.4000      7.9503      2.5175      0.0367      8.0282     18.9536     98.3784
  1247.5000      7.9516      2.5304      0.0879      7.2507     19.2227     97.3877
  1247.6000      7.9516      2.5332      0.0294      7.0764     19.0682     94.5469
  1247.7000      7.9516      2.5187      0.0667      7.9577     18.8111     88.8042
  1247.8000      7.9546      2.4999     -0.0058      9.0954     18.7214     84.3862
  1247.9000      7.9546      2.4937     -0.0007      9.4721     18.6384     87.8975
  1248.0000      7.9540      2.4932      0.0453      9.5007     18.4368     96.8302
  1248.1000      7.9540      2.4782      0.0442     10.4111     18.5180    100.6091
  1248.2000      7.9540      2.4494     -0.0368     12.1579     18.9106     98.8590
  1248.3000      7.9508      2.4194      0.0265     13.9780     18.9948     98.9158
  1248.4000      7.9508      2.3976     -0.0225     15.2971     18.8423    101.0205
  1248.5000      7.9494      2.3993     -0.0237     15.1933     18.9935    102.8756
  1248.6000      7.9494      2.4324     -0.0079     13.1867     19.6281    106.1571
  1248.7000      7.9494      2.4852      0.0764      9.9864     20.5165    108.3920
  1248.8000      7.9308      2.5336      0.1226      7.0523     21.1916    103.6829
  1248.9000      7.9308      2.5535      0.1588      5.8463     21.6482     95.9229
  1249.0000      7.9102      2.5426      0.1564      6.5105     22.3618     91.3392
  1249.1000      7.9102      2.5250      0.1159      7.5757     23.4892     87.0284
  1249.2000      7.9102      2.5225      0.0951      7.7293     24.5804     82.8094
  1249.3000      7.8896      2.5342      0.0891      7.0159     25.1757     84.4527
  1249.4000      7.8896      2.5475      0.0715      6.2128     25.2644     91.2032
  1249.5000      7.8798      2.5531      0.0816      5.8745     24.9804     96.3696
  1249.6000      7.8798      2.5533      0.0320      5.8632     24.3269     98.5611
  1249.7000      7.8798      2.5576      0.0359      5.5998     23.4337    101.3375
  1249.8000      7.9210      2.5651      0.0875      5.1428     22.6991    104.2138
  1249.9000      7.9210      2.5627      0.0911      5.2902     22.2405    105.2925
  1250.0000      7.9240      2.5413      0.0846      6.5878     21.7955    103.9436
  1250.1000      7.9240      2.5048      0.0542      8.7995     21.3237    100.5025
  1250.2000      7.9240      2.4679      0.0338     11.0389     20.9388     96.8995
  1250.3000      7.9298      2.4484     -0.0361     12.2155     20.6965     96.0720
  1250.4000      7.9298      2.4533      0.0266     11.9210     20.5556     98.0379
  1250.5000      7.9249      2.4737      0.0628     10.6839     20.4561    100.0998
  1250.6000      7.9249      2.4989      0.0753      9.1562     20.3953    104.7564
  1250.7000      7.9249      2.5155      0.1020      8.1534     20.4163    112.2235
  1250.8000      7.9216      2.5105      0.0729      8.4571     20.4689    112.9783
  1250.9000      7.9216      2.4912      0.0520      9.6217     20.3582    105.7034
  1251.0000      7.9421      2.4803      0.0093     10.2855     20.3170    102.7277
  1251.1000      7.9421      2.4862      0.0635      9.9277     20.5405    108.4131
  1251.2000      7.9421      2.4960      0.0673      9.3355     20.6719    114.6124
  1251.3000      7.9271      2.4976      0.0437      9.2340     20.5915    114.8864
  1251.4000      7.9271      2.4926      0.0457      9.5370     20.3586    111.7196
  1251.5000      7.9217      2.4866      0.0814      9.9049     20.0701    109.9559
  1251.6000      7.9217      2.4816      0.0833     10.2088     19.8749    109.4848
  1251.7000      7.9217      2.4791      0.0661     10.3562     19.7281    106.8482
  1251.8000      7.9186      2.4778      0.0755     10.4387     19.6340    100.5081
  1251.9000      7.9186      2.4707      0.0975     10.8659     19.6645     95.8186
  1252.0000      7.9179      2.4581      0.0478     11.6321     19.6279     99.3174
  1252.1000      7.9179      2.4432      0.0608     12.5361     19.3880    110.4365
  1252.2000      7.9179      2.4129      0.0821     14.3694     19.4042    124.0468
  1252.3000      7.9244      2.3618      0.0097     17.4663     19.5466    134.2489
  1252.4000      7.9244      2.3133     -0.0089     20.4073     19.1267    136.4159
  1252.5000      7.9277      2.2850     -0.0080     22.1196     18.4417    131.7987
  1252.6000      7.9277      2.2670      0.0192     23.2108     18.0986    127.5115
  1252.7000      7.9277      2.2473     -0.0000     24.4085     18.1095    126.5388
  1252.8000      7.9347      2.2262      0.0577     25.6839     18.1561    126.1349
  1252.9000      7.9347      2.2075      0.0069     26.8211     18.0481    125.1490
  1253.0000      7.9576      2.2007     -0.0142     27.2309     17.8613    124.4399
  1253.1000      7.9576      2.2089      0.0173     26.7318     17.6040    123.1821
  1253.2000      7.9576      2.2173      0.0663     26.2269     17.3064    119.6651
  1253.3000      7.9615      2.2160      0.0457     26.3027     16.9761    115.3629
  1253.4000      7.9615      2.2152      0.0446     26.3501     16.5770    116.4880
  1253.5000      7.9376      2.2268      0.0758     25.6495     16.3760    122.9319
  1253.6000      7.9376      2.2473      0.1207     24.4035     16.5508    126.8796
  1253.7000      7.9376      2.2724      0.0961     22.8825     16.9133    127.6658
  1253.8000      7.9450      2.3118      0.0627     20.4999     17.3545    128.9062
  1253.9000      7.9450      2.3695      0.0723     17.0016     17.8085    129.6768
  1254.0000      7.9332      2.4267      0.0972     13.5312     18.1330    129.5577
  1254.1000      7.9332      2.4635      0.0734     11.3014     18.4308    127.7360
  1254.2000      7.9332      2.4773      0.1175     10.4661     19.0779    124.2666
  1254.3000      7.9310      2.4748      0.1050     10.6185     20.1369    122.8503
  1254.4000      7.9310      2.4682      0.0859     11.0167     21.0547    125.4105
  1254.5000      7.9309      2.4680      0.1004     11.0292     21.4516    130.5685
  1254.6000      7.9309      2.4749      0.0856     10.6145     21.6904    137.4672
  1254.7000      7.9309      2.4812      0.0810     10.2279     21.8161    146.0709
  1254.8000      7.9168      2.4765      0.0314     10.5139     21.5860    152.3337
  1254.9000      7.9168      2.4563      0.0370     11.7381     21.4311    149.7099
  1255.0000      7.9127      2.4316      0.0095     13.2349     21.5358    142.4421
  1255.1000      7.9127      2.4214      0.0130     13.8556     21.5083    141.6871
  1255.2000      7.9127      2.4283      0.0436     13.4364     21.4101    146.1713
  1255.3000      7.9098      2.4415      0.0198     12.6364     21.2941    146.7588
  1255.4000      7.9098      2.4551      0.0949     11.8112     20.7615    142.2333
  1255.5000      7.9127      2.4662      0.0760     11.1408     19.9744    139.1401
  1255.6000      7.9127      2.4693      0.0949     10.9544     19.6163    138.7489
  1255.7000      7.9127      2.4657      0.0532     11.1680     19.8902    137.1887
  1255.8000      7.9425      2.4711      0.0328     10.8412     20.3734    136.9346
