~Version Information
VERS.                      2.0: CWLS Log ASCII Standard - VERSION 2.0
WRAP.                       NO: One line per depth step
~Well Information Block
STRT.FT               700.0000: 
STOP.FT              1869.5000: 
STEP.FT                 0.1000: 
NULL.                -999.2500: 
COMP.          Petrogulf Corporation: COMPANY
WELL.             State 16-24R: WELL
FLD.           Purgatorie River: FIELD
LOC.           541' FSL & 2371' FWL: LOCATION
PROV.                 Colorado: PROVINCE
CNTY.               Las Animas: COUNTRY
SRVC.                Patterson: SERVICE COMPANY
DATE.          Fri Aug 12 09:07:22 2005: LOG DATE
UWI.                071-08312 : UNIQUE WELL ID
~Curve Information Block
DEPT.FT            0 000 00 00: Depth
DCAL.in                       : CDL Caliper
RHOB.g/cc                     : CDL Bulk Density
RHOC.g/cc                     : CDL Density Correction
DPOR.pu                       : CDL Density Porosity
GR.GAPI                       : Gamma Ray
NPOR.pu                       : Neutron Porosity
~Parameter Information Block
~A  Depth       DCAL        RHOB        RHOC        DPOR         GR         NPOR    
# ...
  1151.2000      8.0497      3.2206      0.1760    -34.5827     66.1391     26.4613
  1151.3000      7.9153      3.2892      0.0924    -38.7408     61.2607     25.6933
  1151.4000      7.9153      3.3076      0.1379    -39.8574     57.6609     25.3162
  1151.5000      7.8779      3.2598     -0.0240    -36.9577     57.3213     24.7628
  1151.6000      7.8779      3.1667     -0.1016    -31.3139     58.2060     24.2168
  1151.7000      7.8779      3.0736     -0.1635    -25.6720     58.5700     24.1830
  1151.8000      7.9402      2.9998     -0.1938    -21.1991     60.4181     24.5675
  1151.9000      7.9402      2.9265     -0.1791    -16.7598     63.5282     25.0691
  1152.0000      7.9530      2.8481     -0.2242    -12.0081     64.5826     25.2249
  1152.1000      7.9530      2.7933     -0.0674     -8.6867     65.5871     24.8482
  1152.2000      7.9530      2.7683      0.0382     -7.1709     70.9687     24.6336
  1152.3000      7.9580      2.7426      0.0818     -5.6102     80.2921     25.0947
  1152.4000      7.9580      2.6921      0.0692     -2.5487     90.3351     25.7444
  1152.5000      7.9848      2.6287      0.0627      1.2905     97.6579     26.1302
  1152.6000      7.9848      2.5837     -0.0495      4.0167     99.5979     26.2874
  1152.7000      7.9848      2.5648      0.0286      5.1649     98.0384     26.3450
  1152.8000      7.9464      2.5515      0.0053      5.9683     96.6224     26.3245
  1152.9000      7.9464      2.5375      0.0414      6.8183     96.9523     26.0293
  1153.0000      7.9558      2.5337      0.0463      7.0514     98.8274     25.4481
  1153.1000      7.9558      2.5430      0.0491      6.4822     99.5839     25.1549
  1153.2000      7.9558      2.5545      0.0735      5.7882     97.3374     25.4171
  1153.3000      7.9716      2.5615      0.0362      5.3640     94.1184     25.5534
  1153.4000      7.9716      2.5715      0.0720      4.7591     92.8462     24.9528
  1153.5000      7.9548      2.5855      0.0633      3.9079     95.1693     24.1965
  1153.6000      7.9548      2.5958      0.0714      3.2841    100.0042     24.1299
  1153.7000      7.9548      2.5980      0.0631      3.1510    103.6053     24.4826
  1153.8000      7.9757      2.5907      0.1135      3.5926    104.0094     24.7636
  1153.9000      7.9757      2.5758      0.0679      4.4952    101.6852     25.1874
  1154.0000      7.9817      2.5634      0.0384      5.2483     97.7317     25.8884
  1154.1000      7.9817      2.5602      0.0275      5.4448     93.7754     26.3902
  1154.2000      7.9817      2.5595      0.0330      5.4839     90.5852     26.3258
  1154.3000      7.9843      2.5521      0.0559      5.9351     88.4337     25.9096
  1154.4000      7.9843      2.5461     -0.0008      6.2976     87.7101     25.4249
  1154.5000      7.9930      2.5541      0.0357      5.8099     86.9537     25.0118
  1154.6000      7.9930      2.5686      0.0435      4.9321     85.4980     25.1420
  1154.7000      7.9930      2.5840      0.0263      3.9997     84.6168     25.7465
  1154.8000      8.0019      2.6036      0.0991      2.8126     84.3598     25.7874
  1154.9000      8.0019      2.6250      0.0817      1.5176     83.9023     25.0024
  1155.0000      7.9591      2.6452      0.1288      0.2913     82.6391     24.3000
  1155.1000      7.9591      2.6619      0.0952     -0.7184     80.4834     24.1753
  1155.2000      7.9591      2.6711      0.0833     -1.2791     77.6544     24.3049
  1155.3000      7.9725      2.6664      0.1302     -0.9952     75.6092     24.2376
  1155.4000      7.9725      2.6534      0.0362     -0.2060     75.6461     23.7876
  1155.5000      7.9846      2.6487      0.0776      0.0817     77.9109     23.2405
  1155.6000      7.9846      2.6420      0.0901      0.4871     82.3411     23.0217
  1155.7000      7.9846      2.6128      0.0777      2.2571     87.5737     23.0588
  1155.8000      7.9754      2.5737      0.0164      4.6248     92.2601     22.9909
  1155.9000      7.9754      2.5528      0.0212      5.8923     95.0990     23.0337
  1156.0000      7.9495      2.5543      0.0243      5.8004     94.4118     23.4867
  1156.1000      7.9495      2.5598      0.0526      5.4672     91.7970     24.2010
  1156.2000      7.9495      2.5548      0.0546      5.7691     90.5409     25.0355
  1156.3000      7.9870      2.5448      0.0081      6.3742     92.9713     25.5487
  1156.4000      7.9870      2.5387      0.0353      6.7482     96.6578     25.3470
  1156.5000      8.0226      2.5365      0.0133      6.8805     95.2507     24.7843
  1156.6000      8.0226      2.5433      0.0280      6.4679     88.7213     24.2766
  1156.7000      8.0226      2.5605      0.0609      5.4251     83.7016     23.8292
  1156.8000      8.0576      2.5750      0.0550      4.5448     82.8581     23.4719
  1156.9000      8.0576      2.5704      0.0531      4.8271     81.1719     23.3104
  1157.0000      8.0514      2.5334      0.0510      7.0658     75.7655     23.3172
  1157.1000      8.0514      2.4650      0.0146     11.2126     69.5717     23.3997
  1157.2000      8.0514      2.3809     -0.0354     16.3067     65.1871     23.4220
  1157.3000      7.9714      2.2810     -0.0124     22.3658     62.8618     23.3721
  1157.4000      7.9714      2.1475     -0.0705     30.4573     60.9123     23.5762
  1157.5000      7.9461      1.9957     -0.1403     39.6516     58.6384     24.3334
  1157.6000      7.9461      1.8769     -0.1463     46.8551     57.8238     25.3816
  1157.7000      7.9461      1.8167     -0.1168     50.5060     58.4632     26.4427
  1157.8000      7.9814      1.7945     -0.0884     51.8491     60.6306     27.7479
  1157.9000      7.9814      1.7859      0.0140     52.3677     66.3711     29.2384
  1158.0000      8.0432      1.7868      0.1632     52.3154     72.3921     30.4151
  1158.1000      8.0432      1.7983      0.1869     51.6182     74.2330     31.2964
  1158.2000      8.0432      1.8231      0.1494     50.1135     75.5127     32.2227
  1158.3000      8.3224      1.8687      0.1659     47.3488     81.1553     33.3535
  1158.4000      8.3224      1.9389      0.1258     43.0947     89.6691     34.5292
  1158.5000      8.2738      2.0323      0.0625     37.4385     96.9302     35.2511
  1158.6000      8.2738      2.1346      0.1076     31.2380    101.3683     35.3770
  1158.7000      8.2738      2.2198      0.1387     26.0757    103.3003     35.1735
  1158.8000      8.1141      2.2755      0.1528     22.6973    105.9527     34.7002
  1158.9000      8.1141      2.3115      0.1552     20.5163    111.7057     34.1507
  1159.0000      8.1004      2.3436      0.1138     18.5706    116.0086     33.9718
  1159.1000      8.1004      2.3793      0.1113     16.4051    115.7805     34.0956
  1159.2000      8.1004      2.4141      0.0957     14.2941    114.3917     34.0626
  1159.3000      8.1497      2.4404      0.1001     12.7029    115.5726     33.6635
  1159.4000      8.1497      2.4469      0.1206     12.3065    118.6464     33.0378
  1159.5000      8.1681      2.4214      0.1161     13.8563    120.9195     32.7487
  1159.6000      8.1681      2.3729      0.0665     16.7947    123.2377     33.0433
  1159.7000      8.1681      2.3333      0.0158     19.1946    128.8941     33.3353
  1159.8000      8.2917      2.3174      0.0852     20.1559    134.3613     33.3700
  1159.9000      8.2917      2.3136      0.0461     20.3902    132.7081     33.4509
  1160.0000      8.3697      2.3109      0.0972     20.5539    126.6105     33.6252
  1160.1000      8.3697      2.3137      0.0233     20.3835    122.6741     33.6241
  1160.2000      8.3697      2.3396      0.0725     18.8103    122.1301     33.3794
  1160.3000      8.3883      2.3930      0.1181     15.5757    122.6147     33.3294
  1160.4000      8.3883      2.4507      0.1988     12.0811    122.4789     33.7388
  1160.5000      8.5681      2.4803      0.2565     10.2857    122.0339     34.0360
  1160.6000      8.5681      2.4633      0.2777     11.3173    122.6401     33.7136
  1160.7000      8.5681      2.4045      0.2345     14.8759    124.8915     33.0717
