~Version Information
VERS.                      2.0: CWLS Log ASCII Standard - VERSION 2.0
WRAP.                       NO: One line per depth step
~Well Information Block
STRT.FT               450.0000: 
STOP.FT              2756.0000: 
STEP.FT                 0.2500: 
NULL.                -999.2500: 
COMP.          Pioneer Natural Resources: COMPANY
WELL.             Squeal 11-26: WELL
FLD.           Purgatoire River: FIELD
LOC.           1186' FNL & 152' FWL: LOCATION
PROV.                 Colorado: PROVINCE
CNTY.               Las Animas: COUNTRY
SRVC.                Patterson: SERVICE COMPANY
DATE.          Wed Jun 15 02:22:08 2005: LOG DATE
UWI.           05 071 08404 00: UNIQUE WELL ID
~Curve Information Block
DEPT.FT            0 000 00 00: Depth
SN.Ohm-m                      : IEL Short Normal
SP.mV                         : IEL Spontaneous Potential
DIR.Ohm-m                     : IEL Induction Resistivity
GR.GAPI                       : Gamma Ray
~Parameter Information Block
~A  Depth        SN          SP         DIR          GR     
# ...
  2560.5000      4.7091     12.0578      5.9282     68.3488
  2560.7500      5.8697     20.3600      3.3967     69.1012
  2561.0000      8.0351     26.6920      2.4786     70.2290
  2561.2500     10.9251     31.3674      2.1379     71.1515
  2561.5000     13.8908     34.5949      2.1152     73.0966
  2561.7500     16.4675     36.6338      2.3738     74.8663
  2562.0000     18.6392     37.8850      3.0382     78.1938
  2562.2500     20.6420     38.8699      4.5956     80.7477
  2562.5000     22.6797     40.0973      9.3679     84.4402
  2562.7500     24.7920     41.8928     82.1896     85.9117
  2563.0000     26.9255     44.3115 100000.0000     84.4812
  2563.2500     29.0971     47.1985 100000.0000     80.2289
  2563.5000     31.4146     50.3272 100000.0000     69.3838
  2563.7500     33.8524     53.4973 100000.0000     60.6792
  2564.0000     36.0585     56.5480 100000.0000     48.9397
  2564.2500     37.4739     59.3377 100000.0000     43.7730
  2564.5000     37.6330     61.7464 100000.0000     41.5989
  2564.7500     36.3731     63.7048   1117.3250     43.8928
  2565.0000     33.9206     65.2182     23.4367     51.8852
  2565.2500     30.8395     66.3547     12.8734     59.1937
  2565.5000     27.7414     67.2050      9.7207     70.9158
  2565.7500     24.9940     67.8450      8.4697     78.0118
  2566.0000     22.7312     68.3250      8.0174     86.1495
  2566.2500     20.9968     68.6829      8.0127     89.5822
  2566.5000     19.7628     68.9569      8.3295     92.0126
  2566.7500     18.9320     69.1862      8.9288     92.3501
  2567.0000     18.4174     69.4021      9.7931     92.0115
  2567.2500     18.1520     69.6209     10.8701     91.6317
  2567.5000     18.0482     69.8397     12.0226     90.9603
  2567.7500     18.0061     70.0399     13.0234     90.3833
  2568.0000     17.9291     70.1991     13.6404     89.4151
  2568.2500     17.7732     70.3060     13.7694     88.8853
  2568.5000     17.5809     70.3641     13.4858     88.4826
  2568.7500     17.4354     70.3840     12.9688     88.4176
  2569.0000     17.4234     70.3767     12.3937     88.3621
  2569.2500     17.5873     70.3529     11.8757     88.2540
  2569.5000     17.8530     70.3198     11.4667     87.9546
  2569.7500     18.0622     70.2782     11.1762     87.6660
  2570.0000     18.0760     70.2262     10.9937     87.1737
  2570.2500     17.8581     70.1655     10.9043     86.9430
  2570.5000     17.4862     70.1017     10.8963     87.0704
  2570.7500     17.0877     70.0417     10.9616     87.5763
  2571.0000     16.7664     69.9887     11.0915     88.8192
  2571.2500     16.5677     69.9380     11.2708     89.7687
  2571.5000     16.4452     69.8729     11.4772     91.1708
  2571.7500     16.2612     69.7670     11.6883     92.0816
  2572.0000     15.9415     69.5947     11.8936     93.2959
  2572.2500     15.6209     69.3464     12.1001     93.8233
  2572.5000     15.5171     69.0396     12.3245     94.0423
  2572.7500     15.6930     68.7233     12.5792     93.9196
  2573.0000     16.0418     68.4737     12.8628     93.3735
  2573.2500     16.4467     68.3752     13.1607     92.3211
  2573.5000     16.8454     68.4839     13.4539     88.2543
  2573.7500     17.1809     68.7920     13.7294     83.2835
  2574.0000     17.3869     69.2219     13.9882     73.1683
  2574.2500     17.4427     69.6657     14.2467     66.1575
  2574.5000     17.4354     70.0441     14.5307     58.1833
  2574.7500     17.5682     70.3348     14.8654     55.4989
  2575.0000     18.0881     70.5511     15.2647     55.1931
  2575.2500     19.1012     70.6975     15.7261     56.7804
  2575.5000     20.3849     70.7508     16.2344     60.6676
  2575.7500     21.4941     70.6754     16.7719     63.6734
  2576.0000     22.1585     70.4486     17.3268     67.9263
  2576.2500     22.4626     70.0707     17.8935     70.2846
  2576.5000     22.6379     69.5626     18.4647     72.9054
  2576.7500     22.8601     68.9637     19.0272     73.8452
  2577.0000     23.1966     68.3308     19.5633     73.4675
  2577.2500     23.5991     67.7263     20.0558     71.9294
  2577.5000     23.9741     67.1912     20.4911     68.4268
  2577.7500     24.3016     66.7219     20.8594     65.9162
  2578.0000     24.6540     66.2759     21.1546     62.3717
  2578.2500     25.1165     65.8071     21.3787     60.0642
  2578.5000     25.7080     65.2991     21.5497     56.4832
  2578.7500     26.3739     64.7712     21.7084     54.0726
  2579.0000     27.0748     64.2589     21.9120     50.6676
  2579.2500     27.8324     63.7967     22.2063     48.6473
  2579.5000     28.6279     63.4120     22.5918     46.2309
  2579.7500     29.3273     63.1182     23.0086     45.2768
  2580.0000     29.7648     62.9008     23.3580     45.1354
  2580.2500     29.8905     62.7136     23.5507     45.7665
  2580.5000     29.7890     62.4960     23.5430     47.2682
  2580.7500     29.5160     62.1973     23.3384     48.5765
  2581.0000     29.0267     61.7904     22.9669     51.4794
  2581.2500     28.3422     61.2719     22.4719     54.2360
  2581.5000     27.6082     60.6537     21.9087     59.1719
  2581.7500     26.9131     59.9471     21.3372     62.5131
  2582.0000     26.1957     59.1475     20.8041     67.1598
  2582.2500     25.3525     58.2375     20.3243     70.0891
  2582.5000     24.4015     57.2159     19.8801     74.5364
  2582.7500     23.5188     56.1458     19.4406     77.6217
  2583.0000     22.8340     55.1861     18.9888     82.1809
  2583.2500     22.2916     54.5609     18.5334     84.6259
  2583.5000     21.8068     54.4594     18.0981     85.7176
  2583.7500     21.3884     54.9230     17.7053     83.7437
  2584.0000     21.0288     55.8129     17.3705     76.3486
  2584.2500     20.6459     56.8840     17.1068     69.4067
  2584.5000     20.2065     57.9025     16.9255     59.0890
  2584.7500     19.8110     58.7251     16.8340     54.1533
  2585.0000     19.6847     59.3115     16.8328     51.4013
  2585.2500     20.0492     59.6927     16.9189     52.3806
  2585.5000     20.8828     59.9256     17.0900     55.7844
  2585.7500     21.9075     60.0619     17.3447     57.7503
  2586.0000     22.8745     60.1364     17.6760     58.6642
  2586.2500     23.7308     60.1697     18.0625     57.9847
  2586.5000     24.5299     60.1745     18.4648     56.1043
  2586.7500     25.3277     60.1614     18.8372     54.8606
  2587.0000     26.1320     60.1382     19.1494     53.4404
  2587.2500     26.8406     60.1077     19.4043     52.7644
  2587.5000     27.3060     60.0677     19.6322     51.8932
  2587.7500     27.5143     60.0175     19.8676     51.2712
  2588.0000     27.5789     59.9638     20.1282     50.2429
  2588.2500     27.6158     59.9165     20.4096     49.5337
  2588.5000     27.6951     59.8732     20.6931     48.4026
  2588.7500     27.7752     59.8120     20.9582     47.5410
  2589.0000     27.7250     59.7029     21.1921     46.0998
  2589.2500     27.5268     59.5303     21.3924     45.1248
  2589.5000     27.3406     59.3066     21.5615     43.7614
  2589.7500     27.3413     59.0668     21.6999     42.9532
  2590.0000     27.5657     58.8484     21.8058     41.9469
  2590.2500     27.8888     58.6726     21.8846     41.4247
  2590.5000     28.1496     58.5364     21.9555     40.7754
  2590.7500     28.2820     58.4201     22.0461     40.3265
  2591.0000     28.3120     58.3034     22.1750     39.4873
  2591.2500     28.3252     58.1751     22.3380     38.8427
  2591.5000     28.3899     58.0315     22.5070     37.9996
  2591.7500     28.4979     57.8744     22.6417     37.6747
  2592.0000     28.6743     57.7173     22.7072     37.6037
  2592.2500     29.0007     57.5890     22.6855     37.7969
  2592.5000     29.4224     57.5200     22.5715     38.4800
  2592.7500     29.7304     57.5199     22.3595     39.2192
  2593.0000     29.7447     57.5676     22.0324     40.4848
  2593.2500     29.3794     57.6240     21.5738     41.1471
  2593.5000     28.6286     57.6552     20.9920     41.7929
  2593.7500     27.5938     57.6450     20.3333     42.3858
