~Version Information
VERS.                      2.0: CWLS Log ASCII Standard - VERSION 2.0
WRAP.                       NO: One line per depth step
~Well Information Block
STRT.FT                -3.0000: 
STOP.FT              2043.2500: 
STEP.FT                 0.2500: 
NULL.                -999.2500: 
COMP.          Pioneer Natural Resources: COMPANY
WELL.           Galloway 32-13: WELL
FLD.           Purgatorie River: FIELD
LOC.           1809' FNL & 2004' FEL--: LOCATION
PROV.                       CO: PROVINCE
CNTY.               Las Animas: COUNTRY
SRVC.          Patterson Wireline: SERVICE COMPANY
DATE.          Thu Jul 14 13:02:15 2005: LOG DATE
UWI.           05 071 08423 00: UNIQUE WELL ID
~Curve Information Block
DEPT.FT            0 000 00 00: Depth
CCL.                          : Casing Collar Locator
TT3.usec                      : CBL 3' Travel Time
AMP3.mV                       : CBL 3' Amplitude
GR.GAPI                       : Gamma Ray
~Parameter Information Block
~A  Depth       CCL         TT3         AMP3         GR     
# ...
  1471.0000      0.0000    596.7066      5.0146    129.3275
  1471.2500      0.0000    535.0258      5.0525    121.5746
  1471.5000      0.0000    494.6949      5.0489    112.4262
  1471.7500      0.0000    495.6703      5.0359    106.8532
  1472.0000      0.0000    537.5823      5.0336    107.5107
  1472.2500      0.0000    600.1078      5.0296    113.0961
  1472.5000      0.0000    658.0033      4.9996    119.6784
  1472.7500      0.0000    697.2211      4.9436    123.7740
  1473.0000      0.0000    718.6935      4.8818    124.6965
  1473.2500      0.0000    730.0281      4.8210    124.1925
  1473.5000      0.0000    736.3866      4.7497    124.2968
  1473.7500      0.0000    738.4976      4.6625    126.0135
  1474.0000      0.0000    736.0353      4.5650    129.6112
  1474.2500      0.0000    730.5480      4.4580    134.9630
  1474.5000      0.0000    725.2346      4.3363    141.2079
  1474.7500      0.0000    722.9412      4.2084    146.7964
  1475.0000      0.0000    724.5945      4.1117    150.4655
  1475.2500      0.0000    728.9266      4.0941    152.2019
  1475.5000      0.0000    733.2878      4.1706    153.3007
  1475.7500      0.0000    735.1746      4.3014    155.4559
  1476.0000      0.0000    733.5299      4.4225    159.5034
  1476.2500      0.0000    728.8680      4.4949    164.7482
  1476.5000      0.0000    722.4853      4.5178    169.6200
  1476.7500      0.0000    715.5708      4.5051    173.0466
  1477.0000      0.0000    708.6120      4.4610    175.0290
  1477.2500      0.0000    701.5020      4.3824    176.1521
  1477.5000      0.0000    694.4488      4.2825    177.1531
  1477.7500      0.0000    688.6154      4.2009    178.6054
  1478.0000      0.0000    685.3859      4.1777    180.0724
  1478.2500      0.0000    685.1038      4.2143    179.8965
  1478.5000      0.0000    687.0142      4.2763    177.0329
  1478.7500      0.0000    690.3088      4.3311    172.9634
  1479.0000      0.0000    694.6519      4.3694    170.6397
  1479.2500      0.0000    699.6871      4.3894    171.4498
  1479.5000      0.0000    704.5920      4.3743    174.0340
  1479.7500      0.0000    708.4517      4.2964    176.1669
  1480.0000      0.0000    710.8884      4.1428    177.0809
  1480.2500      0.0000    712.1579      3.9330    177.4936
  1480.5000      0.0000    712.7797      3.7160    177.7416
  1480.7500      0.0000    713.1932      3.5610    176.7692
  1481.0000      0.0000    713.6348      3.5336    173.4904
  1481.2500      0.0000    714.1594      3.6521    168.7064
  1481.5000      0.0000    714.6976      3.8631    164.8535
  1481.7500      0.0000    715.1189      4.0767    163.6200
  1482.0000      0.0000    715.2437      4.2269    164.2999
  1482.2500      0.0000    714.8096      4.2979    164.9121
  1482.5000      0.0000    713.4037      4.3066    164.6138
  1482.7500      0.0000    710.3958      4.2746    164.2809
  1483.0000      0.0000    705.0323      4.2166    164.8371
  1483.2500      0.0000    696.7088      4.1466    166.0526
  1483.5000      0.0000    685.1071      4.0831    167.1310
  1483.7500      0.0000    670.3716      4.0427    167.5541
  1484.0000      0.0000    653.8813      4.0319    166.9252
  1484.2500      0.0000    638.7335      4.0469    164.6257
  1484.5000      0.0000    628.4376      4.0785    160.3346
  1484.7500      0.0000    625.1961      4.1181    154.9013
  1485.0000      0.0000    629.9096      4.1556    150.2737
  1485.2500      0.0000    641.9774      4.1734    148.2495
  1485.5000      0.0000    657.0508      4.1478    149.3140
  1485.7500      0.0000    666.5674      4.0652    152.6318
  1486.0000      0.0000    662.3787      3.9372    156.8590
  1486.2500      0.0000    642.6918      3.7980    160.9038
  1486.5000      0.0000    613.3430      3.6938    164.3441
  1486.7500      0.0000    583.5620      3.6683    167.4953
  1487.0000      0.0000    560.6458      3.7387    171.1335
  1487.2500      0.0000    547.7991      3.8798    175.7302
  1487.5000      0.0000    545.1201      4.0426    180.4016
  1487.7500      0.0000    551.5616      4.1885    182.8059
  1488.0000      0.0000    566.6928      4.3035    180.7867
  1488.2500      0.0000    591.2863      4.3850    174.3284
  1488.5000      0.0000    625.5431      4.4285    165.5495
  1488.7500      0.0000    666.3051      4.4346    156.6306
  1489.0000      0.0000    706.7930      4.4233    148.0470
  1489.2500      0.0000    739.8814      4.4253    139.0273
  1489.5000      0.0000    761.8087      4.4501    129.4329
  1489.7500      0.0000    773.0251      4.4732    120.7211
  1490.0000      0.0000    776.0092      4.4659    115.0778
  1490.2500      0.0000    772.6893      4.4312    113.7214
  1490.5000      0.0000    763.8524      4.3991    115.8837
  1490.7500      0.0000    750.3223      4.3922    119.3620
  1491.0000      0.0000    734.0933      4.4075    122.4600
  1491.2500      0.0000    718.0956      4.4322    125.6575
  1491.5000      0.0000    704.8287      4.4596    130.9367
  1491.7500      0.0000    695.3094      4.4856    139.0459
  1492.0000      0.0000    689.3887      4.5063    147.8970
  1492.2500      0.0000    686.9257      4.5254    154.3675
  1492.5000      0.0000    688.3439      4.5543    157.4657
  1492.7500      0.0000    693.9476      4.5932    158.9088
  1493.0000      0.0000    703.4149      4.6178    160.7034
  1493.2500      0.0000    716.7511      4.5898    163.4071
  1493.5000      0.0000    735.1376      4.4860    167.2075
  1493.7500      0.0000    759.2631      4.3193    173.2307
  1494.0000      0.0000    786.5294      4.1397    182.3198
  1494.2500      0.0000    811.3630      4.0194    192.7990
  1494.5000      0.0000    829.0776      4.0187    200.5981
  1494.7500      0.0000    838.6867      4.1388    202.1197
  1495.0000      0.0000    841.8339      4.3093    196.9297
  1495.2500      0.0000    839.8845      4.4358    187.9670
  1495.5000      0.0000    832.6500      4.4601    179.6414
  1495.7500      0.0000    819.9005      4.3806    175.2914
  1496.0000      0.0000    803.9498      4.2312    175.3774
  1496.2500      0.0000    789.9764      4.0527    177.6472
  1496.5000      0.0000    782.4864      3.8832    179.2084
  1496.7500      0.0000    781.1924      3.7671    178.4930
  1497.0000      0.0000    781.3422      3.7427    175.3899
  1497.2500      0.0000    778.8080      3.8030    170.2908
  1497.5000      0.0000    774.4505      3.8957    163.7682
  1497.7500      0.0000    772.9676      3.9854    156.9010
  1498.0000      0.0000    778.0139      4.0945    151.1459
  1498.2500      0.0000    789.0313      4.2672    147.5495
  1498.5000      0.0000    802.0785      4.5091    146.1296
  1498.7500     -1.1383    812.8188      4.7681    145.8235
  1499.0000     -2.0000    818.8878      4.9683    144.7462
  1499.2500     -1.1337    820.1727      5.0677    140.9987
  1499.5000      0.0000    817.4084      5.0998    134.0819
  1499.7500      0.0000    810.4671      5.1641    125.5679
  1500.0000      0.0000    797.9979      5.3543    117.9498
  1500.2500      0.0000    779.6434      5.6654    112.8431
  1500.5000      0.0000    758.8694      5.9738    110.4456
  1500.7500      0.0000    742.3328      6.1411    110.3046
  1501.0000      0.0000    735.6526      6.1378    111.9380
  1501.2500      0.0000    740.7065      6.0464    114.5430
  1501.5000      0.0000    756.3675      5.9643    116.7007
  1501.7500      0.0000    779.0372      5.9279    117.1336
  1502.0000      0.0000    802.2709      5.9165    115.9039
  1502.2500      0.0000    819.1567      5.9008    114.4773
  1502.5000      0.0000    826.8253      5.8776    114.3778
  1502.7500      0.0000    827.9475      5.8663    115.8703
  1503.0000      0.0000    827.5474      5.8861    117.9731
  1503.2500      0.0000    828.7394      5.9408    119.6096
  1503.5000      0.0000    831.1879      6.0183    120.7199
  1503.7500      0.0000    832.7620      6.0946    122.5426
  1504.0000      0.0000    831.9216      6.1361    126.8560
  1504.2500      0.0000    828.6725      6.1133    134.3030
