~Version Information
 VERS.                                  2.0 : CWLS LAS VERSION
 WRAP.                                   NO : WRAPING MODE
 SWARE .                 MController 2.5.0J : SOFTWARE VERSION
~Well Information
 WELL.                       Montoya 07-21R : WELL
 COMP.                Petrogulf Corporation : COMPANY
 FLD.                      Purgatoire River : FIELD
 LOC.                 NE/NW Sec 7 T33S R67W : LOCATION
 DATE.                           9/13-15/05 : DATE(S) LOGGED
 SRVC.       BLANCO Geological Services LLC : SERVICE COMPANY
 STAT.                                   CO : STATE
 CNTY.                           Las Animas : COUNTY
 CTRY.                                  USA : COUNTRY
 API.                       05-071-08435-00 : API NUMBER
 STRT.FT                             374.00 : START DEPTH
 STOP.FT                            1830.00 : STOP DEPTH
 STEP.FT                               1.00 : DEPTH INCREMENT
 NULL.                                -9999 : NULL VALUE
~Curve information
 DEPTH.FT                                   :
 ROP.MIN/FT                                 :
 GAS.UNITS                                  :
~ASCII Log data
# ...
       574.0         0.17        104.6 
       575.0         0.17         75.9 
       576.0         0.13         55.3 
       577.0         0.17         44.2 
       578.0         0.17         35.5 
       579.0         0.22         29.5 
       580.0         0.20         24.8 
       581.0         0.17         21.9 
       582.0         0.23         21.2 
       583.0         0.23         20.7 
       584.0         0.23         20.3 
       585.0         0.27         19.6 
       586.0         0.20         19.2 
       587.0         0.20         18.9 
       588.0         0.20         18.8 
       589.0         0.20         18.7 
       590.0         0.17         18.0 
       591.0         0.17         17.8 
       592.0         0.20         17.6 
       593.0         0.13         17.9 
       594.0         0.20         17.5 
       595.0         0.25         17.8 
       596.0         1.80        470.1 
       597.0         0.33       1115.1 
       598.0         0.23        902.8 
       599.0         0.23        723.2 
       600.0         0.20        576.2 
       601.0         0.17        488.9 
       602.0         0.25        441.9 
       603.0         0.17        440.0 
       604.0         0.20         45.9 
       605.0         0.17         33.7 
       606.0         0.17         27.2 
       607.0         0.17         24.2 
       608.0         0.17         22.0 
       609.0         0.17         20.8 
       610.0         0.20         19.9 
       611.0         0.17         19.0 
       612.0         0.13         18.8 
       613.0         0.17         18.6 
       614.0         0.13         17.1 
       615.0         0.13         17.7 
       616.0         0.13         16.6 
       617.0         0.13         15.8 
       618.0         0.10         16.6 
       619.0         0.13         17.4 
       620.0         0.10         17.9 
       621.0         0.07         17.8 
       622.0         0.10         18.6 
       623.0         0.10         18.0 
       624.0         0.17         18.9 
       625.0         0.22         18.4 
       626.0         1.57        383.1 
       627.0         0.23        425.7 
       628.0         0.23        415.6 
       629.0         0.20        348.8 
       630.0         0.20        280.8 
       631.0         0.23        213.4 
       632.0         0.23        140.2 
       633.0         0.23         82.5 
       634.0         0.18         46.0 
       635.0         0.17         33.8 
       636.0         0.20         25.8 
       637.0         0.17         21.5 
       638.0         0.17         18.9 
       639.0         0.17         18.7 
       640.0         0.17         17.2 
       641.0         0.17         17.3 
       642.0         0.20         17.3 
       643.0         0.17         17.1 
       644.0         0.17         16.6 
       645.0         0.17         16.7 
       646.0         0.17         16.6 
       647.0         0.17         16.8 
       648.0         0.17         16.6 
       649.0         0.20         16.6 
       650.0         0.17         16.3 
       651.0         0.17         15.7 
       652.0         0.17         14.2 
       653.0         0.15         12.4 
       654.0         0.17         10.4 
       655.0         0.13          9.3 
       656.0         9.10       1922.2 
       657.0         0.30       1918.7 
       658.0         0.32       1608.6 
       659.0         0.37       1131.3 
       660.0         0.20        700.9 
       661.0         0.20        554.6 
       662.0         0.20        469.9 
       663.0         0.17        440.0 
       664.0         0.20        440.0 
       665.0         0.23         27.2 
       666.0         0.23         21.5 
       667.0         0.13         19.0 
       668.0         0.17         18.5 
       669.0         0.17         17.6 
       670.0         0.17         17.1 
       671.0         0.13         17.1 
       672.0         0.17         16.8 
       673.0         0.17         16.6 
       674.0         0.18         16.5 
       675.0         0.13         15.9 
       676.0         0.17         16.4 
       677.0         0.20         16.2 
       678.0         0.13         17.0 
       679.0         0.17         17.3 
       680.0         0.13         18.2 
       681.0         0.20         18.1 
       682.0         0.23         18.3 
       683.0         0.20         18.2 
       684.0         0.20         17.4 
       685.0         0.27         16.9 
       686.0         2.92       1306.8 
       687.0         0.33        980.2 
       688.0         0.27        771.4 
       689.0         0.30        659.0 
       690.0         0.23        559.7 
       691.0         0.20        497.8 
       692.0         0.22        464.5 
       693.0         0.20        444.2 
       694.0         0.20        440.0 
       695.0         0.20         24.0 
       696.0         0.30         23.1 
       697.0         0.23         21.2 
       698.0         0.20         19.9 
       699.0         0.13         18.2 
       700.0         0.17         17.7 
       701.0         0.17         17.1 
       702.0         0.17         16.5 
       703.0         0.17         18.5 
       704.0         0.10         19.1 
       705.0         0.17         19.2 
       706.0         0.17         19.3 
       707.0         0.13         19.5 
       708.0         0.13         19.3 
       709.0         0.17         19.5 
       710.0         0.17         19.2 
       711.0         0.18         19.2 
       712.0         0.13         18.4 
       713.0         0.17         19.1 
       714.0         0.17         18.8 
       715.0         0.30         18.1 
       716.0         2.03        256.6 
       717.0         0.13        370.3 
       718.0         0.15        466.5 
       719.0         0.13       1299.8 
       720.0         0.13       1304.0 
       721.0         0.23       1285.9 
       722.0         0.27       1142.1 
       723.0         0.20        894.5 
       724.0         0.23        770.4 
       725.0         0.30        641.3 
       726.0         0.20        552.1 
       727.0         0.17        514.0 
       728.0         0.23        475.9 
       729.0         0.20        450.5 
       730.0         0.17        440.0 
       731.0         0.13        440.0 
       732.0         0.13         20.5 
       733.0         0.13         20.4 
       734.0         0.10         20.5 
       735.0         0.10         21.0 
       736.0         0.12         21.4 
       737.0         0.07         22.1 
       738.0         0.17         22.2 
       739.0         0.17         22.8 
       740.0         0.17         23.3 
       741.0         0.20         23.4 
       742.0         0.17         21.6 
       743.0         0.20         21.4 
       744.0         0.10         20.5 
       745.0         0.20         20.2 
       746.0         2.38       1330.0 
       747.0         0.17       1341.1 
       748.0         0.13       1324.3 
       749.0         0.27       1261.7 
       750.0         0.30       1090.0 
       751.0         0.27        879.6 
       752.0         0.27        703.5 
       753.0         0.23        584.8 
       754.0         0.23        528.9 
       755.0         0.23        495.9 
       756.0         0.20        477.2 
       757.0         0.20        466.1 
       758.0         0.17        459.7 
       759.0         0.22        455.0 
       760.0         0.20        451.8 
       761.0         0.23        448.9 
       762.0         0.23        445.4 
       763.0         0.13        445.8 
       764.0         0.17        442.6 
       765.0         0.13        441.6 
       766.0         0.17        440.0 
       767.0         0.13         15.0 
       768.0         0.23         16.7 
       769.0         0.23         17.1 
       770.0         0.23         18.5 
       771.0         0.23         20.8 
       772.0         0.23         21.9 
       773.0         0.20         21.9 
