~Version Information
VERS.                      2.0: CWLS Log ASCII Standard - VERSION 2.0
WRAP.                       NO: One line per depth step
~Well Information Block
STRT.FT                -9.0000: 
STOP.FT              2518.0000: 
STEP.FT                 0.2500: 
NULL.                -999.2500: 
COMP.          Petrogulf Corporation: COMPANY
WELL.            Montoya 7-12V: WELL
FLD.           Purgatorie River: FIELD
LOC.           1764' FNL & 728' FWL: LOCATION
CNTY.               Las Animas: COUNTY
SRVC.                         : SERVICE COMPANY
DATE.          Mon Mar 08 16:11:04 2004: LOG DATE
UWI.           05-071-07887-00: UNIQUE WELL ID
STAT.                 Colorado: STATE
~Curve Information Block
DEPT.FT            0 000 00 00: Depth
GR.GAPI                       : Gamma Ray
CCL.                          : Casing Collar Locator
TT3.usec                      : CBL 3' Travel Time
AMP3.mV                       : CBL 3' Amplitude
~Parameter Information Block
~A  Depth        GR         CCL         TT3         AMP3    
    -9.0000   -999.2500   -999.2500   -999.2500   -999.2500
    -8.7500   -999.2500   -999.2500   -999.2500   -999.2500
    -8.5000   -999.2500   -999.2500   -999.2500   -999.2500
    -8.2500   -999.2500   -999.2500   -999.2500   -999.2500
    -8.0000   -999.2500   -999.2500   -999.2500   -999.2500
    -7.7500   -999.2500   -999.2500   -999.2500   -999.2500
    -7.5000   -999.2500   -999.2500   -999.2500   -999.2500
    -7.2500   -999.2500   -999.2500   -999.2500   -999.2500
    -7.0000   -999.2500   -999.2500   -999.2500   -999.2500
    -6.7500   -999.2500   -999.2500   1424.8448   -999.2500
    -6.5000   -999.2500   -999.2500   1424.6329      1.5169
    -6.2500   -999.2500   -999.2500   1424.3682      1.5417
    -6.0000   -999.2500   -999.2500   1424.1627      1.5689
    -5.7500   -999.2500   -999.2500   1424.0894      1.5909
    -5.5000   -999.2500   -999.2500   1424.1616      1.5988
    -5.2500   -999.2500   -999.2500   1424.3594      1.5894
    -5.0000   -999.2500   -999.2500   1424.5884      1.5757
    -4.7500   -999.2500   -999.2500   1424.6920      1.5672
    -4.5000   -999.2500   -999.2500   1424.5894      1.5495
    -4.2500   -999.2500   -999.2500   1424.3671      1.5241
    -4.0000   -999.2500   -999.2500   1424.1975      1.5147
    -3.7500   -999.2500   -999.2500   1424.1975      1.5301
    -3.5000   -999.2500   -999.2500   1424.3671      1.5506
    -3.2500   -999.2500   -999.2500   1424.5894      1.5420
    -3.0000   -999.2500   -999.2500   1424.6920      1.5037
    -2.7500   -999.2500   -999.2500   1424.5883      1.4722
    -2.5000   -999.2500   -999.2500   1424.3583      1.4625
    -2.2500   -999.2500   -999.2500   1424.1531      1.4651
    -2.0000   -999.2500   -999.2500   1424.0458      1.4735
    -1.7500   -999.2500   -999.2500   1424.0173      1.4835
    -1.5000   -999.2500   -999.2500   1424.0447      1.5039
    -1.2500   -999.2500   -999.2500   1424.1454      1.5340
    -1.0000   -999.2500      0.0000   1424.3223      1.5457
    -0.7500   -999.2500      0.0000   1424.4789      1.5347
    -0.5000   -999.2500      0.0000   1424.4790      1.5247
    -0.2500   -999.2500      0.0000   1424.3235      1.5215
     0.0000   -999.2500      0.0000   1424.1539      1.5158
     0.2500   -999.2500      0.0000   1424.0872      1.5049
     0.5000   -999.2500      0.0000   1424.3235      1.4966
     0.7500   -999.2500      0.0000   1424.4801      1.5185
     1.0000   -999.2500      0.0000   1424.4866      1.5356
     1.2500   -999.2500      0.0000   1424.3594      1.5230
     1.5000   -999.2500      0.0000   1424.2623      1.4982
     1.7500   -999.2500      0.0000   1424.2926      1.4877
     2.0000   -999.2500      0.0000   1424.3840      1.4959
     2.2500   -999.2500      0.0000   1424.4282      1.5162
     2.5000   -999.2500      0.0000   1424.3842      1.5384
     2.7500   -999.2500      0.0000   1424.2937      1.5544
     3.0000   -999.2500      0.0000   1424.2709      1.5599
     3.2500   -999.2500      0.0000   1424.4030      1.5534
     3.5000   -999.2500      0.0000   1424.6320      1.5450
     3.7500   -999.2500      0.0000   1424.8022      1.5461
     4.0000     51.2964      0.0000   1424.8013      1.5517
     4.2500     49.9160      0.0000   1424.6243      1.5547
     4.5000     49.6366      0.0000   1424.3658      1.5534
     4.7500     50.4908      0.0000   1424.1539      1.5474
     5.0000     52.9852      0.0000   1424.0448      1.5418
     5.2500     56.9753      0.0000   1424.0099      1.5343
     5.5000     61.1894      0.0000   1424.0099      1.5187
     5.7500     64.3708      0.0000   1424.0448      1.5068
     6.0000     66.6736      0.0000   1424.1541      1.5081
     6.2500     69.4654      0.0000   1424.3142      1.5137
     6.5000     73.7269      0.0000   1423.9612      1.5088
     6.7500     78.9109      0.0000   1419.5576      1.4947
     7.0000     83.3769      0.0000   1397.4858      1.4998
     7.2500     85.6683      0.0000   1328.6976      1.5290
     7.5000     85.2558      0.0000   1190.4485      1.5410
     7.7500     82.4699      0.0000   1010.3994      1.5223
     8.0000     78.2275      0.0000    859.4122      1.5161
     8.2500     73.6997      0.0000    781.0956      1.6032
     8.5000     69.7232      0.0000    758.6280      2.1226
     8.7500     66.4064      0.0000    744.5145      4.3913
     9.0000     63.5449      0.0000    692.2709     11.1374
     9.2500     61.3137      0.0000    582.9262     24.1768
     9.5000     60.2816      0.0000    448.1497     40.4016
     9.7500     60.8130      0.0000    343.3591     53.3795
    10.0000     62.5279      0.0000    290.9663     60.0613
    10.2500     64.2583      0.0000    274.0467     62.2937
    10.5000     64.7055      0.0000    270.5167     62.8024
    10.7500     63.3960      0.0000    270.0409     62.8898
    11.0000     61.0231      0.0000    270.0001     62.8719
    11.2500     58.9307      0.0000    270.0000     62.8266
    11.5000     58.2688      0.0000    270.0000     62.8277
    11.7500     59.2949      0.0000    270.0000     62.8837
    12.0000     61.1654      0.0000    270.0000     62.9187
    12.2500     62.5608      0.0000    270.0000     62.9056
    12.5000     62.7622      0.0000    270.0000     62.9026
    12.7500     62.0788      0.0000    270.0000     62.9232
    13.0000     61.1987      0.0000    270.0000     62.9328
    13.2500     60.3693      0.0000    270.0000     62.9484
    13.5000     59.4165      0.0000    270.0000     62.9989
    13.7500     58.3402      0.0000    270.0000     63.0535
    14.0000     57.4269      0.0000    270.0000     63.0535
    14.2500     56.7875      0.0000    270.0000     62.9897
    14.5000     56.2308      0.0000    270.0000     62.9195
    14.7500     55.6987      0.0000    270.0000     62.8793
    15.0000     55.4818      0.0000    270.0000     62.8587
    15.2500     55.8323      0.0000    270.0000     62.8774
    15.5000     56.5392      0.0000    270.0000     62.9645
    15.7500     57.1076      0.0000    270.0000     63.0893
    16.0000     57.2323      0.0000    270.0000     63.1934
    16.2500     56.9142      0.0000    270.0000     63.2380
    16.5000     56.2841      0.0000    270.0000     63.2172
    16.7500     55.5607      0.0000    270.0000     63.1678
    17.0000     55.1071      0.0000    270.0000     63.1629
    17.2500     55.3961      0.0000    270.0000     63.2503
    17.5000     56.6988      0.0000    270.0000     63.3829
    17.7500     58.5433      0.0000    270.0000     63.4518
    18.0000     59.6043      0.0000    270.0000     63.3993
    18.2500     58.6736      0.0000    270.0000     63.2840
    18.5000     55.9950      0.0000    270.0000     63.1997
    18.7500     53.3961      0.0000    270.0000     63.1546
    19.0000     52.8288      0.0000    270.0000     63.0814
    19.2500     54.8368      0.0000    270.0000     62.9317
    19.5000     58.4612      0.0000    270.0000     62.7379
    19.7500     62.2096      0.0000    270.0000     62.6037
    20.0000     64.7355      0.0000    270.0000     62.6125
    20.2500     65.1236      0.0000    270.0000     62.7470
    20.5000     63.4233      0.0000    270.0000     62.9325
    20.7500     61.0024      0.0000    270.0000     63.1056
    21.0000     59.6629      0.0000    270.0000     63.1992
    21.2500     59.9955      0.0000    270.0000     63.1697
    21.5000     60.8314      0.0000    270.0000     63.0820
    21.7500     60.5789      0.0000    270.0000     63.0660
    22.0000     58.9640      0.0000    270.0000     63.1566
    22.2500     57.2871      0.0000    270.0000     63.2375
    22.5000     57.0446      0.0000    270.0000     63.1944
    22.7500     58.4993      0.0000    270.0000     63.0837
    23.0000     60.6313      0.0000    270.0001     63.0494
    23.2500     62.3349      0.0000    270.0010     63.1118
    23.5000     63.4150      0.0000    270.0077     63.1645
    23.7500     64.3772      0.0000    270.0371     63.1313
    24.0000     65.5160      0.0000    270.1180     63.0316
    24.2500     66.5382      0.0000    270.2567     62.9311
