~Version Information
 VERS.                                  2.0 : CWLS LAS VERSION
 WRAP.                                   NO : WRAPING MODE
 SWARE .                 MController 2.5.0E : SOFTWARE VERSION
~Well Information
 WELL.                         Burson 8-31r : WELL
 COMP.                      Petrogulf CORP. : COMPANY
 FLD.                       Purgatory River : FIELD
 LOC.                        NWNE 8 33S 67W : LOCATION
 DATE.                         4/28-4/29/04 : DATE(S) LOGGED
 SRVC.                                  BGS : SERVICE COMPANY
 STAT.                             Colorado : STATE
 CNTY.                           Las Animas : COUNTY
 CTRY.                        United States : COUNTRY
 API.                       05-071-08039-00 : API NUMBER
 STRT.FT                              41.00 : START DEPTH
 STOP.FT                            2225.00 : STOP DEPTH
 STEP.FT                               1.00 : DEPTH INCREMENT
 NULL.                                -9999 : NULL VALUE
~Curve information
 DEPTH.FT                                   :
 ROP.MIN/FT                                 :
 GAS.UNITS                                  :
~ASCII Log data
# ...
     2041.00        0.367         45.0 
     2042.00        0.383         42.5 
     2043.00        0.467         49.7 
     2044.00        0.333         50.8 
     2045.00        0.367         50.3 
     2046.00        0.333         50.1 
     2047.00        0.300         52.3 
     2048.00        0.300         53.2 
     2049.00        0.267         52.4 
     2050.00        0.267         48.3 
     2051.00        0.300         42.8 
     2052.00        0.283         39.8 
     2053.00        0.333         32.9 
     2054.00        0.333         26.8 
     2055.00        0.300         24.7 
     2056.00        0.333         21.9 
     2057.00        0.233         20.7 
     2058.00        0.267         22.6 
     2059.00        0.233         23.8 
     2060.00        0.167         23.9 
     2061.00        0.267         22.9 
     2062.00        0.167         19.6 
     2063.00        0.200         17.7 
     2064.00        0.133         16.1 
     2065.00        0.217         15.4 
     2066.00        5.817        193.7 
     2067.00        0.333         59.6 
     2068.00        0.467         57.4 
     2069.00        0.317         53.3 
     2070.00        0.400         49.6 
     2071.00        0.200         44.0 
     2072.00        0.333         41.8 
     2073.00        0.200         38.9 
     2074.00        0.200         38.3 
     2075.00        0.200         34.5 
     2076.00        0.267         32.9 
     2077.00        0.400         29.1 
     2078.00        0.400         23.2 
     2079.00        0.200         20.8 
     2080.00        0.450         21.6 
     2081.00        0.067         22.1 
     2082.00        0.100         22.7 
     2083.00        0.433         25.8 
     2084.00        0.267         31.3 
     2085.00        0.333         38.7 
     2086.00        0.333         43.2 
     2087.00        0.267         44.9 
     2088.00        0.233         45.0 
     2089.00        0.233         42.2 
     2090.00        0.233         38.6 
     2091.00        0.233         35.2 
     2092.00        0.233         27.4 
     2093.00        0.317         21.5 
     2094.00        0.333         16.7 
     2095.00        0.267         12.9 
     2096.00        4.217        265.7 
     2097.00        0.100         94.6 
     2098.00        0.133         91.2 
     2099.00        0.433         82.8 
     2100.00        0.433         62.8 
     2101.00        0.333         47.7 
     2102.00        0.383         47.4 
     2103.00        0.300         45.4 
     2104.00        0.400         42.8 
     2105.00        0.400         35.7 
     2106.00        0.400         30.3 
     2107.00        0.333         27.4 
     2108.00        0.400         25.1 
     2109.00        0.400         23.2 
     2110.00        0.333         22.9 
     2111.00        0.350         21.8 
     2112.00        0.367         21.9 
     2113.00        0.300         21.7 
     2114.00        0.333         19.6 
     2115.00        0.367         17.9 
     2116.00        0.400         16.2 
     2117.00        0.367         15.1 
     2118.00        0.400         15.4 
     2119.00        0.300         15.2 
     2120.00        0.333         14.0 
     2121.00        0.317         13.0 
     2122.00        0.300         12.9 
     2123.00        0.300         13.7 
     2124.00        0.300         12.8 
     2125.00        0.333         11.6 
     2126.00       13.100        195.3 
     2127.00        0.167         72.2 
     2128.00        0.367         66.3 
     2129.00        0.300         54.5 
     2130.00        0.300         43.7 
     2131.00        0.300         37.9 
     2132.00        0.300         32.7 
     2133.00        0.333         29.1 
     2134.00        0.283         27.3 
     2135.00        0.333         23.9 
     2136.00        0.300         19.8 
     2137.00        0.333         17.7 
     2138.00        0.333         17.9 
     2139.00        0.367         18.1 
     2140.00        0.333         20.7 
     2141.00        0.333         26.4 
     2142.00        0.333         33.7 
     2143.00        0.300         37.2 
     2144.00        0.283         38.6 
     2145.00        0.300         37.8 
     2146.00        0.300         37.0 
     2147.00        0.300         36.2 
     2148.00        0.300         34.3 
     2149.00        0.267         33.9 
     2150.00        0.300         33.9 
     2151.00        0.300         33.2 
     2152.00        0.300         31.0 
     2153.00        0.300         25.9 
     2154.00        0.300         21.7 
     2155.00        0.383         16.6 
     2156.00       10.017        253.0 
     2157.00        0.133         46.5 
     2158.00        0.400         48.2 
     2159.00        0.333         51.2 
     2160.00        0.267         51.0 
     2161.00        0.233         49.0 
     2162.00        0.267         45.2 
     2163.00        0.367         41.9 
     2164.00        0.300         34.5 
     2165.00        0.267         31.7 
     2166.00        0.267         30.4 
     2167.00        0.300         30.4 
     2168.00        0.283         28.8 
     2169.00        0.233         25.4 
     2170.00        0.200         23.5 
     2171.00        0.300         21.0 
     2172.00        0.300         19.5 
     2173.00        0.300         17.4 
     2174.00        0.300         16.8 
     2175.00        0.267         15.7 
     2176.00        0.267         17.0 
     2177.00        0.267         18.9 
     2178.00        0.233         20.8 
     2179.00        0.233         26.4 
     2180.00        0.267         28.2 
     2181.00        0.283         28.7 
     2182.00        0.267         27.0 
     2183.00        0.200         24.2 
     2184.00        0.200         20.8 
     2185.00        0.233         19.5 
     2186.00        9.250        247.2 
     2187.00        0.100         75.6 
     2188.00        0.400         72.2 
     2189.00        0.467         60.4 
     2190.00        0.433         49.6 
     2191.00        0.367         43.9 
     2192.00        0.367         39.5 
     2193.00        0.367         35.8 
     2194.00        0.367         32.5 
     2195.00        0.350         29.9 
     2196.00        0.400         27.2 
     2197.00        0.367         24.7 
     2198.00        0.333         22.5 
     2199.00        0.333         21.4 
     2200.00        0.300         19.3 
     2201.00        0.333         18.3 
     2202.00        0.333         17.1 
     2203.00        0.300         17.5 
     2204.00        0.267         16.2 
     2205.00        0.317         17.0 
     2206.00        0.367         16.4 
     2207.00        0.333         16.0 
     2208.00        0.300         16.7 
     2209.00        0.333         18.2 
     2210.00        0.333         18.4 
     2211.00        0.300         18.1 
     2212.00        0.300         17.7 
     2213.00        0.300         15.9 
     2214.00        0.367         13.8 
     2215.00        0.350         12.0 
     2216.00        2.200         28.5 
     2217.00        0.567         34.9 
     2218.00        0.300         40.0 
     2219.00        0.417         58.2 
     2220.00        0.500         94.3 
     2221.00        0.367        133.0 
     2222.00        0.633        233.3 
     2223.00        0.267        248.8 
     2224.00        0.633        245.3 
     2225.00        0.567        165.4 
