~Version Information
VERS.                      2.0: CWLS Log ASCII Standard - VERSION 2.0
WRAP.                       NO: One line per depth step
~Well Information Block
STRT.FT                 0.7500: 
STOP.FT              2144.0000: 
STEP.FT                 0.2500: 
NULL.                -999.2500: 
COMP.          Petrogulf Corporation: COMPANY
WELL.            Montoya 1-44R: WELL
FLD.           Purgatorie River: FIELD
LOC.           658' FSL & 1052' FWL: LOCATION
CNTY.               Las Animas: COUNTY
SRVC.                         : SERVICE COMPANY
DATE.          Tue Nov 30 08:31:55 2004: LOG DATE
UWI.           05 071 08239 00: UNIQUE WELL ID
STAT.                 Colorado: STATE
~Curve Information Block
DEPT.FT            0 000 00 00: Depth
TT3.usec                      : CBL 3' Travel Time
AMP3.mV                       : CBL 3' Amplitude
GR.GAPI                       : Gamma Ray
CCL.                          : Casing Collar Locator
~Parameter Information Block
~A  Depth       TT3         AMP3         GR         CCL     
# ...
   134.7500    298.2674     80.1028    138.2714      0.0000
   135.0000    298.2528     79.3616    139.8242      0.0000
   135.2500    298.2349     78.5379    139.7319      0.0000
   135.5000    298.2169     77.5650    137.4538      0.0000
   135.7500    298.2029     76.3425    133.0222      0.0000
   136.0000    298.2017     74.7749    127.2645      0.0000
   136.2500    298.2280     72.8113    121.5050      0.0000
   136.5000    298.2977     70.4718    116.9699      0.0000
   136.7500    298.4192     67.8531    114.2635      0.0000
   137.0000    298.5883     65.1114    113.1920      0.0000
   137.2500    298.7896     62.4271    112.9711      0.0000
   137.5000    299.0027     59.9536    112.6712      0.0000
   137.7500    299.2109     57.7682    111.6505      0.0000
   138.0000    299.4081     55.8540    109.7480      0.0000
   138.2500    299.6011     54.1289    107.1394      0.0000
   138.5000    299.8011     52.5038    104.0097      0.0000
   138.7500    300.0095     50.9248    100.3479      0.0000
   139.0000    300.2108     49.3879     96.0273      0.0000
   139.2500    300.3858     47.9312     91.1022      0.0000
   139.5000    300.5417     46.5987     86.0218      0.0000
   139.7500    300.7395     45.3664     81.5353      0.0000
   140.0000    301.1031     44.1166     78.3021      0.0000
   140.2500    301.7943     42.7402     76.4802      0.0000
   140.5000    302.9349     41.2427     75.5864      0.0000
   140.7500    304.4881     39.6763     74.7177      0.0000
   141.0000    306.1965     38.0273     72.9933      0.0000
   141.2500    307.6896     36.3098     69.9574      0.0000
   141.5000    308.7149     34.7033     65.7801      0.0000
   141.7500    309.2725     33.4469     61.1717      0.0000
   142.0000    309.5363     32.6287     57.0611      0.0000
   142.2500    309.6891     32.1649     54.2176      3.0000
   142.5000    309.9099     31.9382     52.9996     -3.0000
   142.7500    310.5344     31.9001     53.3205     -3.0000
   143.0000    312.2340     32.0523     54.7823      0.0000
   143.2500    315.7708     32.3665     56.8840      0.0000
   143.5000    320.9822     32.7861     59.2475      0.0000
   143.7500    325.7870     33.3467     61.7762      0.0000
   144.0000    327.0399     34.2177     64.6477      0.0000
   144.2500    323.2915     35.4833     68.1024      0.0000
   144.5000    316.3692     36.9216     72.1365      0.0000
   144.7500    309.6469     38.1387     76.3230      0.0000
   145.0000    305.2194     38.9001     79.9316      0.0000
   145.2500    303.1012     39.2265     82.3042      0.0000
   145.5000    302.3408     39.2339     83.2552      0.0000
   145.7500    302.1334     39.0136     83.1898      0.0000
   146.0000    302.0989     38.6456     82.8052      0.0000
   146.2500    302.1098     38.2255     82.5852      0.0000
   146.5000    302.1222     37.8450     82.5133      0.0000
   146.7500    302.1098     37.5716     82.2399      0.0000
   147.0000    302.0724     37.4423     81.5096      0.0000
   147.2500    302.0339     37.4614     80.4459      0.0000
   147.5000    302.0233     37.6005     79.4388      0.0000
   147.7500    302.0479     37.8048     78.7946      0.0000
   148.0000    302.0854     37.9984     78.4355      0.0000
   148.2500    302.1038     38.0966     77.9045      0.0000
   148.5000    302.0911     38.0389     76.6530      0.0000
   148.7500    302.0630     37.8239     74.3843      0.0000
   149.0000    302.0444     37.5073     71.2167      0.0000
   149.2500    302.0504     37.1544     67.6168      0.0000
   149.5000    302.0849     36.7904     64.2324      0.0000
   149.7500    302.1488     36.3927     61.7603      0.0000
   150.0000    302.2418     35.9268     60.8591      0.0000
   150.2500    302.3568     35.3942     62.0289      0.0000
   150.5000    302.4792     34.8505     65.4427      0.0000
   150.7500    302.5930     34.3844     70.7997      0.0000
   151.0000    302.6894     34.0771     77.3549      0.0000
   151.2500    302.7685     33.9622     84.1569      0.0000
   151.5000    302.8340     33.9947     90.3805      0.0000
   151.7500    302.8891     34.0549     95.5766      0.0000
   152.0000    302.9417     34.0015     99.7291      0.0000
   152.2500    303.0079     33.7485    103.1435      0.0000
   152.5000    303.1046     33.3117    106.2440      0.0000
   152.7500    303.2344     32.7910    109.3694      0.0000
   153.0000    303.3846     32.2989    112.6113      0.0000
   153.2500    303.5429     31.8915    115.7769      0.0000
   153.5000    303.7067     31.5605    118.4908      0.0000
   153.7500    303.8680     31.2947    120.3755      0.0000
   154.0000    303.9929     31.1392    121.2004      0.0000
   154.2500    304.0348     31.1728    120.9397      0.0000
   154.5000    303.9763     31.4147    119.7491      0.0000
   154.7500    303.8539     31.7661    117.8836      0.0000
   155.0000    303.7383     32.0551    115.6076      0.0000
   155.2500    303.6914     32.1454    113.1161      0.0000
   155.5000    303.7360     32.0123    110.5275      0.0000
   155.7500    303.8503     31.7400    107.9375      0.0000
   156.0000    303.9861     31.4573    105.4822      0.0000
   156.2500    304.0981     31.2647    103.3124      0.0000
   156.5000    304.1598     31.1981    101.5172      0.0000
   156.7500    304.1570     31.2511    100.0808      0.0000
   157.0000    304.0777     31.4256     98.8749      0.0000
   157.2500    303.9189     31.7459     97.6283      0.0000
   157.5000    303.7038     32.2213     95.9318      0.0000
   157.7500    303.4765     32.8131     93.4235      0.0000
   158.0000    303.2762     33.4475     90.0991      0.0000
   158.2500    303.1174     34.0481     86.4728      0.0000
   158.5000    302.9943     34.5556     83.3585      0.0000
   158.7500    302.8938     34.9344     81.4127      0.0000
   159.0000    302.8064     35.1749     80.7955      0.0000
   159.2500    302.7359     35.2847     81.1693      0.0000
   159.5000    302.7014     35.2718     81.9662      0.0000
   159.7500    302.7246     35.1380     82.6971      0.0000
   160.0000    302.8109     34.8912     83.1260      0.0000
   160.2500    302.9428     34.5585     83.2528      0.0000
   160.5000    303.0958     34.1752     83.2181      0.0000
   160.7500    303.2515     33.7696     83.1891      0.0000
   161.0000    303.3944     33.3716     83.2581      0.0000
   161.2500    303.5031     33.0333     83.3403      0.0000
   161.5000    303.5535     32.8170     83.1378      0.0000
   161.7500    303.5330     32.7543     82.2705      0.0000
   162.0000    303.4501     32.8225     80.5557      0.0000
   162.2500    303.3319     32.9686     78.2838      0.0000
   162.5000    303.2112     33.1480     76.2478      0.0000
   162.7500    303.1120     33.3317     75.3889      0.0000
   163.0000    303.0467     33.4845     76.2344      0.0000
   163.2500    303.0208     33.5573     78.5233      0.0000
   163.5000    303.0359     33.5135     81.3492      0.0000
   163.7500    303.0868     33.3635     83.7866      0.0000
   164.0000    303.1602     33.1716     85.5038      0.0000
   164.2500    303.2406     33.0131     86.8723      0.0000
   164.5000    303.3188     32.9162     88.4962      0.0000
   164.7500    303.3920     32.8519     90.6110      0.0000
   165.0000    303.4547     32.7931     92.8653      0.0000
   165.2500    303.4947     32.7643     94.6225      0.0000
   165.5000    303.5031     32.8198     95.4544      0.0000
   165.7500    303.4851     32.9788     95.4229      0.0000
   166.0000    303.4574     33.1846     95.0185      0.0000
   166.2500    303.4402     33.3214     94.8946      0.0000
   166.5000    303.4480     33.2909     95.5531      0.0000
   166.7500    303.4813     33.0914     97.0746      0.0000
   167.0000    303.5274     32.8124     99.0126      0.0000
   167.2500    303.5757     32.5427    100.6108      0.0000
   167.5000    303.6336     32.3036    101.2852      0.0000
   167.7500    303.7188     32.0708    101.0084      0.0000
   168.0000    303.8398     31.8237    100.2579      0.0000
