~Version Information
VERS.                      2.0: CWLS Log ASCII Standard - VERSION 2.0
WRAP.                       NO: One line per depth step
~Well Information Block
STRT.FT                -2.5000: 
STOP.FT              2329.5000: 
STEP.FT                 0.2500: 
NULL.                -999.2500: 
COMP.          Pioneer Natural Resources: COMPANY
WELL.              Whinny 42-2: WELL
FLD.           Purgatorie River: FIELD
LOC.           1836' FNL & 466' FEL--: LOCATION
PROV.                       CO: PROVINCE
CNTY.               Las Animas: COUNTRY
SRVC.          Patterson Wireline: SERVICE COMPANY
DATE.          Mon Aug 29 13:18:04 2005: LOG DATE
UWI.           05 071 08406 00: UNIQUE WELL ID
~Curve Information Block
DEPT.FT            0 000 00 00: Depth
CCL.                          : Casing Collar Locator
TT3.usec                      : CBL 3' Travel Time
AMP3.mV                       : CBL 3' Amplitude
GR.GAPI                       : Gamma Ray
~Parameter Information Block
~A  Depth       CCL         TT3         AMP3         GR     
# ...
   466.5000      0.0000    665.2155      7.5096     90.2234
   466.7500      0.0000    676.8636      7.5288     89.0540
   467.0000      0.0000    692.6816      7.5646     85.8812
   467.2500      0.0000    710.9263      7.6085     82.7810
   467.5000      0.0000    728.4982      7.6540     81.9390
   467.7500      0.0000    742.0042      7.7003     83.8075
   468.0000      0.0000    749.5402      7.7504     86.7357
   468.2500      0.0000    751.2285      7.8072     88.5258
   468.5000      0.0000    748.5515      7.8705     88.5305
   468.7500      0.0000    743.9794      7.9344     88.2237
   469.0000      0.0000    740.5433      7.9877     89.6356
   469.2500      0.0000    740.3171      8.0194     93.1975
   469.5000      0.0000    742.8146      8.0251     97.2058
   469.7500      0.0000    745.2344      8.0097     99.4107
   470.0000      0.0000    744.8096      7.9835     98.9668
   470.2500      0.0000    741.1595      7.9571     96.8355
   470.5000      0.0000    736.3456      7.9374     94.6492
   470.7500      0.0000    732.9451      7.9252     93.5158
   471.0000      0.0000    732.4306      7.9164     93.7365
   471.2500      0.0000    734.9768      7.9059     95.0975
   471.5000      0.0000    739.9380      7.8921     96.9920
   471.7500      0.0000    746.2784      7.8787     98.4571
   472.0000      0.0000    752.8810      7.8728     98.5972
   472.2500      0.0000    758.6024      7.8798     97.1607
   472.5000      0.0000    762.3135      7.8987     94.6732
   472.7500      0.0000    763.5201      7.9220     91.9913
   473.0000      0.0000    763.1265      7.9395     89.5905
   473.2500      0.0000    763.0244      7.9450     87.2365
   473.5000      0.0000    764.4980      7.9390     84.6339
   473.7500      0.0000    767.2211      7.9250     82.4224
   474.0000      0.0000    769.9442      7.9054     81.9915
   474.2500      0.0000    771.7883      7.8845     83.8203
   474.5000      0.0000    772.6819      7.8733     86.4577
   474.7500      0.0000    772.9719      7.8880     87.8325
   475.0000      0.0000    772.9890      7.9436     87.2511
   475.2500      0.0000    772.9192      8.0472     85.4341
   475.5000      0.0000    772.8336      8.1898     83.0216
   475.7500      0.0000    772.6934      8.3442     79.9580
   476.0000      0.0000    772.2382      8.4764     76.2258
   476.2500      0.0000    770.7578      8.5667     72.3295
   476.5000      0.0000    767.0212      8.6225     68.8507
   476.7500      0.0000    759.8688      8.6697     66.0256
   477.0000      0.0000    749.5338      8.7318     63.9894
   477.2500      0.0000    738.3898      8.8136     63.1391
   477.5000      0.0000    729.5483      8.9012     64.0456
   477.7500      0.0000    724.4761      8.9757     67.0214
   478.0000      0.0000    722.8702      9.0273     71.7231
   478.2500      0.0000    724.7627      9.0576     76.9695
   478.5000      0.0000    730.8527      9.0695     81.0791
   478.7500      0.0000    740.2064      9.0556     82.7899
   479.0000      0.0000    749.6334      9.0018     81.9957
   479.2500      0.0000    756.4850      8.9050     79.4486
   479.5000      0.0000    760.8684      8.7858     75.8330
   479.7500      0.0000    764.3928      8.6796     71.2784
   480.0000      0.0000    767.8361      8.6139     65.6484
   480.2500      0.0000    770.7599      8.5945     59.1233
   480.5000      0.0000    772.6216      8.6092     52.5250
   480.7500      0.0000    773.4541      8.6402     47.1204
   481.0000      0.0000    773.6658      8.6725     44.0990
   481.2500      0.0000    773.6439      8.6985     44.1016
   481.5000      0.0000    773.6091      8.7166     46.9055
   481.7500      0.0000    773.6610      8.7288     51.3083
   482.0000      0.0000    773.8331      8.7366     55.5960
   482.2500      0.0000    774.1098      8.7410     58.6946
   482.5000      0.0000    774.4277      8.7448     61.0125
   482.7500      0.0000    774.7020      8.7505     63.8803
   483.0000      0.0000    774.8332      8.7565     68.0781
   483.2500      0.0000    774.6257      8.7575     73.1261
   483.5000      0.0000    773.6179      8.7474     78.0136
   483.7500      0.0000    771.0309      8.7214     82.3076
   484.0000      0.0000    766.1815      8.6754     86.3162
   484.2500      0.0000    759.1775      8.6075     90.2527
   484.5000      0.0000    750.8744      8.5225     93.5303
   484.7500      0.0000    741.6439      8.4291     95.1450
   485.0000      0.0000    730.5821      8.3313     94.7714
   485.2500      0.0000    716.7576      8.2226     93.3171
   485.5000      0.0000    701.1944      8.0909     92.4124
   485.7500      0.0000    687.4578      7.9266     93.2279
   486.0000      0.0000    680.9175      7.7190     95.4178
   486.2500      0.0000    687.5297      7.4465     97.1718
   486.5000      0.0000    710.5930      7.0924     96.6063
   486.7500      0.0000    745.1313      6.6895     93.3762
   487.0000      0.0000    775.7005      6.3278     88.9405
   487.2500      0.0000    784.9951      6.0939     85.1977
   487.5000     -2.0000    768.8438      6.0155     82.9343
   487.7500      0.0000    740.5260      6.0743     81.6429
   488.0000      0.0000    717.5663      6.2610     80.4705
   488.2500      0.0000    706.7202      6.6034     78.9046
   488.5000      0.0000    703.6921      7.1299     76.7891
   488.7500      0.0000    702.5958      7.7916     74.2702
   489.0000      0.0000    700.5701      8.4359     71.9215
   489.2500      0.0000    694.8976      8.8986     70.6124
   489.5000      0.0000    681.3091      9.1279     70.8387
   489.7500      0.0000    658.1209      9.1889     72.1339
   490.0000      0.0000    630.6677      9.1678     73.5083
   490.2500      0.0000    607.6537      9.1111     74.4621
   490.5000      0.0000    590.6951      9.0411     75.1276
   490.7500      0.0000    570.4164      8.9789     75.6553
   491.0000      0.0000    536.9149      8.9378     76.2396
   491.2500      0.0000    493.1356      8.9109     77.6749
   491.5000      0.0000    455.2616      8.8783     80.9146
   491.7500      0.0000    441.0722      8.8249     85.7388
   492.0000      0.0000    459.0283      8.7510     90.4199
   492.2500      0.0000    504.5120      8.6676     93.1285
   492.5000      0.0000    562.4582      8.5828     93.6005
   492.7500      0.0000    615.1880      8.4942     93.2837
   493.0000      0.0000    651.7005      8.3937     93.8136
   493.2500      0.0000    671.2435      8.2778     95.3753
   493.5000      0.0000    679.3596      8.1530     96.6554
   493.7500      0.0000    681.9796      8.0342     96.2871
   494.0000      0.0000    682.6562      7.9353     94.0730
   494.2500      0.0000    682.8160      7.8591     90.9456
   494.5000      0.0000    682.8021      7.7974     88.1531
   494.7500      0.0000    682.4997      7.7415     86.5992
   495.0000      0.0000    681.5352      7.6934     86.5778
   495.2500      0.0000    679.4261      7.6659     87.7645
   495.5000      0.0000    675.8320      7.6732     89.4011
   495.7500      0.0000    670.3322      7.7201     90.5381
   496.0000      0.0000    660.9229      7.7999     90.2267
   496.2500      0.0000    642.3861      7.8996     87.8411
   496.5000      0.0000    608.1314      8.0078     83.6604
   496.7500      0.0000    556.4578      8.1173     79.1543
   497.0000      0.0000    495.1134      8.2241     76.2416
   497.2500      0.0000    437.4959      8.3265     75.8074
   497.5000      0.0000    393.6779      8.4255     76.9990
   497.7500      0.0000    365.7177      8.5210     78.0765
   498.0000      0.0000    350.1516      8.6046     77.8531
   498.2500      0.0000    342.4845      8.6613     76.4646
   498.5000      0.0000    339.4486      8.6841     75.0496
   498.7500      0.0000    339.3329      8.6857     74.6458
   499.0000      0.0000    341.6968      8.6901     75.2225
   499.2500      0.0000    346.7170      8.7130     75.6476
   499.5000      0.0000    354.1991      8.7511     74.4483
   499.7500      0.0000    363.2272      8.7885     70.8142
