~Version Information
VERS.                      2.0: CWLS Log ASCII Standard - VERSION 2.0
WRAP.                       NO: One line per depth step
~Well Information Block
STRT.FT               745.0000: 
STOP.FT              2945.7500: 
STEP.FT                 0.2500: 
NULL.                -999.2500: 
COMP.          Pioneer Natural Resources: COMPANY
WELL.          Old Yeller 31-32: WELL
FLD.           Purgatoire River: FIELD
LOC.           1832' FEL & 793' FNL--: LOCATION
STAT.                 Colorado: State
CNTY.               Las Animas: COUNTY
CTRY. USA : Country
SECT. 32 : Section
TOWN. 32S : Township
RANG. 67W : Range
SRVC.                Patterson: SERVICE COMPANY
DATE.          Sun Aug 28 20:20:00 2005: LOG DATE
API.           05 071 08356 00: UNIQUE WELL ID
~Curve Information Block
DEPT.FT            0 000 00 00: Depth
SN.Ohm-m                      : IEL Short Normal
SP.mV                         : IEL Spontaneous Potential
DIR.Ohm-m                     : IEL Induction Resistivity
GR.GAPI                       : Gamma Ray
~Parameter Information Block
~A  Depth        SN          SP         DIR          GR     
# ...
  2353.0000     24.1673    -29.4089     18.8269    126.6561
  2353.2500     24.6419    -29.9661     19.3131    122.7715
  2353.5000     25.2580    -30.6991     19.9347    116.5524
  2353.7500     25.9537    -31.5575     20.6656    112.4492
  2354.0000     26.6639    -32.4766     21.4766    106.5298
  2354.2500     27.3441    -33.3824     22.3324    102.9798
  2354.5000     27.9855    -34.1992     23.1855     98.9962
  2354.7500     28.6055    -34.8584     23.9745     97.5667
  2355.0000     29.2093    -35.3059     24.6300     97.4628
  2355.2500     29.7486    -35.5081     25.0890     98.8581
  2355.5000     30.1154    -35.4545     25.3098    103.3257
  2355.7500     30.1821    -35.1574     25.2826    107.6265
  2356.0000     29.8618    -34.6491     25.0356    114.5968
  2356.2500     29.1540    -33.9767     24.6278    118.4716
  2356.5000     28.1602    -33.1956     24.1330    121.7691
  2356.7500     27.0666    -32.3620     23.6191    122.0769
  2357.0000     26.0879    -31.5268     23.1367    120.0961
  2357.2500     25.3838    -30.7298     22.7139    117.5622
  2357.5000     24.9901    -29.9973     22.3559    112.5625
  2357.7500     24.8118    -29.3415     22.0474    108.6324
  2358.0000     24.6828    -28.7632     21.7599    102.0641
  2358.2500     24.4544    -28.2550     21.4634     97.5320
  2358.5000     24.0613    -27.8062     21.1411     91.4746
  2358.7500     23.5328    -27.4070     20.7989     88.4790
  2359.0000     22.9546    -27.0503     20.4631     85.5655
  2359.2500     22.4120    -26.7340     20.1658     84.0401
  2359.5000     21.9556    -26.4602     19.9293     81.0111
  2359.7500     21.5991    -26.2341     19.7600     78.0484
  2360.0000     21.3405    -26.0620     19.6512     72.2026
  2360.2500     21.1798    -25.9498     19.5907     67.6811
  2360.5000     21.1209    -25.9017     19.5634     60.8052
  2360.7500     21.1570    -25.9196     19.5540     56.7651
  2361.0000     21.2588    -26.0038     19.5515     52.4303
  2361.2500     21.3832    -26.1535     19.5566     50.8496
  2361.5000     21.4966    -26.3678     19.5848     49.8095
  2361.7500     21.5928    -26.6463     19.6619     49.3786
  2362.0000     21.6913    -26.9891     19.8130     48.5183
  2362.2500     21.8224    -27.3963     20.0494     47.8734
  2362.5000     22.0127    -27.8674     20.3596     47.1546
  2362.7500     22.2762    -28.4001     20.7119     46.9161
  2363.0000     22.6105    -28.9905     21.0666     46.7919
  2363.2500     22.9948    -29.6321     21.3941     46.6690
  2363.5000     23.3949    -30.3163     21.6842     45.9004
  2363.7500     23.7769    -31.0326     21.9435     44.7637
  2364.0000     24.1230    -31.7683     22.1884     42.3212
  2364.2500     24.4397    -32.5082     22.4395     40.6476
  2364.5000     24.7503    -33.2340     22.7172     38.8339
  2364.7500     25.0769    -33.9241     23.0339     38.2862
  2365.0000     25.4218    -34.5536     23.3844     38.2921
  2365.2500     25.7589    -35.0951     23.7419     38.5395
  2365.5000     26.0392    -35.5211     24.0643     38.7233
  2365.7500     26.2042    -35.8065     24.3088     38.6140
  2366.0000     26.2077    -35.9326     24.4464     38.4163
  2366.2500     26.0375    -35.8906     24.4696     38.6249
  2366.5000     25.7249    -35.6841     24.3902     40.2285
  2366.7500     25.3312    -35.3302     24.2321     42.6829
  2367.0000     24.9172    -34.8584     24.0212     49.1624
  2367.2500     24.5163    -34.3076     23.7767     55.3307
  2367.5000     24.1303    -33.7208     23.5066     66.1433
  2367.7500     23.7441    -33.1404     23.2078     73.1348
  2368.0000     23.3459    -32.6027     22.8714     81.2309
  2368.2500     22.9376    -32.1354     22.4902     84.5406
  2368.5000     22.5400    -31.7557     22.0681     87.2545
  2368.7500     22.1894    -31.4717     21.6256     88.7394
  2369.0000     21.9264    -31.2851     21.1997     92.2357
  2369.2500     21.7772    -31.1937     20.8328     95.6978
  2369.5000     21.7405    -31.1950     20.5592    101.8141
  2369.7500     21.7892    -31.2871     20.3939    105.7161
  2370.0000     21.8828    -31.4678     20.3305    109.7919
  2370.2500     21.9822    -31.7330     20.3475    110.4338
  2370.5000     22.0620    -32.0730     20.4168    107.6196
  2370.7500     22.1158    -32.4701     20.5105    103.9435
  2371.0000     22.1543    -32.8978     20.6040     98.3542
  2371.2500     22.1948    -33.3228     20.6784     95.7660
  2371.5000     22.2464    -33.7091     20.7219     93.6983
  2371.7500     22.3013    -34.0236     20.7284     92.9465
  2372.0000     22.3397    -34.2411     20.6946     92.4243
  2372.2500     22.3421    -34.3488     20.6170     92.9776
  2372.5000     22.3011    -34.3479     20.4947     96.2064
  2372.7500     22.2260    -34.2533     20.3333    100.0606
  2373.0000     22.1400    -34.0920     20.1453    107.5779
  2373.2500     22.0744    -33.8993     19.9471    113.0142
  2373.5000     22.0620    -33.7153     19.7576    120.6162
  2373.7500     22.1296    -33.5807     19.5985    124.7707
  2374.0000     22.2879    -33.5323     19.4934    129.0437
  2374.2500     22.5251    -33.6003     19.4636    130.4503
  2374.5000     22.8119    -33.8047     19.5240    130.4691
  2374.7500     23.1155    -34.1538     19.6835    129.2245
  2375.0000     23.4124    -34.6425     19.9510    125.5700
  2375.2500     23.6958    -35.2511     20.3370    121.8328
  2375.5000     23.9723    -35.9451     20.8470    114.0515
  2375.7500     24.2473    -36.6749     21.4683    107.5239
  2376.0000     24.5038    -37.3776     22.1589     96.4530
  2376.2500     24.6874    -37.9806     22.8437     88.7570
  2376.5000     24.7133    -38.4083     23.4213     77.6158
  2376.7500     24.4987    -38.5916     23.7809     71.0897
  2377.0000     24.0056    -38.4787     23.8277     64.1001
  2377.2500     23.2679    -38.0449     23.5127     62.0962
  2377.5000     22.3795    -37.2987     22.8535     63.7165
  2377.7500     21.4507    -36.2831     21.9297     67.8309
  2378.0000     20.5657    -35.0691     20.8527     78.1259
  2378.2500     19.7645    -33.7451     19.7271     87.2593
  2378.5000     19.0518    -32.4036     18.6255    102.4714
  2378.7500     18.4140    -31.1280     17.5847    111.8073
  2379.0000     17.8331    -29.9835     16.6202    121.6899
  2379.2500     17.2944    -29.0122     15.7434    124.9331
  2379.5000     16.7943    -28.2338     14.9712    125.8827
  2379.7500     16.3459    -27.6497     14.3250    125.0771
  2380.0000     15.9747    -27.2487     13.8239    123.3924
  2380.2500     15.7065    -27.0133     13.4792    122.4852
  2380.5000     15.5540    -26.9240     13.2928    121.5062
  2380.7500     15.5124    -26.9621     13.2581    120.7346
  2381.0000     15.5651    -27.1103     13.3628    118.5350
  2381.2500     15.6941    -27.3518     13.5899    116.0080
  2381.5000     15.8924    -27.6689     13.9186    110.6661
  2381.7500     16.1725    -28.0421     14.3251    106.6326
  2382.0000     16.5681    -28.4497     14.7852    101.4087
  2382.2500     17.1220    -28.8693     15.2810     99.0331
  2382.5000     17.8616    -29.2791     15.8054     96.4154
  2382.7500     18.7720    -29.6603     16.3624     94.1162
  2383.0000     19.7861    -29.9987     16.9596     88.2132
  2383.2500     20.8036    -30.2855     17.5982     82.7213
  2383.5000     21.7313    -30.5173     18.2645     73.7560
  2383.7500     22.5161    -30.6947     18.9281     68.2341
  2384.0000     23.1480    -30.8211     19.5504     61.2328
  2384.2500     23.6398    -30.9014     20.0996     57.3974
  2384.5000     24.0128    -30.9417     20.5633     52.9579
  2384.7500     24.2983    -30.9490     20.9481     50.9855
  2385.0000     24.5436    -30.9319     21.2726     49.4976
  2385.2500     24.8059    -30.9016     21.5623     49.3818
  2385.5000     25.1324    -30.8711     21.8483     50.3486
  2385.7500     25.5409    -30.8545     22.1622     51.6014
  2386.0000     26.0126    -30.8650     22.5225     53.8127
  2386.2500     26.5027    -30.9122     22.9240     54.9293
