~Version Information
VERS.                      2.0: CWLS Log ASCII Standard - VERSION 2.0
WRAP.                       NO: One line per depth step
~Well Information Block
STRT.FT               546.0000: 
STOP.FT              1771.5000: 
STEP.FT                 0.2500: 
NULL.                -999.2500: 
COMP.          Petrogulf Corporation: COMPANY
WELL.             McLeod 9-42R: WELL
FLD.           Purgatorie River: FIELD
LOC.           1748' FNL & 372' FEL: LOCATION
PROV.                 Colorado: PROVINCE
CNTY.               Las Animas: COUNTRY
SRVC.                Patterson: SERVICE COMPANY
DATE.          Tue Aug 16 11:11:38 2005: LOG DATE
UWI.           071 08092  : UNIQUE WELL ID
~Curve Information Block
DEPT.FT            0 000 00 00: Depth
SP.mV                         : DIL Spontaneous Potential
RILD.Ohm-m                    : DIL Deep Resistivity
RILM.Ohm-m                    : DIL Medium Resistivity
RLL3.Ohm-m                    : DIL Shallow Resistivity
GR.GAPI                       : Gamma Ray
~Parameter Information Block
~A  Depth        SP         RILD        RILM        RLL3         GR     
# ...
   630.0000    -70.2194     10.9428     11.5175     13.4247    110.1574
   630.2500    -69.9535     10.7756     11.1444     13.1714    115.4599
   630.5000    -69.8673     10.7569     11.5083     14.1978    124.6774
   630.7500    -69.7789     10.5929     11.1404     15.2177    121.4136
   631.0000    -69.8095     10.0767     10.9117     15.9411    106.8362
   631.2500    -69.8635     10.1808     10.9404     16.6734    119.9196
   631.5000    -69.4950     10.6865     10.6697     16.4631    129.1697
   631.7500    -69.4335     10.3601     10.7261     15.6748    128.1611
   632.0000    -69.7402     10.6306     10.8523     14.7312    121.9455
   632.2500    -69.6133     10.3468     10.8769     14.4310    118.3525
   632.5000    -70.1192     11.1514     11.1011     14.9964    115.0546
   632.7500    -71.2066     11.0075     11.5736     15.8238    112.8967
   633.0000    -72.5936     11.0228     12.1892     17.2110    111.2158
   633.2500    -73.9582     11.1679     11.8105     18.8959    109.6318
   633.5000    -75.3081     11.0945     12.0707     20.5850    105.8575
   633.7500    -76.5034     11.2992     12.1805     21.2657    111.6196
   634.0000    -77.6661     11.3138     11.8981     20.2202    117.0358
   634.2500    -78.5715     11.6660     12.0245     17.9366    109.6342
   634.5000    -78.9986     11.8189     12.0713     15.8969    117.4677
   634.7500    -79.9148     12.3426     12.7286     14.7332    119.9732
   635.0000    -80.7357     12.3759     13.3900     15.1111    113.0542
   635.2500    -81.8280     12.5493     13.1296     16.6104    114.2432
   635.5000    -82.9213     12.1765     13.4451     21.3565    111.1300
   635.7500    -83.7804     11.8238     13.7850     26.2860    105.9772
   636.0000    -84.2029     12.5191     13.3939     23.4109    123.0289
   636.2500    -83.9314     13.1182     12.9861     18.8502    118.2665
   636.5000    -83.0638     13.1727     13.0724     17.1864    124.4046
   636.7500    -81.4657     13.2694     13.0689     16.3991    121.9594
   637.0000    -79.4828     14.6312     13.6515     16.1022    121.7138
   637.2500    -78.1673     14.9261     14.3301     16.7327    116.0170
   637.5000    -77.4841     15.0454     15.0214     17.0517    106.0171
   637.7500    -77.0196     15.1875     16.2614     17.5548    106.4823
   638.0000    -76.8280     15.4765     16.5739     18.2060     89.1433
   638.2500    -75.2135     15.5892     18.4952     20.6558     80.8929
   638.5000    -72.5265     13.8789     18.0036     26.5785     84.1167
   638.7500    -69.9152     14.8652     17.7533     39.3412     79.3271
   639.0000    -70.7004     14.9220     17.2454     55.9986    100.0034
   639.2500    -71.1904     16.3954     16.6206     49.1505    106.5719
   639.5000    -71.6492     15.1256     16.1078     31.4488    114.3157
   639.7500    -71.6695     16.7845     15.6733     21.5843    115.0046
   640.0000    -71.2723     16.8258     15.0849     17.9737    116.5369
   640.2500    -71.2238     17.9288     15.6111     16.9500    114.8190
   640.5000    -72.7380     18.0115     16.1178     17.1743    119.6250
   640.7500    -74.1036     18.4706     15.3040     16.7282    110.0060
   641.0000    -75.3669     18.4417     15.9701     16.5673    101.7435
   641.2500    -76.9378     17.7273     16.7331     17.1530     96.2688
   641.5000    -77.0150     17.0780     15.9628     17.9148     95.5549
   641.7500    -77.4619     17.3469     16.2204     20.8830     87.9802
   642.0000    -78.1544     18.4898     16.4288     24.2901     79.7163
   642.2500    -77.9665     16.6222     17.6000     24.7127     81.6249
   642.5000    -79.6322     14.8160     17.4459     25.0558     85.9169
   642.7500    -82.4126     15.9759     16.3475     27.5284     83.6758
   643.0000    -84.6186     16.3935     16.4711     29.7877     84.3292
   643.2500    -85.8281     16.8802     16.6227     29.8412     92.9700
   643.5000    -87.4419     16.1959     16.6684     27.0078    107.6332
   643.7500    -86.9366     16.6037     17.2682     23.8969    105.3281
   644.0000    -86.9179     16.9719     16.5581     21.7745    107.0055
   644.2500    -86.2499     17.1348     16.1002     20.4930    108.7661
   644.5000    -87.1017     17.5697     15.7435     19.7718    108.6978
   644.7500    -89.8572     17.0732     16.0533     18.9683    103.8393
   645.0000    -91.9086     16.5771     15.7686     19.5556    103.1965
   645.2500    -95.3683     15.6330     15.9352     20.3752    109.1896
   645.5000    -98.9155     15.5475     15.4580     20.7852    109.0841
   645.7500    -99.4515     14.6626     14.5803     20.5225    107.5228
   646.0000    -94.6692     13.5497     14.6601     19.7491    114.4069
   646.2500    -94.3121     13.1984     14.5721     19.1260    113.7908
   646.5000    -93.0469     13.0188     12.8039     17.9307    115.0663
   646.7500    -91.9389     12.6401     12.2346     16.9304    116.8596
   647.0000    -91.9844     11.2416     12.0995     16.1378    116.5096
   647.2500    -91.4767     11.3213     11.6429     15.3806    114.8721
   647.5000    -90.9854     12.1132     11.0714     14.7565    112.0891
   647.7500    -90.5660     12.0758     10.2855     14.4662    104.8745
   648.0000    -90.5974     12.3162     10.2083     13.9621    104.0280
   648.2500    -90.9148     12.3426      9.9287     12.7810    109.9813
   648.5000    -91.2243     12.0863      9.9574     11.5451    110.4265
   648.7500    -92.0402     12.2575     10.1560     10.9470    108.6936
   649.0000    -92.7294     12.7326     11.0274     11.1119    106.5001
   649.2500    -93.3685     12.7660     12.1041     12.0997    105.4933
   649.5000    -94.4719     13.8148     13.2400     14.7452     89.0613
   649.7500    -95.1174     13.5271     14.9845     22.9781     77.3638
   650.0000    -96.1551     13.2806     15.2685     40.3881     94.3989
   650.2500    -96.1235     13.9790     15.9173     56.3388    101.6128
   650.5000    -96.0303     15.4494     16.8196     56.3823     97.2501
   650.7500    -95.9717     15.8452     18.5131     48.6335     99.0613
   651.0000    -95.5901     16.2491     19.0604     43.3095    102.3546
   651.2500    -95.3517     16.0887     19.5029     39.6577    111.9869
   651.5000    -95.0839     17.9405     20.0013     34.8737    114.2904
   651.7500    -94.8515     17.3944     20.6619     32.0123    108.0667
   652.0000    -94.1260     18.6068     20.3629     32.7848    111.1106
   652.2500    -93.4432     19.3102     20.3246     32.1524    115.2479
   652.5000    -93.0244     18.3674     19.9770     29.1591    116.1606
   652.7500    -92.5551     18.1262     18.5406     26.0599    117.4024
   653.0000    -93.8960     18.3829     18.3432     21.4932    115.9461
   653.2500    -94.5279     19.3679     17.8174     18.7298    114.9555
   653.5000    -94.7913     17.7004     18.4380     17.9729    106.2523
   653.7500    -94.7895     16.8827     19.3475     18.1413     93.1622
   654.0000    -95.0610     16.7598     19.1308     19.5800     80.1698
   654.2500    -95.0155     17.2663     18.0614     23.0667     80.1864
   654.5000    -95.4862     16.9909     17.0419     29.9979     96.9310
   654.7500    -95.2693     16.9392     16.8543     35.7342    107.1610
   655.0000    -95.2904     16.3112     17.5474     31.0364    110.2552
   655.2500    -95.0024     16.7022     16.2700     24.0549    103.8826
   655.5000    -94.9113     17.5255     16.5484     21.6102    107.9510
   655.7500    -95.2612     18.7381     17.0187     21.5436    105.8617
   656.0000    -95.2119     16.7715     17.2746     21.1463    108.0695
   656.2500    -94.2019     17.7671     18.2251     21.2483    108.1467
   656.5000    -93.5477     16.4973     19.8977     22.2235    119.5700
   656.7500    -93.7867     16.9083     20.2338     23.1363    117.8453
   657.0000    -93.5788     17.1080     21.2990     23.6247    102.1892
   657.2500    -93.9511     16.9800     24.2212     26.1993     95.1276
   657.5000    -93.7130     17.9115     23.9053     32.8174    100.8078
   657.7500    -93.2650     17.7270     22.4120     43.6472    102.7394
