~Version Information
VERS.                      2.0: CWLS Log ASCII Standard - VERSION 2.0
WRAP.                       NO: One line per depth step
~Well Information Block
STRT.FT               510.0000: 
STOP.FT              1861.5000: 
STEP.FT                 0.1000: 
NULL.                -999.2500: 
COMP.          Pioneer Natural Resources: COMPANY
WELL.           Guajardo 24-16: WELL
FLD.           Purgatoire River: FIELD
LOC.           883' FSL & 2147' FWL: LOCATION
PROV.                 Colorado: PROVINCE
CNTY.               Las Animas: COUNTRY
SRVC.                Patterson: SERVICE COMPANY
DATE.          Mon Aug 08 09:13:01 2005: LOG DATE
UWI.           05 071 08377 00: UNIQUE WELL ID
~Curve Information Block
DEPT.FT            0 000 00 00: Depth
DCAL.in                       : CDL Caliper
RHOB.g/cc                     : CDL Bulk Density
RHOC.g/cc                     : CDL Density Correction
DPOR.pu                       : CDL Density Porosity
GR.GAPI                       : Gamma Ray
NPOR.pu                       : Neutron Porosity
~Parameter Information Block
~A  Depth       DCAL        RHOB        RHOC        DPOR         GR         NPOR    
# ...
  1306.8000      8.0397      3.3529      0.3154    -42.6012    137.2296     29.4387
  1306.9000      8.0397      3.4034      0.3014    -45.6628    131.9594     29.0745
  1307.0000      8.0777      3.3601      0.2836    -43.0336    122.3260     28.9742
  1307.1000      8.0777      3.2053      0.1136    -33.6572    109.7948     28.7040
  1307.2000      8.0777      3.0000     -0.1040    -21.2098     99.9013     28.0385
  1307.3000      8.1044      2.8253     -0.1711    -10.6268     98.3830     27.2741
  1307.4000      8.1044      2.7181     -0.2477     -4.1263    103.7991     26.6141
  1307.5000      8.0859      2.6761     -0.1615     -1.5790    109.3468     26.1526
  1307.6000      8.0859      2.6672     -0.1505     -1.0414    112.5652     25.9438
  1307.7000      8.0859      2.6546     -0.0034     -0.2763    115.7738     26.0373
  1307.8000      8.1123      2.6276      0.0275      1.3555    121.9488     26.6890
  1307.9000      8.1123      2.5979      0.0817      3.1581    131.3620     27.5957
  1308.0000      8.1262      2.5733      0.0709      4.6507    139.2567     27.8302
  1308.1000      8.1262      2.5612      0.0642      5.3819    142.7113     27.5344
  1308.2000      8.1262      2.5678      0.0906      4.9813    145.6055     27.5781
  1308.3000      8.1319      2.5859      0.0824      3.8860    151.3649     28.0928
  1308.4000      8.1319      2.5960      0.1320      3.2748    158.4023     28.7184
  1308.5000      8.1304      2.5882      0.0713      3.7475    163.8914     28.9874
  1308.6000      8.1304      2.5791      0.0499      4.2956    164.8451     28.6688
  1308.7000      8.1304      2.5725      0.0739      4.6992    160.4699     28.3542
  1308.8000      8.1291      2.5523      0.0628      5.9234    155.7261     28.5448
  1308.9000      8.1291      2.5188      0.0718      7.9543    157.6980     28.9038
  1309.0000      8.1318      2.4825      0.0465     10.1497    163.8115     28.9458
  1309.1000      8.1318      2.4546      0.0208     11.8435    164.2001     28.8308
  1309.2000      8.1318      2.4436      0.0273     12.5092    160.0685     28.7940
  1309.3000      8.1353      2.4518      0.0440     12.0146    158.7577     28.6491
  1309.4000      8.1353      2.4740      0.0515     10.6644    159.5664     28.2798
  1309.5000      8.1330      2.4954      0.0786      9.3694    160.6151     27.9350
  1309.6000      8.1330      2.5027      0.0991      8.9257    165.8119     27.9129
  1309.7000      8.1330      2.5011      0.1213      9.0235    172.7957     28.4341
  1309.8000      8.1462      2.5031      0.1161      8.9047    173.1985     29.2647
  1309.9000      8.1462      2.5078      0.1076      8.6171    167.3331     29.9087
  1310.0000      8.1739      2.5090      0.0854      8.5469    162.4474     30.4141
  1310.1000      8.1739      2.5066      0.0904      8.6893    163.0383     30.8291
  1310.2000      8.1739      2.4979      0.0814      9.2187    166.0977     31.5198
  1310.3000      8.2083      2.4803      0.0737     10.2870    167.0518     32.8322
  1310.4000      8.2083      2.4658      0.0317     11.1654    165.6517     33.7917
  1310.5000      8.2198      2.4642      0.0993     11.2596    164.6047     33.7412
  1310.6000      8.2198      2.4672      0.0710     11.0770    164.3533     33.2341
  1310.7000      8.2198      2.4700      0.0319     10.9107    162.5391     32.4228
  1310.8000      8.2190      2.4719      0.0618     10.7928    162.6308     31.2944
  1310.9000      8.2190      2.4663      0.0193     11.1314    167.7616     30.3078
  1311.0000      8.1864      2.4581      0.0289     11.6297    169.0842     29.9937
  1311.1000      8.1864      2.4641     -0.0082     11.2679    160.2775     30.0961
  1311.2000      8.1864      2.4936      0.0182      9.4810    148.1357     30.0106
  1311.3000      8.1640      2.5302      0.0554      7.2608    142.8517     29.7571
  1311.4000      8.1640      2.5453      0.0333      6.3465    149.9357     29.5349
  1311.5000      8.1583      2.5363     -0.0259      6.8889    158.7463     29.4444
  1311.6000      8.1583      2.5174      0.0564      8.0364    156.0157     29.6367
  1311.7000      8.1583      2.4861      0.0691      9.9319    148.9344     29.9397
  1311.8000      8.1582      2.4486      0.0021     12.2045    148.0369     29.7848
  1311.9000      8.1582      2.4266     -0.0431     13.5406    149.3069     28.9983
  1312.0000      8.1602      2.4177      0.0087     14.0808    146.4481     28.2243
  1312.1000      8.1602      2.4074     -0.0403     14.7018    142.2687     28.1117
  1312.2000      8.1602      2.4044     -0.0385     14.8878    141.3480     28.7931
  1312.3000      8.1830      2.4147      0.0263     14.2612    141.5420     29.8017
  1312.4000      8.1830      2.4277      0.0345     13.4738    140.3497     30.3664
  1312.5000      8.2048      2.4409      0.0699     12.6706    138.7395     30.2510
  1312.6000      8.2048      2.4595      0.0946     11.5452    136.0288     29.7216
  1312.7000      8.2048      2.4763      0.1776     10.5291    133.3453     28.9676
  1312.8000      8.2156      2.4819      0.1090     10.1879    134.0073     28.1699
  1312.9000      8.2156      2.4945      0.0288      9.4217    134.8361     27.4078
  1313.0000      8.2023      2.5372      0.1038      6.8355    131.7083     26.9919
  1313.1000      8.2023      2.6041      0.1146      2.7842    127.6117     27.4777
  1313.2000      8.2023      2.6718      0.2008     -1.3197    126.6493     28.8377
  1313.3000      8.2642      2.7095      0.2767     -3.6051    126.0876     30.2525
  1313.4000      8.2642      2.6968      0.1801     -2.8349    122.8206     30.6770
  1313.5000      8.2219      2.6537      0.1161     -0.2244    118.3996     30.0122
  1313.6000      8.2219      2.6189      0.0914      1.8832    112.9881     29.1326
  1313.7000      8.2219      2.6039      0.1170      2.7966    104.9282     28.6362
  1313.8000      8.1407      2.5912      0.0857      3.5612     96.8700     28.5480
  1313.9000      8.1407      2.5685      0.0603      4.9408     93.2273     28.3126
  1314.0000      8.1261      2.5419     -0.0096      6.5489     94.2379     27.4695
  1314.1000      8.1261      2.5266     -0.0027      7.4791     97.3650     26.7034
  1314.2000      8.1261      2.5243      0.0454      7.6166     99.7490     26.5758
  1314.3000      8.1160      2.5225      0.0753      7.7243    100.9242     26.5985
  1314.4000      8.1160      2.5172      0.0025      8.0489    103.5930     26.2246
  1314.5000      8.1096      2.5224      0.0076      7.7357    106.1397     25.9467
  1314.6000      8.1096      2.5443      0.0407      6.4044    103.7213     26.3284
  1314.7000      8.1096      2.5650      0.0813      5.1530     97.6303     26.9679
  1314.8000      8.1039      2.5648      0.0612      5.1662     95.7087     27.3225
  1314.9000      8.1039      2.5459      0.0257      6.3086    101.6667     27.2988
  1315.0000      8.0980      2.5220      0.0275      7.7546    106.7344     27.0113
  1315.1000      8.0980      2.5041      0.0160      8.8409    105.3963     26.7723
  1315.2000      8.0980      2.4955      0.0350      9.3612    112.8089     26.8265
  1315.3000      8.1000      2.4916      0.0616      9.5996    110.7957     27.2484
  1315.4000      8.1000      2.4939      0.0261      9.4588    110.2406     27.5763
  1315.5000      8.1061      2.5147      0.0584      8.2014    113.7514     27.4293
  1315.6000      8.1061      2.5518      0.0720      5.9540    120.7683     27.2804
  1315.7000      8.1061      2.5830      0.1356      4.0601    127.3288     27.4585
  1315.8000      8.1010      2.5981      0.1374      3.1441    130.2877     27.8906
  1315.9000      8.1010      2.6094      0.1688      2.4601    129.2824     28.3433
  1316.0000      8.0949      2.6221      0.1888      1.6913    129.4040     28.5192
  1316.1000      8.0949      2.6207      0.2265      1.7784    133.6844     28.5442
  1316.2000      8.0949      2.5909      0.1410      3.5814    147.9333     28.5704
  1316.3000      8.1026      2.5431      0.0534      6.4776    142.4647     28.4244
