~Version Information
VERS.                      2.0: CWLS Log ASCII Standard - VERSION 2.0
WRAP.                       NO: One line per depth step
~Well Information Block
STRT.FT               -13.0000: 
STOP.FT              1411.2500: 
STEP.FT                 0.2500: 
NULL.                -999.2500: 
COMP.                         : COMPANY
WELL.                         : WELL
FLD.                          : FIELD
LOC.                          : LOCATION
CNTY.                         : COUNTY
SRVC.                         : SERVICE COMPANY
DATE.          Sat Jan 17 07:25:27 2004: LOG DATE
UWI.                          : UNIQUE WELL ID
STAT.                         : STATE
~Curve Information Block
DEPT.FT            0 000 00 00: Depth
CCL.                          : Casing Collar Locator
TT3.usec                      : CBL 3' Travel Time
AMP3.mV                       : CBL 3' Amplitude
GR.GAPI                       : Gamma Ray
~Parameter Information Block
~A  Depth       CCL         TT3         AMP3         GR     
# ...
  1126.0000      0.0000    669.6663      2.4877    131.9839
  1126.2500      0.0000    676.6808      2.2855    129.0458
  1126.5000      0.0000    685.4955      2.1795    122.4387
  1126.7500      0.0000    693.0093      2.1730    113.7600
  1127.0000      0.0000    697.3017      2.2055    105.9093
  1127.2500      0.0000    698.2582      2.2129    100.5654
  1127.5000      0.0000    696.9269      2.1776     97.3340
  1127.7500      0.0000    694.8657      2.1247     95.1102
  1128.0000      0.0000    693.6061      2.0822     93.4804
  1128.2500      0.0000    693.5996      2.0512     92.6637
  1128.5000      0.0000    693.7798      2.0129     92.6973
  1128.7500      0.0000    693.0820      1.9502     93.2396
  1129.0000      0.0000    692.0775      1.8510     94.1850
  1129.2500      0.0000    692.0371      1.7065     96.0958
  1129.5000      0.0000    692.7459      1.5277     99.7285
  1129.7500      0.0000    692.7527      1.3602    105.1419
  1130.0000      0.0000    691.8327      1.2627    111.2897
  1130.2500      0.0000    691.6235      1.2652    116.4046
  1130.5000      0.0000    693.1268      1.3475    119.0090
  1130.7500      0.0000    694.5416      1.4540    119.0421
  1131.0000      0.0000    692.5209      1.5227    118.1657
  1131.2500      0.0000    685.4416      1.5169    118.6696
  1131.5000      0.0000    674.9893      1.4454    121.7438
  1131.7500      0.0000    664.6208      1.3590    126.5908
  1132.0000      0.0000    656.9278      1.3138    131.0562
  1132.2500      0.0000    652.4612      1.3276    133.1463
  1132.5000      0.0000    650.3782      1.3692    132.2925
  1132.7500      0.0000    649.5486      1.3930    129.7133
  1133.0000      0.0000    649.1205      1.3848    127.7810
  1133.2500      0.0000    648.5740      1.3728    128.6049
  1133.5000      0.0000    647.6060      1.3908    132.6895
  1133.7500      0.0000    646.0100      1.4381    138.6316
  1134.0000      0.0000    643.5966      1.4762    143.7268
  1134.2500      0.0000    640.1540      1.4636    144.8033
  1134.5000      0.0000    635.5277      1.3926    139.4643
  1134.7500      0.0000    629.9988      1.2968    127.8729
  1135.0000      0.0000    624.7662      1.2239    113.4659
  1135.2500      0.0000    621.8411      1.1963    101.0533
  1135.5000      0.0000    623.0080      1.1943     93.5949
  1135.7500      0.0000    628.5351      1.1810     90.7391
  1136.0000      0.0000    636.4738      1.1447     90.1861
  1136.2500      0.0000    643.0570      1.1134     90.0432
  1136.5000      0.0000    644.7942      1.1260     90.0124
  1136.7500      0.0000    641.6328      1.1920     90.9625
  1137.0000      0.0000    638.1687      1.2794     93.7854
  1137.2500      0.0000    640.6030      1.3398     98.7068
  1137.5000      0.0000    651.7024      1.3495    105.4096
  1137.7500      0.0000    668.5211      1.3273    113.2547
  1138.0000      0.0000    684.8677      1.3172    121.0877
  1138.2500      0.0000    696.2072      1.3555    127.1606
  1138.5000      0.0000    702.8200      1.4496    129.9531
  1138.7500      0.0000    708.2805      1.5786    129.4789
  1139.0000      0.0000    714.7455      1.7023    127.5613
  1139.2500      0.0000    720.6790      1.7752    126.4514
  1139.5000      0.0000    723.7725      1.7666    127.0232
  1139.7500      0.0000    724.5367      1.6825    128.2487
  1140.0000      0.0000    725.4632      1.5728    128.2620
  1140.2500      0.0000    727.7435      1.5072    125.9581
  1140.5000      0.0000    730.1813      1.5275    121.8032
  1140.7500      0.0000    730.2455      1.6178    117.2272
  1141.0000      0.0000    725.4872      1.7187    113.3437
  1141.2500      0.0000    715.4566      1.7703    110.5706
  1141.5000      0.0000    702.9979      1.7460    109.2323
  1141.7500      0.0000    692.7538      1.6599    109.5910
  1142.0000      0.0000    688.2781      1.5519    111.0108
  1142.2500      0.0000    690.6630      1.4640    111.7610
  1142.5000      0.0000    698.2814      1.4241    110.1304
  1142.7500      0.0000    706.2014      1.4379    105.7519
  1143.0000      0.0000    707.0443      1.4857     99.9199
  1143.2500      0.0000    695.3072      1.5298     94.6887
  1143.5000      0.0000    671.9159      1.5400     91.4221
  1143.7500      0.0000    643.7842      1.5193     89.9515
  1144.0000      0.0000    618.8936      1.5001     89.0013
  1144.2500      0.0000    602.1760      1.5136     87.3182
  1144.5000      0.0000    594.8992      1.5623     84.4781
  1144.7500      0.0000    595.8271      1.6215     80.8460
  1145.0000      0.0000    602.0761      1.6597     76.9138
  1145.2500      0.0000    609.8321      1.6554     72.8620
  1145.5000      0.0000    615.9066      1.6057     68.8347
  1145.7500      0.0000    619.4571      1.5307     65.2926
  1146.0000      0.0000    621.9420      1.4635     62.7214
  1146.2500      0.0000    625.0556      1.4201     61.1257
  1146.5000      0.0000    628.9710      1.3836     60.0221
  1146.7500      0.0000    632.6736      1.3340     58.8436
  1147.0000      0.0000    635.3731      1.2869     57.2718
  1147.2500      0.0000    637.1930      1.2819     55.3308
  1147.5000      0.0000    638.8641      1.3307     53.3215
  1147.7500      0.0000    641.2009      1.3940     51.7444
  1148.0000      0.0000    644.6989      1.4214     51.1923
  1148.2500      0.0000    649.0939      1.4017     52.0667
  1148.5000      0.0000    653.1224      1.3647     54.1572
  1148.7500      0.0000    655.1793      1.3480     56.4622
  1149.0000      0.0000    654.7289      1.3750     57.6239
  1149.2500      0.0000    653.1160      1.4466     56.7929
  1149.5000      0.0000    653.0736      1.5354     54.1995
  1149.7500      0.0000    657.6581      1.6017     51.0039
  1150.0000      0.0000    668.9068      1.6339     48.7083
  1150.2500      0.0000    686.0604      1.6601     48.6726
  1150.5000      0.0000    705.0582      1.7114     51.7912
  1150.7500      0.0000    721.0098      1.7859     58.0556
  1151.0000      0.0000    731.3289      1.8485     66.0828
  1151.2500      0.0000    735.9377      1.8521     73.3628
  1151.5000      0.0000    735.6518      1.7624     77.5915
  1151.7500      0.0000    731.9965      1.5869     78.1109
  1152.0000      0.0000    727.7175      1.3877     76.0568
  1152.2500     -4.0000    725.5277      1.2458     73.1669
  1152.5000      4.0000    725.9829      1.1972     70.5534
  1152.7500      0.0000    727.0956      1.2120     68.6264
  1153.0000      0.0000    725.9475      1.2443     67.8515
  1153.2500      0.0000    720.2538      1.2870     68.8813
  1153.5000      0.0000    708.9315      1.3623     71.6956
  1153.7500      0.0000    692.5223      1.4709     75.2304
  1154.0000      0.0000    673.5226      1.5760     78.4151
  1154.2500      0.0000    655.5073      1.6362     81.2987
  1154.5000      0.0000    641.2387      1.6314     84.6968
  1154.7500      0.0000    631.3314      1.5602     89.0052
  1155.0000      0.0000    624.5434      1.4371     93.8137
  1155.2500      0.0000    619.2388      1.2953     98.4487
  1155.5000      0.0000    614.6852      1.1734    102.2708
  1155.7500      0.0000    610.9449      1.0953    104.3540
  1156.0000      0.0000    607.6121      1.0677    103.5454
  1156.2500      0.0000    603.3181      1.0890     99.5048
  1156.5000      0.0000    597.1373      1.1466     93.5837
  1156.7500      0.0000    590.2249      1.2120     88.2551
  1157.0000      0.0000    585.5164      1.2558     85.6040
  1157.2500      0.0000    585.8830      1.2664     86.3708
  1157.5000      0.0000    592.7316      1.2490     90.1943
  1157.7500      0.0000    605.8811      1.2189     96.3797
  1158.0000      0.0000    624.2269      1.2000    104.2002
  1158.2500      0.0000    646.4724      1.2156    112.6672
  1158.5000      0.0000    671.1362      1.2725    120.3868
  1158.7500      0.0000    695.6493      1.3574    125.8590
  1159.0000      0.0000    715.9080      1.4472    128.1992
  1159.2500      0.0000    728.0175      1.5176    128.0078
