~Version Information
VERS.                      2.0: CWLS Log ASCII Standard - VERSION 2.0
WRAP.                       NO: One line per depth step
~Well Information Block
STRT.FT               259.0000: 
STOP.FT              2382.0000: 
STEP.FT                 0.2500: 
NULL.                -999.2500: 
COMP.          Pioneer Natural Resources: COMPANY
WELL.          Foothills 12-36: WELL
FLD.           Purgatoire River: FIELD
LOC.           2450' FNL & 201' FWL: LOCATION
PROV.                 Colorado: PROVINCE
CNTY.               Las Animas: COUNTRY
SRVC.                Patterson: SERVICE COMPANY
DATE.          Thu Apr 21 03:00:58 2005: LOG DATE
UWI.           05 071 08339 00: UNIQUE WELL ID
~Curve Information Block
DEPT.FT            0 000 00 00: Depth
SN.Ohm-m                      : IEL Short Normal
SP.mV                         : IEL Spontaneous Potential
DIR.Ohm-m                     : IEL Induction Resistivity
GR.GAPI                       : Gamma Ray
~Parameter Information Block
~A  Depth        SN          SP         DIR          GR     
   259.0000   2000.0000   2000.0000     72.4295     87.3799
   259.2500   2000.0000   2000.0000     72.9955     88.0249
   259.5000   2000.0000   2000.0000     73.5462     90.2269
   259.7500   2000.0000   2000.0000     73.8525     91.5672
   260.0000   2000.0000   2000.0000     73.7274     92.0868
   260.2500   2000.0000   2000.0000     73.0842     91.1949
   260.5000   2000.0000   2000.0000     72.0143     88.2642
   260.7500   2000.0000   2000.0000     70.8202     85.5078
   261.0000   2000.0000   2000.0000     69.9202     80.7096
   261.2500   2000.0000   2000.0000     69.6454     77.5405
   261.5000   2000.0000   2000.0000     70.0644     73.6256
   261.7500   2000.0000   2000.0000     70.9439     71.6993
   262.0000   2000.0000   2000.0000     71.8888     69.4125
   262.2500   2000.0000   2000.0000     72.5940     68.0184
   262.5000   2000.0000   2000.0000     73.0248     66.2191
   262.7500   2000.0000   2000.0000     73.3632     65.5743
   263.0000   2000.0000   2000.0000     73.7941     66.0102
   263.2500   2000.0000   2000.0000     74.3405     67.2187
   263.5000   2000.0000   2000.0000     74.8621     69.6029
   263.7500   2000.0000   2000.0000     75.1827     70.8285
   264.0000   2000.0000   2000.0000     75.2248     71.0299
   264.2500   2000.0000   2000.0000     75.0501     69.9175
   264.5000   2000.0000   2000.0000     74.7939     67.1906
   264.7500   2000.0000   2000.0000     74.5633     65.4559
   265.0000   2000.0000   2000.0000     74.3931     63.8608
   265.2500   2000.0000   2000.0000     74.2661     63.4255
   265.5000   2000.0000   2000.0000     74.1539     63.0811
   265.7500   2000.0000   2000.0000     74.0229     62.7788
   266.0000   2000.0000   2000.0000     73.8326     62.2960
   266.2500   2000.0000   2000.0000     73.5666     62.2258
   266.5000   2000.0000   2000.0000     73.2857     62.8252
   266.7500   2000.0000   2000.0000     73.1265     63.5621
   267.0000   2000.0000   2000.0000     73.2027     64.3734
   267.2500   2000.0000   2000.0000     73.5137     64.1824
   267.5000   2000.0000   2000.0000     73.9564     62.3798
   267.7500   2000.0000   2000.0000     74.4788     60.3804
   268.0000   2000.0000   2000.0000     75.2487     57.1504
   268.2500   2000.0000   2000.0000     76.6382     55.4480
   268.5000   2000.0000   2000.0000     78.9430     54.0039
   268.7500   2000.0000   2000.0000     81.9368     53.5480
   269.0000   2000.0000   2000.0000     84.5442     52.8429
   269.2500   2000.0000   2000.0000     85.1863     52.1095
   269.5000   2000.0000   2000.0000     83.0221     50.9875
   269.7500   2000.0000   2000.0000     78.8343     50.8066
   270.0000   2000.0000   2000.0000     74.2906     52.4933
   270.2500   2000.0000   2000.0000     70.6700     55.4680
   270.5000   2000.0000   2000.0000     68.3712     63.5537
   270.7500   2000.0000   2000.0000     67.0227     64.7761
   271.0000   2000.0000   2000.0000     65.7414     79.0898
   271.2500   2000.0000   2000.0000     63.5624     89.4888
   271.5000   2000.0000   2000.0000     60.0242    103.1180
   271.7500   2000.0000   2000.0000     55.4585     97.7527
   272.0000   2000.0000   2000.0000     50.7109    102.3382
   272.2500   2000.0000   2000.0000     46.7292    103.4127
   272.5000   2000.0000   2000.0000     44.4360    103.4797
   272.7500   2000.0000   2000.0000     44.9219     90.8321
   273.0000   2000.0000   2000.0000     50.0584     90.9245
   273.2500   2000.0000   2000.0000     64.4339     91.6115
   273.5000   2000.0000   2000.0000    103.5528     93.8287
   273.7500   2000.0000   2000.0000    259.3390     82.8828
   274.0000   2000.0000   2000.0000 100000.0000     85.7447
   274.2500   2000.0000   2000.0000 100000.0000     87.0610
   274.5000   2000.0000   2000.0000 100000.0000     87.5416
   274.7500   2000.0000   2000.0000 100000.0000     87.1187
   275.0000   2000.0000   2000.0000 100000.0000     86.2535
   275.2500   2000.0000   2000.0000 100000.0000     85.7121
   275.5000   2000.0000   2000.0000 100000.0000     84.5160
   275.7500   2000.0000   2000.0000 100000.0000     83.1977
   276.0000   2000.0000   2000.0000 100000.0000     80.6916
   276.2500   2000.0000   2000.0000 100000.0000     79.2318
   276.5000   2000.0000   2000.0000 100000.0000     78.4768
   276.7500   2000.0000   2000.0000 100000.0000     79.3114
   277.0000   2000.0000   2000.0000 100000.0000     82.5109
   277.2500   2000.0000   2000.0000 100000.0000     85.7670
   277.5000   2000.0000   2000.0000 100000.0000     92.5607
   277.7500   2000.0000   2000.0000 100000.0000     98.7188
   278.0000   2000.0000   2000.0000 100000.0000    110.1855
   278.2500   2000.0000   2000.0000 100000.0000    118.2645
   278.5000   2000.0000   2000.0000 100000.0000    128.3520
   278.7500   2000.0000   2000.0000 100000.0000    132.4626
   279.0000   2000.0000   2000.0000 100000.0000    134.0327
   279.2500   2000.0000   2000.0000 100000.0000    132.5876
   279.5000   2000.0000   2000.0000 100000.0000    128.9084
   279.7500   2000.0000   2000.0000 100000.0000    126.8822
   280.0000   2000.0000   2000.0000     14.4720    125.9016
   280.2500   2000.0000   2000.0000      5.2354    126.6392
   280.5000   2000.0000   2000.0000      3.4321    129.2091
   280.7500   2000.0000   2000.0000      2.9101    131.5684
   281.0000   2000.0000   2000.0000      2.8966    135.6883
   281.2500   2000.0000   2000.0000      3.2077    138.5601
   281.5000   2000.0000   2000.0000      3.8273    142.4451
   281.7500   2000.0000   2000.0000      4.8906    144.3709
   282.0000   2000.0000   2000.0000      6.8758    145.7900
   282.2500   2000.0000   2000.0000     11.4002    145.6778
   282.5000   2000.0000   2000.0000     26.4077    144.1028
   282.7500   2000.0000   2000.0000    292.9639    142.2532
   283.0000   2000.0000   2000.0000 100000.0000    138.2936
   283.2500   2000.0000   2000.0000 100000.0000    134.8636
   283.5000   2000.0000   2000.0000  43267.0352    129.1723
   283.7500   2000.0000   2000.0000     68.9017    125.8023
   284.0000   2000.0000   2000.0000     37.2661    122.5116
   284.2500   2000.0000   2000.0000     28.8323    121.5191
   284.5000   2000.0000   2000.0000     26.1806    120.9862
   284.7500   2000.0000   2000.0000     26.1302    120.7110
   285.0000   2000.0000   2000.0000     28.1411    119.6959
   285.2500   2000.0000   2000.0000     33.2149    118.2792
   285.5000   2000.0000   2000.0000     46.2851    114.7346
   285.7500   2000.0000   2000.0000    107.3040    111.5749
   286.0000   2000.0000   2000.0000 100000.0000    106.3958
   286.2500   2000.0000   2000.0000 100000.0000    103.1244
   286.5000   2000.0000   2000.0000 100000.0000     99.0104
   286.7500   2000.0000   2000.0000 100000.0000     97.0125
   287.0000   2000.0000   2000.0000 100000.0000     95.7271
   287.2500   2000.0000   2000.0000 100000.0000     96.4351
   287.5000   2000.0000   2000.0000 100000.0000     99.9964
   287.7500   2000.0000   2000.0000 100000.0000    103.5634
   288.0000   2000.0000   2000.0000 100000.0000    109.4128
   288.2500   2000.0000   2000.0000 100000.0000    113.0117
   288.5000   2000.0000   2000.0000 100000.0000    117.4348
   288.7500   2000.0000   2000.0000     56.1861    119.8228
   289.0000   2000.0000   2000.0000     12.3299    123.2672
   289.2500   2000.0000   2000.0000      7.0968    125.8552
   289.5000   2000.0000   2000.0000      5.3408    130.0488
   289.7500   2000.0000   2000.0000      4.6282    132.4499
   290.0000   2000.0000   2000.0000      4.4103    133.8645
   290.2500   2000.0000   2000.0000      4.5871    132.3979
   290.5000   2000.0000   2000.0000      5.2975    125.9318
   290.7500   2000.0000   2000.0000      6.9616    119.6534
   291.0000   2000.0000   2000.0000     10.4411    111.0957
   291.2500   2000.0000   2000.0000     16.1953    108.5002
   291.5000   2000.0000   2000.0000     18.9446    111.3189
   291.7500   2000.0000   2000.0000     14.3784    116.7782
   292.0000   2000.0000   2000.0000      9.8247    126.5065
   292.2500   2000.0000   2000.0000      7.5385    131.9560
