~Version Information
VERS.                      2.0: CWLS Log ASCII Standard - VERSION 2.0
WRAP.                       NO: One line per depth step
~Well Information Block
STRT.FT                -2.2500: 
STOP.FT              1676.7500: 
STEP.FT                 0.2500: 
NULL.                -999.2500: 
COMP.          Pioneer Natural Resources: COMPANY
WELL.              Patten 22-2: WELL
FLD.           Purgatoire River: FIELD
LOC.           2157' FNL & 1528' FWL: LOCATION
PROV.                 Colorado: PROVINCE
CNTY.               Las Animas: COUNTRY
SRVC.                Patterson: SERVICE COMPANY
DATE.          Tue Dec 14 11:45:47 2004: LOG DATE
UWI.           05 071 08168 00: UNIQUE WELL ID
~Curve Information Block
DEPT.FT            0 000 00 00: Depth
GR.GAPI                       : Gamma Ray
CCL.                          : Casing Collar Locator
TT3.usec                      : CBL 3' Travel Time
AMP3.mV                       : CBL 3' Amplitude
~Parameter Information Block
~A  Depth        GR         CCL         TT3         AMP3    
# ...
   533.7500    121.7648      0.0000    777.4700     11.2203
   534.0000    120.6947      0.0000    775.7288     11.1153
   534.2500    120.8720      0.0000    775.0800     11.0210
   534.5000    121.5814      0.0000    775.9920     10.9439
   534.7500    121.5484      0.0000    777.8527     10.8832
   535.0000    120.0904      0.0000    779.4169     10.8308
   535.2500    117.5314      0.0000    779.7177     10.7764
   535.5000    114.4656      0.0000    778.6428     10.7099
   535.7500    111.0248      0.0000    776.9585     10.6223
   536.0000    106.9348      0.0000    775.7585     10.5110
   536.2500    102.1129      0.0000    775.4902     10.3861
   536.5000     97.2315      0.0000    775.4313     10.2663
   536.7500     93.7943      0.0000    774.1948     10.1620
   537.0000     93.4480      0.0000    770.5522     10.0584
   537.2500     96.8365      0.0000    763.5425      9.9190
   537.5000    102.9067      0.0000    752.4917      9.7179
   537.7500    109.3978      0.0000    738.4259      9.4774
   538.0000    114.2238      0.0000    726.0107      9.2585
   538.2500    116.5705      0.0000    722.2506      9.0966
   538.5000    116.8967      0.0000    730.8665      8.9639
   538.7500    116.1602      0.0000    747.9286      8.8168
   539.0000    115.0848      0.0000    764.6980      8.6526
   539.2500    114.0229     -2.0000    775.1268      8.4983
   539.5000    113.1165      2.0000    779.9136      8.3694
   539.7500    112.0293      2.0000    783.8433      8.2635
   540.0000    109.5685     -2.0000    790.4991      8.1779
   540.2500    104.3882      0.0000    799.3168      8.1249
   540.5000     96.4355      0.0000    806.0705      8.1402
   540.7500     87.3367      0.0000    805.5952      8.2688
   541.0000     79.2187      0.0000    795.5854      8.5127
   541.2500     73.5042      0.0000    778.9738      8.7982
   541.5000     70.7009      0.0000    762.1104      9.0321
   541.7500     70.6184      0.0000    749.9111      9.1897
   542.0000     72.5572      0.0000    742.9661      9.3183
   542.2500     75.6990      0.0000    739.2083      9.4660
   542.5000     79.4622      0.0000    737.4449      9.6344
   542.7500     83.2318      0.0000    738.7237      9.7926
   543.0000     85.9058      0.0000    744.5332      9.9105
   543.2500     86.3305      0.0000    754.2284      9.9720
   543.5000     84.3434      0.0000    764.9117      9.9707
   543.7500     81.0234      0.0000    774.0035      9.9035
   544.0000     77.8215      0.0000    781.3503      9.7724
   544.2500     75.6876      0.0000    788.6092      9.5902
   544.5000     74.9254      0.0000    797.0084      9.3809
   544.7500     75.4760      0.0000    805.9631      9.1729
   545.0000     77.1215      0.0000    813.6322      8.9887
   545.2500     79.4038      0.0000    818.4197      8.8393
   545.5000     81.4769      0.0000    819.7827      8.7265
   545.7500     82.3305      0.0000    818.0054      8.6486
   546.0000     81.3777      0.0000    813.9434      8.6025
   546.2500     78.8195      0.0000    809.0669      8.5812
   546.5000     75.4276      0.0000    804.8079      8.5714
   546.7500     72.0670      0.0000    801.1579      8.5580
   547.0000     69.4183      0.0000    796.3394      8.5306
   547.2500     67.9476      0.0000    788.4095      8.4857
   547.5000     67.7876      0.0000    776.9734      8.4218
   547.7500     68.5261      0.0000    763.4025      8.3360
   548.0000     69.4029      0.0000    750.2490      8.2272
   548.2500     69.9208      0.0000    740.7920      8.0999
   548.5000     70.1065      0.0000    738.2206      7.9600
   548.7500     70.0691      0.0000    743.7864      7.8064
   549.0000     69.5468      0.0000    755.0844      7.6250
   549.2500     68.1673      0.0000    766.7927      7.3951
   549.5000     66.1079      0.0000    773.9995      7.1042
   549.7500     64.2292      0.0000    775.1517      6.7592
   550.0000     63.4221      0.0000    772.0266      6.3829
   550.2500     63.9142      0.0000    767.4145      6.0034
   550.5000     65.3461      0.0000    763.0658      5.6476
   550.7500     67.3380      0.0000    759.2482      5.3401
   551.0000     69.6305      0.0000    755.3777      5.0991
   551.2500     71.7782      0.0000    750.9406      4.9280
   551.5000     73.3360      0.0000    746.4431      4.8114
   551.7500     74.5938      0.0000    743.8271      4.7220
   552.0000     76.5336      0.0000    745.3656      4.6355
   552.2500     79.6998      0.0000    751.4487      4.5443
   552.5000     83.6605      0.0000    759.6869      4.4646
   552.7500     87.8595      0.0000    766.7343      4.4288
   553.0000     92.4150      0.0000    770.7476      4.4681
   553.2500     97.7261      0.0000    771.8989      4.5961
   553.5000    103.6370      0.0000    771.5001      4.8054
   553.7500    109.1544      0.0000    771.2341      5.0725
   554.0000    112.8310      0.0000    772.1747      5.3654
   554.2500    113.6340      0.0000    773.8586      5.6519
   554.5000    111.8143      0.0000    775.0071      5.9117
   554.7500    108.9212      0.0000    775.3775      6.1494
   555.0000    106.7049      0.0000    776.1829      6.3989
   555.2500    105.8753      0.0000    778.6075      6.7152
   555.5000    106.0094      0.0000    782.4352      7.1508
   555.7500    106.6578      0.0000    786.1637      7.7174
   556.0000    108.3154      0.0000    787.9644      8.3578
   556.2500    111.9270      0.0000    786.2136      8.9607
   556.5000    117.2960      0.0000    779.5230      9.4224
   556.7500    122.3767      0.0000    767.2340      9.7049
   557.0000    124.7335      0.0000    750.4786      9.8432
   557.2500    123.7735      0.0000    732.5216      9.9042
   557.5000    121.2359      0.0000    717.2924      9.9421
   557.7500    119.5210      0.0000    707.0906      9.9817
   558.0000    119.8790      0.0000    701.6703     10.0250
   558.2500    122.0252      0.0000    699.3235     10.0621
   558.5000    124.7625      0.0000    698.4265     10.0814
   558.7500    126.7160      0.0000    698.0902     10.0778
   559.0000    127.0332      0.0000    697.9712     10.0557
   559.2500    125.9148      0.0000    697.9459     10.0225
   559.5000    124.4006      0.0000    697.9535      9.9830
   559.7500    123.3855      0.0000    697.9609      9.9399
   560.0000    122.7839      0.0000    697.9637      9.8982
   560.2500    121.7444      0.0000    697.9793      9.8689
   560.5000    119.7446      0.0000    698.0417      9.8652
   560.7500    117.3449      0.0000    698.1808      9.8905
   561.0000    115.7312      0.0000    698.3885      9.9313
   561.2500    115.6226      0.0000    698.6176      9.9683
   561.5000    116.6576      0.0000    698.8398      9.9977
   561.7500    117.6209      0.0000    699.1692     10.0333
   562.0000    117.2251      0.0000    699.9540     10.0875
   562.2500    115.0357      0.0000    701.8375     10.1562
   562.5000    111.7908      0.0000    705.6329     10.2262
   562.7500    108.6587      0.0000    711.7366     10.2886
   563.0000    106.3014      0.0000    719.2145     10.3381
   563.2500    104.8655      0.0000    725.5895     10.3659
   563.5000    104.4863      0.0000    728.0660     10.3609
   563.7500    105.2104      0.0000    725.3774     10.3188
   564.0000    106.6233      0.0000    718.6874     10.2463
   564.2500    108.2704      0.0000    710.8006     10.1573
   564.5000    110.3155      0.0000    704.3219     10.0637
   564.7500    112.9845      0.0000    700.3124      9.9700
   565.0000    115.4833      0.0000    698.3956      9.8756
   565.2500    116.5190      0.0000    697.7064      9.7801
   565.5000    115.9686      0.0000    697.5779      9.6843
   565.7500    115.1406      0.0000    697.6600      9.5904
   566.0000    115.1690      0.0000    697.7822      9.5027
   566.2500    115.7892      0.0000    697.8615      9.4293
   566.5000    115.8404      0.0000    697.8647      9.3783
   566.7500    114.5387      0.0000    697.8004      9.3544
   567.0000    112.1210      0.0000    697.6894      9.3585
