~Version Information
VERS.                      2.0: CWLS Log ASCII Standard - VERSION 2.0
WRAP.                       NO: One line per depth step
~Well Information Block
STRT.FT               250.0000: 
STOP.FT              2600.7000: 
STEP.FT                 0.1000: 
NULL.                -999.2500: 
COMP.          Pioneer Natural Resources: COMPANY
WELL.              Quack 22-24: WELL
FLD.           Purgatoire River: FIELD
LOC.           2492' FNL & 2459' FWL--: LOCATION
PROV.                 Colorado: PROVINCE
CNTY.               Las Animas: COUNTRY
SRVC.                Patterson: SERVICE COMPANY
DATE.          Mon Jun 13 08:03:15 2005: LOG DATE
UWI.            05 071 0840200: UNIQUE WELL ID
~Curve Information Block
DEPT.FT            0 000 00 00: Depth
DCAL.in                       : CDL Caliper
RHOB.g/cc                     : CDL Bulk Density
RHOC.g/cc                     : CDL Density Correction
DPOR.pu                       : CDL Density Porosity
NPOR.pu                       : Neutron Porosity
GR.GAPI                       : Gamma Ray
~Parameter Information Block
~A  Depth       DCAL        RHOB        RHOC        DPOR        NPOR         GR     
# ...
  2419.6000      7.9526      2.5334      0.0548      7.0695     27.2076    130.0619
  2419.7000      7.9526      2.5261      0.0423      7.5069     26.1179    127.3441
  2419.8000      7.9478      2.5191      0.0611      7.9342     25.4659    117.6192
  2419.9000      7.9478      2.5105      0.0290      8.4536     25.2653    105.1116
  2420.0000      7.9482      2.5145      0.0258      8.2114     25.2531    100.6523
  2420.1000      7.9482      2.5330      0.0554      7.0900     24.9306    106.4860
  2420.2000      7.9482      2.5523      0.0732      5.9205     24.4447    115.3785
  2420.3000      7.9519      2.5599      0.0746      5.4617     24.3928    121.7844
  2420.4000      7.9519      2.5510      0.0676      5.9980     24.8183    128.2734
  2420.5000      7.9572      2.5318      0.0501      7.1647     25.3939    135.8578
  2420.6000      7.9572      2.5124      0.0577      8.3419     26.1215    140.9726
  2420.7000      7.9572      2.4979      0.0497      9.2157     26.7250    140.3317
  2420.8000      7.9661      2.4869      0.0786      9.8847     26.7051    133.3734
  2420.9000      7.9661      2.4782      0.0338     10.4110     26.5959    124.0253
  2421.0000      7.9736      2.4729      0.0641     10.7342     27.0124    117.7787
  2421.1000      7.9736      2.4692      0.0556     10.9557     27.6134    118.1505
  2421.2000      7.9736      2.4661      0.0503     11.1466     28.2559    120.5564
  2421.3000      7.9745      2.4487      0.0514     12.2010     28.9925    120.3735
  2421.4000      7.9745      2.3915      0.0595     15.6659     29.6021    119.2217
  2421.5000      7.9714      2.3018     -0.0206     21.1003     30.1550    118.0063
  2421.6000      7.9714      2.2123     -0.0287     26.5284     30.6320    115.9220
  2421.7000      7.9714      2.1257     -0.0372     31.7728     30.9071    113.6318
  2421.8000      7.9695      2.0267     -0.1028     37.7767     31.4278    109.9344
  2421.9000      7.9695      1.9238     -0.0996     44.0113     32.3341    105.1054
  2422.0000      7.9677      1.8426     -0.1400     48.9307     32.8585    100.5377
  2422.1000      7.9677      1.7940     -0.0894     51.8818     32.6055     95.2041
  2422.2000      7.9677      1.7620     -0.0271     53.8176     32.0261     90.5731
  2422.3000      7.9596      1.7348     -0.0517     55.4657     31.5323     86.0906
  2422.4000      7.9596      1.7273     -0.0160     55.9203     31.1752     82.7895
  2422.5000      7.9480      1.7528      0.0622     54.3749     30.9867     83.3276
  2422.6000      7.9480      1.7951      0.1342     51.8104     31.1266     82.3485
  2422.7000      7.9480      1.8291      0.1249     49.7544     31.4911     74.9003
  2422.8000      7.9406      1.8462      0.1164     48.7173     31.6587     63.1215
  2422.9000      7.9406      1.8451      0.1096     48.7840     31.5716     53.4306
  2423.0000      7.9386      1.8251      0.0711     49.9933     31.6179     48.2407
  2423.1000      7.9386      1.7924      0.0625     51.9760     31.7707     43.7923
  2423.2000      7.9386      1.7590      0.0202     54.0018     31.7394     40.4968
  2423.3000      7.9401      1.7337      0.0789     55.5318     31.8341     42.5677
  2423.4000      7.9401      1.7093      0.0885     57.0147     32.2087     48.1625
  2423.5000      7.9468      1.6758      0.0505     59.0405     32.4980     51.7837
  2423.6000      7.9468      1.6363      0.0482     61.4360     32.8880     51.3572
  2423.7000      7.9468      1.5968      0.0173     63.8312     33.7032     48.6200
  2423.8000      7.9559      1.5596      0.0438     66.0869     34.4944     47.5844
  2423.9000      7.9559      1.5262      0.0272     68.1086     34.9003     47.8701
  2424.0000      7.9608      1.4989      0.0439     69.7641     35.1287     45.9459
  2424.1000      7.9608      1.4756      0.0274     71.1758     35.3120     42.0363
  2424.2000      7.9608      1.4530      0.0241     72.5427     35.4153     38.6095
  2424.3000      7.9628      1.4338      0.0007     73.7079     35.3854     38.1166
  2424.4000      7.9628      1.4230      0.0256     74.3610     35.2926     43.8277
  2424.5000      7.9721      1.4197      0.0291     74.5621     35.3631     51.3128
  2424.6000      7.9721      1.4207      0.0542     74.5057     35.5603     50.7286
  2424.7000      7.9721      1.4307      0.0363     73.8996     35.4391     43.7879
  2424.8000      7.9933      1.4627      0.0542     71.9589     34.7778     40.1094
  2424.9000      7.9933      1.5269      0.0611     68.0670     33.9398     40.9378
  2425.0000      8.0171      1.6254      0.0942     62.0944     33.2966     43.3843
  2425.1000      8.0171      1.7474      0.1622     54.7010     32.7637     46.8841
  2425.2000      8.0171      1.8727      0.1986     47.1089     31.9947     50.2056
  2425.3000      8.0340      1.9913      0.2110     39.9241     30.7434     54.3968
  2425.4000      8.0340      2.1054      0.2520     33.0079     29.2811     61.5967
  2425.5000      8.0405      2.2213      0.2444     25.9839     28.1779     70.9782
  2425.6000      8.0405      2.3378      0.2780     18.9214     27.5934     80.0326
  2425.7000      8.0405      2.4315      0.2865     13.2395     27.3975     85.8188
  2425.8000      8.0272      2.4827      0.2328     10.1388     27.5021     89.6771
  2425.9000      8.0272      2.5054      0.1367      8.7623     27.5264     94.9940
  2426.0000      7.9977      2.5260      0.0904      7.5173     27.0020    100.8766
  2426.1000      7.9977      2.5542      0.0856      5.8031     26.0730    104.4873
  2426.2000      7.9977      2.5815      0.1110      4.1522     25.2842    103.7391
  2426.3000      7.9788      2.5899      0.0972      3.6408     25.0406    101.1099
  2426.4000      7.9788      2.5738      0.0861      4.6186     25.2552     97.7515
  2426.5000      7.9755      2.5508      0.0349      6.0150     25.2455     92.9372
  2426.6000      7.9755      2.5448      0.0469      6.3775     24.8108     92.2786
  2426.7000      7.9755      2.5535      0.0723      5.8508     24.7125     98.9773
  2426.8000      7.9770      2.5576      0.0518      5.6010     24.8424    108.8353
  2426.9000      7.9770      2.5631      0.0386      5.2645     24.4698    113.2013
  2427.0000      7.9777      2.5835      0.0632      4.0320     23.8344    107.4775
  2427.1000      7.9777      2.5969      0.0606      3.2186     23.4554     97.6227
  2427.2000      7.9777      2.5766      0.0843      4.4495     23.2132     92.7403
  2427.3000      7.9757      2.5375      0.0390      6.8208     22.8800     93.9725
  2427.4000      7.9757      2.5159      0.0005      8.1262     22.7613     95.8064
  2427.5000      7.9721      2.5196      0.0243      7.9048     22.7920     96.5730
  2427.6000      7.9721      2.5252      0.0667      7.5652     22.3378     97.0654
  2427.7000      7.9721      2.5162      0.0306      8.1077     21.9125     95.8344
  2427.8000      7.9683      2.5020      0.0219      8.9707     22.4448     94.7346
  2427.9000      7.9683      2.4982      0.0292      9.2027     23.4820     98.7045
  2428.0000      7.9650      2.5033      0.0438      8.8906     24.2441    107.5665
  2428.1000      7.9650      2.5031      0.0788      8.9036     24.6768    111.9281
  2428.2000      7.9650      2.4938      0.0428      9.4686     24.9273    107.6499
  2428.3000      7.9631      2.4828      0.0442     10.1343     25.1291    103.9849
  2428.4000      7.9631      2.4733      0.0380     10.7100     25.4324    106.1757
  2428.5000      7.9605      2.4628      0.0515     11.3437     25.7126    109.0789
  2428.6000      7.9605      2.4485      0.0408     12.2105     25.8913    110.5069
  2428.7000      7.9605      2.4394     -0.0031     12.7652     25.8706    113.7996
  2428.8000      7.9564      2.4502      0.0335     12.1095     25.6246    117.4060
  2428.9000      7.9564      2.4713      0.0872     10.8280     25.0470    119.0270
  2429.0000      7.9536      2.4826      0.0593     10.1443     23.9954    116.7793
  2429.1000      7.9536      2.4913      0.0697      9.6194     22.9734    111.5531
