~Version Information
VERS.                      2.0: CWLS Log ASCII Standard - VERSION 2.0
WRAP.                       NO: One line per depth step
~Well Information Block
STRT.FT               898.0000: 
STOP.FT              2359.2000: 
STEP.FT                 0.1000: 
NULL.                -999.2500: 
COMP.          Pioneer Natural Resources: COMPANY
WELL.             Trimax 44-23: WELL
FLD.           Purgatoire River: FIELD
LOC.           527' FSL & 1064' FEL: LOCATION
PROV.                 Colorado: PROVINCE
CNTY.               Las Animas: COUNTRY
SRVC.                Patterson: SERVICE COMPANY
DATE.          Mon Mar 14 07:28:19 2005: LOG DATE
UWI.           05 071 08326 00: UNIQUE WELL ID
~Curve Information Block
DEPT.FT            0 000 00 00: Depth
DCAL.in                       : CDL Caliper
RHOB.g/cc                     : CDL Bulk Density
RHOC.g/cc                     : CDL Density Correction
DPOR.pu                       : CDL Density Porosity
GR.GAPI                       : Gamma Ray
NPOR.pu                       : Neutron Porosity
~Parameter Information Block
~A  Depth       DCAL        RHOB        RHOC        DPOR         GR         NPOR    
# ...
  1771.6000      7.8440      2.5572      0.0272      5.6224     73.2789     19.4811
  1771.7000      7.8440      2.5487      0.0376      6.1413     75.3452     19.3810
  1771.8000      7.8466      2.5480      0.0385      6.1815     74.2076     19.1806
  1771.9000      7.8466      2.5514      0.0560      5.9769     71.4732     19.0645
  1772.0000      7.8498      2.5478      0.0440      6.1915     70.9002     19.5282
  1772.1000      7.8498      2.5407      0.0128      6.6260     72.8508     20.3059
  1772.2000      7.8498      2.5501      0.0041      6.0554     75.7085     20.3341
  1772.3000      7.8508      2.5792      0.0445      4.2889     76.1825     19.7093
  1772.4000      7.8508      2.6042      0.0619      2.7748     73.4113     19.2320
  1772.5000      7.8521      2.6114      0.0523      2.3377     72.0186     19.0311
  1772.6000      7.8521      2.6070      0.0939      2.6061     71.9311     19.0287
  1772.7000      7.8521      2.5911      0.0897      3.5723     69.5261     18.9776
  1772.8000      7.8574      2.5681      0.0132      4.9617     68.2211     18.7586
  1772.9000      7.8574      2.5537      0.0573      5.8381     70.5852     18.9267
  1773.0000      7.8631      2.5473      0.0431      6.2219     72.0659     19.9172
  1773.1000      7.8631      2.5404      0.0381      6.6410     69.7564     21.1010
  1773.2000      7.8631      2.5375      0.0012      6.8158     66.2047     21.7819
  1773.3000      7.8671      2.5459      0.0055      6.3107     65.1092     22.0251
  1773.4000      7.8671      2.5585      0.0274      5.5464     66.6624     21.8144
  1773.5000      7.8696      2.5718      0.0246      4.7423     68.4606     21.0973
  1773.6000      7.8696      2.5881      0.0323      3.7538     70.2822     20.0120
  1773.7000      7.8696      2.5994      0.0405      3.0694     74.4149     19.0210
  1773.8000      7.8699      2.5988      0.0481      3.1028     80.5168     18.8319
  1773.9000      7.8699      2.5911      0.0323      3.5690     85.4421     19.2690
  1774.0000      7.8687      2.5863      0.0053      3.8625     86.5468     19.1228
  1774.1000      7.8687      2.5880      0.0528      3.7555     85.3135     18.2821
  1774.2000      7.8687      2.5931      0.0220      3.4509     85.3552     18.1043
  1774.3000      7.8714      2.6016      0.0141      2.9335     85.5878     19.0048
  1774.4000      7.8714      2.6094      0.0596      2.4620     83.2705     19.7003
  1774.5000      7.8761      2.6072      0.0435      2.5939     78.2279     19.6494
  1774.6000      7.8761      2.5948      0.0351      3.3458     74.2726     19.6983
  1774.7000      7.8761      2.5816     -0.0084      4.1463     76.2036     20.2751
  1774.8000      7.8701      2.5712      0.0295      4.7767     83.0482     21.0952
  1774.9000      7.8701      2.5597      0.0276      5.4715     89.6990     21.5786
  1775.0000      7.8527      2.5555      0.0042      5.7256     93.8328     21.5778
  1775.1000      7.8527      2.5631      0.0440      5.2661     96.4761     21.7971
  1775.2000      7.8527      2.5682      0.0303      4.9573    100.5001     22.5121
  1775.3000      7.8336      2.5649      0.0093      5.1593    108.4361     22.9935
  1775.4000      7.8336      2.5575      0.0396      5.6087    115.1577     22.8246
  1775.5000      7.8233      2.5464      0.0222      6.2784    113.2187     22.5233
  1775.6000      7.8233      2.5325      0.0445      7.1242    105.8835     22.5924
  1775.7000      7.8233      2.5197      0.0124      7.8943    100.1391     23.1788
  1775.8000      7.8181      2.5172      0.0169      8.0509     97.1078     23.8251
  1775.9000      7.8181      2.5317      0.0453      7.1700     95.7975     24.0428
  1776.0000      7.8154      2.5609      0.0742      5.4025     95.9372     23.8886
  1776.1000      7.8154      2.5957      0.0693      3.2923     95.9602     23.4775
  1776.2000      7.8154      2.6295      0.0996      1.2425     94.9291     23.1596
  1776.3000      7.8226      2.6546      0.0827     -0.2812     94.8079     23.2965
  1776.4000      7.8226      2.6563      0.1157     -0.3838     96.3339     23.5857
  1776.5000      7.8373      2.6275      0.0978      1.3646     98.5429     23.5550
  1776.6000      7.8373      2.5782      0.0866      4.3490    100.5804     23.4439
  1776.7000      7.8373      2.5164      0.0382      8.0941    101.9535     23.8780
  1776.8000      7.8478      2.4463     -0.0159     12.3483    102.7617     24.5210
  1776.9000      7.8478      2.3776     -0.0167     16.5084    102.6299     24.8748
  1777.0000      7.8472      2.3198     -0.0212     20.0096    103.5695     25.6478
  1777.1000      7.8472      2.2795     -0.0551     22.4533    108.2070     27.1457
  1777.2000      7.8472      2.2561     -0.0470     23.8749    113.3938     28.3070
  1777.3000      7.8352      2.2280      0.0327     25.5740    113.6786     28.4542
  1777.4000      7.8352      2.1763     -0.0033     28.7077    108.4454     28.1269
  1777.5000      7.8159      2.1120      0.0121     32.6031    102.9575     28.3021
  1777.6000      7.8159      2.0432      0.0349     36.7753    101.7523     29.2966
  1777.7000      7.8159      1.9558      0.0302     42.0745    103.3162     30.3835
  1777.8000      7.8047      1.8489      0.0132     48.5520    103.8621     30.9588
  1777.9000      7.8047      1.7465     -0.0320     54.7579    103.2193     31.2840
  1778.0000      7.8198      1.6728     -0.1644     59.2216    101.8660     31.7696
  1778.1000      7.8198      1.6326     -0.1165     61.6584     99.3584     32.3248
  1778.2000      7.8198      1.6259     -0.1408     62.0697     96.3233     32.9161
  1778.3000      7.8486      1.6746     -0.1086     59.1173     93.8229     33.5545
  1778.4000      7.8486      1.7850      0.1106     52.4223     94.4946     33.5125
  1778.5000      7.8700      1.9199      0.1829     44.2462     99.9199     32.5522
  1778.6000      7.8700      2.0474      0.2279     36.5217    109.4764     31.8814
  1778.7000      7.8700      2.1643      0.2418     29.4387    121.1648     32.1192
  1778.8000      7.9006      2.2685      0.2513     23.1225    130.2731     32.2737
  1778.9000      7.9006      2.3502      0.1691     18.1712    135.5378     31.3674
  1779.0000      7.9336      2.4134      0.0973     14.3408    140.9791     29.9235
  1779.1000      7.9336      2.4712      0.0777     10.8341    144.2396     29.0495
  1779.2000      7.9336      2.5189      0.0928      7.9454    140.9668     28.7683
  1779.3000      7.9303      2.5362      0.0926      6.8957    136.7036     28.4745
  1779.4000      7.9303      2.5170      0.0650      8.0615    137.7687     28.0559
  1779.5000      7.8972      2.4804      0.0109     10.2789    140.5975     27.8893
  1779.6000      7.8972      2.4442      0.0344     12.4752    138.8767     27.9534
  1779.7000      7.8972      2.4065      0.0200     14.7597    135.7184     28.0196
  1779.8000      7.8701      2.3635      0.0004     17.3622    136.2085     28.1077
  1779.9000      7.8701      2.3176      0.0080     20.1431    137.8078     28.2368
  1780.0000      7.8590      2.2651     -0.0123     23.3271    134.2070     28.6226
  1780.1000      7.8590      2.1893      0.0092     27.9237    125.4597     29.0538
  1780.2000      7.8590      2.0868     -0.0516     34.1336    118.4495     29.3892
  1780.3000      7.8533      1.9885     -0.0538     40.0921    114.2864     30.0810
  1780.4000      7.8533      1.9280     -0.1038     43.7573    111.1421     31.0200
  1780.5000      7.8558      1.9121     -0.0675     44.7214    110.1223     31.7342
  1780.6000      7.8558      1.9248     -0.0250     43.9505    109.5366     32.0864
  1780.7000      7.8558      1.9555     -0.0361     42.0896    106.2797     31.8731
  1780.8000      7.8702      2.0076      0.0531     38.9316    102.0289     31.1313
  1780.9000      7.8702      2.0822      0.1285     34.4150     99.0463     30.3671
  1781.0000      7.8780      2.1786      0.1697     28.5722     97.0450     29.8311
  1781.1000      7.8780      2.2914      0.1821     21.7312     94.6186     29.9241
