~Version Information
VERS.                      2.0: CWLS Log ASCII Standard - VERSION 2.0
WRAP.                       NO: One line per depth step
~Well Information Block
STRT.FT               250.0000: 
STOP.FT               894.7500: 
STEP.FT                 0.2500: 
NULL.                -999.2500: 
COMP.          Pioneer Natural Resources: COMPANY
WELL.          Santisteven 13-22: WELL
FLD.           Purgatoire River: FIELD
LOC.           1861' FSL & 992' FWL----: LOCATION
PROV.                 Colorado: PROVINCE
CNTY.               Las Animas: COUNTRY
SRVC.                Patterson: SERVICE COMPANY
DATE.          Sat Apr 02 14:49:07 2005: LOG DATE
UWI.           05 071 08337 00: UNIQUE WELL ID
~Curve Information Block
DEPT.FT            0 000 00 00: Depth
SN.Ohm-m                      : IEL Short Normal
SP.mV                         : IEL Spontaneous Potential
DIR.Ohm-m                     : IEL Induction Resistivity
GR.GAPI                       : Gamma Ray
~Parameter Information Block
~A  Depth        SN          SP         DIR          GR     
# ...
   585.0000    606.9246     26.2572     22.0860    106.0621
   585.2500    574.6143     26.2522     22.2479    104.9125
   585.5000    518.8764     26.2461     22.3869    104.3554
   585.7500    452.5701     26.2392     22.4899    104.4601
   586.0000    395.3616     26.2322     22.5570    104.7113
   586.2500    363.7274     26.2255     22.5953    104.8504
   586.5000    362.5321     26.2199     22.6123    105.1624
   586.7500    382.9549     26.2155     22.6131    105.3588
   587.0000    406.7589     26.2124     22.6015    105.0522
   587.2500    417.8173     26.2102     22.5816    104.1742
   587.5000    415.7655     26.2085     22.5595    102.0709
   587.7500    417.3166     26.2067     22.5428    100.6193
   588.0000    440.2316     26.2043     22.5361     99.2488
   588.2500    485.6796     26.2013     22.5362     99.2241
   588.5000    536.3661     26.1978     22.5305    100.6522
   588.7500    569.7438     26.1942     22.5010    102.3536
   589.0000    573.2737     26.1909     22.4332    105.3090
   589.2500    551.5259     26.1884     22.3277    107.2111
   589.5000    521.7821     26.1869     22.2041    109.9982
   589.7500    499.9211     26.1864     22.0910    112.0759
   590.0000    486.5457     26.1864     22.0036    115.4568
   590.2500    467.9304     26.1866     21.9261    117.2694
   590.5000    433.3143     26.1867     21.8146    118.0755
   590.7500    389.7410     26.1864     21.6211    117.2833
   591.0000    357.1750     26.1857     21.3242    115.6500
   591.2500    351.2820     26.1849     20.9426    115.5291
   591.5000    374.4361     26.1843     20.5238    117.8942
   591.7500    419.6694     26.1844     20.1213    120.7766
   592.0000    475.7854     26.1855     19.7764    125.3082
   592.2500    529.3091     26.1880     19.5116    127.4169
   592.5000    569.2679     26.1921     19.3357    127.9127
   592.7500    593.5515     26.1978     19.2501    126.1630
   593.0000    608.2282     26.2047     19.2496    121.1875
   593.2500    619.6415     26.2121     19.3190    117.4309
   593.5000    628.7412     26.2193     19.4319    112.7424
   593.7500    632.7603     26.2253     19.5626    110.1976
   594.0000    629.3361     26.2294     19.7032    105.9615
   594.2500    617.2538     26.2311     19.8723    102.4466
   594.5000    595.1746     26.2302     20.1034     97.0397
   594.7500    563.8573     26.2269     20.4204     94.3898
   595.0000    531.4902     26.2217     20.8199     93.1552
   595.2500    512.8232     26.2151     21.2675     94.2041
   595.5000    517.2294     26.2080     21.7098     97.4659
   595.7500    537.2465     26.2011     22.0917     99.8222
   596.0000    553.3719     26.1951     22.3694    102.6361
   596.2500    552.2249     26.1905     22.5162    104.0861
   596.5000    537.9021     26.1879     22.5284    106.1136
   596.7500    523.8265     26.1875     22.4329    107.2919
   597.0000    515.5522     26.1892     22.2884    107.9196
   597.2500    506.4700     26.1928     22.1675    107.1458
   597.5000    491.7789     26.1978     22.1305    104.2635
   597.7500    480.6020     26.2035     22.2048    101.5225
   598.0000    487.9329     26.2095     22.3812     96.7750
   598.2500    516.9106     26.2152     22.6246     93.6090
   598.5000    555.1196     26.2201     22.8905     89.7108
   598.7500    587.6530     26.2243     23.1391     87.9005
   599.0000    608.3579     26.2277     23.3392     85.9069
   599.2500    618.6191     26.2306     23.4681     84.6745
   599.5000    621.4840     26.2332     23.5116     82.9464
   599.7500    619.9702     26.2359     23.4689     82.1146
   600.0000    617.4522     26.2388     23.3573     81.4443
   600.2500    615.3928     26.2421     23.2096     81.2593
   600.5000    610.9634     26.2456     23.0647     81.5169
   600.7500    599.8821     26.2491     22.9552     82.3923
   601.0000    583.1576     26.2522     22.8994     85.1102
   601.2500    569.5826     26.2547     22.9017     87.5535
   601.5000    568.4451     26.2565     22.9562     90.8411
   601.7500    578.7250     26.2575     23.0511     91.9223
   602.0000    587.2013     26.2578     23.1720     90.9683
   602.2500    578.8611     26.2579     23.3065     88.5171
   602.5000    549.3970     26.2580     23.4501     82.5872
   602.7500    508.8603     26.2584     23.6087     77.7853
   603.0000    474.8336     26.2595     23.7917     70.9709
   603.2500    461.2562     26.2613     23.9962     67.6583
   603.5000    469.7940     26.2635     24.1957     65.4906
   603.7500    488.4821     26.2658     24.3465     65.8878
   604.0000    500.8459     26.2676     24.4102     68.3968
   604.2500    501.1282     26.2686     24.3795     70.6472
   604.5000    500.4895     26.2683     24.2851     73.8555
   604.7500    514.9835     26.2667     24.1835     75.4940
   605.0000    548.0406     26.2640     24.1311     76.8283
   605.2500    587.4322     26.2605     24.1602     76.8953
   605.5000    617.5079     26.2567     24.2679     75.8779
   605.7500    630.2712     26.2526     24.4212     74.6583
   606.0000    626.0972     26.2484     24.5745     72.7524
   606.2500    609.6717     26.2438     24.6898     72.0970
   606.5000    586.9390     26.2385     24.7436     72.9702
   606.7500    562.2690     26.2322     24.7212     74.7827
   607.0000    535.7673     26.2248     24.6066     78.5622
   607.2500    504.8314     26.2169     24.3827     81.4989
   607.5000    470.0119     26.2093     24.0418     86.8408
   607.7500    438.7028     26.2028     23.5974     91.1968
   608.0000    422.5075     26.1985     23.0874     98.1290
   608.2500    430.6603     26.1969     22.5632    102.0895
   608.5000    464.1342     26.1981     22.0702    106.0719
   608.7500    513.9474     26.2015     21.6315    107.6487
   609.0000    565.1140     26.2062     21.2409    109.5880
   609.2500    603.7814     26.2108     20.8703    111.2154
   609.5000    621.8223     26.2139     20.4848    114.4980
   609.7500    615.9377     26.2147     20.0574    116.9765
   610.0000    585.4733     26.2124     19.5762    120.3315
   610.2500    534.1617     26.2070     19.0414    122.2846
   610.5000    473.4270     26.1988     18.4597    126.0926
   610.7500    419.2246     26.1884     17.8418    130.2404
   611.0000    381.3084     26.1769     17.2012    139.3225
   611.2500    355.8302     26.1654     16.5521    146.5251
   611.5000    331.5846     26.1548     15.9060    157.0358
   611.7500    304.6836     26.1460     15.2730    162.7880
   612.0000    285.0867     26.1395     14.6673    168.1711
   612.2500    286.9406     26.1357     14.1118    169.2289
   612.5000    312.9390     26.1345     13.6350    167.5417
   612.7500    349.9061     26.1354     13.2627    165.0264
   613.0000    381.5336     26.1378     13.0099    160.2912
   613.2500    405.0244     26.1408     12.8773    156.7713
   613.5000    431.9453     26.1436     12.8532    151.5342
   613.7500    472.5345     26.1455     12.9150    148.8047
   614.0000    523.3209     26.1461     13.0328    147.1787
   614.2500    570.5137     26.1451     13.1737    148.0374
   614.5000    600.9724     26.1427     13.3099    151.8404
   614.7500    608.8322     26.1392     13.4249    155.5421
   615.0000    596.0411     26.1353     13.5146    161.6302
   615.2500    569.8477     26.1318     13.5816    165.2045
   615.5000    538.2483     26.1296     13.6265    168.7774
   615.7500    504.9770     26.1299     13.6428    169.8909
   616.0000    468.4537     26.1333     13.6187    170.3032
   616.2500    426.5720     26.1402     13.5430    170.1579
   616.5000    381.8743     26.1507     13.4116    169.5449
   616.7500    340.9092     26.1642     13.2301    168.6839
   617.0000    309.8391     26.1795     13.0105    166.0736
   617.2500    293.4849     26.1951     12.7647    163.2490
   617.5000    297.8411     26.2096     12.4989    158.0733
   617.7500    327.4287     26.2212     12.2124    154.8894
   618.0000    376.1222     26.2288     11.9009    151.5916
   618.2500    424.5501     26.2316     11.5616    150.4113
