~Version Information
VERS.                      2.0: CWLS Log ASCII Standard - VERSION 2.0
WRAP.                       NO: One line per depth step
~Well Information Block
STRT.FT               -14.0000: 
STOP.FT              2531.7500: 
STEP.FT                 0.2500: 
NULL.                -999.2500: 
COMP.          Petrogulf Corporation: COMPANY
WELL.            Lavedure 7-44: WELL
FLD.           Purgatorie River: FIELD
LOC.           969' FSL & 501' FEL--: LOCATION
PROV.                       CO: PROVINCE
CNTY.               Las Animas: COUNTRY
SRVC.          Patterson Wireline: SERVICE COMPANY
DATE.          Wed Dec 10 09:23:08 2003: LOG DATE
UWI.                          : UNIQUE WELL ID
~Curve Information Block
DEPT.FT            0 000 00 00: Depth
CCL.                          : Casing Collar Locator
TT3.usec                      : CBL 3' Travel Time
AMP3.mV                       : CBL 3' Amplitude
GR.GAPI                       : Gamma Ray
~Parameter Information Block
~A  Depth       CCL         TT3         AMP3         GR     
# ...
  1828.5000      0.0000    786.6355      1.9411    127.9273
  1828.7500      0.0000    784.9086      1.8708    130.6137
  1829.0000      0.0000    803.1777      1.7445    131.6329
  1829.2500      0.0000    844.4306      1.6543    131.0185
  1829.5000      0.0000    900.5595      1.6417    128.8856
  1829.7500      0.0000    954.9910      1.6759    125.0122
  1830.0000      0.0000    991.1113      1.7070    120.0326
  1830.2500      0.0000   1000.3495      1.7230    115.8418
  1830.5000      0.0000    983.1856      1.7608    114.2292
  1830.7500      0.0000    945.6315      1.8658    115.5964
  1831.0000      0.0000    897.7088      2.0337    119.2074
  1831.2500      0.0000    851.9790      2.2007    124.1125
  1831.5000      0.0000    818.2961      2.3073    129.5218
  1831.7500      0.0000    799.3475      2.3562    134.6932
  1832.0000      0.0000    792.1130      2.3900    138.8608
  1832.2500      0.0000    792.5414      2.4351    141.3069
  1832.5000      0.0000    798.1204      2.4960    141.6401
  1832.7500      0.0000    807.2536      2.5778    140.1795
  1833.0000      0.0000    818.0344      2.6711    137.9418
  1833.2500      0.0000    828.3405      2.7286    136.1572
  1833.5000      0.0000    836.9008      2.7022    135.7110
  1833.7500      0.0000    843.4817      2.6041    136.7151
  1834.0000      0.0000    847.9302      2.5019    138.5718
  1834.2500      0.0000    849.5591      2.4504    140.7028
  1834.5000      0.0000    847.4800      2.4404    143.0591
  1834.7500      0.0000    840.6756      2.4223    145.5325
  1835.0000      0.0000    827.3528      2.3776    147.0661
  1835.2500      0.0000    805.7997      2.3458    146.1040
  1835.5000      0.0000    777.7977      2.3649    142.2628
  1835.7500      0.0000    750.4505      2.4183    137.0850
  1836.0000      0.0000    732.3369      2.4718    132.7347
  1836.2500      0.0000    727.6247      2.5222    130.0709
  1836.5000      0.0000    735.1646      2.5727    128.1761
  1836.7500      0.0000    751.3240      2.6012    125.5533
  1837.0000      0.0000    770.6625      2.5990    121.4007
  1837.2500      0.0000    785.5516      2.5996    115.7021
  1837.5000      0.0000    789.6605      2.6259    108.6357
  1837.7500      0.0000    783.4191      2.6386    100.4141
  1838.0000      0.0000    774.6001      2.5818     91.6358
  1838.2500      0.0000    772.2835      2.4611     83.3957
  1838.5000      0.0000    779.8712      2.3427     76.6970
  1838.7500      0.0000    793.2153      2.2808     71.6297
  1839.0000      0.0000    804.4437      2.2632     67.3842
  1839.2500      0.0000    807.8294      2.2380     63.3600
  1839.5000      0.0000    803.2464      2.1801     59.9888
  1839.7500      0.0000    795.0851      2.1136     58.1130
  1840.0000      0.0000    788.0353      2.0752     57.8233
  1840.2500      0.0000    783.5178      2.0888     58.2869
  1840.5000      0.0000    779.9316      2.1705     58.4334
  1840.7500      0.0000    775.9296      2.3143     57.4221
  1841.0000      0.0000    772.9396      2.4772     54.8003
  1841.2500      0.0000    774.0291      2.6176     50.8113
  1841.5000      0.0000    779.9550      2.7433     46.6516
  1841.7500      0.0000    786.5331      2.8843     44.0816
  1842.0000      0.0000    787.2501      3.0290     44.5049
  1842.2500      0.0000    779.5129      3.1266     48.2853
  1842.5000      0.0000    767.7399      3.1487     54.6966
  1842.7500      0.0000    759.4786      3.1168     62.2173
  1843.0000      0.0000    758.8472      3.0636     68.9970
  1843.2500      0.0000    764.0938      2.9930     73.6251
  1843.5000      0.0000    771.2537      2.8905     75.9448
  1843.7500      0.0000    779.9158      2.7520     77.1748
  1844.0000      0.0000    794.8219      2.5889     79.0227
  1844.2500      0.0000    821.8542      2.4252     82.5382
  1844.5000      0.0000    862.5501      2.2989     87.7075
  1844.7500      0.0000    910.8483      2.2416     93.8636
  1845.0000      0.0000    953.6096      2.2478    100.1122
  1845.2500      0.0000    977.3262      2.2846    105.4467
  1845.5000      2.0000    978.2059      2.3219    109.1451
  1845.7500      0.0000    963.2654      2.3359    111.5474
  1846.0000      0.0000    939.6541      2.3060    114.1364
  1846.2500      0.0000    907.9734      2.2365    118.3970
  1846.5000      0.0000    867.8484      2.1629    124.5456
  1846.7500      0.0000    824.3550      2.1189    131.3316
  1847.0000      0.0000    786.1683      2.1084    136.8646
  1847.2500      0.0000    759.3745      2.1084    139.7320
  1847.5000      0.0000    744.1184      2.0771    139.7685
  1847.7500      0.0000    736.5540      1.9770    137.9335
  1848.0000      0.0000    733.2796      1.8178    135.4523
  1848.2500      0.0000    733.7436      1.6627    133.1901
  1848.5000      0.0000    738.6935      1.5633    131.6559
  1848.7500      0.0000    746.8869      1.5080    131.0727
  1849.0000      0.0000    753.7868      1.4577    131.1955
  1849.2500      0.0000    754.5175      1.4108    131.2583
  1849.5000      0.0000    749.1628      1.4065    130.3488
  1849.7500      0.0000    744.3104      1.4714    127.9563
  1850.0000      0.0000    747.4186      1.5835    124.1939
  1850.2500      0.0000    758.6234      1.6893    119.7470
  1850.5000      0.0000    768.9056      1.7495    115.8113
  1850.7500      0.0000    768.1476      1.7770    113.7784
  1851.0000      0.0000    755.2523      1.8400    114.4627
  1851.2500      0.0000    738.8166      2.0134    117.5134
  1851.5000      0.0000    728.2524      2.3052    121.4600
  1851.7500      0.0000    726.4855      2.6309    124.1324
  1852.0000      0.0000    730.7913      2.8793    123.5564
  1852.2500      0.0000    737.4515      3.0056    119.3749
  1852.5000      0.0000    744.5206      3.0503    113.5655
  1852.7500      0.0000    752.1238      3.0638    109.2798
  1853.0000      0.0000    761.4567      3.0335    108.6371
  1853.2500      0.0000    772.7878      2.9034    111.5319
  1853.5000      0.0000    783.9351      2.6611    116.3555
  1853.7500      0.0000    791.4880      2.3826    121.4884
  1854.0000      0.0000    794.0322      2.1775    125.9932
  1854.2500      0.0000    793.5891      2.0954    129.2740
  1854.5000      0.0000    793.6777      2.1001    130.5163
  1854.7500      0.0000    796.3148      2.1277    128.6533
  1855.0000      0.0000    800.4455      2.1466    123.0398
  1855.2500      0.0000    802.5460      2.1594    114.4701
  1855.5000      0.0000    799.0204      2.1809    105.4922
  1855.7500      0.0000    788.7751      2.2259     99.1794
  1856.0000      0.0000    773.6942      2.2931     97.1305
  1856.2500      0.0000    756.7275      2.3551     98.5912
  1856.5000      0.0000    740.0945      2.3823    101.3852
  1856.7500      0.0000    725.7115      2.3765    103.5469
  1857.0000      0.0000    716.5169      2.3631    104.4542
  1857.2500      0.0000    715.4354      2.3591    104.9567
  1857.5000      0.0000    722.0902      2.3632    106.2109
  1857.7500      0.0000    731.6920      2.3642    107.9638
  1858.0000      0.0000    738.4737      2.3425    108.4439
  1858.2500      0.0000    740.0378      2.2797    106.4791
  1858.5000      0.0000    738.0098      2.1837    103.1658
  1858.7500      0.0000    735.3571      2.0989    100.9089
  1859.0000      0.0000    734.0579      2.0728    101.4605
  1859.2500      0.0000    735.0228      2.1059    105.2159
  1859.5000      0.0000    739.1185      2.1483    111.2769
  1859.7500      0.0000    747.5400      2.1566    117.3950
  1860.0000      0.0000    761.0049      2.1443    120.7832
  1860.2500      0.0000    778.6459      2.1680    120.1586
  1860.5000      0.0000    797.8110      2.2776    116.8723
  1860.7500      0.0000    815.1326      2.4792    113.7242
  1861.0000      0.0000    828.0682      2.7247    113.0083
  1861.2500      0.0000    835.6603      2.9340    115.4718
  1861.5000      0.0000    837.9291      3.0380    120.0331
  1861.7500      0.0000    834.7114      3.0127    124.3338
