~Version Information
 VERS.                                  2.0 : CWLS LAS VERSION
 WRAP.                                   NO : WRAPING MODE
 SWARE .                 MController 2.5.0J : SOFTWARE VERSION
~Well Information
 WELL.            Rabbit Bush Federal 44-19 : WELL
 COMP.  Pioneer Natural Resources USA, Inc. : COMPANY
 FLD.                      Purgatoire River : FIELD
 LOC.              SE/SE  Sec 19 T32S  R66W : LOCATION
 DATE.                      8/24/06-8/25/06 : DATE(S) LOGGED
 SRVC.       BLANCO Geological Services LLC : SERVICE COMPANY
 STAT.                                   CO : STATE
 CNTY.                            Las Animas: COUNTY
 CTRY.                               U.S.A. : COUNTRY
 API.                       05-071-08149-00 : API NUMBER
 STRT.FT                             539.00 : START DEPTH
 STOP.FT                            2785.00 : STOP DEPTH
 STEP.FT                               1.00 : DEPTH INCREMENT
 NULL.                                -9999 : NULL VALUE
~Curve information
 DEPTH.FT                                   :
 ROP.MIN/FT                                 :
 GAS.UNITS                                  :
~ASCII Log data
# ...
      1739.0         0.32          5.0 
      1740.0         0.33          5.6 
      1741.0         0.30          6.7 
      1742.0         0.23          7.8 
      1743.0         0.27         12.1 
      1744.0         0.13         13.2 
      1745.0         0.27         17.1 
      1746.0         0.33         21.5 
      1747.0         0.43         26.4 
      1748.0         0.37         31.4 
      1749.0         0.37         56.4 
      1750.0         0.38         62.7 
      1751.0         0.33         61.8 
      1752.0         0.33         61.8 
      1753.0         0.30         62.3 
      1754.0         0.27         69.1 
      1755.0         0.30         74.7 
      1756.0         0.33         71.9 
      1757.0         0.33         46.1 
      1758.0         0.23         28.8 
      1759.0         0.23         24.0 
      1760.0         0.27         18.4 
      1761.0         0.28         16.7 
      1762.0         0.23         14.4 
      1763.0         0.23         13.6 
      1764.0         0.23         13.4 
      1765.0         0.27         13.6 
      1766.0         3.28         18.6 
      1767.0         0.30         18.7 
      1768.0         0.40         18.9 
      1769.0         0.80         22.1 
      1770.0         0.63         24.9 
      1771.0         0.72         24.3 
      1772.0         0.43         22.5 
      1773.0         0.50         21.5 
      1774.0         0.47         20.3 
      1775.0         0.47         19.5 
      1776.0         0.37         19.9 
      1777.0         0.47         23.3 
      1778.0         0.42         28.6 
      1779.0         0.37         29.3 
      1780.0         0.33         27.5 
      1781.0         0.37         24.1 
      1782.0         0.30         22.0 
      1783.0         0.27         22.3 
      1784.0         0.17         22.6 
      1785.0         0.20         22.9 
      1786.0         0.17         22.4 
      1787.0         0.30         22.2 
      1788.0         0.37         22.1 
      1789.0         0.58         22.1 
      1790.0         0.53         21.7 
      1791.0         0.47         23.5 
      1792.0         0.50         22.4 
      1793.0         0.38         16.0 
      1794.0         0.37         11.8 
      1795.0         0.30         10.0 
      1796.0         4.83         15.1 
      1797.0         0.70         17.0 
      1798.0         0.60         17.2 
      1799.0         0.60         17.3 
      1800.0         0.62         23.2 
      1801.0         0.70         13.8 
      1802.0         0.60         11.4 
      1803.0         0.50          8.5 
      1804.0         0.43          7.6 
      1805.0         0.33          7.8 
      1806.0         0.35          8.1 
      1807.0         0.33         12.8 
      1808.0         2.92         37.7 
      1809.0         0.33         14.9 
      1810.0         0.30         13.8 
      1811.0         0.13         13.4 
      1812.0         0.13         13.5 
      1813.0         0.13         13.3 
      1814.0         0.30         13.5 
      1815.0         0.37         12.7 
      1816.0         0.35         12.2 
      1817.0         0.33         13.0 
      1818.0         0.53         14.4 
      1819.0         0.33         14.7 
      1820.0         0.30         15.3 
      1821.0         0.33         15.4 
      1822.0         0.50         15.9 
      1823.0         0.37         15.5 
      1824.0         0.20         15.2 
      1825.0         0.30         14.7 
      1826.0         1.32         13.8 
      1827.0         0.40         13.9 
      1828.0         0.30         14.7 
      1829.0         0.37         14.2 
      1830.0         0.30         14.1 
      1831.0         0.37         14.1 
      1832.0         0.62         14.4 
      1833.0         0.23         14.8 
      1834.0         0.33         17.8 
      1835.0         0.37         20.7 
      1836.0         0.37         20.3 
      1837.0         0.40         15.4 
      1838.0         0.47         11.8 
      1839.0         0.43         10.2 
      1840.0         0.30         10.0 
      1841.0         0.35          9.2 
      1842.0         0.17          9.5 
      1843.0         0.40          9.3 
      1844.0         0.30          9.3 
      1845.0         0.27          9.3 
      1846.0         0.07          9.6 
      1847.0         0.17         10.1 
      1848.0         0.23         12.2 
      1849.0         0.30         13.6 
      1850.0         0.17         14.0 
      1851.0         0.37         16.7 
      1852.0         0.37         22.2 
      1853.0         0.23         24.8 
      1854.0         0.22         29.6 
      1855.0         0.30         35.8 
      1856.0        15.60        144.0 
      1857.0         0.50        117.3 
      1858.0         0.32        111.0 
      1859.0         0.30        108.2 
      1860.0         0.33        105.1 
      1861.0         0.40         97.8 
      1862.0         0.40         87.4 
      1863.0         0.23         97.5 
      1864.0         0.37        116.7 
      1865.0         0.37        120.9 
      1866.0         0.33        120.3 
      1867.0         0.30        116.9 
      1868.0         0.32        113.9 
      1869.0         0.53        109.5 
      1870.0         0.47         96.3 
      1871.0         0.43         95.4 
      1872.0         0.43         91.5 
      1873.0         0.43         87.4 
      1874.0         0.37         86.4 
      1875.0         0.37         86.7 
      1876.0         0.38         86.7 
      1877.0         0.60         86.8 
      1878.0         0.70         84.1 
      1879.0         0.53         49.1 
      1880.0         0.50         35.5 
      1881.0         0.37         43.2 
      1882.0         0.37         71.0 
      1883.0         0.35        113.7 
      1884.0         0.33        121.9 
      1885.0         0.23        123.3 
      1886.0         3.42        161.4 
      1887.0         0.43        119.0 
      1888.0         0.47        115.0 
      1889.0         0.37        110.3 
      1890.0         0.37        106.8 
      1891.0         0.40        104.6 
      1892.0         0.55        102.1 
      1893.0         0.37        109.7 
      1894.0         0.33        189.9 
      1895.0         0.37        232.5 
      1896.0         0.40        232.7 
      1897.0         0.43        216.2 
      1898.0         0.30        189.7 
      1899.0         0.27        175.4 
      1900.0         0.27        161.4 
      1901.0         0.27        157.7 
      1902.0         0.13        150.8 
      1903.0         0.28        149.5 
      1904.0         0.37        147.5 
      1905.0         0.30        146.4 
      1906.0         0.37        146.7 
      1907.0         0.63        144.5 
      1908.0         0.37        129.1 
      1909.0         0.37        100.7 
      1910.0         0.33         58.1 
      1911.0         0.37         48.4 
      1912.0         0.35         61.3 
      1913.0         0.40         89.9 
      1914.0         0.30        155.7 
      1915.0         0.40        229.6 
      1916.0         3.52        230.1 
      1917.0         0.47        154.3 
      1918.0         0.40        157.1 
      1919.0         0.40        150.0 
      1920.0         0.43        136.0 
      1921.0         0.55        124.6 
      1922.0         0.47        125.1 
      1923.0         0.37        125.5 
      1924.0         0.47        129.3 
      1925.0         0.47        131.1 
      1926.0         0.40        130.3 
      1927.0         0.40        129.8 
      1928.0         0.48        127.9 
      1929.0         0.47        124.2 
      1930.0         0.70        124.5 
      1931.0         0.77        145.0 
      1932.0         0.80        134.6 
      1933.0         0.43        140.4 
      1934.0         0.35        142.5 
      1935.0         0.20        142.3 
      1936.0         0.27        139.1 
      1937.0         0.27        114.0 
      1938.0         0.37         87.8 
