~Version Information
VERS.                      2.0: CWLS Log ASCII Standard - VERSION 2.0
WRAP.                       NO: One line per depth step
~Well Information Block
STRT.FT               906.0000: 
STOP.FT              1960.5000: 
STEP.FT                 0.2500: 
NULL.                -999.2500: 
COMP.          Petrogulf Corporation: COMPANY
WELL.            Torcom 17-33R: WELL
FLD.           Purgatorie River: FIELD
LOC.           1483' FSL & 1804' FEL: LOCATION
PROV.                 Colorado: PROVINCE
CNTY.               Las Animas: COUNTRY
SRVC.                Patterson: SERVICE COMPANY
DATE.          Thu Aug 18 08:33:01 2005: LOG DATE
UWI.                071 08069 : UNIQUE WELL ID
~Curve Information Block
DEPT.FT            0 000 00 00: Depth
SP.mV                         : DIL Spontaneous Potential
RILD.Ohm-m                    : DIL Deep Resistivity
RILM.Ohm-m                    : DIL Medium Resistivity
RLL3.Ohm-m                    : DIL Shallow Resistivity
GR.GAPI                       : Gamma Ray
~Parameter Information Block
~A  Depth        SP         RILD        RILM        RLL3         GR     
# ...
  1186.0000     56.9797      9.9268     10.6689     16.4514    135.7075
  1186.2500     60.4446     10.0728     10.4630     17.3810    151.7746
  1186.5000     63.4987     10.2536     10.5504     15.5247    151.4728
  1186.7500     64.9020     10.6120     10.6119     14.8042    140.5547
  1187.0000     66.5283     10.9499     10.9040     17.0941    136.2378
  1187.2500     66.9561     11.1219     11.4836     14.5847    146.6955
  1187.5000     67.0411     11.2855     12.2339     13.8364    131.2394
  1187.7500     67.1514     11.3821     13.3036     16.2002    114.6811
  1188.0000     68.0094     11.3043     14.2994     25.0959     94.8901
  1188.2500     71.8613     11.1819     15.0577     41.6137     95.0035
  1188.5000     76.6891     11.1913     15.1592     55.8631    111.8180
  1188.7500     83.5352     11.0407     14.8977     40.5406    118.9639
  1189.0000     91.5099     10.7853     14.3304     24.3152    125.8540
  1189.2500     97.5600     10.7345     13.7291     17.8499    125.6706
  1189.5000     99.5625     10.7455     13.3197     17.2453    136.2566
  1189.7500    100.4223     10.8344     12.7334     18.6365    140.9689
  1190.0000    101.3117     10.8578     12.2079     18.5159    154.6028
  1190.2500    104.4386     10.6493     11.9351     16.0919    155.8490
  1190.5000    106.4703     10.3263     11.4203     14.9279    158.4200
  1190.7500    108.7500     10.0776     11.0665     15.1972    147.8919
  1191.0000    111.4019      9.8592     10.7052     15.9740    149.9544
  1191.2500    111.8939      9.7334     10.4450     14.6964    159.5653
  1191.5000    111.3844      9.7023     10.3044     14.8146    161.6313
  1191.7500    110.4527      9.5671     10.2325     15.2329    145.6871
  1192.0000    108.7160      9.4874     10.2997     15.5417    147.8628
  1192.2500    107.6186      9.4550     10.3193     16.6455    149.5609
  1192.5000    106.8334      9.5452     10.3545     19.5623    132.7316
  1192.7500    105.7327      9.7817     10.5725     18.2798    125.1795
  1193.0000    105.4216     10.0089     10.8352     16.2179    139.2141
  1193.2500    104.9622     10.2985     11.3285     14.9370    140.2587
  1193.5000    103.1487     10.4067     11.8826     17.1334    122.8304
  1193.7500    101.5739     10.6528     12.7329     18.5362    122.1139
  1194.0000    100.7451     10.8033     13.3513     24.7328    120.3967
  1194.2500    101.2690     11.0232     13.7111     32.7213    114.0637
  1194.5000    102.0775     11.2755     13.7243     34.2022    113.0867
  1194.7500    102.4335     11.5535     13.5719     26.1718    116.9126
  1195.0000    102.3959     11.7774     13.4491     19.2369    129.0420
  1195.2500    102.3476     11.7930     13.4679     15.6810    126.6281
  1195.5000    102.8910     11.8657     13.7440     15.6072    138.5381
  1195.7500    102.4255     11.8669     13.8746     19.1168    138.2133
  1196.0000    101.7010     11.9699     13.9050     21.1045    134.0688
  1196.2500    101.0788     12.1828     13.7757     20.5717    132.1651
  1196.5000    101.0723     12.0357     13.0508     18.4195    130.9908
  1196.7500    100.7366     11.9234     12.5319     16.1222    130.6711
  1197.0000     99.9531     11.8657     12.2840     14.9602    141.0715
  1197.2500     98.8203     11.7646     12.3403     15.3211    138.0956
  1197.5000     99.0907     11.8071     12.6788     16.1914    129.3942
  1197.7500     98.3240     11.8430     13.3451     19.0428    120.4003
  1198.0000     97.6587     11.6544     13.9554     19.5211    114.9296
  1198.2500     96.6169     11.3345     14.4859     21.3053    107.8433
  1198.5000     95.6341     11.1157     14.6328     22.7596    109.7717
  1198.7500     95.0536     10.9804     14.6019     21.2419    112.1239
  1199.0000     95.0676     10.7450     14.3666     18.2421    122.9012
  1199.2500     94.0993     10.7211     14.0228     18.4589    122.1494
  1199.5000     93.0433     10.6590     13.5589     19.6723    117.7963
  1199.7500     91.9512     10.4133     13.1220     18.5462    132.8990
  1200.0000     90.5600     10.2736     12.8462     16.4502    133.7979
  1200.2500     89.6913     10.0297     12.5364     16.3922    136.8862
  1200.5000     88.0931      9.8075     12.0024     16.0234    142.8046
  1200.7500     86.7825      9.5413     11.4691     15.7235    139.3415
  1201.0000     86.6964      9.3034     10.9062     14.8994    140.7669
  1201.2500     86.0465      9.1197     10.3034     14.2999    148.4798
  1201.5000     84.3800      8.9148      9.7906     12.2447    150.2014
  1201.7500     82.3400      8.8192      9.3272      9.7510    153.9816
  1202.0000     80.1255      8.7146      9.0490     10.1168    148.9266
  1202.2500     78.1021      8.7150      8.8060     11.6788    141.6030
  1202.5000     77.0447      8.9184      8.7430     11.8544    140.7321
  1202.7500     75.8123      9.0440      8.7655     10.9243    146.6208
  1203.0000     74.6611      9.2921      9.0533      9.4963    152.6630
  1203.2500     74.2094      9.7170      9.3879     11.3235    149.0343
  1203.5000     74.7688     10.2367      9.8972     10.7220    145.9610
  1203.7500     75.0378     10.8589     10.6277     14.2247    140.5493
  1204.0000     76.1169     11.5491     11.8010     17.0234    106.9789
  1204.2500     77.8765     12.2666     13.4833     22.3721     88.6205
  1204.5000     80.2523     12.9414     15.6475     40.9572     73.2376
  1204.7500     82.3181     13.7855     18.4433     95.1347     57.6723
  1205.0000     83.8992     14.7267     22.2787    198.4948     53.2881
  1205.2500     85.2605     15.4547     26.3794    324.0328     62.9314
  1205.5000     87.2795     16.5538     30.5156    400.1436     60.7036
  1205.7500     88.8878     17.2284     33.8216    369.6479     62.0724
  1206.0000     90.7911     17.5479     34.7767    275.4419     76.3478
  1206.2500     93.7046     17.9244     33.5959    159.3350     81.9915
  1206.5000     96.9584     18.3496     31.5975     75.6447     89.6137
  1206.7500    100.1476     17.9263     28.4476     40.2521     99.5429
  1207.0000    102.0708     17.3005     24.7042     28.0627    108.3792
  1207.2500    103.7094     16.3036     21.5860     21.1159    123.0752
  1207.5000    105.8377     14.9435     19.2397     17.4567    119.7709
  1207.7500    106.8018     13.9268     17.1609     16.2468    128.0161
  1208.0000    108.6149     12.9301     15.6602     15.8258    131.2208
  1208.2500    109.4599     12.0372     14.3053     15.3875    138.5923
  1208.5000    110.0177     11.0942     13.0807     15.0395    143.4623
  1208.7500    110.9482     10.3732     12.0524     15.0471    139.9506
  1209.0000    112.3351      9.7058     11.0953     14.4769    134.4488
  1209.2500    112.9012      9.1899     10.2764     12.5744    138.7915
  1209.5000    113.0110      8.7711      9.7017     11.9607    141.8376
  1209.7500    112.6102      8.5611      9.1842     11.0074    153.5846
  1210.0000    112.0500      8.3503      8.7848     10.9163    154.3721
  1210.2500    111.3483      8.1436      8.5605     10.3537    149.9135
  1210.5000    110.4125      8.0225      8.4259     10.6250    136.9493
  1210.7500    110.5915      7.9315      8.3401     10.8986    143.7966
  1211.0000    110.2669      7.8647      8.3771     11.4677    143.6978
  1211.2500    109.9740      7.8004      8.3850     11.0426    137.3794
  1211.5000    110.9675      7.7144      8.4213     11.3907    133.0271
  1211.7500    110.3324      7.7393      8.5553     12.2748    130.7820
  1212.0000    108.8560      7.6997      8.6941     12.5420    132.9876
  1212.2500    107.1047      7.6653      8.8495     12.4504    143.6885
  1212.5000    105.0732      7.7387      8.9095     13.4853    131.4670
  1212.7500    104.3190      7.8339      8.8953     13.6340    131.3100
  1213.0000    103.3201      7.8659      8.9912     14.1179    135.9438
  1213.2500    102.5049      7.9852      9.0170     13.6305    128.5090
  1213.5000    101.5781      8.1485      9.0675     12.6023    130.3652
  1213.7500    100.7029      8.2789      9.1148     12.3744    138.1034
