~Version Information
VERS.                      2.0: CWLS Log ASCII Standard - VERSION 2.0
WRAP.                       NO: One line per depth step
~Well Information Block
STRT.FT                -7.5000: 
STOP.FT              1716.7500: 
STEP.FT                 0.2500: 
NULL.                -999.2500: 
COMP.          Pioneer Natural Resources: COMPANY
WELL.          Lookout Point 31-23 Tr: WELL
FLD.           Purgatorie River: FIELD
LOC.           541' FNL & 1786' FEL--------: LOCATION
PROV.                       CO: PROVINCE
CNTY.               Las Animas: COUNTRY
SRVC.                         : SERVICE COMPANY
DATE.          Fri Jan 28 08:30:47 2005: LOG DATE
UWI.         005 071 08260 : UNIQUE WELL ID
~Curve Information Block
DEPT.FT            0 000 00 00: Depth
CCL.                          : Casing Collar Locator
TT3.usec                      : CBL 3' Travel Time
AMP3.mV                       : CBL 3' Amplitude
GR.GAPI                       : Gamma Ray
~Parameter Information Block
~A  Depth       CCL         TT3         AMP3         GR     
# ...
   562.0000      0.0000    697.2387      2.0592     87.2392
   562.2500      0.0000    693.8502      1.9180     95.8691
   562.5000      0.0000    692.8719      1.7907    101.2763
   562.7500      0.0000    693.7068      1.6963    101.7762
   563.0000      0.0000    695.2183      1.6481     98.7076
   563.2500      0.0000    696.6632      1.6487     94.3654
   563.5000      0.0000    697.9262      1.6937     89.8371
   563.7500      0.0000    699.1259      1.7745     85.4021
   564.0000      0.0000    700.2910      1.8809     81.9901
   564.2500      0.0000    701.4437      2.0070     81.0096
   564.5000      0.0000    702.8788      2.1501     82.8548
   564.7500      0.0000    705.1743      2.3067     86.3172
   565.0000      0.0000    708.5826      2.4777     89.6038
   565.2500      0.0000    712.0735      2.6696     91.5725
   565.5000      0.0000    713.2967      2.8775     91.9486
   565.7500      0.0000    710.4017      3.0756     90.9134
   566.0000      0.0000    704.2005      3.2418     89.0515
   566.2500      0.0000    697.8116      3.3794     87.5394
   566.5000      0.0000    693.7675      3.5017     87.6681
   566.7500      0.0000    692.1340      3.6095     89.8375
   567.0000      0.0000    691.8357      3.6995     93.2565
   567.2500      0.0000    693.1709      3.7761     96.7230
   567.5000      0.0000    698.2034      3.8377     99.4654
   567.7500      0.0000    708.3853      3.8730    101.1989
   568.0000      0.0000    721.9808      3.8819    101.7462
   568.2500      0.0000    734.3779      3.8816    100.9805
   568.5000      0.0000    741.5158      3.8841     99.1135
   568.7500      0.0000    743.1817      3.8875     96.6716
   569.0000      0.0000    742.9791      3.8873     94.0715
   569.2500      0.0000    745.0071      3.8752     91.5091
   569.5000      0.0000    750.2990      3.8357     89.2431
   569.7500      0.0000    756.3445      3.7676     87.4872
   570.0000      0.0000    760.1014      3.6962     85.9224
   570.2500      0.0000    761.0580      3.6464     83.8515
   570.5000      0.0000    761.1489      3.6181     81.0280
   570.7500      0.0000    762.5358      3.6040     78.0367
   571.0000      0.0000    765.8264      3.6050     75.7744
   571.2500      0.0000    769.5459      3.6159     74.6969
   571.5000      0.0000    770.9597      3.6198     74.4808
   571.7500      0.0000    768.2337      3.6080     74.1904
   572.0000      0.0000    762.2761      3.5875     72.8166
   572.2500      0.0000    756.1318      3.5694     70.0424
   572.5000      0.0000    752.3474      3.5649     66.8223
   572.7500      0.0000    751.0411      3.5827     65.0181
   573.0000      0.0000    750.5564      3.6130     66.1102
   573.2500      0.0000    749.6971      3.6331     70.1460
   573.5000      0.0000    748.9291      3.6357     75.7308
   573.7500      0.0000    749.2812      3.6339     80.8262
   574.0000      0.0000    750.5597      3.6377     83.9689
   574.2500      0.0000    751.2329      3.6461     85.2647
   574.5000      0.0000    750.0746      3.6556     85.9907
   574.7500      0.0000    747.4354      3.6606     86.9307
   575.0000      0.0000    744.6948      3.6581     87.4327
   575.2500      0.0000    742.8788      3.6544     86.3554
   575.5000      0.0000    742.0738      3.6575     83.5541
   575.7500      0.0000    741.7711      3.6657     80.1206
   576.0000      0.0000    741.3324      3.6791     77.3184
   576.2500      0.0000    740.1401      3.7079     75.4279
   576.5000      0.0000    737.4495      3.7556     73.5464
   576.7500      0.0000    731.9557      3.8064     70.5846
   577.0000      0.0000    720.9088      3.8367     66.6019
   577.2500      0.0000    699.4661      3.8261     62.8962
   577.5000      0.0000    662.4550      3.7658     60.7304
   577.7500      0.0000    609.4933      3.6721     60.4475
   578.0000      0.0000    548.8837      3.5837     61.7966
   578.2500      0.0000    494.1128      3.5295     64.2383
   578.5000      0.0000    455.3851      3.5083     66.6298
   578.7500      0.0000    435.5255      3.5056     67.5171
   579.0000      0.0000    433.5221      3.5122     66.3975
   579.2500      0.0000    449.4514      3.5226     64.3695
   579.5000      0.0000    484.4702      3.5325     63.2771
   579.7500      0.0000    536.2084      3.5414     64.3592
   580.0000      0.0000    595.2650      3.5508     67.4360
   580.2500      0.0000    647.9933      3.5648     70.9041
   580.5000      0.0000    683.9907      3.5912     72.7940
   580.7500      0.0000    701.2822      3.6299     72.5189
   581.0000      0.0000    705.0994      3.6645     71.6661
   581.2500      0.0000    702.8081      3.6823     72.7819
   581.5000      0.0000    699.6738      3.6908     77.3923
   581.7500      0.0000    697.7553      3.7034     85.2324
   582.0000      0.0000    697.1169      3.7221     94.7839
   582.2500      0.0000    697.3664      3.7374    103.9002
   582.5000      0.0000    698.4429      3.7295    110.3325
   582.7500      0.0000    700.6211      3.6739    112.6605
   583.0000      0.0000    704.0643      3.5708    111.0153
   583.2500      0.0000    708.3394      3.4608    106.7073
   583.5000      0.0000    712.5002      3.3902    101.2512
   583.7500      0.0000    715.7894      3.3688     95.8095
   584.0000      0.0000    718.1666      3.3731     91.0280
   584.2500      0.0000    720.1172      3.3762     86.8018
   584.5000      2.0000    722.1700      3.3695     82.2733
   584.7500      2.0000    724.6906      3.3689     76.5515
   585.0000      0.0000    728.0414      3.4145     69.6548
   585.2500      0.0000    732.6140      3.5603     62.5441
   585.5000      0.0000    738.4814      3.8400     56.0733
   585.7500      0.0000    745.0632      4.2107     50.2860
   586.0000      0.0000    751.1875      4.5392     45.0672
   586.2500      0.0000    755.3854      4.6820     40.9754
   586.5000      0.0000    756.3315      4.5937     38.7113
   586.7500      0.0000    753.5869      4.3496     38.0857
   587.0000      0.0000    748.1786      4.0714     38.3694
   587.2500      0.0000    741.9999      3.8437     39.6433
   587.5000      0.0000    736.5236      3.6940     43.0127
   587.7500      0.0000    732.7006      3.6173     49.1984
   588.0000      0.0000    731.7491      3.5972     57.3634
   588.2500      0.0000    734.3913      3.6151     65.5863
   588.5000      0.0000    739.0113      3.6642     72.1567
   588.7500      0.0000    742.3466      3.7527     76.3438
   589.0000      0.0000    743.0287      3.8829     78.4554
   589.2500      0.0000    743.1551      4.0312     79.4475
   589.5000      0.0000    745.3870      4.1548     80.1051
   589.7500      0.0000    749.4999      4.2150     80.3285
   590.0000      0.0000    752.8607      4.1993     79.3113
   590.2500      0.0000    753.6335      4.1290     76.2842
   590.5000      0.0000    752.2874      4.0446     70.9981
   590.7500      0.0000    749.9250      3.9811     63.9775
   591.0000      0.0000    746.2968      3.9515     56.8607
   591.2500      0.0000    740.5489      3.9469     52.1760
   591.5000      0.0000    733.7707      3.9549     52.1520
   591.7500      0.0000    729.4865      3.9782     57.5408
   592.0000      0.0000    730.7205      4.0303     67.4527
   592.2500      0.0000    737.0393      4.1092     79.8992
   592.5000      0.0000    745.1257      4.1815     92.3516
   592.7500      0.0000    751.8531      4.2023    102.4346
   593.0000      0.0000    756.3978      4.1573    108.9286
   593.2500      0.0000    759.8471      4.0791    112.3955
   593.5000      0.0000    763.4174      4.0154    114.5058
   593.7500      0.0000    766.9295      3.9911    116.5041
   594.0000      0.0000    768.7190      4.0007    118.3372
   594.2500      0.0000    767.3717      4.0256    119.1769
   594.5000      0.0000    763.8839      4.0502    118.6334
   594.7500      0.0000    761.5577      4.0671    117.4308
   595.0000      0.0000    762.8096      4.0758    116.9958
   595.2500      0.0000    766.1542      4.0825    118.3733
