~Version Information
VERS.                      2.0: CWLS Log ASCII Standard - VERSION 2.0
WRAP.                       NO: One line per depth step
~Well Information Block
STRT.FT               550.0000: 
STOP.FT              2359.0000: 
STEP.FT                 0.1000: 
NULL.                -999.2500: 
COMP.          Pioneer Natural Resources: COMPANY
WELL.              Whinny 42-2: WELL
FLD.           Purgatoire River: FIELD
LOC.           1836' FNL & 466' FEL: LOCATION
PROV.                 Colorado: PROVINCE
CNTY.               Las Animas: COUNTRY
SRVC.                Patterson: SERVICE COMPANY
DATE.          Mon Aug 22 07:28:42 2005: LOG DATE
UWI.           05 071 08406 00: UNIQUE WELL ID
~Curve Information Block
DEPT.FT            0 000 00 00: Depth
DCAL.in                       : CDL Caliper
RHOB.g/cc                     : CDL Bulk Density
RHOC.g/cc                     : CDL Density Correction
DPOR.pu                       : CDL Density Porosity
GR.GAPI                       : Gamma Ray
NPOR.pu                       : Neutron Porosity
~Parameter Information Block
~A  Depth       DCAL        RHOB        RHOC        DPOR         GR         NPOR    
# ...
  1865.2000      7.8949      2.5103      0.0360      8.4670     48.4992      4.4980
  1865.3000      7.9018      2.5447      0.0498      6.3803     47.7113      5.0990
  1865.4000      7.9018      2.5796      0.0881      4.2660     46.6141      5.5388
  1865.5000      7.9033      2.6006      0.0566      2.9921     47.7633      5.8741
  1865.6000      7.9033      2.6190      0.1102      1.8793     50.8375      6.2359
  1865.7000      7.9033      2.6324      0.1376      1.0673     55.3424      6.5819
  1865.8000      7.9242      2.6228      0.1037      1.6490     62.0527      6.8867
  1865.9000      7.9242      2.5965      0.0653      3.2440     67.4396      7.3626
  1866.0000      7.9278      2.5785      0.0646      4.3345     68.4865      7.7504
  1866.1000      7.9278      2.5742      0.1062      4.5949     70.3607      7.5395
  1866.2000      7.9278      2.5626      0.0908      5.2941     78.2117      7.4311
  1866.3000      7.9295      2.5379      0.0490      6.7963     89.1743      8.4889
  1866.4000      7.9295      2.5185      0.0812      7.9726     98.8031     10.4124
  1866.5000      7.9280      2.5112      0.0654      8.4111    104.0340     12.4009
  1866.6000      7.9280      2.5095      0.0214      8.5159    104.6594     14.3453
  1866.7000      7.9280      2.5149      0.0504      8.1849    107.3529     16.0307
  1866.8000      7.9264      2.5273      0.0397      7.4357    115.8885     17.0882
  1866.9000      7.9264      2.5336      0.0815      7.0567    123.7313     18.1885
  1867.0000      7.9352      2.5253      0.0764      7.5601    125.0875     20.1121
  1867.1000      7.9352      2.5143      0.0474      8.2223    123.1581     22.4244
  1867.2000      7.9352      2.5177      0.0426      8.0162    125.3386     24.4538
  1867.3000      7.9268      2.5371      0.1101      6.8436    131.4992     26.1973
  1867.4000      7.9268      2.5601      0.1369      5.4510    134.9403     27.6496
  1867.5000      7.9551      2.5717      0.1526      4.7473    136.5332     28.4442
  1867.6000      7.9551      2.5644      0.1423      5.1869    138.5606     28.3684
  1867.7000      7.9551      2.5392      0.1605      6.7152    135.7289     27.9800
  1867.8000      8.0609      2.5004      0.1125      9.0692    129.4969     28.2470
  1867.9000      8.0609      2.4685      0.0525     10.9990    127.5433     29.0647
  1868.0000      8.1580      2.4683      0.0276     11.0106    131.9339     29.4027
  1868.1000      8.1580      2.4933      0.0771      9.4983    136.6532     29.0092
  1868.2000      8.1580      2.5179      0.0370      8.0050    134.9636     28.7305
  1868.3000      8.2192      2.5340      0.0577      7.0310    130.4057     29.1243
  1868.4000      8.2192      2.5421      0.1064      6.5397    129.9784     29.6413
  1868.5000      8.2364      2.5356      0.0516      6.9349    133.7480     29.6522
  1868.6000      8.2364      2.5124      0.0516      8.3370    135.7237     29.2312
  1868.7000      8.2364      2.4808      0.0260     10.2556    131.0673     28.7181
  1868.8000      8.2177      2.4635      0.0103     11.3037    123.8414     28.8068
  1868.9000      8.2177      2.4783      0.0651     10.4032    121.5380     29.7707
  1869.0000      8.1980      2.5086      0.1117      8.5705    126.4180     30.6150
  1869.1000      8.1980      2.5350      0.0521      6.9669    133.5116     30.4896
  1869.2000      8.1980      2.5603      0.0748      5.4370    133.0095     29.7941
  1869.3000      8.1622      2.5804      0.1122      4.2179    125.6909     29.4413
  1869.4000      8.1622      2.5821      0.1210      4.1171    118.5597     29.7757
  1869.5000      8.1521      2.5643      0.0461      5.1942    112.3385     30.4127
  1869.6000      8.1521      2.5464      0.0303      6.2766    109.9048     30.6175
  1869.7000      8.1521      2.5417      0.0505      6.5662    112.5328     30.1010
  1869.8000      8.1529      2.5405      0.0463      6.6374    116.2593     29.4092
  1869.9000      8.1529      2.5319      0.0502      7.1578    118.6030     29.0911
  1870.0000      8.1863      2.5220      0.0270      7.7580    117.7098     29.0696
  1870.1000      8.1863      2.5280      0.0331      7.3934    111.5818     28.7764
  1870.2000      8.1863      2.5425      0.0894      6.5125    102.5712     28.3452
  1870.3000      8.1557      2.5326      0.1012      7.1142     96.5563     28.3160
  1870.4000      8.1557      2.4982      0.0209      9.2024     96.8845     28.0676
  1870.5000      8.1554      2.4780      0.0100     10.4255    102.0715     26.9257
  1870.6000      8.1554      2.4890      0.0307      9.7601    106.4742     25.7193
  1870.7000      8.1554      2.5103      0.0485      8.4647    106.1461     25.4639
  1870.8000      8.1518      2.5232      0.0559      7.6841    102.4415     26.0101
  1870.9000      8.1518      2.5309      0.0167      7.2203     98.9438     26.5547
  1871.0000      8.1489      2.5336      0.0654      7.0575    100.1997     26.7315
  1871.1000      8.1489      2.5199      0.0097      7.8876    107.6808     26.8606
  1871.2000      8.1489      2.4963     -0.0217      9.3168    116.1768     26.7481
  1871.3000      8.1358      2.4847     -0.0033     10.0155    118.1515     26.2267
  1871.4000      8.1358      2.4972     -0.0004      9.2606    111.8967     25.8646
  1871.5000      8.1380      2.5275      0.0568      7.4232    103.5921     25.8620
  1871.6000      8.1380      2.5545      0.0310      5.7891     98.9841     26.1604
  1871.7000      8.1380      2.5629      0.0277      5.2758     97.7534     27.0483
  1871.8000      8.1335      2.5611      0.0099      5.3881     96.3089     28.3209
  1871.9000      8.1335      2.5615      0.0621      5.3610     97.0483     28.8846
  1872.0000      8.1314      2.5587      0.0553      5.5353    103.8389     28.2689
  1872.1000      8.1314      2.5576     -0.0328      5.5985    114.2534     27.3518
  1872.2000      8.1314      2.5767      0.0617      4.4451    125.8240     26.8427
  1872.3000      8.1166      2.5986      0.0840      3.1134    136.4697     26.2863
  1872.4000      8.1166      2.5976      0.0798      3.1737    140.1718     25.7306
  1872.5000      8.0813      2.5847      0.0290      3.9552    133.1791     25.9678
  1872.6000      8.0813      2.5805      0.0768      4.2129    120.9077     26.8457
  1872.7000      8.0813      2.5830      0.0799      4.0629    116.1534     27.7209
  1872.8000      8.0683      2.5864      0.0580      3.8548    121.8621     28.1378
  1872.9000      8.0683      2.5892      0.0480      3.6845    125.3938     27.8221
  1873.0000      8.0875      2.5809      0.0480      4.1897    120.9927     26.8338
  1873.1000      8.0875      2.5627      0.0225      5.2886    115.9420     25.7456
  1873.2000      8.0875      2.5497      0.0465      6.0818    115.2083     25.1525
  1873.3000      8.0748      2.5360      0.0570      6.9088    119.9156     24.8817
  1873.4000      8.0748      2.5134      0.0326      8.2765    126.1981     24.6661
  1873.5000      8.0747      2.4999     -0.0148      9.0974    124.6441     25.1363
  1873.6000      8.0747      2.5050      0.0307      8.7867    115.0002     26.5496
  1873.7000      8.0747      2.5137     -0.0182      8.2623    107.4152     27.7196
  1873.8000      8.0812      2.5211      0.0078      7.8103    102.0221     27.7056
  1873.9000      8.0812      2.5340      0.0307      7.0289     92.2564     26.8117
  1874.0000      8.0699      2.5486      0.0600      6.1442     83.1444     25.4964
  1874.1000      8.0699      2.5500      0.0661      6.0587     82.4587     24.1931
  1874.2000      8.0699      2.5346      0.0109      6.9936     88.4930     23.5503
  1874.3000      8.0881      2.5193     -0.0223      7.9202     97.3357     23.4661
  1874.4000      8.0881      2.5165     -0.0220      8.0880    104.1834     23.7080
  1874.5000      8.0748      2.5208      0.0304      7.8308    103.9000     24.4817
  1874.6000      8.0748      2.5299     -0.0227      7.2803     99.1637     25.5419
  1874.7000      8.0748      2.5485      0.0187      6.1504     95.6956     26.1842
