~Version Information
VERS.                      2.0: CWLS Log ASCII Standard - VERSION 2.0
WRAP.                       NO: One line per depth step
~Well Information Block
STRT.FT                -7.2500: 
STOP.FT              2827.7500: 
STEP.FT                 0.2500: 
NULL.                -999.2500: 
COMP.          Pioneer Natural Resources: COMPANY
WELL.           Ei-ei-oh 31-24: WELL
FLD.           Purgatorie River: FIELD
LOC.           235' FNL & 2001' FEL--: LOCATION
PROV.                       CO: PROVINCE
CNTY.               Las Animas: COUNTRY
SRVC.          Patterson Wireline: SERVICE COMPANY
DATE.          Tue Aug 23 12:06:00 2005: LOG DATE
UWI.           05 071 08403 00: UNIQUE WELL ID
~Curve Information Block
DEPT.FT            0 000 00 00: Depth
CCL.                          : Casing Collar Locator
TT3.usec                      : CBL 3' Travel Time
AMP3.mV                       : CBL 3' Amplitude
GR.GAPI                       : Gamma Ray
~Parameter Information Block
~A  Depth       CCL         TT3         AMP3         GR     
# ...
  1299.2500      0.0000    819.0652      9.8799    126.0079
  1299.5000      0.0000    812.8764     10.0263    121.7873
  1299.7500      0.0000    807.7852     10.2405    118.8200
  1300.0000      0.0000    804.1898     10.5237    118.8701
  1300.2500      0.0000    801.6909     10.8611    121.5918
  1300.5000      0.0000    798.9828     11.2252    125.0445
  1300.7500      0.0000    794.3052     11.5785    127.5060
  1301.0000      0.0000    786.5647     11.8667    128.3876
  1301.2500      0.0000    776.7401     12.0305    127.9508
  1301.5000      0.0000    767.9530     12.0474    127.0472
  1301.7500      0.0000    763.0471     11.9615    126.9022
  1302.0000      0.0000    761.7653     11.8610    128.1032
  1302.2500      0.0000    761.1837     11.8293    129.6238
  1302.5000      0.0000    759.2214     11.9168    129.5831
  1302.7500      0.0000    757.0593     12.1413    127.1658
  1303.0000      0.0000    757.8821     12.4899    123.2740
  1303.2500      0.0000    763.8633     12.9162    119.3057
  1303.5000      0.0000    774.4440     13.3417    116.1163
  1303.7500      0.0000    786.5308     13.6764    114.3979
  1304.0000      0.0000    795.6746     13.8572    115.0928
  1304.2500      0.0000    797.3647     13.8806    118.4773
  1304.5000      0.0000    786.9459     13.8024    123.0359
  1304.7500      0.0000    758.4465     13.7126    126.1891
  1305.0000      0.0000    706.7441     13.7051    126.5141
  1305.2500      0.0000    635.2938     13.8337    124.7256
  1305.5000      0.0000    562.3250     14.0441    122.4476
  1305.7500      0.0000    515.2913     14.1377    120.8833
  1306.0000      0.0000    514.4487     13.8548    120.5806
  1306.2500      0.0000    558.9080     13.0716    121.2183
  1306.5000      0.0000    627.0277     11.9503    121.2887
  1306.7500      0.0000    691.0091     10.8487    118.9382
  1307.0000      0.0000    733.7469     10.0478    113.8689
  1307.2500      0.0000    754.8660      9.5826    108.3157
  1307.5000      0.0000    763.9857      9.3205    105.6051
  1307.7500      0.0000    770.3246      9.1328    107.3524
  1308.0000      0.0000    777.5768      8.9841    112.0762
  1308.2500      0.0000    784.8542      8.9279    116.6070
  1308.5000      0.0000    789.2068      9.0407    118.6727
  1308.7500      0.0000    787.7275      9.3110    118.1488
  1309.0000      0.0000    780.2932      9.5801    116.4603
  1309.2500      0.0000    771.3002      9.6630    115.3336
  1309.5000      0.0000    766.9622      9.5384    115.7696
  1309.7500      0.0000    769.9193      9.3516    117.6212
  1310.0000      0.0000    777.1774      9.2345    120.1439
  1310.2500      0.0000    783.3792      9.1974    122.9375
  1310.5000      0.0000    785.4418      9.1867    126.0592
  1310.7500      0.0000    784.4758      9.1733    129.2992
  1311.0000      0.0000    783.9589      9.1695    131.7536
  1311.2500      0.0000    786.2411      9.1962    132.2140
  1311.5000      0.0000    790.7529      9.2612    130.1465
  1311.7500      0.0000    795.3261      9.3603    126.5635
  1312.0000      0.0000    798.4860      9.4790    123.6080
  1312.2500      0.0000    800.1489      9.5844    122.6675
  1312.5000      0.0000    800.8687      9.6303    122.9055
  1312.7500      0.0000    801.0846      9.5860    122.0342
  1313.0000      0.0000    800.9983      9.4675    118.7561
  1313.2500      0.0000    800.7379      9.3361    114.3517
  1313.5000      0.0000    800.4280      9.2529    111.3828
  1313.7500      0.0000    800.1453      9.2288    110.9735
  1314.0000      0.0000    799.8782      9.2201    112.2595
  1314.2500      0.0000    799.5140      9.1773    114.4776
  1314.5000      0.0000    798.7125      9.0884    118.1409
  1314.7500      0.0000    796.6733      8.9718    123.6197
  1315.0000      0.0000    792.1994      8.8420    129.7095
  1315.2500      0.0000    784.6787      8.6995    134.2524
  1315.5000      0.0000    775.6031      8.5483    135.6810
  1315.7500      0.0000    768.5665      8.4062    134.0268
  1316.0000      0.0000    766.2682      8.2923    131.0455
  1316.2500      0.0000    767.0940      8.2086    129.2057
  1316.5000      0.0000    765.8055      8.1385    129.8214
  1316.7500      0.0000    758.5513      8.0668    131.9134
  1317.0000      0.0000    746.9133      7.9996    133.0540
  1317.2500      0.0000    736.7121      7.9619    131.4153
  1317.5000      0.0000    732.9362      7.9715    127.1492
  1317.7500      0.0000    735.8201      8.0186    122.3554
  1318.0000      0.0000    741.5562      8.0688    119.7745
  1318.2500      0.0000    746.2961      8.0851    120.7665
  1318.5000      0.0000    748.9265      8.0517    124.0050
  1318.7500      0.0000    750.2700      7.9807    126.5467
  1319.0000      0.0000    750.8883      7.9004    126.4148
  1319.2500      0.0000    750.4067      7.8356    123.7450
  1319.5000      0.0000    748.6357      7.8011    119.5226
  1319.7500      0.0000    746.9460      7.8093    114.3080
  1320.0000      0.0000    747.6787      7.8715    108.6749
  1320.2500      0.0000    750.9858      7.9854    104.0199
  1320.5000      0.0000    752.7281      8.1235    101.8804
  1320.7500      0.0000    747.4391      8.2432    102.4809
  1321.0000      0.0000    733.9402      8.3113    104.5601
  1321.2500      0.0000    717.3712      8.3204    106.7270
  1321.5000      0.0000    705.6767      8.2854    108.5250
  1321.7500      0.0000    704.5261      8.2310    110.1379
  1322.0000      0.0000    714.7551      8.1808    111.6640
  1322.2500      0.0000    732.9491      8.1546    112.9659
  1322.5000      0.0000    753.7145      8.1694    113.7455
  1322.7500      0.0000    772.1542      8.2320    113.5564
  1323.0000      0.0000    785.5162      8.3287    112.2516
  1323.2500      0.0000    793.5162      8.4263    110.6663
  1323.5000      0.0000    797.4969      8.4942    110.3083
  1323.7500      0.0000    799.1819      8.5262    111.9574
  1324.0000      0.0000    799.8389      8.5397    114.8079
  1324.2500      0.0000    800.1133      8.5575    117.2550
  1324.5000      0.0000    800.2441      8.5923    118.2148
  1324.7500      0.0000    800.3013      8.6454    117.4090
  1325.0000      0.0000    800.3026      8.7062    114.6710
  1325.2500      0.0000    800.2585      8.7552    109.8029
  1325.5000      0.0000    800.1819      8.7736    103.6848
  1325.7500      0.0000    800.0765      8.7566     98.9179
  1326.0000      0.0000    799.8522      8.7148     98.1397
  1326.2500      0.0000    799.1324      8.6637    101.3392
  1326.5000      0.0000    796.9747      8.6161    105.4489
  1326.7500      0.0000    791.8339      8.5785    106.9325
  1327.0000      0.0000    782.4004      8.5501    104.7659
  1327.2500      0.0000    769.3062      8.5238    101.1641
  1327.5000      0.0000    756.1058      8.4933     99.7024
  1327.7500      0.0000    747.6564      8.4591    102.3294
  1328.0000      0.0000    746.6127      8.4279    107.5453
  1328.2500      0.0000    751.4780      8.4075    111.4388
  1328.5000      0.0000    758.3381      8.4032    110.8073
  1328.7500      0.0000    764.2799      8.4157    105.4258
  1329.0000      0.0000    768.8233      8.4374     97.6725
  1329.2500      0.0000    772.5305      8.4491     90.7111
  1329.5000      0.0000    775.1854      8.4269     86.8687
  1329.7500      0.0000    775.6054      8.3552     86.8001
  1330.0000      0.0000    772.9724      8.2368     89.7216
  1330.2500      0.0000    768.0074      8.0929     94.3772
  1330.5000      0.0000    762.3033      7.9500     99.7031
  1330.7500      0.0000    756.5104      7.8243    104.7677
  1331.0000      0.0000    750.1524      7.7215    108.5354
  1331.2500      0.0000    743.7621      7.6497    110.0046
  1331.5000      0.0000    740.2692      7.6253    108.7999
  1331.7500      0.0000    743.1977      7.6601    105.5917
  1332.0000      0.0000    753.4325      7.7478    101.6213
  1332.2500      0.0000    768.1536      7.8654     97.7108
  1332.5000      0.0000    783.0939      7.9901     94.1094
