~Version Information
VERS.                      2.0: CWLS Log ASCII Standard - VERSION 2.0
WRAP.                       NO: One line per depth step
~Well Information Block
STRT.FT               390.0000: 
STOP.FT              2770.2500: 
STEP.FT                 0.2500: 
NULL.                -999.2500: 
COMP.          Pioneer Natural Resources: COMPANY
WELL.              Lynch 43-30: WELL
FLD.           Purgatoire River: FIELD
LOC.           1438' FSL & 429' FEL: LOCATION
PROV.                 Colorado: PROVINCE
CNTY.               Las Animas: COUNTRY
SRVC.                Patterson: SERVICE COMPANY
DATE.          Wed Oct 27 08:06:51 2004: LOG DATE
UWI.           05 071 08170 00: UNIQUE WELL ID
~Curve Information Block
DEPT.FT            0 000 00 00: Depth
DIR.Ohm-m                     : IEL Induction Resistivity
SN.Ohm-m                      : IEL Short Normal
SP.mV                         : IEL Spontaneous Potential
GR.GAPI                       : Gamma Ray
~Parameter Information Block
~A  Depth       DIR          SN          SP          GR     
# ...
   691.5000     14.0663   2000.0000   2000.0000    146.6501
   691.7500     13.9445   2000.0000   2000.0000    145.4339
   692.0000     13.9280   2000.0000   2000.0000    143.1813
   692.2500     13.9911   2000.0000   2000.0000    141.4502
   692.5000     14.0867   2000.0000   2000.0000    138.7273
   692.7500     14.1741   2000.0000   2000.0000    137.1362
   693.0000     14.2344   2000.0000   2000.0000    135.8565
   693.2500     14.2656   2000.0000   2000.0000    136.0129
   693.5000     14.2708   2000.0000   2000.0000    137.4124
   693.7500     14.2529   2000.0000   2000.0000    138.5484
   694.0000     14.2196   2000.0000   2000.0000    139.6598
   694.2500     14.1898   2000.0000   2000.0000    139.7708
   694.5000     14.1907   2000.0000   2000.0000    139.0063
   694.7500     14.2448   2000.0000   2000.0000    138.1428
   695.0000     14.3549   2000.0000   2000.0000    137.4633
   695.2500     14.5002   2000.0000   2000.0000    138.2731
   695.5000     14.6457   2000.0000   2000.0000    141.9056
   695.7500     14.7598   2000.0000   2000.0000    145.2927
   696.0000     14.8252   2000.0000   2000.0000    149.9676
   696.2500     14.8393   2000.0000   2000.0000    152.1756
   696.5000     14.8100   2000.0000   2000.0000    154.2550
   696.7500     14.7517   2000.0000   2000.0000    155.0935
   697.0000     14.6847   2000.0000   2000.0000    155.4912
   697.2500     14.6304   2000.0000   2000.0000    155.0963
   697.5000     14.6047   2000.0000   2000.0000    154.1091
   697.7500     14.6105   2000.0000   2000.0000    153.8647
   698.0000     14.6369   2000.0000   2000.0000    154.6635
   698.2500     14.6658   2000.0000   2000.0000    155.5783
   698.5000     14.6857   2000.0000   2000.0000    156.3602
   698.7500     14.7001   2000.0000   2000.0000    156.2758
   699.0000     14.7259   2000.0000   2000.0000    156.2276
   699.2500     14.7817   2000.0000   2000.0000    157.1211
   699.5000     14.8775   2000.0000   2000.0000    160.3489
   699.7500     15.0119   2000.0000   2000.0000    163.1073
   700.0000     15.1780   2000.0000   2000.0000    166.2171
   700.2500     15.3717   2000.0000   2000.0000    166.7465
   700.5000     15.5958   2000.0000   2000.0000    164.8885
   700.7500     15.8568   2000.0000   2000.0000    162.1330
   701.0000     16.1577   2000.0000   2000.0000    156.3105
   701.2500     16.4903   2000.0000   2000.0000    151.6578
   701.5000     16.8361   2000.0000   2000.0000    144.2809
   701.7500     17.1699   2000.0000   2000.0000    139.5956
   702.0000     17.4649   2000.0000   2000.0000    133.6409
   702.2500     17.6973   2000.0000   2000.0000    130.6469
   702.5000     17.8553   2000.0000   2000.0000    127.7795
   702.7500     17.9523   2000.0000   2000.0000    126.8578
   703.0000     18.0317   2000.0000   2000.0000    126.3482
   703.2500     18.1478   2000.0000   2000.0000    125.9632
   703.5000     18.3295   2000.0000   2000.0000    124.2822
   703.7500     18.5563   2000.0000   2000.0000    122.2909
   704.0000     18.7673   2000.0000   2000.0000    118.8713
   704.2500     18.8985   2000.0000   2000.0000    117.1809
   704.5000     18.9197   2000.0000   2000.0000    116.7502
   704.7500     18.8425   2000.0000   2000.0000    117.9912
   705.0000     18.6997   2000.0000   2000.0000    121.1033
   705.2500     18.5218   2000.0000   2000.0000    123.0055
   705.5000     18.3259   2000.0000   2000.0000    124.2344
   705.7500     18.1196   2000.0000   2000.0000    123.6880
   706.0000     17.9109   2000.0000   2000.0000    121.2124
   706.2500     17.7143   2000.0000   2000.0000    119.1225
   706.5000     17.5484   2000.0000   2000.0000    116.8197
   706.7500     17.4242   2000.0000   2000.0000    116.5069
   707.0000     17.3358   2000.0000   2000.0000    118.0838
   707.2500     17.2615   2000.0000   2000.0000    120.0632
   707.5000     17.1793   2000.0000   2000.0000    123.1238
   707.7500     17.0834   2000.0000   2000.0000    124.5215
   708.0000     16.9899   2000.0000   2000.0000    125.1766
   708.2500     16.9267   2000.0000   2000.0000    124.8297
   708.5000     16.9171   2000.0000   2000.0000    123.7945
   708.7500     16.9723   2000.0000   2000.0000    123.1221
   709.0000     17.0933   2000.0000   2000.0000    122.4741
   709.2500     17.2773   2000.0000   2000.0000    122.3114
   709.5000     17.5205   2000.0000   2000.0000    122.5002
   709.7500     17.8148   2000.0000   2000.0000    122.9861
   710.0000     18.1441   2000.0000   2000.0000    124.1963
   710.2500     18.4837   2000.0000   2000.0000    125.1286
   710.5000     18.8035   2000.0000   2000.0000    126.5110
   710.7500     19.0704   2000.0000   2000.0000    127.5516
   711.0000     19.2538   2000.0000   2000.0000    129.6939
   711.2500     19.3395   2000.0000   2000.0000    131.6035
   711.5000     19.3423   2000.0000   2000.0000    134.9634
   711.7500     19.3038   2000.0000   2000.0000    137.3108
   712.0000     19.2706   2000.0000   2000.0000    140.8997
   712.2500     19.2686   2000.0000   2000.0000    143.5060
   712.5000     19.2919   2000.0000   2000.0000    147.7764
   712.7500     19.3118   2000.0000   2000.0000    150.3421
   713.0000     19.2950   2000.0000   2000.0000    152.1252
   713.2500     19.2190   2000.0000   2000.0000    151.1284
   713.5000     19.0768   2000.0000   2000.0000    146.2420
   713.7500     18.8804   2000.0000   2000.0000    141.5563
   714.0000     18.6652   2000.0000   2000.0000    134.8791
   714.2500     18.4916   2000.0000   2000.0000    132.1481
   714.5000     18.4312   2000.0000   2000.0000    131.8040
   714.7500     18.5407   2000.0000   2000.0000    133.4838
   715.0000     18.8398   2000.0000   2000.0000    136.2593
   715.2500     19.3075   2000.0000   2000.0000    136.7497
   715.5000     19.8929   2000.0000   2000.0000    134.1628
   715.7500     20.5353   2000.0000   2000.0000    130.3816
   716.0000     21.1828   2000.0000   2000.0000    122.9025
   716.2500     21.8054   2000.0000   2000.0000    117.6154
   716.5000     22.4017   2000.0000   2000.0000    110.4333
   716.7500     22.9979   2000.0000   2000.0000    106.5200
   717.0000     23.6391   2000.0000   2000.0000    102.0321
   717.2500     24.3800   2000.0000   2000.0000     99.6655
   717.5000     25.2738   2000.0000   2000.0000     96.2204
   717.7500     26.3599   2000.0000   2000.0000     93.6492
   718.0000     27.6427   2000.0000   2000.0000     89.5182
   718.2500     29.0701   2000.0000   2000.0000     86.9900
   718.5000     30.5321   2000.0000   2000.0000     84.0589
   718.7500     31.9008   2000.0000   2000.0000     82.5241
   719.0000     33.0941   2000.0000   2000.0000     79.8485
   719.2500     34.1100   2000.0000   2000.0000     77.2110
   719.5000     34.9944   2000.0000   2000.0000     71.7520
   719.7500     35.7815   2000.0000   2000.0000     67.5609
   720.0000     36.4646   2000.0000   2000.0000     61.6299
   720.2500     37.0177   2000.0000   2000.0000     58.4879
   720.5000     37.4395   2000.0000   2000.0000     55.5833
   720.7500     37.7798   2000.0000   2000.0000     55.0023
   721.0000     38.1271   2000.0000   2000.0000     56.0559
   721.2500     38.5564   2000.0000   2000.0000     57.7949
   721.5000     39.0709   2000.0000   2000.0000     61.4513
   721.7500     39.5715   2000.0000   2000.0000     64.3683
   722.0000     39.8828   2000.0000   2000.0000     69.2055
   722.2500     39.8309   2000.0000   2000.0000     72.5663
   722.5000     39.3274   2000.0000   2000.0000     77.3902
   722.7500     38.4046   2000.0000   2000.0000     80.1752
   723.0000     37.1809   2000.0000   2000.0000     83.3336
   723.2500     35.7904   2000.0000   2000.0000     84.8182
   723.5000     34.3288   2000.0000   2000.0000     87.1203
   723.7500     32.8490   2000.0000   2000.0000     89.7248
   724.0000     31.3924   2000.0000   2000.0000     96.6037
   724.2500     30.0182   2000.0000   2000.0000    103.0719
   724.5000     28.7968   2000.0000   2000.0000    113.7530
   724.7500     27.7771   2000.0000   2000.0000    120.0891
