~Version Information
VERS.                      2.0: CWLS Log ASCII Standard - VERSION 2.0
WRAP.                       NO: One line per depth step
~Well Information Block
STRT.FT               475.0000: 
STOP.FT              2336.7500: 
STEP.FT                 0.2500: 
NULL.                -999.2500: 
COMP.          Pioneer Natural Resources: COMPANY
WELL.              Bobsy 34-11: WELL
FLD.           Purgatoire River: FIELD
LOC.           1937' FEL & 451' FSL----: LOCATION
PROV.                 Colorado: PROVINCE
CNTY.               Las Animas: COUNTRY
SRVC.                Patterson: SERVICE COMPANY
DATE.          Fri Apr 08 05:21:25 2005: LOG DATE
UWI.           05 071 08330 00: UNIQUE WELL ID
~Curve Information Block
DEPT.FT            0 000 00 00: Depth
SN.Ohm-m                      : IEL Short Normal
SP.mV                         : IEL Spontaneous Potential
DIR.Ohm-m                     : IEL Induction Resistivity
GR.GAPI                       : Gamma Ray
~Parameter Information Block
~A  Depth        SN          SP         DIR          GR     
# ...
   709.5000   2000.0000   2000.0000     20.9734    112.6840
   709.7500   2000.0000   2000.0000     20.5633    111.2523
   710.0000   2000.0000   2000.0000     20.0791    109.4040
   710.2500   2000.0000   2000.0000     19.5259    108.9072
   710.5000   2000.0000   2000.0000     18.9173    109.8521
   710.7500   2000.0000   2000.0000     18.2797    111.6324
   711.0000   2000.0000   2000.0000     17.6453    115.5549
   711.2500   2000.0000   2000.0000     17.0410    118.6579
   711.5000   2000.0000   2000.0000     16.4821    123.6904
   711.7500   2000.0000   2000.0000     15.9750    127.1415
   712.0000   2000.0000   2000.0000     15.5256    131.8602
   712.2500   2000.0000   2000.0000     15.1463    134.1027
   712.5000   2000.0000   2000.0000     14.8568    135.1187
   712.7500   2000.0000   2000.0000     14.6793    133.9773
   713.0000   2000.0000   2000.0000     14.6315    129.7948
   713.2500   2000.0000   2000.0000     14.7191    125.7954
   713.5000   2000.0000   2000.0000     14.9313    118.9930
   713.7500   2000.0000   2000.0000     15.2429    114.4914
   714.0000   2000.0000   2000.0000     15.6225    108.2261
   714.2500   2000.0000   2000.0000     16.0441    104.2847
   714.5000   2000.0000   2000.0000     16.4932     98.6348
   714.7500   2000.0000   2000.0000     16.9662     95.3084
   715.0000   2000.0000   2000.0000     17.4631     91.6790
   715.2500   2000.0000   2000.0000     17.9834     90.3896
   715.5000   2000.0000   2000.0000     18.5235     90.0525
   715.7500   2000.0000   2000.0000     19.0759     90.6918
   716.0000   2000.0000   2000.0000     19.6288     92.5047
   716.2500   2000.0000   2000.0000     20.1671     93.9256
   716.5000   2000.0000   2000.0000     20.6784     95.6183
   716.7500   2000.0000   2000.0000     21.1571     96.0943
   717.0000   2000.0000   2000.0000     21.6029     95.7346
   717.2500   2000.0000   2000.0000     22.0143     95.1049
   717.5000   2000.0000   2000.0000     22.3813     94.5032
   717.7500   2000.0000   2000.0000     22.6821     94.7304
   718.0000   2000.0000   2000.0000     22.8860     95.9003
   718.2500   2000.0000   2000.0000     22.9623     96.7466
   718.5000   2000.0000   2000.0000     22.8908     97.2428
   718.7500   2000.0000   2000.0000     22.6715     96.9215
   719.0000   2000.0000   2000.0000     22.3280     96.1983
   719.2500   2000.0000   2000.0000     21.9017     96.3516
   719.5000   2000.0000   2000.0000     21.4390     98.5272
   719.7500   2000.0000   2000.0000     20.9768    101.1616
   720.0000   2000.0000   2000.0000     20.5323    105.6831
   720.2500   2000.0000   2000.0000     20.1056    108.3592
   720.5000   2000.0000   2000.0000     19.6902    111.4893
   720.7500   2000.0000   2000.0000     19.2863    113.2479
   721.0000   2000.0000   2000.0000     18.9070    115.9311
   721.2500   2000.0000   2000.0000     18.5745    117.7932
   721.5000   2000.0000   2000.0000     18.3098    120.4392
   721.7500   2000.0000   2000.0000     18.1238    122.0717
   722.0000   2000.0000   2000.0000     18.0139    124.5559
   722.2500   2000.0000   2000.0000     17.9705    126.2036
   722.5000   2000.0000   2000.0000     17.9859    127.7369
   722.7500   2000.0000   2000.0000     18.0625    127.3059
   723.0000   2000.0000   2000.0000     18.2137    123.7997
   723.2500   2000.0000   2000.0000     18.4624    120.0740
   723.5000   2000.0000   2000.0000     18.8370    114.3800
   723.7500   2000.0000   2000.0000     19.3685    111.4700
   724.0000   2000.0000   2000.0000     20.0853    108.7246
   724.2500   2000.0000   2000.0000     21.0086    107.5507
   724.5000   2000.0000   2000.0000     22.1470    105.9727
   724.7500   2000.0000   2000.0000     23.4947    104.7534
   725.0000   2000.0000   2000.0000     25.0307    102.4230
   725.2500   2000.0000   2000.0000     26.7216    100.5008
   725.5000   2000.0000   2000.0000     28.5282     97.1309
   725.7500   2000.0000   2000.0000     30.4175     94.5135
   726.0000   2000.0000   2000.0000     32.3754     89.6127
   726.2500   2000.0000   2000.0000     34.4138     85.4663
   726.5000   2000.0000   2000.0000     36.5657     78.4383
   726.7500   2000.0000   2000.0000     38.8666     74.1314
   727.0000   2000.0000   2000.0000     41.3269     69.6505
   727.2500   2000.0000   2000.0000     43.9054     67.9964
   727.5000   2000.0000   2000.0000     46.5103     66.4715
   727.7500   2000.0000   2000.0000     49.0393     65.6221
   728.0000   2000.0000   2000.0000     51.4328     64.4541
   728.2500   2000.0000   2000.0000     53.6899     63.6227
   728.5000   2000.0000   2000.0000     55.8221     61.6905
   728.7500   2000.0000   2000.0000     57.7872     59.7771
   729.0000   2000.0000   2000.0000     59.4731     56.6149
   729.2500   2000.0000   2000.0000     60.7629     54.9553
   729.5000   2000.0000   2000.0000     61.6331     53.7578
   729.7500   2000.0000   2000.0000     62.1887     53.7328
   730.0000   2000.0000   2000.0000     62.5950     54.4045
   730.2500   2000.0000   2000.0000     62.9587     55.2014
   730.5000   2000.0000   2000.0000     63.2527     56.9991
   730.7500   2000.0000   2000.0000     63.3293     58.5396
   731.0000   2000.0000   2000.0000     63.0138     60.6371
   731.2500   2000.0000   2000.0000     62.2296     61.2635
   731.5000   2000.0000   2000.0000     61.0735     60.4752
   731.7500   2000.0000   2000.0000     59.7719     59.0945
   732.0000   2000.0000   2000.0000     58.5475     57.0760
   732.2500   2000.0000   2000.0000     57.4870     56.5090
   732.5000   2000.0000   2000.0000     56.4872     57.1243
   732.7500   2000.0000   2000.0000     55.3045     58.1013
   733.0000   2000.0000   2000.0000     53.6864     59.6043
   733.2500   2000.0000   2000.0000     51.5125     60.5560
   733.5000   2000.0000   2000.0000     48.8448     62.3817
   733.7500   2000.0000   2000.0000     45.8629     64.1525
   734.0000   2000.0000   2000.0000     42.7592     67.9195
   734.2500   2000.0000   2000.0000     39.6809     71.3231
   734.5000   2000.0000   2000.0000     36.7298     77.9455
   734.7500   2000.0000   2000.0000     33.9794     83.1605
   735.0000   2000.0000   2000.0000     31.4773     91.0325
   735.2500   2000.0000   2000.0000     29.2418     95.4548
   735.5000   2000.0000   2000.0000     27.2696     99.9136
   735.7500   2000.0000   2000.0000     25.5534    101.3332
   736.0000   2000.0000   2000.0000     24.0989    101.2967
   736.2500   2000.0000   2000.0000     22.9264    100.0171
   736.5000   2000.0000   2000.0000     22.0633     97.0572
   736.7500   2000.0000   2000.0000     21.5309     95.1913
   737.0000   2000.0000   2000.0000     21.3356     93.6203
   737.2500   2000.0000   2000.0000     21.4650     93.3474
   737.5000   2000.0000   2000.0000     21.8899     92.9181
   737.7500   2000.0000   2000.0000     22.5720     91.8145
   738.0000   2000.0000   2000.0000     23.4735     88.3832
   738.2500   2000.0000   2000.0000     24.5642     85.2162
   738.5000   2000.0000   2000.0000     25.8238     80.2172
   738.7500   2000.0000   2000.0000     27.2388     77.3002
   739.0000   2000.0000   2000.0000     28.7967     74.0863
   739.2500   2000.0000   2000.0000     30.4793     72.7105
   739.5000   2000.0000   2000.0000     32.2519     71.4068
   739.7500   2000.0000   2000.0000     34.0511     70.8455
   740.0000   2000.0000   2000.0000     35.7793     70.4966
   740.2500   2000.0000   2000.0000     37.3182     70.6891
   740.5000   2000.0000   2000.0000     38.5645     71.3951
   740.7500   2000.0000   2000.0000     39.4720     71.7339
   741.0000   2000.0000   2000.0000     40.0748     71.3687
   741.2500   2000.0000   2000.0000     40.4716     70.5313
   741.5000   2000.0000   2000.0000     40.7781     69.1837
   741.7500   2000.0000   2000.0000     41.0795     68.8078
   742.0000   2000.0000   2000.0000     41.4066     69.3003
   742.2500   2000.0000   2000.0000     41.7346     69.9626
   742.5000   2000.0000   2000.0000     41.9958     70.6684
   742.7500   2000.0000   2000.0000     42.1033     70.8310
