~Version Information
VERS.                      2.0: CWLS Log ASCII Standard - VERSION 2.0
WRAP.                       NO: One line per depth step
~Well Information Block
STRT.FT                 0.0000: 
STOP.FT              2006.5000: 
STEP.FT                 0.2500: 
NULL.                -999.2500: 
COMP.          Petrogulf Corporation: COMPANY
WELL.           Lavedure 7-44R: WELL
FLD.           Purgatorie River: FIELD
LOC.           946' FSL & 521' FEL: LOCATION
STAT.                 Colorado: State
CNTY.               Las Animas: COUNTY
CTRY. USA : Country
SECT. 7 : Section
TOWN. 33S : Township
RANG. 67W : Range
SRVC.                Patterson: SERVICE COMPANY
DATE.          Thu Nov 10 15:49:38 2005: LOG DATE
API. 05-071-08090       : UNIQUE WELL ID
~Curve Information Block
DEPT.FT            0 000 00 00: Depth
CCL.                          : Casing Collar Locator
TT3.usec                      : CBL 3' Travel Time
AMP3.mV                       : CBL 3' Amplitude
GR.GAPI                       : Gamma Ray
~Parameter Information Block
~A  Depth       CCL         TT3         AMP3         GR     
# ...
  1038.5000      0.0000    644.3503      3.1791     52.5303
  1038.7500      0.0000    650.0205      3.1530     51.6422
  1039.0000      0.0000    662.1764      3.1877     50.4510
  1039.2500      0.0000    672.3555      3.2985     48.9420
  1039.5000      0.0000    678.4007      3.4411     47.8161
  1039.7500      0.0000    689.3024      3.5431     47.7675
  1040.0000      0.0000    713.0544      3.6021     48.8822
  1040.2500      0.0000    738.9382      3.6909     50.7541
  1040.5000      0.0000    743.1652      3.8708     52.8594
  1040.7500      0.0000    718.5016      4.1387     54.6758
  1041.0000      0.0000    684.5515      4.4357     55.7037
  1041.2500      0.0000    663.0240      4.6782     55.5782
  1041.5000      0.0000    657.1172      4.8099     54.2112
  1041.7500      0.0000    659.1931      4.8448     51.9474
  1042.0000      0.0000    663.4754      4.8666     49.6259
  1042.2500      0.0000    667.2874      4.9770     48.2640
  1042.5000      0.0000    670.4078      5.2338     48.4036
  1042.7500      0.0000    674.3040      5.6138     49.6748
  1043.0000      0.0000    678.2598      6.0292     51.0573
  1043.2500      0.0000    680.3474      6.4116     51.6991
  1043.5000      0.0000    680.9316      6.7935     51.4901
  1043.7500      0.0000    679.9208      7.2891     50.9739
  1044.0000      0.0000    673.6487      7.9939     51.0885
  1044.2500      0.0000    655.3672      8.9170     53.1237
  1044.5000      0.0000    616.2255     10.0124     58.3849
  1044.7500      0.0000    552.0349     11.2476     67.2516
  1045.0000      0.0000    476.7191     12.5934     78.3120
  1045.2500      0.0000    417.2025     13.9410     88.7083
  1045.5000      0.0000    386.4487     15.0835     95.8988
  1045.7500      0.0000    376.1927     15.8676     99.3906
  1046.0000      0.0000    374.1305     16.3726    100.7803
  1046.2500      0.0000    374.3893     16.8207    102.2649
  1046.5000      0.0000    376.8517     17.2678    105.1438
  1046.7500      0.0000    387.0374     17.4775    109.1091
  1047.0000      0.0000    416.0406     17.1603    112.4614
  1047.2500      0.0000    468.8976     16.2956    113.4983
  1047.5000      0.0000    528.7109     15.1443    112.3323
  1047.7500      0.0000    569.4045     13.9822    111.2018
  1048.0000      0.0000    585.4732     12.9521    112.5261
  1048.2500      0.0000    590.6026     12.1493    116.5508
  1048.5000      0.0000    596.3066     11.6741    120.9626
  1048.7500      0.0000    605.7910     11.5377    122.7474
  1049.0000      0.0000    617.9293     11.6036    120.4267
  1049.2500      0.0000    626.9375     11.6789    114.9726
  1049.5000      0.0000    624.8028     11.6529    109.0801
  1049.7500      0.0000    611.8715     11.5572    105.5138
  1050.0000      0.0000    597.7994     11.4984    105.5863
  1050.2500      0.0000    589.4760     11.5346    108.6353
  1050.5000      0.0000    586.2846     11.6614    112.7093
  1050.7500      0.0000    585.4038     11.8908    115.8820
  1051.0000      0.0000    585.3818     12.2320    117.2259
  1051.2500      0.0000    585.7638     12.6172    116.7839
  1051.5000      0.0000    586.2575     12.9470    114.9298
  1051.7500      0.0000    586.6741     13.1828    112.1077
  1052.0000      0.0000    587.3236     13.3264    108.9624
  1052.2500      0.0000    589.5325     13.3417    106.1233
  1052.5000      0.0000    595.1212     13.1779    103.8640
  1052.7500      0.0000    602.9211     12.8560    102.3501
  1053.0000      0.0000    606.6995     12.4544    101.8839
  1053.2500      0.0000    602.2709     12.0090    102.3881
  1053.5000      0.0000    594.0215     11.5193    103.1422
  1053.7500      0.0000    588.3099     11.0388    103.8440
  1054.0000      0.0000    586.2454     10.6439    105.4703
  1054.2500      0.0000    585.8416     10.3430    109.1491
  1054.5000      0.0000    585.6771     10.1085    114.4549
  1054.7500      0.0000    585.4290      9.9443    119.7295
  1055.0000      0.0000    585.8980      9.8470    123.8184
  1055.2500      0.0000    590.2330      9.7658    126.6454
  1055.5000      0.0000    603.5253      9.6537    128.4308
  1055.7500      0.0000    625.3450      9.4954    129.2049
  1056.0000      0.0000    642.3277      9.3003    128.9762
  1056.2500      0.0000    640.9149      9.1419    127.8389
  1056.5000      0.0000    628.0386      9.1349    125.9350
  1056.7500      0.0000    622.8172      9.3162    123.5229
  1057.0000      0.0000    631.6467      9.6218    121.1098
  1057.2500      0.0000    645.2419      9.9901    119.4596
  1057.5000      0.0000    653.1331     10.4039    119.3057
  1057.7500      0.0000    649.3869     10.8419    120.8615
  1058.0000      0.0000    629.9692     11.2846    123.6083
  1058.2500      0.0000    600.8273     11.7406    126.6379
  1058.5000      0.0000    584.9780     12.1709    129.0706
  1058.7500      0.0000    595.6082     12.4748    130.2262
  1059.0000      0.0000    609.2115     12.6277    129.8789
  1059.2500      0.0000    591.0377     12.7240    128.5259
  1059.5000      0.0000    534.3196     12.8482    126.9994
  1059.7500      0.0000    465.3929     12.9707    125.5223
  1060.0000      0.0000    419.8809     13.0118    123.3132
  1060.2500      0.0000    417.6548     12.9475    119.2449
  1060.5000      0.0000    457.1667     12.7428    112.8878
  1060.7500      0.0000    519.4249     12.2730    105.0604
  1061.0000      0.0000    577.4709     11.4833     97.4698
  1061.2500      0.0000    614.4860     10.5387     91.6634
  1061.5000      0.0000    631.9504      9.6685     88.2260
  1061.7500      0.0000    638.5842      8.9678     86.9145
  1062.0000      0.0000    639.5386      8.4289     87.2173
  1062.2500      0.0000    640.0823      8.0220     88.4403
  1062.5000      0.0000    645.4224      7.7037     89.5006
  1062.7500      0.0000    653.3649      7.4392     89.2999
  1063.0000      0.0000    658.5818      7.2564     87.5461
  1063.2500      0.0000    660.0353      7.2660     84.9375
  1063.5000      0.0000    659.0713      7.5945     82.3610
  1063.7500      0.0000    654.4151      8.2867     80.0553
  1064.0000      0.0000    638.6570      9.3013     77.6838
  1064.2500      0.0000    599.9400     10.5567     75.1169
  1064.5000      0.0000    535.1625     11.9415     72.9382
  1064.7500      0.0000    461.7968     13.3359     72.0110
  1065.0000      0.0000    403.9441     14.6660     72.6367
  1065.2500      0.0000    368.7543     15.9487     74.4911
  1065.5000      0.0000    348.6173     17.2654     77.2296
  1065.7500      0.0000    336.3432     18.6772     80.6081
  1066.0000      0.0000    327.6728     20.1943     84.1428
  1066.2500      0.0000    319.1023     21.7339     87.2974
  1066.5000      0.0000    310.1358     23.0529     90.0055
  1066.7500      0.0000    303.1837     23.9441     92.4135
  1067.0000      0.0000    299.5841     24.4882     94.0495
  1067.2500      0.0000    298.3550     24.8828     93.8628
  1067.5000      0.0000    298.1201     25.1846     91.3228
  1067.7500      0.0000    298.1970     25.3616     87.1305
  1068.0000      0.0000    298.3614     25.4725     82.6990
  1068.2500      0.0000    298.5042     25.7219     79.1190
  1068.5000      0.0000    298.5501     26.2945     76.5348
  1068.7500      0.0000    298.4899     27.2033     74.3014
  1069.0000      0.0000    298.3761     28.3132     71.7928
  1069.2500      0.0000    298.3101     29.3599     69.1404
  1069.5000      0.0000    298.4727     30.0651     67.1550
  1069.7500      0.0000    299.3357     30.3774     66.5857
  1070.0000      0.0000    303.0416     30.4029     67.4526
  1070.2500      0.0000    317.1400     29.9643     68.9498
  1070.5000      0.0000    354.9039     28.4141     70.0338
  1070.7500      0.0000    419.3211     25.3201     70.2158
  1071.0000      0.0000    490.2145     21.4887     69.6490
  1071.2500      0.0000    554.0990     18.5449     68.5215
  1071.5000      0.0000    622.9430     17.1487     66.8815
  1071.7500     -2.0000    688.8341     16.5579     65.1782
