~Version Information
VERS.                      2.0: CWLS Log ASCII Standard - VERSION 2.0
WRAP.                       NO: One line per depth step
~Well Information Block
STRT.FT                -6.7500: 
STOP.FT              1766.5000: 
STEP.FT                 0.2500: 
NULL.                -999.2500: 
COMP.          Pioneer Natural Resources: COMPANY
WELL.            Hill 33-22 Tr: WELL
FLD.           Purgatorie River: FIELD
LOC.           1573' FSL & 1585' FEL: LOCATION
PROV.                 Colorado: PROVINCE
CNTY.               Las Animas: COUNTRY
SRVC.          Patterson Wireline: SERVICE COMPANY
DATE.          Tue Apr 19 09:26:19 2005: LOG DATE
UWI.           05-071-08316-00: UNIQUE WELL ID
~Curve Information Block
DEPT.FT            0 000 00 00: Depth
CCL.                          : Casing Collar Locator
TT3.usec                      : CBL 3' Travel Time
AMP3.mV                       : CBL 3' Amplitude
GR.GAPI                       : Gamma Ray
~Parameter Information Block
~A  Depth       CCL         TT3         AMP3         GR     
# ...
  1735.2500      0.0000    759.9938     29.1184    130.8062
  1735.5000      0.0000    779.9091     29.1941    130.8262
  1735.7500      0.0000    791.9380     29.2926    131.6320
  1736.0000      0.0000    790.4083     29.3993    133.0890
  1736.2500      0.0000    775.1943     29.5123    134.1701
  1736.5000      0.0000    751.7716     29.6471    133.9457
  1736.7500      0.0000    726.4343     29.8339    132.2205
  1737.0000      0.0000    699.9501     30.1132    129.6905
  1737.2500      0.0000    665.2850     30.5341    127.5016
  1737.5000      0.0000    612.9064     31.1504    126.4736
  1737.7500      0.0000    540.8400     32.0064    126.5684
  1738.0000      0.0000    460.2583     33.1110    126.7128
  1738.2500      0.0000    389.3298     34.4248    125.0211
  1738.5000      0.0000    340.5405     35.8869    119.6603
  1738.7500      0.0000    314.3172     37.4732    110.0984
  1739.0000      0.0000    303.2282     39.2245     97.8055
  1739.2500      0.0000    299.4168     41.2050     85.7194
  1739.5000      0.0000    298.1855     43.4354     76.6942
  1739.7500      0.0000    297.6232     45.8716     71.9112
  1740.0000      0.0000    297.1356     48.4319     70.3225
  1740.2500      0.0000    296.4477     51.0230     69.5761
  1740.5000      0.0000    295.1163     53.5330     67.7158
  1740.7500      0.0000    292.4268     55.8212     64.2831
  1741.0000      0.0000    287.7323     57.7378     60.0782
  1741.2500      0.0000    281.2491     59.1650     56.1650
  1741.5000      0.0000    274.6091     60.0491     53.2094
  1741.7500      0.0000    270.3239     60.3965     51.4300
  1742.0000      0.0000    270.2877     60.2315     50.7307
  1742.2500      0.0000    274.5026     59.5552     50.8084
  1742.5000      0.0000    281.0818     58.3491     51.3431
  1742.7500      0.0000    287.5214     56.6148     52.2181
  1743.0000      0.0000    292.1909     54.3973     53.6075
  1743.2500      0.0000    294.8730     51.7769     55.8548
  1743.5000      0.0000    296.2173     48.8731     59.0715
  1743.7500      0.0000    296.9751     45.8567     62.6511
  1744.0000      0.0000    297.7085     42.9277     65.2840
  1744.2500      0.0000    299.2555     40.2543     65.7187
  1744.5000      0.0000    303.9686     37.9256     63.6964
  1744.7500      0.0000    317.5573     35.9550     60.2989
  1745.0000      0.0000    349.6611     34.3120     57.4309
  1745.2500      0.0000    409.6864     32.9512     56.6188
  1745.5000      0.0000    497.8694     31.8312     57.8627
  1745.7500      0.0000    599.7021     30.9244     59.5642
  1746.0000      0.0000    692.4942     30.2160     59.7941
  1746.2500      0.0000    759.6514     29.6932     57.9026
  1746.5000      0.0000    798.5875     29.3357     55.0176
  1746.7500      0.0000    816.7972     29.1135     52.9464
  1747.0000      0.0000    823.6385     28.9893     52.6058
  1747.2500      0.0000    825.7573     28.9194     53.5367
  1747.5000      0.0000    826.9548     28.8553     54.6920
  1747.7500      0.0000    829.4937     28.7501     55.2783
  1748.0000     -5.0000    834.5933     28.5721     54.9477
  1748.2500      0.0000    841.6144     28.3195     53.8304
  1748.5000      0.0000    846.9810     28.0177     52.6077
  1748.7500      0.0000    845.1078     27.6974     52.0567
  1749.0000      0.0000    832.1952     27.3732     52.1658
  1749.2500      0.0000    810.1630     27.0396     51.9507
  1749.5000      0.0000    786.4521     26.6833     50.4969
  1749.7500      0.0000    769.4422     26.2971     47.9528
  1750.0000      0.0000    763.6234     25.8915     44.9584
  1750.2500      0.0000    767.8015     25.4948     41.2436
  1750.5000      0.0000    776.5020     25.1448     35.5778
  1750.7500      0.0000    783.2887     24.8782     27.4224
  1751.0000      0.0000    783.7957     24.7233     18.1097
  1751.2500      0.0000    776.3424     24.6966      9.9617
  1751.5000      0.0000    759.8466     24.8014      4.4824
  1751.7500      0.0000    731.3765     25.0270      1.6303
  1752.0000      0.0000    687.1255     25.3481      0.4753
  1752.2500      0.0000    627.7609     25.7312      0.1102
  1752.5000      0.0000    562.5626     26.1528      0.0200
  1752.7500      0.0000    505.6111     26.6132      0.0025
  1753.0000      0.0000    466.6090     27.1295      0.0000
  1753.2500      0.0000    446.3787     27.7106   -999.2500
  1753.5000      0.0000    441.0057     28.3429   -999.2500
  1753.7500      0.0000    449.0154     28.9966   -999.2500
  1754.0000      0.0000    474.4911     29.6404   -999.2500
  1754.2500      0.0000    523.1193     30.2486   -999.2500
  1754.5000      0.0000    593.4498     30.7942   -999.2500
  1754.7500      0.0000    671.1050     31.2162   -999.2500
  1755.0000      0.0000    732.7015     31.3326   -999.2500
  1755.2500      0.0000    755.3125     30.7064   -999.2500
  1755.5000      0.0000    722.4453     28.6269   -999.2500
  1755.7500      0.0000    627.7997     24.4631   -999.2500
  1756.0000      0.0000    482.6371     18.3257   -999.2500
  1756.2500      0.0000    319.1606     11.3921   -999.2500
  1756.5000      0.0000    177.0734      5.3176   -999.2500
  1756.7500      0.0000     80.8109      1.1747   -999.2500
  1757.0000      0.0000     29.8894     -1.0277   -999.2500
  1757.2500      0.0000      8.8629     -1.9406   -999.2500
  1757.5000      0.0000      2.0873     -2.2356   -999.2500
  1757.7500      0.0000      0.3842     -2.3099   -999.2500
  1758.0000      0.0000      0.0504     -2.3245   -999.2500
  1758.2500      0.0000   -999.2500   -999.2500   -999.2500
  1758.5000      0.0000   -999.2500   -999.2500   -999.2500
  1758.7500      0.0000   -999.2500   -999.2500   -999.2500
  1759.0000      0.0000   -999.2500   -999.2500   -999.2500
  1759.2500      0.0000   -999.2500   -999.2500   -999.2500
  1759.5000      0.0000   -999.2500   -999.2500   -999.2500
  1759.7500      0.0000   -999.2500   -999.2500   -999.2500
  1760.0000      0.0000   -999.2500   -999.2500   -999.2500
  1760.2500      0.0000   -999.2500   -999.2500   -999.2500
  1760.5000      0.0000   -999.2500   -999.2500   -999.2500
  1760.7500      0.0000   -999.2500   -999.2500   -999.2500
  1761.0000      0.0000   -999.2500   -999.2500   -999.2500
  1761.2500      0.0000   -999.2500   -999.2500   -999.2500
  1761.5000      0.0000   -999.2500   -999.2500   -999.2500
  1761.7500      0.0000   -999.2500   -999.2500   -999.2500
  1762.0000      0.0000   -999.2500   -999.2500   -999.2500
  1762.2500      0.0000   -999.2500   -999.2500   -999.2500
  1762.5000      0.0000   -999.2500   -999.2500   -999.2500
  1762.7500      0.0000   -999.2500   -999.2500   -999.2500
  1763.0000      0.0000   -999.2500   -999.2500   -999.2500
  1763.2500      0.0000   -999.2500   -999.2500   -999.2500
  1763.5000      0.0000   -999.2500   -999.2500   -999.2500
  1763.7500      0.0000   -999.2500   -999.2500   -999.2500
  1764.0000   -999.2500   -999.2500   -999.2500   -999.2500
  1764.2500   -999.2500   -999.2500   -999.2500   -999.2500
  1764.5000   -999.2500   -999.2500   -999.2500   -999.2500
  1764.7500   -999.2500   -999.2500   -999.2500   -999.2500
  1765.0000   -999.2500   -999.2500   -999.2500   -999.2500
  1765.2500   -999.2500   -999.2500   -999.2500   -999.2500
  1765.5000   -999.2500   -999.2500   -999.2500   -999.2500
  1765.7500   -999.2500   -999.2500   -999.2500   -999.2500
  1766.0000   -999.2500   -999.2500   -999.2500   -999.2500
  1766.2500   -999.2500   -999.2500   -999.2500   -999.2500
  1766.5000   -999.2500   -999.2500   -999.2500   -999.2500
