~Version Information
 VERS.                                  2.0 : CWLS LAS VERSION
 WRAP.                                   NO : WRAPING MODE
 SWARE .                 MController 2.5.0E : SOFTWARE VERSION
~Well Information
 WELL.                                  N/A : WELL
 COMP.                                  N/A : COMPANY
 FLD.                                   N/A : FIELD
 LOC.                                   N/A : LOCATION
 DATE.                                  N/A : DATE(S) LOGGED
 SRVC.                                  N/A : SERVICE COMPANY
 STAT.                                  N/A : STATE
 CNTY.                                  N/A : COUNTY
 CTRY.                                  N/A : COUNTRY
 API.                                   N/A : API NUMBER
 STRT.FT                            1016.00 : START DEPTH
 STOP.FT                            2595.00 : STOP DEPTH
 STEP.FT                               1.00 : DEPTH INCREMENT
 NULL.                                -9999 : NULL VALUE
~Curve information
 DEPTH.FT                                   :
 ROP.MIN/FT                                 :
 GAS.UNITS                                  :
~ASCII Log data
# ...
     1816.00        3.183          2.9 
     1817.00        0.300         -2.4 
     1818.00        0.333         -3.0 
     1819.00        0.467         -2.8 
     1820.00        0.533         -2.3 
     1821.00        0.483          0.1 
     1822.00        0.400          7.8 
     1823.00        0.333         26.2 
     1824.00        0.267         45.2 
     1825.00        0.267         53.0 
     1826.00        0.167         52.8 
     1827.00        0.233         49.0 
     1828.00        0.200         38.9 
     1829.00        0.700         37.3 
     1830.00        0.333         21.5 
     1831.00        0.217         17.1 
     1832.00        0.233         13.8 
     1833.00        0.233         13.4 
     1834.00        0.167         10.7 
     1835.00        0.200         10.7 
     1836.00        0.200          9.7 
     1837.00        0.167          9.5 
     1838.00        0.167          8.8 
     1839.00        0.233          9.2 
     1840.00        0.267          8.9 
     1841.00        0.267          8.4 
     1842.00        0.333          2.9 
     1843.00        0.300          1.9 
     1844.00        0.433          0.0 
     1845.00        0.283         -1.5 
     1846.00        3.583          0.0 
     1847.00        0.400         -0.7 
     1848.00        0.433         -2.2 
     1849.00        0.467         -3.3 
     1850.00        0.467         -3.0 
     1851.00        0.367          4.7 
     1852.00        0.333          2.4 
     1853.00        0.300          1.7 
     1854.00        0.317          0.9 
     1855.00        0.333         -3.6 
     1856.00        0.400         -6.0 
     1857.00        0.400         -7.9 
     1858.00        0.367         -7.4 
     1859.00        0.333         -5.2 
     1860.00        0.400          1.8 
     1861.00        0.467         42.8 
     1862.00        0.367         61.0 
     1863.00        0.417         61.8 
     1864.00        0.400         51.8 
     1865.00        0.367         29.7 
     1866.00        0.367         14.1 
     1867.00        0.333         12.5 
     1868.00        0.333          5.4 
     1869.00        0.333          3.0 
     1870.00        0.233          1.6 
     1871.00        0.233          2.1 
     1872.00        0.300          1.1 
     1873.00        0.317          2.0 
     1874.00        0.533          2.2 
     1875.00        0.267          2.2 
     1876.00        4.083          8.6 
     1877.00        0.300          3.1 
     1878.00        0.467          5.2 
     1879.00        0.467          6.9 
     1880.00        0.550          5.8 
     1881.00        0.567          3.2 
     1882.00        0.467          1.8 
     1883.00        0.267          0.3 
     1884.00        0.233          0.0 
     1885.00        0.200          0.4 
     1886.00        0.300         -0.2 
     1887.00        0.267          0.2 
     1888.00        0.533          0.7 
     1889.00        0.550          3.0 
     1890.00        0.500         16.3 
     1891.00        0.300         40.2 
     1892.00        0.233         61.6 
     1893.00        0.633         66.1 
     1894.00        0.433         52.3 
     1895.00        0.167         29.6 
     1896.00        0.200         19.2 
     1897.00        0.167         10.6 
     1898.00        0.200         10.1 
     1899.00        0.350          3.7 
     1900.00        0.400          1.2 
     1901.00        0.567          1.0 
     1902.00        0.367          0.7 
     1903.00        0.400          0.9 
     1904.00        0.367          1.4 
     1905.00        0.300          1.0 
     1906.00        4.400          5.2 
     1907.00        0.467          6.0 
     1908.00        0.500          7.6 
     1909.00        0.467         -0.8 
     1910.00        0.433         -1.7 
     1911.00        0.267         -2.9 
     1912.00        0.267         -2.8 
     1913.00        0.267         -2.0 
     1914.00        0.233         -0.5 
     1915.00        0.317          0.1 
     1916.00        0.233          1.7 
     1917.00        0.300          5.6 
     1918.00        0.367         27.4 
     1919.00        0.367         66.4 
     1920.00        0.333         83.2 
     1921.00        0.333         83.5 
     1922.00        0.367         67.5 
     1923.00        0.400         38.6 
     1924.00        0.400         18.3 
     1925.00        0.450          7.4 
     1926.00        0.433          0.8 
     1927.00        0.333         -0.8 
     1928.00        0.400         -0.2 
     1929.00        0.333          0.9 
     1930.00        0.300          1.1 
     1931.00        0.333          1.9 
     1932.00        0.300          1.0 
     1933.00        0.233          1.3 
     1934.00        0.333          1.5 
     1935.00        0.483          0.9 
     1936.00        3.317         48.9 
     1937.00        0.367         31.8 
     1938.00        0.467         33.6 
     1939.00        0.500         46.5 
     1940.00        0.500         46.2 
     1941.00        0.500         45.2 
     1942.00        0.367         36.8 
     1943.00        0.350         -5.3 
     1944.00        0.333         -5.7 
     1945.00        0.367         -6.1 
     1946.00        0.400         -6.5 
     1947.00        0.433         -5.7 
     1948.00        0.367         -4.4 
     1949.00        0.467         -0.7 
     1950.00        0.267          0.1 
     1951.00        0.300         24.8 
     1952.00        0.267         57.8 
     1953.00        0.317         62.1 
     1954.00        0.300         61.1 
     1955.00        0.433         41.7 
     1956.00        0.467         16.4 
     1957.00        0.333          6.3 
     1958.00        0.433         -0.2 
     1959.00        0.433         -3.1 
     1960.00        0.467         -3.3 
     1961.00        0.550         -1.7 
     1962.00        0.433         -2.1 
     1963.00        0.333         -2.4 
     1964.00        0.367         -2.3 
     1965.00        3.950         -2.5 
     1966.00        0.233         -3.1 
     1967.00        0.433         -2.5 
     1968.00        0.433         -2.0 
     1969.00        0.450         -1.2 
     1970.00        0.500          0.1 
     1971.00        0.500         -1.0 
     1972.00        0.433         -2.3 
     1973.00        0.367         -2.3 
     1974.00        0.367         -3.4 
     1975.00        0.500         -3.1 
     1976.00        0.433         -3.9 
     1977.00        0.350         -4.0 
     1978.00        0.300         -3.8 
     1979.00        0.300         -3.8 
     1980.00        0.333         -2.9 
     1981.00        0.300         -1.6 
     1982.00        0.333          0.4 
     1983.00        0.333          9.0 
     1984.00        0.367         34.0 
     1985.00        0.400         43.1 
     1986.00        0.367         36.4 
     1987.00        0.383         25.5 
     1988.00        0.367         14.7 
     1989.00        0.333          0.8 
     1990.00        0.333         -5.1 
     1991.00        0.400         -5.7 
     1992.00        0.367         -6.0 
     1993.00        0.433         -4.4 
     1994.00        0.400         -3.5 
     1995.00        0.550         -1.6 
     1996.00        4.283         -1.8 
     1997.00        0.333         -3.0 
     1998.00        0.400         -2.8 
     1999.00        0.400          4.6 
     2000.00        0.433          4.9 
     2001.00        0.467          4.8 
     2002.00        0.583          2.1 
     2003.00        0.467          0.3 
     2004.00        0.367          0.4 
     2005.00        0.367          0.0 
     2006.00        0.367         -0.6 
     2007.00        0.367          0.6 
     2008.00        0.367          0.4 
     2009.00        0.400         -0.1 
     2010.00        0.417          0.0 
     2011.00        0.400         -1.4 
     2012.00        0.367          0.2 
     2013.00        0.367         28.6 
     2014.00        0.400         47.9 
     2015.00        0.300         52.2 
