~Version Information
VERS.                      2.0: CWLS Log ASCII Standard - VERSION 2.0
WRAP.                       NO: One line per depth step
~Well Information Block
STRT.FT               450.0000: 
STOP.FT              1739.2500: 
STEP.FT                 0.2500: 
NULL.                -999.2500: 
COMP.          Pioneer Natural Resources: COMPANY
WELL.            Harlee L 34-9: WELL
FLD.           Purgatoire River: FIELD
LOC.           600' FSL & 2125' FEL: LOCATION
PROV.                 Colorado: PROVINCE
CNTY.               Las Animas: COUNTRY
SRVC.                Patterson: SERVICE COMPANY
DATE.          Wed Jan 26 02:00:08 2005: LOG DATE
UWI.           05 071 08009 00: UNIQUE WELL ID
~Curve Information Block
DEPT.FT            0 000 00 00: Depth
SN.Ohm-m                      : IEL Short Normal
SP.mV                         : IEL Spontaneous Potential
DIR.Ohm-m                     : IEL Induction Resistivity
GR.GAPI                       : Gamma Ray
~Parameter Information Block
~A  Depth        SN          SP         DIR          GR     
# ...
   517.0000   2000.0000   2000.0000     17.0928    103.0077
   517.2500   2000.0000   2000.0000     16.7467    104.5437
   517.5000   2000.0000   2000.0000     16.3678    109.4266
   517.7500   2000.0000   2000.0000     15.9962    113.8113
   518.0000   2000.0000   2000.0000     15.6646    120.3285
   518.2500   2000.0000   2000.0000     15.3862    123.6739
   518.5000   2000.0000   2000.0000     15.1547    125.9404
   518.7500   2000.0000   2000.0000     14.9556    125.1710
   519.0000   2000.0000   2000.0000     14.7800    120.8175
   519.2500   2000.0000   2000.0000     14.6323    116.6362
   519.5000   2000.0000   2000.0000     14.5252    110.5165
   519.7500   2000.0000   2000.0000     14.4704    107.5312
   520.0000   2000.0000   2000.0000     14.4689    105.4601
   520.2500   2000.0000   2000.0000     14.5077    105.6221
   520.5000   2000.0000   2000.0000     14.5585    107.5233
   520.7500   2000.0000   2000.0000     14.5809    109.3749
   521.0000   2000.0000   2000.0000     14.5308    112.1721
   521.2500   2000.0000   2000.0000     14.3717    113.7583
   521.5000   2000.0000   2000.0000     14.0867    116.0128
   521.7500   2000.0000   2000.0000     13.6823    118.0810
   522.0000   2000.0000   2000.0000     13.1845    123.1085
   522.2500   2000.0000   2000.0000     12.6321    127.7341
   522.5000   2000.0000   2000.0000     12.0700    135.2478
   522.7500   2000.0000   2000.0000     11.5440    139.6508
   523.0000   2000.0000   2000.0000     11.0938    144.4951
   523.2500   2000.0000   2000.0000     10.7455    146.6185
   523.5000   2000.0000   2000.0000     10.5084    148.3335
   523.7500   2000.0000   2000.0000     10.3775    148.3331
   524.0000   2000.0000   2000.0000     10.3410    146.2610
   524.2500   2000.0000   2000.0000     10.3857    143.4723
   524.5000   2000.0000   2000.0000     10.4993    136.9941
   524.7500   2000.0000   2000.0000     10.6667    130.7410
   525.0000   2000.0000   2000.0000     10.8665    118.2385
   525.2500   2000.0000   2000.0000     11.0695    108.8316
   525.5000   2000.0000   2000.0000     11.2399     96.8318
   525.7500   2000.0000   2000.0000     11.3391     92.3985
   526.0000   2000.0000   2000.0000     11.3331     92.2839
   526.2500   2000.0000   2000.0000     11.2008     95.4640
   526.5000   2000.0000   2000.0000     10.9413    101.8695
   526.7500   2000.0000   2000.0000     10.5742    105.8720
   527.0000   2000.0000   2000.0000     10.1345    111.1091
   527.2500   2000.0000   2000.0000      9.6630    114.5237
   527.5000   2000.0000   2000.0000      9.1970    119.7991
   527.7500   2000.0000   2000.0000      8.7639    122.9044
   528.0000   2000.0000   2000.0000      8.3784    125.5652
   528.2500   2000.0000   2000.0000      8.0440    125.6142
   528.5000   2000.0000   2000.0000      7.7565    123.8460
   528.7500   2000.0000   2000.0000      7.5082    122.3576
   529.0000   2000.0000   2000.0000      7.2920    120.8414
   529.2500   2000.0000   2000.0000      7.1028    120.5291
   529.5000   2000.0000   2000.0000      6.9372    121.1444
   529.7500   2000.0000   2000.0000      6.7917    122.2717
   530.0000   2000.0000   2000.0000      6.6617    124.7973
   530.2500   2000.0000   2000.0000      6.5401    126.7299
   530.5000   2000.0000   2000.0000      6.4196    129.4165
   530.7500   2000.0000   2000.0000      6.2945    130.7323
   531.0000   2000.0000   2000.0000      6.1630    131.5520
   531.2500   2000.0000   2000.0000      6.0283    131.3762
   531.5000   2000.0000   2000.0000      5.8971    130.6426
   531.7500   2000.0000   2000.0000      5.7790    130.0729
   532.0000   2000.0000   2000.0000      5.6836    128.7135
   532.2500   2000.0000   2000.0000      5.6196    127.1531
   532.5000   2000.0000   2000.0000      5.5922    124.3267
   532.7500   2000.0000   2000.0000      5.6009    123.1349
   533.0000   2000.0000   2000.0000      5.6379    123.9888
   533.2500   2000.0000   2000.0000      5.6889    126.2152
   533.5000   2000.0000   2000.0000      5.7357    129.8391
   533.7500   2000.0000   2000.0000      5.7632    130.8869
   534.0000   2000.0000   2000.0000      5.7640    129.4185
   534.2500   2000.0000   2000.0000      5.7411    127.2368
   534.5000   2000.0000   2000.0000      5.7056    124.7151
   534.7500   2000.0000   2000.0000      5.6723    124.5453
   535.0000   2000.0000   2000.0000      5.6559    126.4630
   535.2500   2000.0000   2000.0000      5.6681    128.3850
   535.5000   2000.0000   2000.0000      5.7163    130.5812
   535.7500   2000.0000   2000.0000      5.8035    130.8010
   536.0000   2000.0000   2000.0000      5.9283    128.6929
   536.2500   2000.0000   2000.0000      6.0871    126.0041
   536.5000   2000.0000   2000.0000      6.2772    121.5762
   536.7500   2000.0000   2000.0000      6.4996    119.2997
   537.0000   2000.0000   2000.0000      6.7593    117.6874
   537.2500   2000.0000   2000.0000      7.0613    117.7223
   537.5000   2000.0000   2000.0000      7.4048    118.8138
   537.7500   2000.0000   2000.0000      7.7756    119.8446
   538.0000   2000.0000   2000.0000      8.1415    121.4190
   538.2500   2000.0000   2000.0000      8.4561    122.5203
   538.5000   2000.0000   2000.0000      8.6711    124.8408
   538.7500   2000.0000   2000.0000      8.7569    127.1851
   539.0000   2000.0000   2000.0000      8.7154    131.7006
   539.2500   2000.0000   2000.0000      8.5787    134.7164
   539.5000   2000.0000   2000.0000      8.3926    138.0611
   539.7500   2000.0000   2000.0000      8.1997    139.3207
   540.0000   2000.0000   2000.0000      8.0281    140.3090
   540.2500   2000.0000   2000.0000      7.8894    140.7106
   540.5000   2000.0000   2000.0000      7.7833    140.8581
   540.7500   2000.0000   2000.0000      7.7034    140.2638
   541.0000   2000.0000   2000.0000      7.6423    137.4828
   541.2500   2000.0000   2000.0000      7.5941    134.0414
   541.5000   2000.0000   2000.0000      7.5549    126.9218
   541.7500   2000.0000   2000.0000      7.5237    121.9299
   542.0000   2000.0000   2000.0000      7.5018    116.6248
   542.2500   2000.0000   2000.0000      7.4909    115.6335
   542.5000   2000.0000   2000.0000      7.4892    118.0285
   542.7500   2000.0000   2000.0000      7.4893    121.3138
   543.0000   2000.0000   2000.0000      7.4783    126.7048
   543.2500   2000.0000   2000.0000      7.4419    129.5837
   543.5000   2000.0000   2000.0000      7.3701    131.8485
   543.7500   2000.0000   2000.0000      7.2623    131.9995
   544.0000   2000.0000   2000.0000      7.1280    130.9987
   544.2500   2000.0000   2000.0000      6.9840    130.0006
   544.5000   2000.0000   2000.0000      6.8490    128.2491
   544.7500   2000.0000   2000.0000      6.7381    126.8997
   545.0000   2000.0000   2000.0000      6.6594    124.8954
   545.2500   2000.0000   2000.0000      6.6126    123.8394
   545.5000   2000.0000   2000.0000      6.5895    122.8375
   545.7500   2000.0000   2000.0000      6.5794    122.5768
   546.0000   2000.0000   2000.0000      6.5740    123.1940
   546.2500   2000.0000   2000.0000      6.5725    124.6289
   546.5000   2000.0000   2000.0000      6.5793    128.3092
   546.7500   2000.0000   2000.0000      6.5988    131.1910
   547.0000   2000.0000   2000.0000      6.6305    134.8770
   547.2500   2000.0000   2000.0000      6.6679    136.6599
   547.5000   2000.0000   2000.0000      6.7029    138.8559
   547.7500   2000.0000   2000.0000      6.7307    140.2815
   548.0000   2000.0000   2000.0000      6.7518    142.0628
   548.2500   2000.0000   2000.0000      6.7707    142.6268
   548.5000   2000.0000   2000.0000      6.7921    142.1935
   548.7500   2000.0000   2000.0000      6.8186    141.1038
   549.0000   2000.0000   2000.0000      6.8511    138.6595
   549.2500   2000.0000   2000.0000      6.8906    136.8093
   549.5000   2000.0000   2000.0000      6.9388    134.1540
   549.7500   2000.0000   2000.0000      6.9959    132.6008
   550.0000   2000.0000   2000.0000      7.0577    130.8639
   550.2500   2000.0000   2000.0000      7.1141    130.2907
