~Version Information
VERS.                      2.0: CWLS Log ASCII Standard - VERSION 2.0
WRAP.                       NO: One line per depth step
~Well Information Block
STRT.FT               710.0000: 
STOP.FT              2922.5000: 
STEP.FT                 0.2500: 
NULL.                -999.2500: 
COMP.          Petrogulf Corporation: COMPANY
WELL.            Montoya 1-41V: WELL
FLD.           Purgatorie River: FIELD
LOC.           610' FNL & 1205' FEL: LOCATION
PROV.                 Colorado: PROVINCE
CNTY.               Las Animas: COUNTRY
SRVC.                Patterson: SERVICE COMPANY
DATE.          Mon Aug 22 08:00:56 2005: LOG DATE
UWI.                          : UNIQUE WELL ID
~Curve Information Block
DEPT.FT            0 000 00 00: Depth
SP.mV                         : DIL Spontaneous Potential
RILD.Ohm-m                    : DIL Deep Resistivity
RILM.Ohm-m                    : DIL Medium Resistivity
RLL3.Ohm-m                    : DIL Shallow Resistivity
GR.GAPI                       : Gamma Ray
~Parameter Information Block
~A  Depth        SP         RILD        RILM        RLL3         GR     
# ...
  1886.0000     25.4243      6.4863      7.3549     13.3405    148.8336
  1886.2500     23.6759      6.4444      7.2650     14.3832    147.9261
  1886.5000     22.2234      6.3138      7.1768     13.8060    166.4305
  1886.7500     20.8566      6.2887      7.1301     10.4778    172.2209
  1887.0000     19.4633      6.2112      7.0875      8.0021    135.4317
  1887.2500     18.1305      6.2582      6.8896      9.0069    139.1667
  1887.5000     17.0333      6.2321      6.6800     12.5217    169.4016
  1887.7500     16.1953      6.1118      6.5099     12.8139    172.9716
  1888.0000     15.5475      6.1857      6.4233     11.4297    161.4810
  1888.2500     15.0160      6.1762      6.4455      7.6329    143.5658
  1888.5000     14.7955      6.2785      6.3776      6.7650    151.4646
  1888.7500     14.8068      6.2632      6.4053      6.9750    153.9522
  1889.0000     14.9620      6.5561      6.4052      8.8775    157.4732
  1889.2500     15.4225      6.6455      6.5872     11.3802    159.5645
  1889.5000     16.3834      6.6107      6.9106     11.6445    168.1457
  1889.7500     18.0491      6.7015      7.2597     12.3468    136.0419
  1890.0000     20.5833      6.7274      7.8322     15.5935    128.6842
  1890.2500     23.5085      6.8318      8.4545     30.7158    129.7242
  1890.5000     27.1516      6.8634      8.7491     43.1974    116.6839
  1890.7500     30.7416      6.8821      9.0202     34.4033    104.5931
  1891.0000     33.6363      6.9584      8.9596     25.8284    105.4202
  1891.2500     35.7106      7.0492      8.8648     25.5753    123.8350
  1891.5000     37.1633      7.1632      8.8215     23.5027    156.2278
  1891.7500     38.2837      7.3063      8.4766     20.2609    153.4655
  1892.0000     39.0751      7.6083      8.3034     17.0504    187.0117
  1892.2500     39.4356      7.9262      8.2242     14.6809    177.1250
  1892.5000     39.4173      8.1238      8.3880     13.7228    174.5552
  1892.7500     39.1702      8.2319      8.1783     13.8124    157.3599
  1893.0000     38.8030      8.1910      8.3705     14.0442    162.5674
  1893.2500     38.4588      8.3169      8.7522     14.6644    159.4438
  1893.5000     37.9132      8.1891      8.9347     15.7739    153.8876
  1893.7500     37.4107      8.0001      9.1449     17.1927    154.3290
  1894.0000     36.8870      8.0118      9.3453     18.4553    138.9866
  1894.2500     36.3351      8.0639      9.5087     18.8979    147.1732
  1894.5000     35.7448      8.0114      9.5334     19.6926    139.9522
  1894.7500     35.1789      8.1615      9.5422     19.8680    140.1768
  1895.0000     34.6924      8.2519      9.7016     20.3897    139.7628
  1895.2500     34.2164      8.5667      9.9064     20.3439    159.1940
  1895.5000     33.7651      8.7214     10.0353     19.4032    144.2504
  1895.7500     33.4935      8.8205     10.1622     15.5556    127.1797
  1896.0000     33.2092      9.2210     10.2002     10.6009    135.6173
  1896.2500     32.7593      9.5988     10.3862      9.9190    146.6586
  1896.5000     32.0669      9.7518     10.5336     10.0879    146.6582
  1896.7500     31.2357     10.2187     10.9698     10.4735    146.6154
  1897.0000     30.3012     10.4206     11.1065     13.4890    143.5070
  1897.2500     29.4405     10.3514     11.8019     13.3005    128.0827
  1897.5000     28.4118     10.2483     12.6851     18.0743    124.1814
  1897.7500     27.4903      9.9433     12.6357     21.0663    137.3155
  1898.0000     26.6040      9.9371     12.9360     22.2214    151.8170
  1898.2500     25.8685     10.0961     13.1221     23.8802    140.5649
  1898.5000     25.3406      9.8969     13.0488     23.5972    128.0768
  1898.7500     24.8370      9.4513     12.7667     22.7560    132.5511
  1899.0000     24.4119      9.0127     12.2201     20.0924    122.7330
  1899.2500     24.1617      9.0364     11.7978     15.1556    122.9950
  1899.5000     23.9663      8.9524     11.1616     18.8713    145.8527
  1899.7500     23.7893      8.8470     10.1977     16.4598    148.5782
  1900.0000     23.5003      8.7455      9.4138     11.5758    136.0355
  1900.2500     23.1318      8.5721      8.9536      7.9494    154.2074
  1900.5000     22.8185      8.6045      8.4358      7.9537    177.2230
  1900.7500     22.3476      8.4345      8.2452      9.8531    180.8143
  1901.0000     21.7407      8.3554      8.3194     12.6411    164.3757
  1901.2500     21.1104      8.1472      8.4192     13.9407    163.9087
  1901.5000     20.4485      8.0744      8.6278     15.3636    157.0255
  1901.7500     19.9904      7.7708      8.6297     16.0169    163.4804
  1902.0000     19.7139      7.5732      8.4162     17.2849    148.6653
  1902.2500     19.5305      7.4697      8.4731     17.2106    161.4350
  1902.5000     19.2744      7.3475      8.3150     16.3812    154.3461
  1902.7500     19.0918      7.2029      8.2447     13.8299    177.9845
  1903.0000     18.9183      7.1428      8.1106      9.1083    158.3181
  1903.2500     18.7334      7.1780      7.9297      8.4996    160.9501
  1903.5000     18.6101      7.1972      7.7901      8.8997    167.6074
  1903.7500     18.5490      6.9881      7.7492     11.2259    133.9283
  1904.0000     18.5164      7.0999      7.6603     14.2732    172.6747
  1904.2500     18.2944      7.1904      7.5763     13.7865    185.9191
  1904.5000     18.0098      7.3269      7.4735     11.1549    148.7018
  1904.7500     17.6819      7.3151      7.4261     12.0362    137.7736
  1905.0000     17.4858      7.3012      7.4629     11.7192    144.0006
  1905.2500     17.3738      7.3348      7.4116      9.2048    155.0370
  1905.5000     17.5222      7.4861      7.5249      9.3637    144.2690
  1905.7500     18.1997      7.5116      7.5801     10.5810    161.1665
  1906.0000     19.8539      7.6065      7.8436     11.3721    136.6979
  1906.2500     22.7182      7.5258      8.2197      9.8954    131.0978
  1906.5000     27.1424      7.6264      8.6510      8.8022    148.6363
  1906.7500     33.1578      7.6710      9.0319     12.0464    148.5477
  1907.0000     40.1754      7.7832      9.1147     15.9011    124.6284
  1907.2500     46.3750      8.0166      9.3113     13.5552    120.9249
  1907.5000     50.4691      8.1344      9.4178     11.3880    118.7703
  1907.7500     52.5912      8.2061      9.2383     11.2865    115.5782
  1908.0000     53.9022      8.3668      9.1135     11.6397    137.4689
  1908.2500     54.5343      8.5707      9.0285     10.1391    129.2977
  1908.5000     54.7323      9.1057      9.0571      9.6273    142.5880
  1908.7500     54.5676      9.5162      9.4241      9.5328    131.5117
  1909.0000     54.1979      9.8722      9.7405     10.0249    128.5037
  1909.2500     53.7860     10.2324     10.2966     11.2292    125.6995
  1909.5000     53.2959     10.4262     11.0103     19.0570    125.5943
  1909.7500     52.7942     10.8383     11.7996     26.4209    127.3080
  1910.0000     52.2906     11.1535     12.6411     29.0109    108.4525
  1910.2500     51.8668     11.0745     13.4995     20.9443    104.1116
  1910.5000     51.6197     11.5448     14.0088     20.1447    101.5561
  1910.7500     51.3750     11.5112     14.4266     18.2116     98.8848
  1911.0000     51.1671     12.3181     14.7915     16.3885    120.7433
  1911.2500     50.8252     12.6146     15.8971     16.0836    114.0820
  1911.5000     50.2816     12.7467     16.8061     17.2970    123.0484
  1911.7500     49.2169     13.5108     17.6151     24.8827    121.5706
  1912.0000     47.5911     13.8425     19.4708     34.9612    109.7242
  1912.2500     45.5713     14.1430     20.2930     43.2936    107.9685
  1912.5000     43.2158     14.0103     20.7442     40.3163    118.5357
  1912.7500     40.4371     14.0948     20.0469     47.5528    124.0221
  1913.0000     37.2141     13.6079     18.3472     45.1404    146.1754
  1913.2500     33.9812     14.0435     17.3545     23.2419    146.9396
  1913.5000     31.3532     14.3000     16.1554     17.0980    137.1114
  1913.7500     28.8662     14.3333     15.1564     15.7014    146.1689
