~Version Information
VERS.                      2.0: CWLS Log ASCII Standard - VERSION 2.0
WRAP.                       NO: One line per depth step
~Well Information Block
STRT.FT               510.0000: 
STOP.FT              1861.5000: 
STEP.FT                 0.1000: 
NULL.                -999.2500: 
COMP.          Pioneer Natural Resources: COMPANY
WELL.           Guajardo 24-16: WELL
FLD.           Purgatoire River: FIELD
LOC.           883' FSL & 2147' FWL: LOCATION
PROV.                 Colorado: PROVINCE
CNTY.               Las Animas: COUNTRY
SRVC.                Patterson: SERVICE COMPANY
DATE.          Mon Aug 08 09:13:01 2005: LOG DATE
UWI.           05 071 08377 00: UNIQUE WELL ID
~Curve Information Block
DEPT.FT            0 000 00 00: Depth
DCAL.in                       : CDL Caliper
RHOB.g/cc                     : CDL Bulk Density
RHOC.g/cc                     : CDL Density Correction
DPOR.pu                       : CDL Density Porosity
GR.GAPI                       : Gamma Ray
NPOR.pu                       : Neutron Porosity
~Parameter Information Block
~A  Depth       DCAL        RHOB        RHOC        DPOR         GR         NPOR    
# ...
  1844.4000      7.8951      2.4476     -0.0039     12.2640     86.3592     17.1862
  1844.5000      7.8943      2.4727      0.0471     10.7458     87.9591     17.7967
  1844.6000      7.8943      2.4901      0.0792      9.6887     96.3906     18.3920
  1844.7000      7.8943      2.4872      0.0369      9.8695    108.1315     18.7589
  1844.8000      7.8908      2.4759      0.0176     10.5489    114.0091     18.7819
  1844.9000      7.8908      2.4749      0.0419     10.6148    110.9660     18.8565
  1845.0000      7.8886      2.4854      0.0331      9.9737     96.9978     19.2066
  1845.1000      7.8886      2.4898      0.0827      9.7061     68.1102     19.3845
  1845.2000      7.8886      2.4726      0.0520     10.7505     33.4406     18.8086
  1845.3000      7.8899      2.4553     -0.0028     11.8003     10.2837     17.7656
  1845.4000      7.8899      2.4712     -0.0006     10.8384      1.8415     17.3445
  1845.5000      7.8955      2.5097      0.0398      8.5019      0.1835     17.8685
  1845.6000      7.8955      2.5374      0.0737      6.8256      0.0096     18.6155
  1845.7000      7.8955      2.5450      0.0706      6.3650      0.0000     18.9445
  1845.8000      7.9022      2.5420      0.0778      6.5427   -999.2500     19.0927
  1845.9000      7.9022      2.5376      0.0783      6.8137   -999.2500     19.1556
  1846.0000      7.9009      2.5350      0.0482      6.9681   -999.2500     18.7394
  1846.1000      7.9009      2.5331      0.0320      7.0834   -999.2500     18.0357
  1846.2000      7.9009      2.5246      0.0373      7.5979   -999.2500     17.3929
  1846.3000      7.8882      2.5105      0.0123      8.4532   -999.2500     17.0469
  1846.4000      7.8882      2.5040      0.0121      8.8469   -999.2500     17.4770
  1846.5000      7.8838      2.5073      0.0765      8.6488   -999.2500     18.5752
  1846.6000      7.8838      2.5111      0.0530      8.4203   -999.2500     20.9329
  1846.7000      7.8838      2.5136      0.0361      8.2664   -999.2500     27.9605
  1846.8000      7.8855      2.5160      0.0320      8.1195   -999.2500     39.6786
  1846.9000      7.8855      2.5150      0.0285      8.1788   -999.2500     48.3644
  1847.0000      7.8771      2.5068      0.0684      8.6790   -999.2500     51.4827
  1847.1000      7.8771      2.4920      0.0183      9.5736   -999.2500     52.0912
  1847.2000      7.8771      2.4839      0.0071     10.0654   -999.2500     52.1558
  1847.3000      7.8962      2.4891      0.0348      9.7492   -999.2500     52.1594
  1847.4000      7.8962      2.5008      0.0288      9.0444   -999.2500   -999.2500
  1847.5000      7.8960      2.5185      0.0256      7.9707   -999.2500   -999.2500
  1847.6000      7.8960      2.5449      0.0241      6.3694   -999.2500   -999.2500
  1847.7000      7.8960      2.5666      0.0554      5.0563   -999.2500   -999.2500
  1847.8000      7.8970      2.5651      0.0634      5.1428   -999.2500   -999.2500
  1847.9000      7.8970      2.5526     -0.0060      5.9008   -999.2500   -999.2500
  1848.0000      7.8961      2.5554      0.0314      5.7316   -999.2500   -999.2500
  1848.1000      7.8961      2.5651      0.0882      5.1435   -999.2500   -999.2500
  1848.2000      7.8961      2.5590      0.1043      5.5179   -999.2500   -999.2500
  1848.3000      7.8910      2.5494      0.0017      6.0996   -999.2500   -999.2500
  1848.4000      7.8910      2.5534      0.0683      5.8574   -999.2500   -999.2500
  1848.5000      7.9081      2.5568      0.0566      5.6512   -999.2500   -999.2500
  1848.6000      7.9081      2.5544      0.0315      5.7929   -999.2500   -999.2500
  1848.7000      7.9081      2.5626      0.0047      5.2996   -999.2500   -999.2500
  1848.8000      7.8825      2.5841      0.0791      3.9942   -999.2500   -999.2500
  1848.9000      7.8825      2.6031      0.0705      2.8436   -999.2500   -999.2500
  1849.0000      7.8586      2.6083      0.0466      2.5266   -999.2500   -999.2500
  1849.1000      7.8586      2.6029      0.0187      2.8568   -999.2500   -999.2500
  1849.2000      7.8586      2.5990      0.0228      3.0911   -999.2500   -999.2500
  1849.3000      7.8733      2.6025      0.0539      2.8763   -999.2500   -999.2500
  1849.4000      7.8733      2.6016      0.0847      2.9353   -999.2500   -999.2500
  1849.5000      7.8757      2.5906      0.0359      3.5988   -999.2500   -999.2500
  1849.6000      7.8757      2.5834      0.0283      4.0383   -999.2500   -999.2500
  1849.7000      7.8757      2.5866      0.0398      3.8419   -999.2500   -999.2500
  1849.8000      7.8762      2.5899      0.0773      3.6426   -999.2500   -999.2500
  1849.9000      7.8762      2.5825      0.0424      4.0886   -999.2500   -999.2500
  1850.0000      7.8802      2.5726      0.0053      4.6921   -999.2500   -999.2500
  1850.1000      7.8802      2.5780     -0.0170      4.3619   -999.2500   -999.2500
  1850.2000      7.8802      2.5959      0.0491      3.2791   -999.2500   -999.2500
  1850.3000      7.8830      2.6055      0.0333      2.6971   -999.2500   -999.2500
  1850.4000      7.8830      2.5963      0.0592      3.2534   -999.2500   -999.2500
  1850.5000      7.8859      2.5707      0.0366      4.8065   -999.2500   -999.2500
  1850.6000      7.8859      2.5446      0.0359      6.3898   -999.2500   -999.2500
  1850.7000      7.8859      2.5380      0.0389      6.7887   -999.2500   -999.2500
  1850.8000      7.8819      2.5558      0.0658      5.7114   -999.2500   -999.2500
  1850.9000      7.8819      2.5841      0.0995      3.9929   -999.2500   -999.2500
  1851.0000      7.8820      2.6040      0.0909      2.7873   -999.2500   -999.2500
  1851.1000      7.8820      2.6078      0.0943      2.5593   -999.2500   -999.2500
  1851.2000      7.8820      2.6000      0.0559      3.0311   -999.2500   -999.2500
  1851.3000      7.8736      2.5884      0.0120      3.7310   -999.2500   -999.2500
  1851.4000      7.8736      2.5833      0.0321      4.0435   -999.2500   -999.2500
  1851.5000      7.8770      2.5926      0.1037      3.4779   -999.2500   -999.2500
  1851.6000      7.8770      2.6073      0.0631      2.5851   -999.2500   -999.2500
  1851.7000      7.8770      2.6020      0.1250      2.9083   -999.2500   -999.2500
  1851.8000      7.8971      2.5731      0.0124      4.6592   -999.2500   -999.2500
  1851.9000      7.8971      2.5587      0.0232      5.5316   -999.2500   -999.2500
  1852.0000      7.8999      2.5728      0.0738      4.6796   -999.2500   -999.2500
  1852.1000      7.8999      2.5863      0.0740      3.8581   -999.2500   -999.2500
  1852.2000      7.8999      2.5913      0.0447      3.5593   -999.2500   -999.2500
  1852.3000      7.9145      2.6061      0.0425      2.6586   -999.2500   -999.2500
  1852.4000      7.9145      2.6268      0.1264      1.4042   -999.2500   -999.2500
  1852.5000      7.9247      2.6296      0.1173      1.2346   -999.2500   -999.2500
  1852.6000      7.9247      2.6138      0.0865      2.1940   -999.2500   -999.2500
  1852.7000      7.9247      2.5963      0.0862      3.2565   -999.2500   -999.2500
  1852.8000      7.9383      2.5865      0.0652      3.8479   -999.2500   -999.2500
  1852.9000      7.9383      2.5834      0.0429      4.0364   -999.2500   -999.2500
  1853.0000      7.8902      2.5772      0.0509      4.4136   -999.2500   -999.2500
  1853.1000      7.8902      2.5607      0.0468      5.4140   -999.2500   -999.2500
  1853.2000      7.8902      2.5459     -0.0047      6.3120   -999.2500   -999.2500
  1853.3000      7.8822      2.5508      0.0473      6.0095   -999.2500   -999.2500
  1853.4000      7.8822      2.5712      0.0440      4.7755   -999.2500   -999.2500
  1853.5000      7.8799      2.5885      0.0624      3.7256   -999.2500   -999.2500
  1853.6000      7.8799      2.5931      0.0421      3.4493   -999.2500   -999.2500
  1853.7000      7.8799      2.5828      0.1153      4.0712   -999.2500   -999.2500
  1853.8000      7.8740      2.5693      0.0308      4.8879   -999.2500   -999.2500
  1853.9000      7.8740      2.5717      0.0636      4.7481   -999.2500   -999.2500
