~Version Information
VERS.                      2.0: CWLS Log ASCII Standard - VERSION 2.0
WRAP.                       NO: One line per depth step
~Well Information Block
STRT.FT               948.2500: 
STOP.FT              2134.5000: 
STEP.FT                 0.2500: 
NULL.                -999.2500: 
COMP.          Petrogulf Corporation: COMPANY
WELL.             Valejo 8-12R: WELL
FLD.           Purgatorie River: FIELD
LOC.           1351'' FNL & 1562' FWL: LOCATION
CNTY.               Las Animas: COUNTY
SRVC.                         : SERVICE COMPANY
DATE.          Wed Apr 28 02:30:32 2004: LOG DATE
UWI.           05 071 08038 00: UNIQUE WELL ID
STAT.                 Colorado: STATE
~Curve Information Block
DEPT.FT            0 000 00 00: Depth
SP.mV                         : DIL Spontaneous Potential
RILD.Ohm-m                    : DIL Deep Resistivity
RILM.Ohm-m                    : DIL Medium Resistivity
RLL3.Ohm-m                    : DIL Shallow Resistivity
GR.GAPI                       : Gamma Ray
~Parameter Information Block
~A  Depth        SP         RILD        RILM        RLL3         GR     
# ...
  1060.2500     59.2881     11.0242     12.7248     15.9715    137.5562
  1060.5000     59.4618     11.0261     12.8532     16.1006    140.3279
  1060.7500     59.5537     11.0253     12.9721     16.1653    142.6285
  1061.0000     59.5805     11.0288     13.0454     16.2183    145.8415
  1061.2500     59.5734     11.0417     13.0497     16.2718    147.2325
  1061.5000     59.5713     11.0646     12.9839     16.2776    147.4346
  1061.7500     59.6129     11.0949     12.8688     16.1966    146.1699
  1062.0000     59.7251     11.1303     12.7380     16.0623    142.8026
  1062.2500     59.9117     11.1717     12.6258     15.9735    140.3467
  1062.5000     60.1492     11.2234     12.5593     16.0384    137.3073
  1062.7500     60.4003     11.2903     12.5544     16.3012    135.6861
  1063.0000     60.6358     11.3752     12.6161     16.6904    133.4760
  1063.2500     60.8492     11.4785     12.7400     17.0445    132.2463
  1063.5000     61.0551     11.5989     12.9128     17.2265    131.2436
  1063.7500     61.2811     11.7365     13.1169     17.2311    131.0343
  1064.0000     61.5540     11.8924     13.3399     17.1855    130.5027
  1064.2500     61.8810     12.0672     13.5866     17.2642    129.5971
  1064.5000     62.2361     12.2593     13.8827     17.6039    127.5014
  1064.7500     62.5715     12.4640     14.2645     18.2659    125.8113
  1065.0000     62.8506     12.6752     14.7631     19.2495    122.7316
  1065.2500     63.0724     12.8867     15.3906     20.5722    120.0947
  1065.5000     63.2620     13.0932     16.1349     22.3530    115.3209
  1065.7500     63.4438     13.2892     16.9582     24.7414    112.0897
  1066.0000     63.6264     13.4684     17.7984     27.6543    108.6099
  1066.2500     63.8094     13.6246     18.5778     30.5506    108.0309
  1066.5000     63.9901     13.7553     19.2216     32.5537    110.4380
  1066.7500     64.1613     13.8631     19.6776     32.9448    114.0090
  1067.0000     64.3057     13.9541     19.9204     31.6618    121.2398
  1067.2500     64.4022     14.0322     19.9412     29.3634    126.5477
  1067.5000     64.4408     14.0972     19.7459     27.0028    133.8673
  1067.7500     64.4345     14.1490     19.3685     25.2995    137.4836
  1068.0000     64.4181     14.1961     18.8796     24.4967    139.9869
  1068.2500     64.4313     14.2604     18.3717     24.4431    139.7640
  1068.5000     64.5006     14.3688     17.9269     24.7851    138.0923
  1068.7500     64.6310     14.5383     17.5973     25.1155    137.3296
  1069.0000     64.8106     14.7648     17.4097     25.0953    137.9929
  1069.2500     65.0176     15.0277     17.3831     24.6179    139.3478
  1069.5000     65.2278     15.3038     17.5392     23.9487    140.8191
  1069.7500     65.4231     15.5798     17.8979     23.6576    140.1973
  1070.0000     65.6009     15.8542     18.4672     24.3208    135.9982
  1070.2500     65.7751     16.1306     19.2379     26.2498    131.5680
  1070.5000     65.9654     16.4095     20.1881     29.5217    124.4683
  1070.7500     66.1859     16.6864     21.2892     34.2528    120.3595
  1071.0000     66.4396     16.9533     22.5014     40.7172    115.3833
  1071.2500     66.7179     17.2015     23.7584     48.9262    112.4517
  1071.5000     67.0021     17.4239     24.9533     57.8961    108.0870
  1071.7500     67.2650     17.6163     25.9430     65.5318    105.4107
  1072.0000     67.4777     17.7774     26.5844     69.6790    103.0631
  1072.2500     67.6200     17.9082     26.7863     69.4780    103.5422
  1072.5000     67.6915     18.0077     26.5431     65.6392    108.0911
  1072.7500     67.7145     18.0686     25.9240     59.6018    113.1858
  1073.0000     67.7231     18.0749     25.0320     52.7034    121.7069
  1073.2500     67.7408     18.0090     23.9717     45.9239    126.7012
  1073.5000     67.7658     17.8623     22.8371     39.8513    132.5761
  1073.7500     67.7824     17.6415     21.7109     34.6546    135.9406
  1074.0000     67.7897     17.3630     20.6614     30.2324    140.7993
  1074.2500     67.8179     17.0417     19.7385     26.4974    143.4882
  1074.5000     67.9083     16.6850     18.9695     23.5107    145.2446
  1074.7500     68.0816     16.2967     18.3598     21.3975    144.3411
  1075.0000     68.3264     15.8857     17.8945     20.2440    139.9166
  1075.2500     68.6136     15.4696     17.5418     20.0717    135.4860
  1075.5000     68.9146     15.0695     17.2587     20.7960    128.4661
  1075.7500     69.2076     14.7021     16.9979     22.1120    124.9077
  1076.0000     69.4745     14.3744     16.7191     23.4455    122.9302
  1076.2500     69.6983     14.0865     16.4009     24.1526    123.7970
  1076.5000     69.8687     13.8347     16.0488     23.8942    126.5484
  1076.7500     69.9875     13.6140     15.6910     22.8543    128.0203
  1077.0000     70.0663     13.4167     15.3621     21.5740    128.4220
  1077.2500     70.1132     13.2327     15.0840     20.5612    127.6489
  1077.5000     70.1239     13.0516     14.8554     20.0131    126.3006
  1077.7500     70.0866     12.8656     14.6573     19.8132    126.1181
  1078.0000     69.9944     12.6729     14.4664     19.7014    127.5356
  1078.2500     69.8551     12.4772     14.2670     19.4484    129.4933
  1078.5000     69.6915     12.2830     14.0528     18.9516    133.4102
  1078.7500     69.5350     12.0909     13.8216     18.2663    136.1637
  1079.0000     69.4181     11.8949     13.5713     17.5783    139.2400
  1079.2500     69.3682     11.6857     13.3011     17.0914    139.9707
  1079.5000     69.4014     11.4581     13.0139     16.8814    139.0841
  1079.7500     69.5172     11.2172     12.7143     16.8481    137.7437
  1080.0000     69.6977     10.9779     12.4043     16.8232    135.7013
  1080.2500     69.9158     10.7588     12.0825     16.7108    134.6285
  1080.5000     70.1461     10.5758     11.7483     16.5056    133.4861
  1080.7500     70.3714     10.4394     11.4079     16.2050    133.0800
  1081.0000     70.5801     10.3560     11.0772     15.7532    133.5191
  1081.2500     70.7658     10.3304     10.7776     15.0959    134.8604
  1081.5000     70.9294     10.3656     10.5293     14.2716    138.1862
  1081.7500     71.0776     10.4625     10.3479     13.4229    140.4182
  1082.0000     71.2127     10.6185     10.2475     12.7159    142.0869
  1082.2500     71.3230     10.8283     10.2467     12.2763    141.6941
  1082.5000     71.3873     11.0850     10.3708     12.2447    139.3452
  1082.7500     71.3894     11.3811     10.6488     12.9189    137.0146
  1083.0000     71.3317     11.7084     11.1078     14.8090    132.4235
  1083.2500     71.2319     12.0604     11.7664     18.5149    128.3202
  1083.5000     71.1047     12.4367     12.6313     24.6092    120.1330
  1083.7500     70.9446     12.8483     13.6955     33.7935    113.4202
  1084.0000     70.7305     13.3159     14.9410     47.0311    102.3107
  1084.2500     70.4475     13.8605     16.3470     64.6528     94.9002
  1084.5000     70.1044     14.4893     17.8987     84.5092     85.1332
  1084.7500     69.7303     15.1854     19.5885    101.8151     80.3680
  1085.0000     69.3591     15.9059     21.3995    112.9107     76.7016
  1085.2500     69.0176     16.5891     23.2706    119.5274     76.2680
  1085.5000     68.7202     17.1642     25.0560    127.0742     77.0369
  1085.7500     68.4644     17.5600     26.5068    137.3434     77.7583
  1086.0000     68.2274     17.7159     27.3053    144.6256     79.1902
  1086.2500     67.9724     17.6010     27.1796    140.8707     80.9153
  1086.5000     67.6657     17.2311     26.0584    123.8848     85.4467
  1086.7500     67.2951     16.6679     24.1511     99.1065     89.8844
  1087.0000     66.8773     15.9932     21.8569     74.2704     98.4050
  1087.2500     66.4553     15.2802     19.5714     54.0671    105.0301
  1087.5000     66.0845     14.5788     17.5490     39.4426    115.7235
  1087.7500     65.8100     13.9179     15.8844     29.6634    122.8878
  1088.0000     65.6469     13.3149     14.5632     23.7366    132.7253
