~Version Information
VERS.                      2.0: CWLS Log ASCII Standard - VERSION 2.0
WRAP.                       NO: One line per depth step
~Well Information Block
STRT.FT               580.0000: 
STOP.FT              1756.7500: 
STEP.FT                 0.2500: 
NULL.                -999.2500: 
COMP.          Pioneer Natural Resources: COMPANY
WELL.          Lookout Point 31-23 Tr: WELL
FLD.           Purgatoire River: FIELD
LOC.           541' FNL & 1786' FEL: LOCATION
PROV.                 Colorado: PROVINCE
CNTY.               Las Animas: COUNTRY
SRVC.                Patterson: SERVICE COMPANY
DATE.          Sun Jan 23 04:14:25 2005: LOG DATE
UWI.           05 071 08260 00: UNIQUE WELL ID
~Curve Information Block
DEPT.FT            0 000 00 00: Depth
DIR.Ohm-m                     : IEL Induction Resistivity
GR.GAPI                       : Gamma Ray
SN.Ohm-m                      : IEL Short Normal
SP.mV                         : IEL Spontaneous Potential
~Parameter Information Block
~A  Depth       DIR          GR          SN          SP     
# ...
   814.5000     32.5890    102.9125     42.8994      3.1976
   814.7500     32.5444     99.5076     45.9489      4.1456
   815.0000     32.7434     92.5907     49.0950      4.2820
   815.2500     33.2963     86.7330     52.1306      3.7977
   815.5000     34.1455     76.8130     54.7226      2.9394
   815.7500     35.0820     70.6095     56.5152      1.9450
   816.0000     35.8031     64.3886     57.3126      1.0007
   816.2500     36.0090     63.2629     57.1788      0.2194
   816.5000     35.5204     66.3377     56.3591     -0.3619
   816.7500     34.3547     71.0834     55.1062     -0.7685
   817.0000     32.7030     80.9304     53.5646     -1.0662
   817.2500     30.8296     88.3503     51.7668     -1.3334
   817.5000     28.9705     98.9571     49.6959     -1.6337
   817.7500     27.2842    104.8281     47.3523     -1.9942
   818.0000     25.8516    111.1318     44.7920     -2.3948
   818.2500     24.6942    113.5722     42.1213     -2.7704
   818.5000     23.7947    114.5565     39.4492     -3.0272
   818.7500     23.1137    113.5090     36.8306     -3.0686
   819.0000     22.6047    109.8988     34.2573     -2.8224
   819.2500     22.2248    106.5827     31.7174     -2.2601
   819.5000     21.9385    101.0348     29.2740     -1.4023
   819.7500     21.7155     97.4888     27.0814     -0.3095
   820.0000     21.5262     93.7674     25.3197      0.9351
   820.2500     21.3372     93.3608     24.0934      2.2450
   820.5000     21.1074     97.0754     23.3664      3.5429
   820.7500     20.7891    102.3185     22.9704      4.7669
   821.0000     20.3381    112.5456     22.6793      5.8698
   821.2500     19.7334    119.3285     22.3077      6.8169
   821.5000     18.9959    126.8036     21.7749      7.5858
   821.7500     18.1866    129.1951     21.0987      8.1693
   822.0000     17.3799    129.4084     20.3380      8.5781
   822.2500     16.6274    128.2794     19.5405      8.8421
   822.5000     15.9410    126.2160     18.7304      9.0070
   822.7500     15.3030    125.1800     17.9276      9.1271
   823.0000     14.6946    124.7987     17.1663      9.2545
   823.2500     14.1167    125.4084     16.4933      9.4273
   823.5000     13.5887    126.8711     15.9452      9.6580
   823.7500     13.1293    127.4859     15.5239      9.9281
   824.0000     12.7416    127.0819     15.1891     10.1911
   824.2500     12.4155    125.8662     14.8772     10.3872
   824.5000     12.1421    122.6395     14.5324     10.4646
   824.7500     11.9265    119.5398     14.1301     10.3974
   825.0000     11.7848    114.0989     13.6836     10.1931
   825.2500     11.7289    110.8719     13.2354      9.8826
   825.5000     11.7543    108.1057     12.8394      9.5006
   825.7500     11.8394    107.6926     12.5411      9.0665
   826.0000     11.9593    108.1932     12.3710      8.5765
   826.2500     12.0996    108.9217     12.3547      8.0101
   826.5000     12.2583    111.0904     12.5238      7.3455
   826.7500     12.4364    113.5003     12.9024      6.5753
   827.0000     12.6280    117.5860     13.4746      5.7134
   827.2500     12.8200    119.3820     14.1709      4.7930
   827.5000     13.0001    118.9310     14.8907      3.8570
   827.7500     13.1654    116.4550     15.5456      2.9496
   828.0000     13.3245    111.1308     16.0940      2.1114
   828.2500     13.4945    107.9422     16.5476      1.3784
   828.5000     13.6958    105.5081     16.9468      0.7817
   828.7500     13.9480    105.6434     17.3115      0.3436
   829.0000     14.2638    107.3181     17.6034      0.0693
   829.2500     14.6425    108.2236     17.7363     -0.0576
   829.5000     15.0670    107.4668     17.6378     -0.0747
   829.7500     15.5066    105.2566     17.3147     -0.0322
   830.0000     15.9285    100.3954     16.8718      0.0162
   830.2500     16.3106     97.0511     16.4793      0.0204
   830.5000     16.6455     92.8666     16.3202     -0.0623
   830.7500     16.9358     90.8154     16.5307     -0.2639
   831.0000     17.1857     89.2599     17.1325     -0.6002
   831.2500     17.3946     89.7358     17.9939     -1.0687
   831.5000     17.5565     93.4595     18.8785     -1.6522
   831.7500     17.6626     97.8003     19.5705     -2.3286
   832.0000     17.7079    105.4607     19.9771     -3.0797
   832.2500     17.6951    109.9651     20.1321     -3.8913
   832.5000     17.6357    114.0601     20.1258     -4.7447
   832.7500     17.5484    114.6714     20.0384     -5.6075
   833.0000     17.4580    112.7196     19.9205     -6.4340
   833.2500     17.3930    110.0741     19.8056     -7.1798
   833.5000     17.3786    105.7166     19.7176     -7.8200
   833.7500     17.4275    103.5880     19.6582     -8.3589
   834.0000     17.5346    102.3725     19.5954     -8.8202
   834.2500     17.6784    102.5375     19.4827     -9.2255
   834.5000     17.8270    103.1129     19.2978     -9.5767
   834.7500     17.9447    103.4268     19.0508     -9.8553
   835.0000     17.9973    104.2460     18.7543    -10.0376
   835.2500     17.9579    105.4101     18.4071    -10.1121
   835.5000     17.8150    108.0665     18.0172    -10.0855
   835.7500     17.5763    109.9560     17.6200     -9.9761
   836.0000     17.2651    111.9482     17.2552     -9.8013
   836.2500     16.9068    112.5756     16.9361     -9.5705
   836.5000     16.5176    113.4331     16.6486     -9.2840
   836.7500     16.1030    114.7395     16.3694     -8.9391
   837.0000     15.6692    118.0938     16.0744     -8.5352
   837.2500     15.2355    120.5791     15.7422     -8.0790
   837.5000     14.8343    122.9642     15.3722     -7.5881
   837.7500     14.4977    123.0215     14.9987     -7.0905
   838.0000     14.2444    120.9825     14.6726     -6.6222
   838.2500     14.0747    118.8990     14.4285     -6.2182
   838.5000     13.9758    115.9943     14.2691     -5.9009
   838.7500     13.9298    114.5944     14.1639     -5.6720
   839.0000     13.9181    113.1817     14.0530     -5.5150
   839.2500     13.9208    112.4201     13.8726     -5.4075
   839.5000     13.9160    111.2041     13.6013     -5.3359
   839.7500     13.8846    110.3391     13.2840     -5.3025
   840.0000     13.8195    109.2388     12.9961     -5.3208
   840.2500     13.7292    108.7903     12.7891     -5.4051
   840.5000     13.6328    108.3011     12.6809     -5.5620
   840.7500     13.5484    107.6271     12.6859     -5.7913
   841.0000     13.4849    105.5330     12.8209     -6.0910
   841.2500     13.4399    103.6794     13.0710     -6.4607
   841.5000     13.4061    101.4248     13.3709     -6.8983
   841.7500     13.3788    100.8106     13.6396     -7.3901
   842.0000     13.3593    101.1576     13.8325     -7.9033
   842.2500     13.3511    101.7674     13.9522     -8.3839
   842.5000     13.3538    102.5072     14.0156     -8.7654
   842.7500     13.3601    102.7896     14.0250     -8.9843
   843.0000     13.3589    103.2188     13.9686     -8.9994
   843.2500     13.3399    103.7245     13.8386     -8.8066
   843.5000     13.2962    105.0498     13.6423     -8.4429
   843.7500     13.2217    106.4427     13.3947     -7.9738
   844.0000     13.1085    109.3392     13.1035     -7.4677
   844.2500     12.9480    111.5561     12.7695     -6.9670
   844.5000     12.7353    114.6076     12.4082     -6.4749
   844.7500     12.4721    116.1818     12.0629     -5.9649
   845.0000     12.1676    117.6184     11.7830     -5.4110
   845.2500     11.8360    117.8120     11.5834     -4.8195
   845.5000     11.4955    116.8504     11.4288     -4.2426
   845.7500     11.1667    115.6378     11.2654     -3.7665
   846.0000     10.8717    113.8754     11.0601     -3.4760
   846.2500     10.6300    113.2043     10.8088     -3.4185
   846.5000     10.4545    113.0897     10.5207     -3.5840
   846.7500     10.3485    113.2484     10.2108     -3.9092
   847.0000     10.3070    112.9590      9.9084     -4.3010
   847.2500     10.3202    112.1886      9.6585     -4.6652
   847.5000     10.3774    110.6824      9.5017     -4.9269
   847.7500     10.4667    110.0054      9.4527     -5.0384
