~Version Information
VERS.                      2.0: CWLS Log ASCII Standard - VERSION 2.0
WRAP.                       NO: One line per depth step
~Well Information Block
STRT.FT               -11.0000: 
STOP.FT              2634.5000: 
STEP.FT                 0.2500: 
NULL.                -999.2500: 
COMP.          Evergreen Operating Corporation: COMPANY
WELL.          Sand PebbleS 13-33: WELL
FLD.           Purgatorie River: FIELD
LOC.           1883' FSL & 63' FWL--: LOCATION
PROV.                 Colorado: PROVINCE
CNTY.               Las Animas: COUNTRY
SRVC.          Patterson Wireline: SERVICE COMPANY
DATE.          Fri Mar 18 09:37:20 2005: LOG DATE
UWI.          005 071 08224 : UNIQUE WELL ID
~Curve Information Block
DEPT.FT            0 000 00 00: Depth
CCL.                          : Casing Collar Locator
TT3.usec                      : CBL 3' Travel Time
AMP3.mV                       : CBL 3' Amplitude
GR.GAPI                       : Gamma Ray
~Parameter Information Block
~A  Depth       CCL         TT3         AMP3         GR     
# ...
  1027.5000      0.0000    515.2739      7.4164     88.8655
  1027.7500      0.0000    512.2434      7.3442     94.8268
  1028.0000      0.0000    529.5443      7.2945    102.2487
  1028.2500      0.0000    569.5194      7.2713    108.9984
  1028.5000      0.0000    618.2017      7.2748    113.4971
  1028.7500      0.0000    655.7642      7.2939    115.9293
  1029.0000      0.0000    671.2271      7.3060    117.7093
  1029.2500      0.0000    667.0126      7.2941    119.8628
  1029.5000      0.0000    650.9304      7.2552    122.4293
  1029.7500      0.0000    627.9406      7.1885    125.3785
  1030.0000      0.0000    600.4423      7.0929    129.2993
  1030.2500      0.0000    571.0772      6.9823    134.6146
  1030.5000      0.0000    541.3034      6.8865    140.3610
  1030.7500      0.0000    509.9940      6.8262    144.5047
  1031.0000      0.0000    476.5807      6.7950    145.7991
  1031.2500      0.0000    444.1505      6.7756    144.9426
  1031.5000      0.0000    417.6914      6.7613    143.6279
  1031.7500      0.0000    400.1311      6.7573    142.8687
  1032.0000      0.0000    391.0252      6.7668    142.4485
  1032.2500      0.0000    388.2585      6.7856    141.3816
  1032.5000      0.0000    389.8658      6.8050    138.5993
  1032.7500      0.0000    394.1845      6.8115    133.7266
  1033.0000      0.0000    399.3145      6.7897    127.5828
  1033.2500      0.0000    403.5827      6.7361    121.6364
  1033.5000      0.0000    407.3239      6.6634    116.8308
  1033.7500      0.0000    414.2611      6.5832    113.0969
  1034.0000      0.0000    430.2748      6.4997    109.9608
  1034.2500      0.0000    458.3317      6.4268    107.5290
  1034.5000      0.0000    492.4153      6.3874    106.7291
  1034.7500      0.0000    517.7238      6.3835    108.3617
  1035.0000      0.0000    520.7701      6.3889    112.1340
  1035.2500      0.0000    500.7296      6.3854    116.9417
  1035.5000      0.0000    469.3524      6.3858    121.7642
  1035.7500      0.0000    440.2645      6.4055    125.9912
  1036.0000      0.0000    420.3987      6.4329    129.3992
  1036.2500      0.0000    410.3579      6.4459    132.4426
  1036.5000      0.0000    409.3391      6.4419    136.2510
  1036.7500      0.0000    418.9091      6.4250    141.6258
  1037.0000      0.0000    443.4141      6.3718    147.9787
  1037.2500      0.0000    486.2812      6.2379    153.6423
  1037.5000      0.0000    543.9381      6.0135    157.5228
  1037.7500      0.0000    603.6967      5.7575    160.2797
  1038.0000      0.0000    650.2305      5.5620    163.3992
  1038.2500      0.0000    675.3876      5.4734    167.0260
  1038.5000      0.0000    681.3887      5.4506    169.1624
  1038.7500      0.0000    675.6808      5.4029    167.2924
  1039.0000      0.0000    664.2969      5.2744    160.7220
  1039.2500      0.0000    649.2241      5.0892    151.2990
  1039.5000      0.0000    630.6625      4.9205    142.1352
  1039.7500      0.0000    612.1317      4.8200    135.6596
  1040.0000      0.0000    602.4574      4.7820    132.2807
  1040.2500      0.0000    609.1076      4.7666    130.4566
  1040.5000      0.0000    627.7649      4.7473    128.2907
  1040.7500      2.0000    641.3981      4.7295    125.4294
  1041.0000      0.0000    633.0744      4.7276    123.6124
  1041.2500     -2.0000    601.2855      4.7349    125.3122
  1041.5000      0.0000    563.1640      4.7317    131.5234
  1041.7500      0.0000    541.6439      4.7334    140.5460
  1042.0000      0.0000    546.7069      4.8150    149.1559
  1042.2500      0.0000    567.2727      5.0550    155.1177
  1042.5000      0.0000    581.2686      5.4425    158.1172
  1042.7500      0.0000    574.5333      5.8606    158.5100
  1043.0000      0.0000    550.8206      6.1747    156.4261
  1043.2500      0.0000    524.2075      6.3305    152.6170
  1043.5000      0.0000    503.3773      6.3665    149.2412
  1043.7500      0.0000    485.5317      6.3586    148.7440
  1044.0000      0.0000    464.7737      6.3641    151.9016
  1044.2500      0.0000    441.5664      6.3979    157.2391
  1044.5000      0.0000    421.5540      6.4350    162.0289
  1044.7500      0.0000    408.5536      6.4421    163.5062
  1045.0000      0.0000    401.6318      6.4178    159.7466
  1045.2500      0.0000    397.3708      6.3987    150.5669
  1045.5000      0.0000    392.6151      6.4247    138.2553
  1045.7500      0.0000    385.6107      6.5115    126.9455
  1046.0000      0.0000    376.2645      6.6605    120.4050
  1046.2500      0.0000    366.0243      6.8692    119.7814
  1046.5000      0.0000    356.9746      7.1129    123.1007
  1046.7500      0.0000    350.5487      7.3319    126.9856
  1047.0000      0.0000    346.8734      7.4651    129.3795
  1047.2500      0.0000    345.1754      7.4940    130.7892
  1047.5000      0.0000    344.5492      7.4483    132.6779
  1047.7500      0.0000    344.3982      7.3788    135.1380
  1048.0000      0.0000    344.4753      7.3283    137.0253
  1048.2500      0.0000    344.7465      7.3158    137.9338
  1048.5000      0.0000    345.2432      7.3405    138.7353
  1048.7500      0.0000    346.0520      7.3948    140.1280
  1049.0000      0.0000    347.5477      7.4705    141.8950
  1049.2500      0.0000    350.8561      7.5540    143.9649
  1049.5000      0.0000    358.0805      7.6288    147.1622
  1049.7500      0.0000    371.4874      7.6894    152.1179
  1050.0000      0.0000    391.6004      7.7467    157.9352
  1050.2500      0.0000    415.9555      7.8110    162.7047
  1050.5000      0.0000    440.3900      7.8681    165.1945
  1050.7500      0.0000    461.6914      7.8868    165.5658
  1051.0000      0.0000    477.9535      7.8554    164.5948
  1051.2500      0.0000    486.0302      7.7997    162.7226
  1051.5000      0.0000    480.8886      7.7578    160.0707
  1051.7500      0.0000    460.3336      7.7411    157.1179
  1052.0000      0.0000    430.2702      7.7315    154.8724
  1052.2500      0.0000    402.5018      7.7109    154.0609
  1052.5000      0.0000    385.8044      7.6836    154.2552
  1052.7500      0.0000    379.7656      7.6639    154.0514
  1053.0000      0.0000    377.5553      7.6518    152.2634
  1053.2500      0.0000    373.7405      7.6325    149.0741
  1053.5000      0.0000    368.6900      7.5954    146.1387
  1053.7500      0.0000    366.2534      7.5373    145.3188
  1054.0000      0.0000    368.9645      7.4538    146.8761
  1054.2500      0.0000    376.2196      7.3490    148.8002
  1054.5000      0.0000    385.8223      7.2549    148.2608
  1054.7500      0.0000    395.8596      7.2166    144.0512
  1055.0000      0.0000    405.3777      7.2498    137.6155
  1055.2500      0.0000    415.3806      7.3188    131.5748
  1055.5000      0.0000    430.4099      7.3640    127.3937
  1055.7500      0.0000    456.8990      7.3471    124.7977
  1056.0000      0.0000    496.4024      7.2728    123.1701
  1056.2500      0.0000    539.7719      7.1745    122.7052
  1056.5000      0.0000    570.5864      7.0842    123.9744
  1056.7500      0.0000    576.7962      7.0116    126.8849
  1057.0000      0.0000    560.7994      6.9466    130.2887
  1057.2500      0.0000    539.4980      6.8811    132.5345
  1057.5000      0.0000    533.4656      6.8232    132.5422
  1057.7500      0.0000    552.6364      6.7859    130.3641
  1058.0000      0.0000    590.0803      6.7696    126.4160
  1058.2500      0.0000    629.0654      6.7595    120.4471
  1058.5000      0.0000    655.5221      6.7420    112.1520
  1058.7500      0.0000    664.3588      6.7232    102.8021
  1059.0000      0.0000    657.8127      6.7281     95.0868
  1059.2500      0.0000    642.2003      6.7803     90.7118
  1059.5000      0.0000    626.0081      6.8751     88.8933
  1059.7500      0.0000    616.9521      6.9734     87.8192
  1060.0000      0.0000    617.9861      7.0217     87.0217
  1060.2500      0.0000    626.2681      6.9851     87.5386
  1060.5000      0.0000    636.6321      6.8716     89.9636
  1060.7500      0.0000    645.7407      6.7288     93.1415
