~Version Information
VERS.                      2.0: CWLS Log ASCII Standard - VERSION 2.0
WRAP.                       NO: One line per depth step
~Well Information Block
STRT.FT               575.0000: 
STOP.FT              2016.2000: 
STEP.FT                 0.1000: 
NULL.                -999.2500: 
COMP.          Pioneer Natural Resources: COMPANY
WELL.          Bucksnort 41-35: WELL
FLD.           Purgatoire River: FIELD
LOC.           117' FNL & 463' FEL--: LOCATION
PROV.                 Colorado: PROVINCE
CNTY.               Las Animas: COUNTRY
SRVC.                Patterson: SERVICE COMPANY
DATE.          Thu Jul 21 15:01:23 2005: LOG DATE
UWI.           05 071 08401 00: UNIQUE WELL ID
~Curve Information Block
DEPT.FT            0 000 00 00: Depth
DCAL.in                       : CDL Caliper
RHOB.g/cc                     : CDL Bulk Density
RHOC.g/cc                     : CDL Density Correction
DPOR.pu                       : CDL Density Porosity
NPOR.pu                       : Neutron Porosity
GR.GAPI                       : Gamma Ray
~Parameter Information Block
~A  Depth       DCAL        RHOB        RHOC        DPOR        NPOR         GR     
# ...
  1237.4000      7.9076      2.5679      0.0194      4.9759     26.1075    141.4224
  1237.5000      7.9070      2.5565      0.0136      5.6668     26.4412    128.8925
  1237.6000      7.9070      2.5594      0.0644      5.4899     26.6359    124.9431
  1237.7000      7.9070      2.5650      0.0503      5.1487     26.6603    128.0694
  1237.8000      7.8995      2.5592      0.0542      5.5028     26.1042    131.5927
  1237.9000      7.8995      2.5477      0.0286      6.2008     25.3672    135.2164
  1238.0000      7.8842      2.5455      0.0562      6.3326     25.0204    141.4255
  1238.1000      7.8842      2.5501      0.0479      6.0571     24.7593    145.2128
  1238.2000      7.8842      2.5548      0.0277      5.7706     24.4080    140.3379
  1238.3000      7.8723      2.5645      0.0491      5.1788     24.3398    130.0520
  1238.4000      7.8723      2.5830      0.0719      4.0579     24.4179    124.9361
  1238.5000      7.8710      2.6006      0.0906      2.9923     24.1976    131.0050
  1238.6000      7.8710      2.5969      0.0735      3.2186     23.9668    140.8705
  1238.7000      7.8710      2.5666      0.0242      5.0530     24.0143    140.3371
  1238.8000      7.8767      2.5347     -0.0140      6.9861     24.0618    127.5274
  1238.9000      7.8767      2.5239      0.0291      7.6395     24.3842    115.0312
  1239.0000      7.8848      2.5297      0.0099      7.2923     24.9177    112.0360
  1239.1000      7.8848      2.5387      0.0460      6.7454     24.6885    116.6716
  1239.2000      7.8848      2.5424      0.0454      6.5215     23.7697    124.3685
  1239.3000      7.8932      2.5444      0.0416      6.4004     23.4097    132.7559
  1239.4000      7.8932      2.5559      0.0624      5.7025     23.9275    137.1162
  1239.5000      7.8982      2.5704      0.0948      4.8267     24.5361    135.9100
  1239.6000      7.8982      2.5726      0.0560      4.6936     24.8807    133.6847
  1239.7000      7.8982      2.5601      0.0641      5.4462     25.2595    132.4402
  1239.8000      7.8986      2.5295      0.0760      7.3035     25.9196    129.1418
  1239.9000      7.8986      2.4797      0.0059     10.3212     26.5388    122.8989
  1240.0000      7.8943      2.4239     -0.0074     13.7053     27.1095    117.3553
  1240.1000      7.8943      2.3802     -0.0611     16.3506     27.9264    115.5455
  1240.2000      7.8943      2.3636     -0.0282     17.3573     28.5576    116.5120
  1240.3000      7.8867      2.3700     -0.0270     16.9726     29.0913    117.8939
  1240.4000      7.8867      2.3811     -0.0056     16.2958     30.0325    121.0031
  1240.5000      7.8779      2.3848      0.0223     16.0736     30.8064    127.8306
  1240.6000      7.8779      2.3806      0.0396     16.3257     30.9160    135.7429
  1240.7000      7.8779      2.3751      0.0709     16.6590     30.5715    138.8006
  1240.8000      7.8706      2.3818      0.0664     16.2531     29.8259    134.0075
  1240.9000      7.8706      2.4133      0.1378     14.3476     28.8231    127.2081
  1241.0000      7.8660      2.4611      0.1621     11.4484     27.9361    126.9693
  1241.1000      7.8660      2.5001      0.1625      9.0876     27.2626    129.7503
  1241.2000      7.8660      2.5086      0.1345      8.5689     26.5715    128.5943
  1241.3000      7.8652      2.4916      0.0609      9.6028     25.9743    128.3101
  1241.4000      7.8652      2.4824      0.0340     10.1590     25.8865    134.7840
  1241.5000      7.8684      2.4991      0.0962      9.1471     26.2413    142.0404
  1241.6000      7.8684      2.5197      0.1181      7.8953     26.3532    141.2116
  1241.7000      7.8684      2.5281      0.0828      7.3886     25.5954    136.2016
  1241.8000      7.8743      2.5366      0.0720      6.8700     24.3767    134.0284
  1241.9000      7.8743      2.5563      0.0817      5.6801     23.7507    135.0874
  1242.0000      7.8830      2.5833      0.1169      4.0436     23.9231    138.8231
  1242.1000      7.8830      2.6088      0.0755      2.4993     24.1986    141.6488
  1242.2000      7.8830      2.6237      0.0888      1.5955     24.0582    137.8865
  1242.3000      7.8906      2.6247      0.0691      1.5345     23.5854    129.9035
  1242.4000      7.8906      2.6179      0.0977      1.9462     23.0921    121.6138
  1242.5000      7.8905      2.6086      0.0599      2.5078     22.7104    112.4230
  1242.6000      7.8905      2.6003      0.0362      3.0106     22.4070    105.7607
  1242.7000      7.8905      2.5953      0.0358      3.3134     22.2979    106.6745
  1242.8000      7.8866      2.5893      0.0514      3.6798     22.4025    112.6525
  1242.9000      7.8866      2.5786      0.0272      4.3257     22.4854    117.9477
  1243.0000      7.8864      2.5671      0.0536      5.0269     22.8505    118.6007
  1243.1000      7.8864      2.5598     -0.0112      5.4673     23.8761    116.0954
  1243.2000      7.8864      2.5638      0.0140      5.2270     24.8974    116.9060
  1243.3000      7.8903      2.5789      0.0277      4.3099     25.1378    121.3161
  1243.4000      7.8903      2.5899      0.0828      3.6429     25.0194    122.1850
  1243.5000      7.8898      2.5833      0.0229      4.0446     25.1775    119.2511
  1243.6000      7.8898      2.5641      0.0571      5.2040     25.2378    119.1646
  1243.7000      7.8898      2.5487      0.0033      6.1400     24.8877    121.7616
  1243.8000      7.8835      2.5463      0.0265      6.2844     24.5909    121.4992
  1243.9000      7.8835      2.5530      0.0199      5.8802     24.7648    120.3321
  1244.0000      7.8798      2.5661      0.0270      5.0876     25.4228    125.2829
  1244.1000      7.8798      2.5786      0.0458      4.3262     26.4208    135.7549
  1244.2000      7.8798      2.5761      0.0566      4.4768     27.4190    144.2960
  1244.3000      7.8806      2.5622      0.0402      5.3209     27.9342    146.8267
  1244.4000      7.8806      2.5541      0.0185      5.8093     27.9380    147.0121
  1244.5000      7.8821      2.5542      0.0577      5.8041     27.8192    147.7299
  1244.6000      7.8821      2.5496      0.0668      6.0853     28.0197    148.4561
  1244.7000      7.8821      2.5325      0.0458      7.1222     28.5772    150.2692
  1244.8000      7.8857      2.5086      0.0497      8.5720     28.8208    153.2764
  1244.9000      7.8857      2.4918      0.0468      9.5864     28.4656    156.8687
  1245.0000      7.8915      2.4947      0.0488      9.4138     28.1308    161.1592
  1245.1000      7.8915      2.5155      0.0596      8.1491     28.2461    164.2111
  1245.2000      7.8915      2.5434      0.0843      6.4583     28.4200    163.1783
  1245.3000      7.8944      2.5712      0.0872      4.7758     28.2529    159.9343
  1245.4000      7.8944      2.5906      0.1187      3.6005     28.1364    158.3923
  1245.5000      7.8941      2.5969      0.0723      3.2208     28.3961    155.5751
  1245.6000      7.8941      2.6002      0.0479      3.0183     28.6136    150.0077
  1245.7000      7.8941      2.6089      0.0367      2.4886     28.5541    147.9953
  1245.8000      7.8942      2.6185      0.0558      1.9088     28.4652    154.3903
  1245.9000      7.8942      2.6210      0.0603      1.7574     28.8015    165.9484
  1246.0000      7.8945      2.6134      0.0661      2.2203     29.5475    170.7924
  1246.1000      7.8945      2.6006      0.0132      2.9913     30.0666    165.0686
  1246.2000      7.8945      2.5950      0.0061      3.3357     30.0370    162.2504
  1246.3000      7.8923      2.6003      0.0513      3.0100     29.7428    167.7841
  1246.4000      7.8923      2.6019      0.0363      2.9163     29.5375    169.4510
  1246.5000      7.8877      2.5876      0.0407      3.7839     29.5091    161.3176
  1246.6000      7.8877      2.5685      0.0290      4.9412     29.5291    154.5914
  1246.7000      7.8877      2.5618      0.0402      5.3450     29.1925    155.9027
  1246.8000      7.8825      2.5710      0.0344      4.7899     28.2539    159.9162
  1246.9000      7.8825      2.5885      0.0808      3.7253     27.1288    161.4888
