~Version Information
 VERS.                                  2.0 : CWLS LAS VERSION
 WRAP.                                   NO : WRAPING MODE
 SWARE .                 MController 2.5.0J : SOFTWARE VERSION
~Well Information
 WELL.                       Vision 31-11Tr : WELL
 COMP.    Pioneer Natural Resources USA Inc : COMPANY
 FLD.                      Purgatoire River : FIELD
 LOC.                 NW/NE SEC11 T32S R66W : LOCATION
 DATE.                             10/07/05 : DATE(S) LOGGED
 SRVC.       Blanco Geological Services LLC : SERVICE COMPANY
 STAT.                             Colorado : STATE
 CNTY.                           Las Animas : COUNTY
 CTRY.                                  USA : COUNTRY
 API.                       05-071-08305-00 : API NUMBER
 STRT.FT                             408.00 : START DEPTH
 STOP.FT                            1824.00 : STOP DEPTH
 STEP.FT                               1.00 : DEPTH INCREMENT
 NULL.                                -9999 : NULL VALUE
~Curve information
 DEPTH.FT                                   :
 ROP.MIN/FT                                 :
 GAS.UNITS                                  :
~ASCII Log data
# ...
      1608.0         0.33        467.1 
      1609.0         0.27        466.8 
      1610.0         0.30        466.2 
      1611.0         0.33        466.5 
      1612.0         0.30        462.6 
      1613.0         0.30        450.7 
      1614.0         0.17        442.3 
      1615.0         0.27        440.0 
      1616.0         2.38       1048.2 
      1617.0         0.47       1127.1 
      1618.0         0.73       1146.1 
      1619.0         0.30       1033.7 
      1620.0         0.32        861.6 
      1621.0         0.27        829.3 
      1622.0         0.47        632.4 
      1623.0         0.40        526.4 
      1624.0         0.50        506.1 
      1625.0         0.43        487.4 
      1626.0         0.63        468.4 
      1627.0         0.57        457.4 
      1628.0         0.52        461.0 
      1629.0         0.57        472.9 
      1630.0         0.47        491.3 
      1631.0         0.40        498.1 
      1632.0         0.40        498.1 
      1633.0         0.37        495.8 
      1634.0         0.37        487.4 
      1635.0         0.42        477.8 
      1636.0         0.43        476.5 
      1637.0         0.43        482.6 
      1638.0         0.40        488.7 
      1639.0         0.50        495.2 
      1640.0         0.40        496.1 
      1641.0         0.30        495.8 
      1642.0         0.17        498.7 
      1643.0         0.17        501.6 
      1644.0         0.37        511.3 
      1645.0         0.32        495.8 
      1646.0        13.12        844.8 
      1647.0         0.45        323.2 
      1648.0         0.37        250.5 
      1649.0         0.30        222.9 
      1650.0         0.27        199.1 
      1651.0         0.30        193.8 
      1652.0         0.33        189.4 
      1653.0         0.80        183.9 
      1654.0         0.43        130.8 
      1655.0         0.38        178.8 
      1656.0         0.33        262.8 
      1657.0         0.13        347.8 
      1658.0         0.43        415.9 
      1659.0         0.37        470.2 
      1660.0         0.27        845.8 
      1661.0         0.30        796.2 
      1662.0         0.13        757.5 
      1663.0         0.20        748.1 
      1664.0         0.13        754.6 
      1665.0         0.43        782.9 
      1666.0         0.58        802.9 
      1667.0         0.50        798.4 
      1668.0         0.40        772.9 
      1669.0         0.40        757.8 
      1670.0         0.37        782.3 
      1671.0         0.33        798.1 
      1672.0         0.33        801.3 
      1673.0         0.23        782.0 
      1674.0         0.17        756.5 
      1675.0         0.20        756.5 
      1676.0         5.83       2456.1 
      1677.0         0.40       1149.0 
      1678.0         0.60        877.7 
      1679.0         0.68       1010.8 
      1680.0         0.57       1013.0 
      1681.0         0.57        974.0 
      1682.0         0.40        831.3 
      1683.0         0.40        786.5 
      1684.0         0.40        705.9 
      1685.0         0.38        682.7 
      1686.0         0.33        657.9 
      1687.0         0.30        646.0 
      1688.0         0.20        639.5 
      1689.0         0.50        637.6 
      1690.0         0.43        637.9 
      1691.0         0.50        648.6 
      1692.0         0.50        669.2 
      1693.0         0.40        666.9 
      1694.0         0.45        638.9 
      1695.0         0.37        592.5 
      1696.0         0.33        569.3 
      1697.0         0.27        519.6 
      1698.0         0.17        511.9 
      1699.0         0.20        501.9 
      1700.0         0.13        534.8 
      1701.0         0.20        534.8 
      1702.0         0.43        724.3 
      1703.0         0.47        792.3 
      1704.0         0.27        824.8 
      1705.0         0.35        820.0 
      1706.0         5.55       1039.5 
      1707.0         0.43        828.7 
      1708.0         0.47        921.8 
      1709.0         0.42        963.1 
      1710.0         0.50        968.6 
      1711.0         0.80        859.3 
      1712.0         0.70        768.4 
      1713.0         0.43        650.2 
      1714.0         0.43        671.8 
      1715.0         0.52        684.0 
      1716.0         0.40        682.4 
      1717.0         0.57        632.1 
      1718.0         0.43        580.6 
      1719.0         0.40        555.1 
      1720.0         0.47        520.9 
      1721.0         0.70        551.6 
      1722.0         0.48        574.1 
      1723.0         0.37        604.4 
      1724.0         0.47        612.5 
      1725.0         0.40        622.8 
      1726.0         0.40        626.6 
      1727.0         0.37        630.2 
      1728.0         0.33        630.2 
      1729.0         0.40        629.9 
      1730.0         0.38        617.0 
      1731.0         0.27        605.0 
      1732.0         0.23        580.6 
      1733.0         0.17        567.7 
      1734.0         0.23        549.6 
      1735.0         0.33        493.2 
      1736.0         4.05       1288.9 
      1737.0         0.33        799.4 
      1738.0         0.40        817.7 
      1739.0         0.43        818.4 
      1740.0         0.48        801.3 
      1741.0         0.50        749.7 
      1742.0         0.57        659.5 
      1743.0         0.40        612.8 
      1744.0         0.37        587.6 
      1745.0         0.37        577.7 
      1746.0         0.60        580.6 
      1747.0         0.48        575.1 
      1748.0         0.43        578.3 
      1749.0         0.57        573.5 
      1750.0         0.73        555.4 
      1751.0         0.60        581.8 
      1752.0         0.37        587.6 
      1753.0         0.35        570.6 
      1754.0         0.33        538.3 
      1755.0         0.33        549.6 
      1756.0         0.43        611.5 
      1757.0         0.43        672.7 
      1758.0         0.40        712.7 
      1759.0         0.47        708.5 
      1760.0         0.47        680.1 
      1761.0         0.40        649.5 
      1762.0         0.38        628.3 
      1763.0         0.43        606.0 
      1764.0         0.47        601.5 
      1765.0         0.43        592.2 
      1766.0         2.42        562.2 
      1767.0         0.47       1076.2 
      1768.0         0.37       1145.5 
      1769.0         0.33       1137.8 
      1770.0         0.27       1070.1 
      1771.0         0.27       1029.5 
      1772.0         0.33        878.0 
      1773.0         0.33        743.3 
      1774.0         0.38        652.4 
      1775.0         0.43        663.1 
      1776.0         0.37        708.5 
      1777.0         0.37        737.5 
      1778.0         0.37        748.1 
      1779.0         0.37        747.2 
      1780.0         0.33        727.5 
      1781.0         0.37        668.2 
      1782.0         0.37        621.8 
      1783.0         0.38        577.3 
      1784.0         0.33        561.9 
      1785.0         0.30        548.3 
      1786.0         0.27        548.7 
      1787.0         0.27        536.1 
      1788.0         0.40        537.0 
      1789.0         0.53        538.7 
      1790.0         0.57        536.7 
      1791.0         0.55        551.9 
      1792.0         0.23        567.3 
      1793.0         0.37        578.3 
      1794.0         0.43        584.4 
      1795.0         0.40        534.8 
      1796.0         1.57        475.8 
      1797.0         0.45        446.5 
      1798.0         0.63       1093.9 
      1799.0         0.33       1092.6 
      1800.0         0.33       1078.8 
      1801.0         0.40        941.8 
      1802.0         0.20        765.9 
      1803.0         0.27        744.6 
      1804.0         0.27        637.3 
      1805.0         0.33        606.0 
      1806.0         0.38        637.0 
      1807.0         0.50        676.6 
