~Version Information
VERS.                      2.0: CWLS Log ASCII Standard - VERSION 2.0
WRAP.                       NO: One line per depth step
~Well Information Block
STRT.FT               500.0000: 
STOP.FT              2760.5000: 
STEP.FT                 0.1000: 
NULL.                -999.2500: 
COMP.          Petrogulf Corporation: COMPANY
WELL.              Silva 1-43V: WELL
FLD.           Purgatorie River: FIELD
LOC.           2010' FSL & 614' FEL: LOCATION
PROV.                 Colorado: PROVINCE
CNTY.               Las Animas: COUNTRY
SRVC.                Patterson: SERVICE COMPANY
DATE.          Mon Aug 29 08:02:37 2005: LOG DATE
UWI.                          : UNIQUE WELL ID
~Curve Information Block
DEPT.FT            0 000 00 00: Depth
DCAL.in                       : CDL Caliper
RHOB.g/cc                     : CDL Bulk Density
RHOC.g/cc                     : CDL Density Correction
DPOR.pu                       : CDL Density Porosity
GR.GAPI                       : Gamma Ray
NPOR.pu                       : Neutron Porosity
~Parameter Information Block
~A  Depth       DCAL        RHOB        RHOC        DPOR         GR         NPOR    
# ...
  1844.0000      8.8023      2.4585      0.1701     11.6050    191.8148     32.7471
  1844.1000      8.8023      2.4691      0.0678     10.9640    192.9493     32.4713
  1844.2000      8.8023      2.5023      0.0684      8.9522    187.4852     32.2483
  1844.3000      8.5495      2.5310      0.0879      7.2135    179.9046     31.9114
  1844.4000      8.5495      2.5486      0.0549      6.1441    175.9608     31.2305
  1844.5000      8.3391      2.5664      0.0773      5.0661    175.7341     30.3635
  1844.6000      8.3391      2.5783      0.1126      4.3436    178.4358     29.6212
  1844.7000      8.3391      2.5772      0.0568      4.4149    182.3497     28.9183
  1844.8000      8.5491      2.5732      0.0741      4.6521    184.1431     28.2397
  1844.9000      8.5491      2.5701      0.0732      4.8401    180.7866     27.8822
  1845.0000      8.6183      2.5681      0.0359      4.9642    174.1149     27.7902
  1845.1000      8.6183      2.5733      0.0612      4.6503    168.4596     27.6218
  1845.2000      8.6183      2.5781      0.1168      4.3586    164.1147     27.2769
  1845.3000      8.2992      2.5748      0.0426      4.5597    159.5656     26.9381
  1845.4000      8.2992      2.5701      0.0536      4.8394    155.0457     26.8415
  1845.5000      8.2059      2.5681      0.0625      4.9625    151.5147     26.9994
  1845.6000      8.2059      2.5743      0.0604      4.5903    151.0153     27.2200
  1845.7000      8.2059      2.5909      0.0994      3.5817    153.7401     27.1903
  1845.8000      8.1215      2.6024      0.0760      2.8830    155.7806     26.7661
  1845.9000      8.1215      2.6003      0.0606      3.0144    155.1264     26.1141
  1846.0000      8.1421      2.5939      0.1077      3.3972    155.2384     25.4624
  1846.1000      8.1421      2.5930      0.0729      3.4562    159.9152     25.0976
  1846.2000      8.1421      2.6032      0.0347      2.8351    164.7120     25.0823
  1846.3000      8.1261      2.6274      0.0368      1.3718    161.0036     25.2201
  1846.4000      8.1261      2.6552      0.0899     -0.3152    148.8685     25.3922
  1846.5000      8.1457      2.6675      0.0708     -1.0587    133.6904     25.7079
  1846.6000      8.1457      2.6578      0.0928     -0.4736    120.2503     25.9887
  1846.7000      8.1457      2.6324      0.0737      1.0662    112.4587     25.8682
  1846.8000      8.0927      2.6021      0.0686      2.9042    108.6839     25.2171
  1846.9000      8.0927      2.5809      0.0230      4.1860    103.7610     24.2237
  1847.0000      8.0505      2.5711      0.0541      4.7837     99.9030     23.4523
  1847.1000      8.0505      2.5619      0.0614      5.3400    101.4347     23.3235
  1847.2000      8.0505      2.5581      0.0339      5.5669    104.7826     23.4895
  1847.3000      8.0309      2.5763      0.0591      4.4655    105.6522     23.4071
  1847.4000      8.0309      2.6106      0.1068      2.3888    105.7525     23.1280
  1847.5000      7.9788      2.6370      0.1239      0.7852    106.0458     22.8788
  1847.6000      7.9788      2.6420      0.1454      0.4875    106.2471     22.7076
  1847.7000      7.9788      2.6310      0.1151      1.1492    109.0650     22.6038
  1847.8000      7.9772      2.6176      0.1712      1.9653    115.4748     22.5954
  1847.9000      7.9772      2.6044      0.1570      2.7639    120.4637     22.7376
  1848.0000      7.9410      2.5923      0.1406      3.4963    121.6764     23.0383
  1848.1000      7.9410      2.5868      0.1167      3.8298    121.0480     23.1668
  1848.2000      7.9410      2.5851      0.1449      3.9331    117.4165     23.0226
  1848.3000      7.9281      2.5830      0.1003      4.0604    111.4538     23.0597
  1848.4000      7.9281      2.5903      0.0837      3.6186    107.3374     23.4526
  1848.5000      7.9254      2.6144      0.1266      2.1562    107.5829     23.9600
  1848.6000      7.9254      2.6420      0.1373      0.4846    111.9498     24.4009
  1848.7000      7.9254      2.6528      0.1814     -0.1684    118.0562     24.6943
  1848.8000      7.9834      2.6489      0.1255      0.0696    122.8434     24.5224
  1848.9000      7.9834      2.6465      0.1391      0.2116    122.5897     23.7876
  1849.0000      7.9547      2.6442      0.1583      0.3510    115.9993     23.0426
  1849.1000      7.9547      2.6378      0.1183      0.7422    108.9533     22.5491
  1849.2000      7.9547      2.6339      0.0846      0.9769    105.6694     21.9999
  1849.3000      7.9311      2.6255      0.1066      1.4876    104.0869     21.4280
  1849.4000      7.9311      2.6043      0.0468      2.7710    102.7936     21.2621
  1849.5000      7.9063      2.5869      0.0337      3.8231    103.2319     21.5816
  1849.6000      7.9063      2.5853      0.0661      3.9224    106.9840     21.9596
  1849.7000      7.9063      2.5896      0.0738      3.6620    110.3574     22.1755
  1849.8000      7.9797      2.5926      0.0396      3.4777    108.9656     22.6784
  1849.9000      7.9797      2.5902      0.1157      3.6223    105.2451     23.4878
  1850.0000      8.0166      2.5756      0.0791      4.5100    103.4298     23.9828
  1850.1000      8.0166      2.5581      0.0446      5.5683    103.7868     24.0868
  1850.2000      8.0166      2.5513      0.0734      5.9843    104.9171     23.9897
  1850.3000      7.9826      2.5485      0.0680      6.1517    104.3773     23.6113
  1850.4000      7.9826      2.5372      0.0516      6.8389    100.9346     22.9705
  1850.5000      8.0089      2.5195      0.0225      7.9119     99.0906     22.3491
  1850.6000      8.0089      2.5077      0.0543      8.6229    103.3015     21.9831
  1850.7000      8.0089      2.5081      0.0496      8.6009    110.9898     22.0107
  1850.8000      7.9889      2.5166      0.0859      8.0841    118.3024     22.7395
  1850.9000      7.9889      2.5246      0.1079      7.5991    123.9157     24.0428
  1851.0000      7.9928      2.5272      0.1150      7.4395    127.0466     25.0613
  1851.1000      7.9928      2.5277      0.0737      7.4118    130.0536     25.2533
  1851.2000      7.9928      2.5346      0.0601      6.9916    134.9239     24.9308
  1851.3000      8.1025      2.5494      0.1240      6.0992    139.3974     24.6460
  1851.4000      8.1025      2.5640      0.0915      5.2116    141.8430     24.4659
  1851.5000      8.0447      2.5724      0.1125      4.7002    143.2732     24.1317
  1851.6000      8.0447      2.5694      0.1217      4.8820    145.6249     23.6660
  1851.7000      8.0447      2.5600      0.0962      5.4561    149.1892     23.2453
  1851.8000      8.0259      2.5612      0.0625      5.3796    151.7977     22.9784
  1851.9000      8.0259      2.5759      0.1049      4.4896    150.7548     22.8335
  1852.0000      8.0588      2.5884      0.0987      3.7330    146.4908     22.8246
  1852.1000      8.0588      2.5878      0.1193      3.7689    142.2212     23.0866
  1852.2000      8.0588      2.5766      0.1176      4.4500    140.3877     23.6021
  1852.3000      8.0276      2.5663      0.0837      5.0701    141.5112     24.2272
  1852.4000      8.0276      2.5647      0.0979      5.1670    141.1265     24.9026
  1852.5000      7.9917      2.5660      0.1132      5.0908    135.0643     25.6121
  1852.6000      7.9917      2.5606      0.1037      5.4184    127.7189     25.9693
  1852.7000      7.9917      2.5520      0.0818      5.9418    125.1359     25.6227
  1852.8000      7.9590      2.5551      0.0995      5.7504    124.9945     24.9153
  1852.9000      7.9590      2.5745      0.1256      4.5782    121.5879     24.3821
  1853.0000      7.9555      2.5962      0.1390      3.2597    116.2430     24.0880
  1853.1000      7.9555      2.6023      0.1758      2.8891    115.2283     24.1496
  1853.2000      7.9555      2.5931      0.1173      3.4457    121.1208     24.8057
  1853.3000      7.9701      2.5855      0.1604      3.9092    130.3208     25.7264
  1853.4000      7.9701      2.5802      0.1649      4.2274    137.1733     26.3813
  1853.5000      7.9854      2.5688      0.1461      4.9227    140.5417     26.6178
