~Version Information
VERS.                      2.0: CWLS Log ASCII Standard - VERSION 2.0
WRAP.                       NO: One line per depth step
~Well Information Block
STRT.FT               375.0000: 
STOP.FT              2637.2500: 
STEP.FT                 0.2500: 
NULL.                -999.2500: 
COMP.          Pioneer Natural Resources: COMPANY
WELL.            Cortina 23-25: WELL
FLD.           Purgatoire River: FIELD
LOC.           2344' FWL & 2526' FSL----: LOCATION
PROV.                 Colorado: PROVINCE
CNTY.               Las Animas: COUNTRY
SRVC.                Patterson: SERVICE COMPANY
DATE.          Wed Mar 23 19:09:49 2005: LOG DATE
UWI.           05 071 08340 00: UNIQUE WELL ID
~Curve Information Block
DEPT.FT            0 000 00 00: Depth
DIR.Ohm-m                     : IEL Induction Resistivity
SN.Ohm-m                      : IEL Short Normal
SP.mV                         : IEL Spontaneous Potential
GR.GAPI                       : Gamma Ray
~Parameter Information Block
~A  Depth       DIR          SN          SP          GR     
# ...
  1581.0000      6.5078      5.9701     47.6940    147.6069
  1581.2500      6.4568      5.8325     48.5101    145.6024
  1581.5000      6.3960      5.6172     49.3662    141.6921
  1581.7500      6.3248      5.3905     50.1839    138.7314
  1582.0000      6.2438      5.2192     50.8702    134.3885
  1582.2500      6.1548      5.1504     51.3374    132.0114
  1582.5000      6.0608      5.2012     51.5242    129.6351
  1582.7500      5.9652      5.3550     51.4121    128.6389
  1583.0000      5.8724      5.5679     51.0313    127.0941
  1583.2500      5.7872      5.7835     50.4526    125.6199
  1583.5000      5.7153      5.9545     49.7704    123.0751
  1583.7500      5.6620      6.0583     49.0815    121.9545
  1584.0000      5.6302      6.0941     48.4673    122.6655
  1584.2500      5.6193      6.0667     47.9841    125.1585
  1584.5000      5.6250      5.9749     47.6609    131.4911
  1584.7500      5.6400      5.8119     47.5032    136.8067
  1585.0000      5.6574      5.5751     47.4985    145.5333
  1585.2500      5.6721      5.2747     47.6223    151.6062
  1585.5000      5.6823      4.9390     47.8419    160.5750
  1585.7500      5.6891      4.6148     48.1188    165.6721
  1586.0000      5.6945      4.3614     48.4118    169.8542
  1586.2500      5.7016      4.2352     48.6790    169.2229
  1586.5000      5.7135      4.2741     48.8818    162.6385
  1586.7500      5.7343      4.4879     48.9896    155.0563
  1587.0000      5.7690      4.8579     48.9843    140.6995
  1587.2500      5.8227      5.3421     48.8640    130.4785
  1587.5000      5.9005      5.8801     48.6437    116.9241
  1587.7500      6.0054      6.3907     48.3557    110.5624
  1588.0000      6.1381      6.7729     48.0446    106.0839
  1588.2500      6.2956      6.9286     47.7606    105.9476
  1588.5000      6.4724      6.8085     47.5517    108.0517
  1588.7500      6.6616      6.4525     47.4563    109.8157
  1589.0000      6.8580      5.9913     47.4959    111.4040
  1589.2500      7.0597      5.6052     47.6724    111.2145
  1589.5000      7.2678      5.4596     47.9672    109.2788
  1589.7500      7.4827      5.6443     48.3441    107.7778
  1590.0000      7.6994      6.1423     48.7562    107.1250
  1590.2500      7.9048      6.8375     49.1532    108.2802
  1590.5000      8.0800      7.5608     49.4903    111.6323
  1590.7500      8.2071      8.1549     49.7346    114.0769
  1591.0000      8.2774      8.5290     49.8705    117.2287
  1591.2500      8.2941      8.6766     49.8994    118.9869
  1591.5000      8.2692      8.6527     49.8385    121.2054
  1591.7500      8.2171      8.5318     49.7157    122.3943
  1592.0000      8.1493      8.3727     49.5629    123.9825
  1592.2500      8.0729      8.2052     49.4100    125.1875
  1592.5000      7.9910      8.0351     49.2784    127.3551
  1592.7500      7.9053      7.8590     49.1759    128.7937
  1593.0000      7.8163      7.6788     49.0955    130.2713
  1593.2500      7.7250      7.5056     49.0149    130.4628
  1593.5000      7.6326      7.3540     48.9017    129.4258
  1593.7500      7.5420      7.2339     48.7201    128.3066
  1594.0000      7.4585      7.1482     48.4384    127.6360
  1594.2500      7.3893      7.0960     48.0369    128.6938
  1594.5000      7.3430      7.0769     47.5124    132.5255
  1594.7500      7.3270      7.0935     46.8778    135.8103
  1595.0000      7.3469      7.1538     46.1587    140.4704
  1595.2500      7.4074      7.2715     45.3851    143.0173
  1595.5000      7.5137      7.4619     44.5825    145.8992
  1595.7500      7.6729      7.7382     43.7639    147.2175
  1596.0000      7.8934      8.1092     42.9247    148.1437
  1596.2500      8.1829      8.5754     42.0428    147.7303
  1596.5000      8.5471      9.1283     41.0845    144.7274
  1596.7500      8.9889      9.7584     40.0132    140.9268
  1597.0000      9.5098     10.4721     38.8017    133.1510
  1597.2500     10.1104     11.3012     37.4417    127.1719
  1597.5000     10.7903     12.2904     35.9499    117.5000
  1597.7500     11.5460     13.4692     34.3686    110.6288
  1598.0000     12.3666     14.8227     32.7604    100.2745
  1598.2500     13.2293     16.2753     31.1996     94.2661
  1598.5000     14.0954     17.6965     29.7631     88.5812
  1598.7500     14.9082     18.9260     28.5225     87.6775
  1599.0000     15.5938     19.8084     27.5405     90.1334
  1599.2500     16.0710     20.2261     26.8701     93.3333
  1599.5000     16.2707     20.1260     26.5555     98.9409
  1599.7500     16.1599     19.5371     26.6313    102.8546
  1600.0000     15.7584     18.5619     27.1181    109.3093
  1600.2500     15.1326     17.3393     28.0128    114.3950
  1600.5000     14.3708     16.0014     29.2778    123.1886
  1600.7500     13.5549     14.6492     30.8325    129.1095
  1601.0000     12.7453     13.3545     32.5529    136.4501
  1601.2500     11.9794     12.1704     34.2827    139.9444
  1601.5000     11.2803     11.1386     35.8568    143.7605
  1601.7500     10.6641     10.2881     37.1294    145.9141
  1602.0000     10.1422      9.6291     38.0014    148.8443
  1602.2500      9.7208      9.1492     38.4368    150.4146
  1602.5000      9.3989      8.8173     38.4630    151.7175
  1602.7500      9.1684      8.5948     38.1586    151.7458
  1603.0000      9.0145      8.4440     37.6292    151.1202
  1603.2500      8.9184      8.3359     36.9839    151.0677
  1603.5000      8.8609      8.2549     36.3149    152.4272
  1603.7500      8.8273      8.2008     35.6870    153.8754
  1604.0000      8.8116      8.1855     35.1347    155.1272
  1604.2500      8.8174      8.2243     34.6676    154.6640
  1604.5000      8.8545      8.3285     34.2782    152.0990
  1604.7500      8.9325      8.4967     33.9504    149.5555
  1605.0000      9.0547      8.7101     33.6664    145.0052
  1605.2500      9.2138      8.9339     33.4113    141.4956
  1605.5000      9.3937      9.1299     33.1759    135.0249
  1605.7500      9.5736      9.2773     32.9573    129.5803
  1606.0000      9.7352      9.3883     32.7592    120.1574
  1606.2500      9.8685      9.5030     32.5892    114.1476
  1606.5000      9.9745      9.6633     32.4563    107.9345
  1606.7500     10.0630      9.8844     32.3661    106.5385
  1607.0000     10.1484     10.1453     32.3162    108.4742
  1607.2500     10.2446     10.4019     32.2929    111.6137
  1607.5000     10.3596     10.6103     32.2704    117.2074
  1607.7500     10.4923     10.7459     32.2135    120.7462
  1608.0000     10.6318     10.8087     32.0835    125.2642
  1608.2500     10.7609     10.8145     31.8447    127.4343
  1608.5000     10.8615     10.7806     31.4717    128.1828
  1608.7500     10.9205     10.7207     30.9517    126.4063
  1609.0000     10.9360     10.6536     30.2848    121.1429
  1609.2500     10.9206     10.6102     29.4801    117.5011
  1609.5000     10.9023     10.6317     28.5507    114.6194
  1609.7500     10.9173     10.7568     27.5094    114.9879
  1610.0000     11.0003     11.0054     26.3667    117.7957
  1610.2500     11.1736     11.3642     25.1320    119.8645
  1610.5000     11.4402     11.7834     23.8173    121.3623
  1610.7500     11.7833     12.1922     22.4408    120.8013
  1611.0000     12.1697     12.5320     21.0297    117.7885
  1611.2500     12.5609     12.7876     19.6197    114.6857
  1611.5000     12.9273     12.9947     18.2513    109.1273
  1611.7500     13.2595     13.2208     16.9642    105.4892
  1612.0000     13.5699     13.5366     15.7912    101.8241
  1612.2500     13.8850     13.9916     14.7524    101.5049
  1612.5000     14.2330     14.5995     13.8537    104.6327
  1612.7500     14.6343     15.3325     13.0870    108.3458
  1613.0000     15.0949     16.1245     12.4339    113.7142
  1613.2500     15.6009     16.8880     11.8714    115.6556
  1613.5000     16.1180     17.5439     11.3775    115.0432
  1613.7500     16.5991     18.0510     10.9349    112.6577
  1614.0000     17.0006     18.4187     10.5330    107.5935
  1614.2500     17.3024     18.6987     10.1663    104.0499
