~Version Information
VERS.                      2.0: CWLS Log ASCII Standard - VERSION 2.0
WRAP.                       NO: One line per depth step
~Well Information Block
STRT.FT               546.2500: 
STOP.FT              2488.5000: 
STEP.FT                 0.2500: 
NULL.                -999.2500: 
COMP.          Petrogulf Corporation: COMPANY
WELL.               Egan 9-11V: WELL
FLD.           Purgatorie River: FIELD
LOC.           724' FNL & 1379' FWL: LOCATION
PROV.                 Colorado: PROVINCE
CNTY.               Las Animas: COUNTRY
SRVC.          Patterson Wireline: SERVICE COMPANY
DATE.          Fri Jul 11 23:16:48 2003: LOG DATE
UWI.           05 071 07875 00: UNIQUE WELL ID
~Curve Information Block
DEPT.FT            0 000 00 00: Depth
DCAL.in                       : CDL Caliper
RHOB.g/cc                     : CDL Bulk Density
RHOC.g/cc                     : CDL Density Correction
DPOR.pu                       : CDL Density Porosity
GR.GAPI                       : Gamma Ray
NPOR.pu                       : Neutron Porosity
~Parameter Information Block
~A  Depth       DCAL        RHOB        RHOC        DPOR         GR         NPOR    
# ...
  1698.2500      8.3735      2.6236      0.1379      1.6025    106.0149     27.8809
  1698.5000      8.3548      2.6174      0.0974      1.9760    106.3739     27.3692
  1698.7500      8.3341      2.6092      0.0733      2.4744    107.3713     27.2394
  1699.0000      8.3285      2.5949      0.0525      3.3415    109.8144     27.3927
  1699.2500      8.3280      2.5863      0.0515      3.8579    111.8711     27.6148
  1699.5000      8.3291      2.5774      0.0657      4.3971    115.2418     27.8980
  1699.7500      8.3323      2.5742      0.0789      4.5920    117.4997     27.9772
  1700.0000      8.3491      2.5722      0.0899      4.7170    120.5156     27.8941
  1700.2500      8.3928      2.5717      0.0867      4.7484    121.9257     27.7277
  1700.5000      8.4292      2.5710      0.0676      4.7856    122.3706     27.4443
  1700.7500      8.4170      2.5705      0.0510      4.8180    121.2434     27.3254
  1701.0000      8.3849      2.5694      0.0295      4.8845    117.7077     27.3153
  1701.2500      8.3454      2.5684      0.0203      4.9461    114.7679     27.3853
  1701.5000      8.3120      2.5663      0.0149      5.0747    110.6937     27.4744
  1701.7500      8.2965      2.5645      0.0164      5.1809    108.6234     27.4488
  1702.0000      8.2924      2.5620      0.0247      5.3357    106.7943     27.2391
  1702.2500      8.2864      2.5608      0.0328      5.4056    106.5692     27.0304
  1702.5000      8.2715      2.5606      0.0461      5.4205    107.9445     26.7580
  1702.7500      8.2510      2.5614      0.0545      5.3692    109.9498     26.6724
  1703.0000      8.2373      2.5635      0.0652      5.2441    114.0697     26.7176
  1703.2500      8.2329      2.5647      0.0702      5.1715    117.1576     26.8235
  1703.5000      8.2319      2.5650      0.0728      5.1504    121.6746     26.9712
  1703.7500      8.2321      2.5639      0.0711      5.2192    124.1766     27.0001
  1704.0000      8.2357      2.5602      0.0646      5.4433    126.1908     26.8998
  1704.2500      8.2431      2.5568      0.0592      5.6485    125.9061     26.7423
  1704.5000      8.2518      2.5514      0.0523      5.9749    122.9628     26.4105
  1704.7500      8.2642      2.5483      0.0500      6.1648    119.7225     26.1814
  1705.0000      8.2871      2.5453      0.0500      6.3481    113.8831     25.9533
  1705.2500      8.3215      2.5448      0.0510      6.3734    109.7255     25.9020
  1705.5000      8.3511      2.5473      0.0516      6.2221    103.3823     25.8239
  1705.7500      8.3594      2.5514      0.0519      5.9747     99.2878     25.6077
  1706.0000      8.3350      2.5613      0.0558      5.3735     94.0350     24.8654
  1706.2500      8.2689      2.5702      0.0625      4.8391     91.4406     24.1489
  1706.5000      8.1938      2.5852      0.0774      3.9259     88.5985     23.0170
  1706.7500      8.1495      2.5952      0.0869      3.3209     86.7957     22.3454
  1707.0000      8.1366      2.6076      0.0932      2.5672     83.3411     21.4899
  1707.2500      8.1359      2.6130      0.0899      2.2425     80.4625     21.0034
  1707.5000      8.1358      2.6153      0.0755      2.1017     75.8733     20.4440
  1707.7500      8.1343      2.6129      0.0624      2.2473     73.2759     20.2332
  1708.0000      8.1328      2.6043      0.0425      2.7690     71.5289     20.2161
  1708.2500      8.1326      2.5964      0.0319      3.2490     72.5852     20.4332
  1708.5000      8.1339      2.5839      0.0249      4.0042     77.8653     21.1495
  1708.7500      8.1355      2.5769      0.0283      4.4298     83.2027     21.8666
  1709.0000      8.1380      2.5707      0.0446      4.8069     91.8959     23.1406
  1709.2500      8.1451      2.5702      0.0605      4.8367     97.1314     23.9978
  1709.5000      8.1558      2.5748      0.0877      4.5605    103.5735     25.1026
  1709.7500      8.1639      2.5802      0.1059      4.2318    107.1295     25.6224
  1710.0000      8.1735      2.5885      0.1260      3.7257    111.6823     25.9841
  1710.2500      8.1908      2.5921      0.1294      3.5089    114.1535     25.9915
  1710.5000      8.2067      2.5922      0.1164      3.5021    117.0645     25.9331
  1710.7500      8.2135      2.5889      0.0998      3.7022    118.8956     26.0590
  1711.0000      8.2171      2.5814      0.0772      4.1593    122.5076     26.7007
  1711.2500      8.2227      2.5766      0.0693      4.4503    125.6626     27.3773
  1711.5000      8.2331      2.5721      0.0676      4.7189    130.4915     28.4607
  1711.7500      8.2671      2.5713      0.0695      4.7684    132.8192     29.0617
  1712.0000      8.3266      2.5719      0.0707      4.7361    134.0236     29.6615
  1712.2500      8.3437      2.5719      0.0683      4.7360    133.3928     29.8526
  1712.5000      8.2924      2.5687      0.0592      4.9250    131.0661     29.8329
  1712.7500      8.2520      2.5637      0.0514      5.2296    129.2430     29.6607
  1713.0000      8.2424      2.5521      0.0434      5.9332    127.6220     29.3724
  1713.2500      8.2341      2.5430      0.0443      6.4876    128.0896     29.3000
  1713.5000      8.2240      2.5305      0.0585      7.2409    131.3126     29.4522
  1713.7500      8.2201      2.5251      0.0753      7.5674    134.4740     29.6578
  1714.0000      8.2246      2.5239      0.1062      7.6452    139.1973     29.9410
  1714.2500      8.2431      2.5279      0.1267      7.3975    141.7208     30.0529
  1714.5000      8.2744      2.5401      0.1531      6.6603    144.1799     30.1147
  1714.7500      8.2964      2.5503      0.1660      6.0424    144.9477     30.1148
  1715.0000      8.3035      2.5643      0.1746      5.1914    145.0390     30.0672
  1715.2500      8.3067      2.5706      0.1711      4.8100    144.6932     29.9908
  1715.5000      8.3048      2.5741      0.1533      4.5976    144.1396     29.8253
  1715.7500      8.3061      2.5737      0.1400      4.6213    143.7578     29.7378
  1716.0000      8.3148      2.5736      0.1357      4.6283    142.2991     29.7378
  1716.2500      8.3221      2.5765      0.1491      4.4538    140.1786     29.8036
  1716.5000      8.3300      2.5870      0.1844      3.8173    135.5000     29.8125
  1716.7500      8.3556      2.5969      0.2052      3.2153    132.1447     29.6488
  1717.0000      8.4076      2.6115      0.2131      2.3304    127.6594     29.1234
  1717.2500      8.4446      2.6182      0.1991      1.9301    124.9724     28.6468
  1717.5000      8.4123      2.6204      0.1556      1.7948    121.3149     27.8383
  1717.7500      8.3292      2.6168      0.1209      2.0121    119.5209     27.2776
  1718.0000      8.2600      2.6065      0.0775      2.6364    118.3910     26.5291
  1718.2500      8.2370      2.5986      0.0601      3.1150    118.4549     26.1859
  1718.5000      8.2406      2.5885      0.0508      3.7277    118.9811     25.9582
  1718.7500      8.2491      2.5838      0.0521      4.0093    119.4699     25.9337
  1719.0000      8.2553      2.5796      0.0587      4.2655    120.4613     25.9265
  1719.2500      8.2598      2.5775      0.0641      4.3942    120.9192     25.8943
  1719.5000      8.2708      2.5728      0.0713      4.6771    119.9061     25.8512
  1719.7500      8.2895      2.5675      0.0746      4.9997    117.5496     25.8966
  1720.0000      8.3067      2.5553      0.0772      5.7366    112.1713     26.1919
  1720.2500      8.3201      2.5448      0.0789      6.3753    108.5251     26.5719
  1720.5000      8.3333      2.5271      0.0842      7.4479    104.7741     27.3747
  1720.7500      8.3487      2.5155      0.0905      8.1521    103.6598     27.9787
  1721.0000      8.3719      2.5011      0.1058      9.0265    103.1923     28.7981
  1721.2500      8.4457      2.4950      0.1214      9.3961    103.1432     29.2199
  1721.5000      8.5962      2.4930      0.1536      9.5167    103.6659     29.6713
  1721.7500      8.7462      2.4967      0.1786      9.2904    105.0571     29.8661
  1722.0000      8.7939      2.5084      0.2137      8.5819    109.2783     29.9229
