~Version Information
VERS.                      2.0: CWLS Log ASCII Standard - VERSION 2.0
WRAP.                       NO: One line per depth step
~Well Information Block
STRT.FT                12.0000: 
STOP.FT              1671.7500: 
STEP.FT                 0.2500: 
NULL.                -999.2500: 
COMP.          Pioneer Natural Resources: COMPANY
WELL.          Scott Canyon 11-18 Tr: WELL
FLD.           Purgatoire River: FIELD
LOC.           411' FNL & 580' FWL: LOCATION
PROV.                 Colorado: PROVINCE
CNTY.               Las Animas: COUNTRY
SRVC.                Patterson: SERVICE COMPANY
DATE.          Tue Feb 22 09:52:18 2005: LOG DATE
UWI.           05 071 08286 00: UNIQUE WELL ID
~Curve Information Block
DEPT.FT            0 000 00 00: Depth
GR.GAPI                       : Gamma Ray
CCL.                          : Casing Collar Locator
TT3.usec                      : CBL 3' Travel Time
AMP3.mV                       : CBL 3' Amplitude
~Parameter Information Block
~A  Depth        GR         CCL         TT3         AMP3    
    12.0000   -999.2500   -999.2500    739.4167     47.4799
    12.2500   -999.2500   -999.2500    528.5034     61.2721
    12.5000   -999.2500   -999.2500    383.5421     70.6869
    12.7500   -999.2500   -999.2500    305.9453     75.7093
    13.0000   -999.2500   -999.2500    273.5953     77.8132
    13.2500   -999.2500   -999.2500    263.0930     78.5168
    13.5000   -999.2500   -999.2500    260.4426     78.7092
    13.7500   -999.2500   -999.2500    259.9327     78.7375
    14.0000   -999.2500   -999.2500    259.8746     78.6941
    14.2500   -999.2500      0.0000    259.9053     78.6006
    14.5000   -999.2500      0.0000    259.9513     78.4689
    14.7500   -999.2500      0.0000    260.0647     78.2951
    15.0000   -999.2500      0.0000    260.4294     78.0476
    15.2500   -999.2500      0.0000    261.4871     77.6693
    15.5000   -999.2500      0.0000    263.9617     77.0972
    15.7500   -999.2500      0.0000    268.5253     76.2822
    16.0000   -999.2500      0.0000    275.1216     75.1860
    16.2500   -999.2500      0.0000    282.5855     73.7510
    16.5000   -999.2500      0.0000    289.2072     71.8870
    16.7500   -999.2500      0.0000    293.8445     69.5213
    17.0000   -999.2500      0.0000    296.4662     66.6812
    17.2500   -999.2500      0.0000    297.7643     63.5155
    17.5000   -999.2500      0.0000    298.5745     60.2200
    17.7500   -999.2500      0.0000    299.8712     56.9447
    18.0000   -999.2500      0.0000    304.0464     53.7688
    18.2500   -999.2500      0.0000    317.8631     50.7418
    18.5000   -999.2500      0.0000    356.1815     47.9129
    18.7500   -999.2500      0.0000    441.3483     45.3160
    19.0000   -999.2500      0.0000    591.2245     42.9515
    19.2500   -999.2500      0.0000    799.1062     40.8052
    19.5000   -999.2500      0.0000   1025.7966     38.8805
    19.7500     69.6200      0.0000   1219.7983     37.1990
    20.0000     65.8186      0.0000   1349.9086     35.7774
    20.2500     62.7788      0.0000   1418.2108     34.6156
    20.5000     60.7351      0.0000   1446.2490     33.6931
    20.7500     59.7441      0.0000   1455.2419     32.9634
    21.0000     59.2926      0.0000   1457.4941     32.3531
    21.2500     58.3258      0.0000   1457.9343     31.7773
    21.5000     56.3442      0.0000   1458.0000     31.1662
    21.7500     54.0967      0.0000   1458.0000     30.4865
    22.0000     52.7660      0.0000   1458.0000     29.7523
    22.2500     52.7791      0.0000   1458.0000     29.0129
    22.5000     53.7480      0.0000   1458.0000     28.3167
    22.7500     55.2240      0.0000   1458.0000     27.6796
    23.0000     57.0937      0.0000   1458.0000     27.0873
    23.2500     59.2939      0.0000   1458.0000     26.5207
    23.5000     61.3889      0.0000   1458.0000     25.9721
    23.7500     62.6769      0.0000   1458.0000     25.4393
    24.0000     62.8302      0.0000   1458.0000     24.9176
    24.2500     62.3397      0.0000   1458.0000     24.4002
    24.5000     62.1431      0.0000   1458.0000     23.8832
    24.7500     62.7756      0.0000   1458.0000     23.3701
    25.0000     64.0157      0.0000   1458.0000     22.8704
    25.2500     65.3954      0.0000   1458.0000     22.3901
    25.5000     66.7719      0.0000   1458.0000     21.9245
    25.7500     68.2812      0.0000   1458.0000     21.4637
    26.0000     70.0621      0.0000   1458.0000     21.0074
    26.2500     72.0870      0.0000   1458.0000     20.5722
    26.5000     73.9545      0.0000   1458.0000     20.1835
    26.7500     74.9021      0.0000   1458.0000     19.8623
    27.0000     74.3756      0.0000   1458.0000     19.6179
    27.2500     72.6166      0.0000   1458.0000     19.4483
    27.5000     70.5401      0.0000   1458.0000     19.3462
    27.7500     69.0120      0.0000   1458.0000     19.3031
    28.0000     68.2162      0.0000   1458.0000     19.3039
    28.2500     67.6799      0.0000   1458.0000     19.3176
    28.5000     66.8540      0.0000   1458.0000     19.3047
    28.7500     65.5653      0.0000   1458.0000     19.2443
    29.0000     63.9277      0.0000   1458.0000     19.1509
    29.2500     62.1327      0.0000   1458.0000     19.0568
    29.5000     60.5475      0.0000   1458.0000     18.9822
    29.7500     59.7318      0.0000   1458.0000     18.9255
    30.0000     59.9486      0.0000   1458.0000     18.8772
    30.2500     60.7042      0.0000   1458.0000     18.8299
    30.5000     61.0097      0.0000   1458.0000     18.7766
    30.7500     60.0886      0.0000   1458.0000     18.7101
    31.0000     57.8664      0.0000   1458.0000     18.6301
    31.2500     55.0900      0.0000   1458.0000     18.5472
    31.5000     53.0601      0.0000   1458.0000     18.4752
    31.7500     52.8179      0.0000   1458.0000     18.4240
    32.0000     54.3263      0.0000   1458.0000     18.3987
    32.2500     56.6318      0.0000   1458.0000     18.4019
    32.5000     58.8520      0.0000   1458.0000     18.4311
    32.7500     60.7009      0.0000   1458.0000     18.4809
    33.0000     62.0202      0.0000   1458.0000     18.5477
    33.2500     62.2925      0.0000   1458.0000     18.6299
    33.5000     61.0156      0.0000   1458.0000     18.7195
    33.7500     58.3263      0.0000   1458.0000     18.7998
    34.0000     54.8870      0.0000   1458.0000     18.8580
    34.2500     51.2622      0.0000   1458.0000     18.8989
    34.5000     47.6495      0.0000   1458.0000     18.9415
    34.7500     44.1693      0.0000   1458.0000     19.0026
    35.0000     41.1969      0.0000   1458.0000     19.0871
    35.2500     39.2803      0.0000   1458.0000     19.1905
    35.5000     38.6870      0.0000   1458.0000     19.3002
    35.7500     39.0727      0.0000   1458.0000     19.3913
    36.0000     39.6785      0.0000   1458.0000     19.4303
    36.2500     39.9776      0.0000   1458.0000     19.3910
    36.5000     40.3329      0.0000   1458.0000     19.2726
    36.7500     42.1115      0.0000   1458.0000     19.1066
    37.0000     47.0292      0.0000   1458.0000     18.9436
    37.2500     56.1681      0.0000   1458.0000     18.8262
    37.5000     69.3696      0.0000   1458.0000     18.7671
    37.7500     85.2214      0.0000   1458.0000     18.7462
    38.0000    101.3996      0.0000   1458.0000     18.7267
    38.2500    115.1978      0.0000   1458.0000     18.6747
    38.5000    124.2253      0.0000   1458.0000     18.5719
    38.7500    127.2716      0.0000   1458.0000     18.4219
    39.0000    124.9719      0.0000   1458.0000     18.2528
    39.2500    119.6030      0.0000   1458.0000     18.1107
    39.5000    113.9239      0.0000   1458.0000     18.0368
    39.7500    110.0383      0.0000   1458.0000     18.0410
    40.0000    108.9897      0.0000   1458.0000     18.0914
    40.2500    110.7227      0.0000   1458.0000     18.1183
    40.5000    114.0729      0.0000   1458.0000     18.0071
    40.7500    117.2634      0.0000   1458.0000     17.5983
    41.0000    118.8916      0.0000   1458.0000     16.7524
    41.2500    118.4835      0.0000   1458.0000     15.4761
    41.5000    116.2580      0.0000   1458.0000     13.9857
    41.7500    112.5040      0.0000   1458.0000     12.6108
    42.0000    107.1803      0.0000   1458.0000     11.6204
    42.2500    100.2171      0.0000   1458.0000     11.1136
    42.5000     92.2571      0.0000   1458.0000     11.0198
    42.7500     84.9416      0.0000   1458.0000     11.1758
    43.0000     80.3123      2.9309   1458.0000     11.4333
    43.2500     79.7724      0.0000   1458.0000     11.7439
    43.5000     83.3001      0.0000   1458.0000     12.1855
    43.7500     89.3002      0.0000   1458.0000     12.9116
    44.0000     95.2691      0.0000   1458.0000     14.0339
    44.2500     99.2520      0.0000   1458.0000     15.5125
    44.5000    101.2291      0.0000   1458.0000     17.1488
    44.7500    102.9244      0.0000   1458.0000     18.6712
    45.0000    105.8063      0.0000   1458.0000     19.8371
    45.2500    109.2854      0.0000   1458.0000     20.5210
