~Version Information
VERS.                      2.0: CWLS Log ASCII Standard - VERSION 2.0
WRAP.                       NO: One line per depth step
~Well Information Block
STRT.FT                -2.7500: 
STOP.FT              2139.2500: 
STEP.FT                 0.2500: 
NULL.                -999.2500: 
COMP.          Petrogulf Corporation: COMPANY
WELL.             State 16-34V: WELL
FLD.           Purgatorie River: FIELD
LOC.           1146' FSL & 1393' FEL: LOCATION
PROV.                 Colorado: PROVINCE
CNTY.               Las Animas: COUNTRY
SRVC.          Patterson Wireline: SERVICE COMPANY
DATE.          Wed Jun 25 13:16:42 2003: LOG DATE
UWI.           05 071 07724 00: UNIQUE WELL ID
~Curve Information Block
DEPT.FT            0 000 00 00: Depth
CCL.                          : Casing Collar Locator
TT3.usec                      : CBL 3' Travel Time
AMP3.mV                       : CBL 3' Amplitude
GR.GAPI                       : Gamma Ray
~Parameter Information Block
~A  Depth       CCL         TT3         AMP3         GR     
# ...
   131.2500      0.0000    831.5821     13.4850     78.4060
   131.5000      0.0000    818.2856     13.7412     76.9333
   131.7500      0.0000    800.1364     13.9144     75.8746
   132.0000      0.0000    773.6276     13.9697     75.2621
   132.2500      0.0000    735.1738     13.9269     75.0507
   132.5000      0.0000    687.3193     13.8172     75.1584
   132.7500      0.0000    645.0610     13.6629     75.5224
   133.0000      0.0000    630.2174     13.5036     76.4135
   133.2500      0.0000    653.8676     13.4035     78.2604
   133.5000      0.0000    704.9275     13.4061     80.9368
   133.7500      0.0000    758.6702     13.4845     83.7102
   134.0000      0.0000    795.9944     13.5526     86.0573
   134.2500      0.0000    813.6948     13.5283     88.0863
   134.5000      0.0000    818.2425     13.3977     90.0867
   134.7500      0.0000    813.8456     13.2223     92.1028
   135.0000      0.0000    799.4743     13.0892     94.0311
   135.2500      0.0000    776.1598     13.0504     95.7951
   135.5000      0.0000    751.7358     13.0914     97.3648
   135.7500      0.0000    735.4146     13.1470     98.8567
   136.0000      0.0000    730.8452     13.1572    100.6271
   136.2500      0.0000    736.6370     13.1182    102.9345
   136.5000      0.0000    750.2732     13.0672    105.4625
   136.7500      0.0000    768.7740     13.0300    107.4818
   137.0000      0.0000    787.8923     13.0132    108.5839
   137.2500      0.0000    803.5179     13.0337    109.1099
   137.5000      0.0000    814.0323     13.1018    109.9364
   137.7500      0.0000    820.6405     13.1755    111.8748
   138.0000      0.0000    825.3909     13.1779    114.8743
   138.2500      0.0000    829.3171     13.0767    117.6226
   138.5000      0.0000    832.3327     12.9171    118.3810
   138.7500      0.0000    834.2358     12.7715    116.4713
   139.0000      0.0000    835.2109     12.6833    112.7038
   139.2500      0.0000    835.6321     12.6550    108.5104
   139.5000      0.0000    835.7917     12.6596    105.0809
   139.7500      0.0000    835.8632     12.6588    103.0563
   140.0000      0.0000    835.9278     12.6290    102.3239
   140.2500      0.0000    835.9591     12.5814    101.9882
   140.5000      0.0000    835.7461     12.5468    101.0389
   140.7500      0.0000    834.7885     12.5414     99.3900
   141.0000      0.0000    832.2148     12.5561     98.0488
   141.2500      0.0000    827.1036     12.5723     97.8590
   141.5000      0.0000    819.6519     12.5746     98.2849
   141.7500      0.0000    812.2407     12.5540     97.9433
   142.0000      0.0000    808.2410     12.5171     96.1635
   142.2500      0.0000    808.3184     12.4891     93.5201
   142.5000      0.0000    808.3256     12.4861     91.0572
   142.7500      0.0000    801.9887     12.4941     89.5236
   143.0000      0.0000    786.2007     12.4938     89.1601
   143.2500      0.0000    764.0673     12.4923     89.6623
   143.5000      0.0000    743.0589     12.5102     90.3211
   143.7500      0.0000    728.3987     12.5519     90.5602
   144.0000      0.0000    716.1564     12.6040     90.4779
   144.2500      0.0000    694.8532     12.6562     90.8026
   144.5000      0.0000    657.8819     12.7124     92.2036
   144.7500      0.0000    614.6747     12.7821     94.5195
   145.0000      0.0000    587.1414     12.8652     96.6148
   145.2500      0.0000    593.9102     12.9484     97.2561
   145.5000      0.0000    636.7582     13.0110     96.4153
   145.7500      0.0000    699.9341     13.0403     95.4727
   146.0000      0.0000    761.4882     13.0465     95.7652
   146.2500      0.0000    805.8505     13.0492     97.1218
   146.5000      0.0000    826.7311     13.0425     98.0263
   146.7500      0.0000    821.0451     13.0019     96.8773
   147.0000      0.0000    785.2210     12.9387     93.0542
   147.2500      0.0000    719.7711     12.9143     87.3736
   147.5000      0.0000    634.8174     12.9905     81.7383
   147.7500      0.0000    547.1328     13.1805     77.9116
   148.0000      0.0000    471.1585     13.4431     76.3716
   148.2500      0.0000    413.6704     13.7055     76.3421
   148.5000      0.0000    374.7943     13.9097     76.7521
   148.7500      0.0000    350.8726     14.0609     77.0240
   149.0000      0.0000    336.6922     14.2161     77.1739
   149.2500      0.0000    327.7111     14.4173     77.4969
   149.5000      0.0000    321.5500     14.6508     78.2429
   149.7500      0.0000    317.5711     14.8657     79.3473
   150.0000      0.0000    315.5109     15.0154     80.3989
   150.2500      0.0000    314.9275     15.0974     81.2119
   150.5000      0.0000    315.3252     15.1645     82.4220
   150.7500      0.0000    316.1652     15.2674     84.9663
   151.0000      0.0000    317.0405     15.3741     88.8150
   151.2500      0.0000    318.6664     15.3866     92.5568
   151.5000      0.0000    324.2759     15.2464     94.5174
   151.7500      0.0000    340.6264     14.9948     94.3744
   152.0000      0.0000    377.2363     14.7387     93.6434
   152.2500      0.0000    441.5949     14.5855     94.4000
   152.5000      0.0000    530.6882     14.5830     97.4138
   152.7500      0.0000    626.4445     14.6820    101.4913
   153.0000      0.0000    703.3645     14.7797    104.4790
   153.2500      0.0000    742.5385     14.8287    104.8605
   153.5000      0.0000    737.2916     14.8761    102.7032
   153.7500      0.0000    689.1379     14.9864     99.3318
   154.0000      0.0000    606.5245     15.1637     96.0232
   154.2500      0.0000    508.2176     15.3646     93.0093
   154.5000      0.0000    419.0829     15.5565     89.7490
   154.7500      0.0000    356.5909     15.7512     85.8983
   155.0000      0.0000    322.5940     15.9908     81.6185
   155.2500      0.0000    308.2155     16.2935     76.9409
   155.5000      0.0000    303.4695     16.6163     71.4429
   155.7500      0.0000    302.2075     16.9067     65.0361
   156.0000      0.0000    301.8324     17.1874     58.7754
   156.2500      0.0000    301.6017     17.5296     54.2813
   156.5000      0.0000    301.5503     17.9307     52.3251
   156.7500      0.0000    302.4460     18.2758     52.2623
   157.0000      0.0000    306.5060     18.4444     52.8822
   157.2500      0.0000    318.2036     18.3974     53.6784
   157.5000      0.0000    343.0133     18.1258     55.1423
   157.7500      0.0000    382.1537     17.5797     57.6878
   158.0000      0.0000    427.5430     16.7216     60.5792
   158.2500      0.0000    466.3834     15.6455     62.4059
   158.5000      0.0000    494.2192     14.5724     62.4476
   158.7500      0.0000    519.2574     13.7021     61.1887
   159.0000      0.0000    549.9801     13.0893     59.8025
   159.2500      0.0000    583.8093     12.6786     59.6412
   159.5000      2.0000    611.5339     12.4329     61.8267
   159.7500      0.0000    625.7910     12.4020     66.4281
   160.0000      0.0000    620.0031     12.6793     71.9643
   160.2500      0.0000    586.6373     13.3152     76.3069
   160.5000      0.0000    525.6038     14.2583     78.2089
   160.7500      0.0000    451.5595     15.3559     77.8420
   161.0000      0.0000    385.7265     16.4235     76.2687
   161.2500      0.0000    340.9285     17.3208     74.6853
   161.5000      0.0000    316.8166     17.9689     73.7178
   161.7500      0.0000    306.2643     18.3440     73.0504
   162.0000      0.0000    302.4848     18.4861     71.9558
   162.2500      0.0000    301.4699     18.4840     70.2980
   162.5000      0.0000    301.3997     18.4197     68.7542
   162.7500      0.0000    301.5903     18.3277     68.0418
   163.0000      0.0000    301.8054     18.2087     68.1637
   163.2500      0.0000    301.9968     18.0828     68.4175
   163.5000      0.0000    302.1821     18.0117     67.9864
   163.7500      0.0000    302.3751     18.0422     66.5986
   164.0000      0.0000    302.5502     18.1341     64.8403
   164.2500      0.0000    302.6472     18.1838     63.8468
   164.5000      0.0000    302.6165     18.1327     64.4774
