~Version Information
VERS.                      2.0: CWLS Log ASCII Standard - VERSION 2.0
WRAP.                       NO: One line per depth step
~Well Information Block
STRT.FT                -5.5000: 
STOP.FT              1979.7500: 
STEP.FT                 0.2500: 
NULL.                -999.2500: 
COMP.          Pioneer Natural Resources: COMPANY
WELL.          Bucksnort 41-35: WELL
FLD.           Purgatorie River: FIELD
LOC.           117' FNL & 463' FEL: LOCATION
PROV.                 Colorado: PROVINCE
CNTY.               Las Animas: COUNTRY
SRVC.                Patterson: SERVICE COMPANY
DATE.          Fri Jul 29 10:31:46 2005: LOG DATE
UWI.                          : UNIQUE WELL ID
~Curve Information Block
DEPT.FT            0 000 00 00: Depth
GR.GAPI                       : Gamma Ray
CCL.                          : Casing Collar Locator
TT3.usec                      : CBL 3' Travel Time
AMP3.mV                       : CBL 3' Amplitude
~Parameter Information Block
~A  Depth        GR         CCL         TT3         AMP3    
# ...
  1937.5000     69.9516      0.0000    655.5208     15.5824
  1937.7500     67.1604      0.0000    671.8834     14.6955
  1938.0000     64.5405      0.0000    695.1880     14.0166
  1938.2500     62.8797      0.0000    713.3915     13.5108
  1938.5000     62.0784      0.0000    720.7420     13.1806
  1938.7500     61.3313      0.0000    717.7282     13.0751
  1939.0000     60.1738      0.0000    708.9719     13.1848
  1939.2500     59.1200      0.0000    701.3520     13.3696
  1939.5000     59.1419      0.0000    703.0294     13.4051
  1939.7500     60.7164      0.0000    715.0639     13.1252
  1940.0000     63.6198      0.0000    722.4571     12.5606
  1940.2500     67.5004      0.0000    710.3371     11.9106
  1940.5000     72.1970      0.0000    684.9090     11.3372
  1940.7500     77.2404      0.0000    658.5359     10.8270
  1941.0000     81.3804      0.0000    633.6243     10.2886
  1941.2500     83.1789      0.0000    619.5370      9.7177
  1941.5000     82.2983      0.0000    630.4341      9.1802
  1941.7500     80.0853      0.0000    652.0715      8.6935
  1942.0000     78.7356      0.0000    653.0341      8.2429
  1942.2500     79.7842      0.0000    630.4271      7.8455
  1942.5000     83.1579      0.0000    607.0984      7.5147
  1942.7500     87.3655      0.0000    591.3795      7.2342
  1943.0000     90.6062      0.0000    571.7600      6.9835
  1943.2500     92.0302      0.0000    552.4172      6.7523
  1943.5000     92.1659      0.0000    557.6867      6.5425
  1943.7500     92.0761      0.0000    592.3039      6.3698
  1944.0000     92.0573      0.0000    631.8049      6.2524
  1944.2500     91.2210      0.0000    654.2900      6.1870
  1944.5000     88.3374      0.0000    658.3195      6.1456
  1944.7500     83.0574      0.0000    654.8410      6.1035
  1945.0000     76.4486      0.0000    651.9456      6.0529
  1945.2500     70.5201      0.0000    648.8911      6.0041
  1945.5000     67.1991      0.0000    644.8502      5.9952
  1945.7500     67.4807      0.0000    644.3899      6.0628
  1946.0000     71.1896      0.0000    651.0782      6.1950
  1946.2500     77.2142      0.0000    661.3688      6.3589
  1946.5000     83.8478      0.0000    666.3189      6.5658
  1946.7500     89.1292      0.0000    662.3373      6.8737
  1947.0000     91.4280      0.0000    657.9649      7.3268
  1947.2500     90.3069      0.0000    662.9241      7.9210
  1947.5000     86.9741      0.0000    677.6282      8.6525
  1947.7500     83.5376      0.0000    694.6280      9.5600
  1948.0000     81.5467      0.0000    705.9484     10.6627
  1948.2500     81.2546      0.0000    710.5312     11.9079
  1948.5000     82.0282      0.0000    711.1822     13.2159
  1948.7500     82.9930      0.0000    708.7003     14.5348
  1949.0000     83.3380      0.0000    706.5110     15.8587
  1949.2500     82.6255      0.0000    711.9042     17.2183
  1949.5000     81.1601      0.0000    725.8246     18.6287
  1949.7500     79.8291      0.0000    739.0533     20.0118
  1950.0000     79.2276      0.0000    742.2873     21.1693
  1950.2500     78.9034      0.0000    735.7898     21.8910
  1950.5000     77.7768      0.0000    728.6164     22.0746
  1950.7500     75.4494      0.0000    729.3719     21.7230
  1951.0000     72.9126      0.0000    735.9846     20.9329
  1951.2500     71.8448      0.0000    737.7652     19.8981
  1951.5000     73.3035      0.0000    730.1417     18.8371
  1951.7500     76.9975      0.0000    720.7886     17.9077
  1952.0000     81.5264      0.0000    717.3793     17.1854
  1952.2500     85.1691      0.0000    712.4592     16.6979
  1952.5000     86.6134      0.0000    683.2712     16.4124
  1952.7500     85.3586      0.0000    620.0226     16.1147
  1953.0000     81.7906      0.0000    558.1747     15.4102
  1953.2500     77.0041      0.0000    549.0029     13.9933
  1953.5000     72.4975      0.0000    594.3165     11.9838
  1953.7500     69.7262      0.0000    651.0662      9.9464
  1954.0000     69.3862      0.0000    684.5875      8.3857
  1954.2500     70.8579      0.0000    677.4890      7.3232
  1954.5000     72.6538     -2.0000    623.1414      6.5457
  1954.7500     73.7665      0.0000    544.5526      5.9629
  1955.0000     74.5610      0.0000    486.7994      5.5907
  1955.2500     76.1795      0.0000    478.9203      5.4916
  1955.5000     79.1620      0.0000    518.2010      5.8094
  1955.7500     82.8225      0.0000    577.2181      6.6937
  1956.0000     85.8581      0.0000    623.2265      7.9831
  1956.2500     87.3091      0.0000    645.1000      9.0715
  1956.5000     87.0465      0.0000    656.9558      9.5591
  1956.7500     85.6428      0.0000    677.8691      9.7870
  1957.0000     83.7760      0.0000    712.6718     10.3073
  1957.2500     81.7630      0.0000    747.7288     11.4038
  1957.5000     79.9411      0.0000    769.1471     13.2352
  1957.7500     79.4147      0.0000    781.0832     15.8479
  1958.0000     81.7213      0.0000    794.3889     19.0314
  1958.2500     87.3396      0.0000    799.6588     22.4291
  1958.5000     94.9090      0.0000    768.8189     25.7168
  1958.7500    102.2255      0.0000    698.4369     28.5949
  1959.0000    107.7105      0.0000    629.9387     30.7951
  1959.2500    110.8168      0.0000    602.6916     32.1990
  1959.5000    111.5225      0.0000    614.3050     32.8525
  1959.7500    109.8966      0.0000    626.4872     32.8814
  1960.0000    106.1537      0.0000    593.7922     32.4383
  1960.2500    100.9017      0.0000    517.3764     31.6558
  1960.5000     95.1261      0.0000    453.2498     30.6024
  1960.7500     89.7081      0.0000    451.2502     29.2559
  1961.0000     84.9275      0.0000    514.1105     27.5509
  1961.2500     80.6011      0.0000    600.9373     25.4722
  1961.5000     76.7375      0.0000    661.4536     23.0449
  1961.7500     73.8740      0.0000    680.6158     20.3469
  1962.0000     72.6730      0.0000    677.9401     17.6192
  1962.2500     73.3081      0.0000    672.7947     15.1911
  1962.5000     75.3148      0.0000    671.0565     13.2428
  1962.7500     77.9218      0.0000    673.2434     11.7486
  1963.0000     80.5789      0.0000    679.4964     10.6376
  1963.2500     83.3656      0.0000    687.8702      9.9148
  1963.5000     86.7108      0.0000    694.4682      9.5918
  1963.7500     90.4250      0.0000    696.9317      9.5847
  1964.0000     93.2957      0.0000    695.5823      9.7525
  1964.2500     94.0192      0.0000    692.5667     10.0166
  1964.5000     92.4371      0.0000    691.4728     10.4127
  1964.7500     89.6279      0.0000    695.1835     11.0408
  1965.0000     86.8663      0.0000    703.7700     11.9722
  1965.2500     84.6625      0.0000    714.7076     13.1948
  1965.5000     82.8072      0.0000    722.8673     14.6343
  1965.7500     81.0704      0.0000    723.2444     16.2140
  1966.0000     79.6748      0.0000    714.7615     17.8852
  1966.2500     79.1119      0.0000    696.4398     19.4861
  1966.5000     79.5158      0.0000    657.8599     20.3432
  1966.7500     80.2546      0.0000    573.6586     19.1105
  1967.0000     80.2324      0.0000    425.5586     14.8931
  1967.2500     78.6925      0.0000    245.8162      8.9729
  1967.5000     75.8400      0.0000    103.0287      4.0656
  1967.7500     72.7970      0.0000     29.8855      1.5177
  1968.0000     70.9953      0.0000      5.8240      0.6758
  1968.2500     71.3442      0.0000      0.7467      0.4979
  1968.5000     73.5813      0.0000      0.0596      0.4738
  1968.7500     76.3393      0.0000   -999.2500   -999.2500
  1969.0000     78.1261      0.0000   -999.2500   -999.2500
  1969.2500     78.3872      0.0000   -999.2500   -999.2500
  1969.5000     77.6147      0.0000   -999.2500   -999.2500
  1969.7500     76.6003      0.0000   -999.2500   -999.2500
  1970.0000     75.8750      0.0000   -999.2500   -999.2500
  1970.2500     75.7750      0.0000   -999.2500   -999.2500
  1970.5000     76.6485      0.0000   -999.2500   -999.2500
  1970.7500     78.7479      0.0000   -999.2500   -999.2500
