~Version Information
VERS.                      2.0: CWLS Log ASCII Standard - VERSION 2.0
WRAP.                       NO: One line per depth step
~Well Information Block
STRT.FT               380.0000: 
STOP.FT               899.2000: 
STEP.FT                 0.1000: 
NULL.                -999.2500: 
COMP.          Pioneer Natural Resources: COMPANY
WELL.          Prospector 12-19: WELL
FLD.           Purgatoire River: FIELD
LOC.           2262' FNL & 634' FWL: LOCATION
PROV.                 Colorado: PROVINCE
CNTY.               Las Animas: COUNTRY
SRVC.                Patterson: SERVICE COMPANY
DATE.          Mon Apr 25 09:33:09 2005: LOG DATE
UWI.           05 071 08191 00: UNIQUE WELL ID
~Curve Information Block
DEPT.FT            0 000 00 00: Depth
DCAL.in                       : CDL Caliper
RHOB.g/cc                     : CDL Bulk Density
RHOC.g/cc                     : CDL Density Correction
DPOR.pu                       : CDL Density Porosity
GR.GAPI                       : Gamma Ray
NPOR.pu                       : Neutron Porosity
~Parameter Information Block
~A  Depth       DCAL        RHOB        RHOC        DPOR         GR         NPOR    
# ...
   821.6000      7.7269      2.5571      0.0606      5.6279     82.0501     21.0389
   821.7000      7.7269      2.5442      0.0633      6.4123     74.1918     19.6757
   821.8000      7.8004      2.5466      0.1347      6.2668     73.1116     18.9435
   821.9000      7.8004      2.5473      0.1518      6.2227     77.8978     18.4753
   822.0000      7.7796      2.5354      0.1248      6.9436     80.0056     17.9873
   822.1000      7.7796      2.5161      0.0531      8.1160     77.3310     17.5728
   822.2000      7.7796      2.5099      0.0063      8.4916     74.5048     17.5206
   822.3000      7.7386      2.5287      0.0888      7.3525     76.4138     17.9139
   822.4000      7.7386      2.5521      0.1644      5.9357     83.1196     18.4013
   822.5000      7.7495      2.5516      0.1823      5.9635     90.6301     18.2096
   822.6000      7.7495      2.5301      0.0863      7.2657     95.3739     17.2016
   822.7000      7.7495      2.5213      0.0530      7.7993     95.1043     16.3581
   822.8000      7.7105      2.5404      0.0673      6.6441     89.3160     16.2284
   822.9000      7.7105      2.5675      0.1219      5.0027     81.3752     16.9626
   823.0000      7.7365      2.5793      0.1352      4.2822     77.7061     18.8998
   823.1000      7.7365      2.5673      0.1373      5.0142     79.8754     20.9302
   823.2000      7.7365      2.5399      0.0918      6.6717     81.7310     21.0344
   823.3000      7.7952      2.5174      0.0723      8.0392     78.8877     19.8731
   823.4000      7.7952      2.5085      0.0903      8.5749     74.1829     19.3343
   823.5000      7.8133      2.5052      0.0810      8.7751     72.4081     19.5873
   823.6000      7.8133      2.4928      0.1036      9.5283     74.4448     19.6673
   823.7000      7.8133      2.4679      0.0376     11.0387     77.3833     19.1988
   823.8000      7.8174      2.4476      0.0458     12.2669     78.9875     18.9300
   823.9000      7.8174      2.4460      0.0663     12.3651     80.4357     19.0345
   824.0000      7.8021      2.4585      0.0956     11.6042     83.4150     18.8874
   824.1000      7.8021      2.4797      0.1040     10.3217     85.0829     18.4747
   824.2000      7.8021      2.5179      0.1062      8.0087     83.7120     18.2062
   824.3000      7.7148      2.5799      0.1365      4.2510     82.4812     17.9480
   824.4000      7.7148      2.6440      0.2477      0.3619     84.0841     17.6800
   824.5000      7.6879      2.6778      0.2340     -1.6836     87.6427     17.9633
   824.6000      7.6879      2.6832      0.2150     -2.0145     90.9626     18.6167
   824.7000      7.6879      2.6756      0.1947     -1.5520     92.9059     18.6204
   824.8000      7.6680      2.6536      0.1878     -0.2172     93.7486     17.9548
   824.9000      7.6680      2.6235      0.1385      1.6077     94.7862     17.5716
   825.0000      7.6636      2.6011      0.1029      2.9666     97.2812     17.6533
   825.1000      7.6636      2.5929      0.0497      3.4591    101.9848     18.0301
   825.2000      7.6636      2.5921      0.0537      3.5102    106.5588     18.6853
   825.3000      7.7249      2.5921      0.0438      3.5069    109.6843     19.0831
   825.4000      7.7249      2.5993      0.0550      3.0757    112.2252     19.2139
   825.5000      7.8286      2.6037      0.1203      2.8065    114.2845     19.8186
   825.6000      7.8286      2.5899      0.0779      3.6429    114.8255     20.5676
   825.7000      7.8286      2.5712      0.0777      4.7752    115.6709     20.5002
   825.8000      7.8583      2.5665      0.0531      5.0593    119.8471     19.9969
   825.9000      7.8583      2.5735      0.0541      4.6348    125.8702     20.0717
   826.0000      7.8653      2.5784      0.0731      4.3386    129.8367     20.7280
   826.1000      7.8653      2.5776      0.0441      4.3855    127.7086     21.4347
   826.2000      7.8653      2.5792      0.0366      4.2896    122.1756     21.8321
   826.3000      7.8482      2.5917      0.0185      3.5352    118.6767     22.0183
   826.4000      7.8482      2.6140      0.0947      2.1839    116.9260     22.1806
   826.5000      7.8349      2.6305      0.0701      1.1843    116.4290     22.2269
   826.6000      7.8349      2.6287      0.0479      1.2918    116.7055     22.3697
   826.7000      7.8349      2.6061      0.1291      2.6590    118.9713     22.8349
   826.8000      7.8331      2.5754      0.0333      4.5226    124.3362     23.3213
   826.9000      7.8331      2.5689      0.0298      4.9175    126.2556     23.4249
   827.0000      7.7719      2.5919      0.0818      3.5208    123.8005     22.9071
   827.1000      7.7719      2.6089      0.0670      2.4916    122.5945     22.3760
   827.2000      7.7719      2.5968      0.0578      3.2264    120.9433     22.8130
   827.3000      7.7740      2.5691      0.0622      4.9001    119.2645     23.6441
   827.4000      7.7740      2.5530      0.1019      5.8785    122.2546     23.5049
   827.5000      7.7978      2.5604      0.0746      5.4324    125.2022     22.4714
   827.6000      7.7978      2.5737      0.1011      4.6257    119.4291     21.5449
   827.7000      7.7978      2.5678      0.0697      4.9803    107.8043     20.6996
   827.8000      7.7732      2.5486      0.0518      6.1454    100.1181     19.4122
   827.9000      7.7732      2.5362      0.0457      6.8951     97.9532     18.1962
   828.0000      7.7756      2.5389      0.0430      6.7307     96.0472     17.7299
   828.1000      7.7756      2.5597      0.0506      5.4735     94.9474     17.8592
   828.2000      7.7756      2.5907      0.0936      3.5953     96.3990     18.2679
   828.3000      7.7952      2.6054      0.1078      2.7059     98.2804     18.7011
   828.4000      7.7952      2.5799      0.1539      4.2501     99.8104     18.8117
   828.5000      7.7761      2.5260      0.0514      7.5139    100.9875     18.3942
   828.6000      7.7761      2.4897     -0.0186      9.7149    101.7296     17.5012
   828.7000      7.7761      2.4917      0.0531      9.5968    100.4473     16.5454
   828.8000      7.7652      2.5089      0.0346      8.5512     96.8828     16.1531
   828.9000      7.7652      2.5248      0.0813      7.5900     94.9127     16.0608
   829.0000      7.7614      2.5421      0.1237      6.5376     97.1544     15.5543
   829.1000      7.7614      2.5624      0.1368      5.3096    101.3708     15.2339
   829.2000      7.7614      2.5766      0.1473      4.4481    105.9023     15.7764
   829.3000      7.7651      2.5778      0.1253      4.3737    110.6282     16.9397
   829.4000      7.7651      2.5661      0.1284      5.0857    117.1255     18.4756
   829.5000      7.7261      2.5434      0.0652      6.4623    127.1936     19.7098
   829.6000      7.7261      2.5250      0.0278      7.5739    136.9928     20.1701
   829.7000      7.7261      2.5277      0.0018      7.4123    141.0424     20.3537
   829.8000      7.7791      2.5411      0.0526      6.6021    140.6738     19.9825
   829.9000      7.7791      2.5438     -0.0062      6.4354    139.3954     19.1003
   830.0000      7.8269      2.5435      0.0239      6.4525    137.3854     18.9134
   830.1000      7.8269      2.5581      0.0124      5.5710    134.8762     19.6108
   830.2000      7.8269      2.5716      0.0992      4.7533    133.3558     20.0555
   830.3000      7.8226      2.5575      0.0333      5.6040    133.4390     20.0089
   830.4000      7.8226      2.5297      0.0362      7.2921    133.2573     20.1020
   830.5000      7.7929      2.5174      0.0173      8.0366    132.9051     20.3597
   830.6000      7.7929      2.5253      0.0573      7.5588    133.0746     20.5279
   830.7000      7.7929      2.5423      0.0245      6.5288    131.0945     20.6537
   830.8000      7.7906      2.5667      0.0423      5.0489    128.0513     20.7553
   830.9000      7.7906      2.5904      0.1211      3.6131    127.0056     20.8754
   831.0000      7.8308      2.5894      0.1500      3.6727    126.9586     21.6400
   831.1000      7.8308      2.5708      0.0049      4.7995    128.0950     22.7987
