~Version Information
VERS.                      2.0: CWLS Log ASCII Standard - VERSION 2.0
WRAP.                       NO: One line per depth step
~Well Information Block
STRT.FT                -8.2500: 
STOP.FT              2725.7500: 
STEP.FT                 0.2500: 
NULL.                -999.2500: 
COMP.          Pioneer Natural Resources: COMPANY
WELL.          Rabbit Bush Federal 44-19: WELL
FLD.           Purgatoire River: FIELD
LOC.           826' FSL & 1127' FEL: LOCATION
CNTY.               Las Animas: COUNTY
SRVC.                Patterson: SERVICE COMPANY
DATE.          Thu Sep 14 10:51:19 2006: LOG DATE
UWI.           05 071 08149 00: UNIQUE WELL ID
STAT.                       CO: STATE
~Curve Information Block
DEPT.FT            0 000 00 00: Depth
GR.GAPI                       : Gamma Ray
CCL.                          : Casing Collar Locator
TT3.usec                      : CBL 3' Travel Time
AMP3.mV                       : CBL 3' Amplitude
~Parameter Information Block
~A  Depth        GR         CCL         TT3         AMP3    
# ...
  1633.2500    118.1179      0.0000    654.0645      4.1844
  1633.5000    112.8286      0.0000    632.1346      4.1370
  1633.7500    109.8732      0.0000    610.0951      4.0879
  1634.0000    108.5435      0.0000    588.2859      4.0500
  1634.2500    107.7106      0.0000    563.7733      4.0338
  1634.5000    107.4954      0.0000    537.1031      4.0354
  1634.7500    109.0565      0.0000    513.4285      4.0443
  1635.0000    112.7880      0.0000    498.3654      4.0544
  1635.2500    117.1470      0.0000    495.0304      4.0627
  1635.5000    119.3912      0.0000    503.9821      4.0612
  1635.7500    117.6958      0.0000    522.9460      4.0414
  1636.0000    113.0643      0.0000    545.9087      4.0076
  1636.2500    109.0546      0.0000    565.0458      3.9802
  1636.5000    108.9131      0.0000    575.1935      3.9798
  1636.7500    112.7929      0.0000    574.9356      4.0079
  1637.0000    118.3298      0.0000    563.8664      4.0451
  1637.2500    123.6660      0.0000    542.5608      4.0678
  1637.5000    128.8039      0.0000    515.3972      4.0654
  1637.7500    134.1730      0.0000    489.6979      4.0481
  1638.0000    139.3055      0.0000    471.3170      4.0396
  1638.2500    143.1105      0.0000    462.2113      4.0590
  1638.5000    144.4206      0.0000    461.0607      4.1071
  1638.7500    142.3380      0.0000    464.6530      4.1682
  1639.0000    137.1375      0.0000    469.2808      4.2249
  1639.2500    130.9375      0.0000    472.2013      4.2695
  1639.5000    126.6258      0.0000    472.2220      4.3057
  1639.7500    125.7902      0.0000    469.1298      4.3398
  1640.0000    127.8465      0.0000    463.1015      4.3712
  1640.2500    130.8529      0.0000    454.8954      4.3929
  1640.5000    132.7896      0.0000    446.3066      4.4023
  1640.7500    132.4304      0.0000    439.8046      4.4081
  1641.0000    129.7418      0.0000    437.3407      4.4221
  1641.2500    125.7016      0.0000    439.2152      4.4448
  1641.5000    121.6092      0.0000    443.6549      4.4677
  1641.7500    118.5217      0.0000    447.5037      4.4877
  1642.0000    117.1502      0.0000    448.1234      4.5118
  1642.2500    117.8245      0.0000    445.2782      4.5458
  1642.5000    120.2563      0.0000    441.3037      4.5887
  1642.7500    123.4285      0.0000    439.6623      4.6395
  1643.0000    126.0087      0.0000    443.6183      4.7013
  1643.2500    127.1833      0.0000    455.0798      4.7767
  1643.5000    127.1557      0.0000    472.2736      4.8629
  1643.7500    126.6744      0.0000    487.9731      4.9528
  1644.0000    126.0432      0.0000    492.8722      5.0357
  1644.2500    124.9071      0.0000    483.3682      5.1029
  1644.5000    123.1822      0.0000    465.0990      5.1545
  1644.7500    121.8677      0.0000    447.5200      5.1967
  1645.0000    122.6217     -2.0000    436.5239      5.2351
  1645.2500    126.4090      0.0000    433.3293      5.2761
  1645.5000    132.3446      0.0000    438.5259      5.3349
  1645.7500    137.6320      0.0000    454.7705      5.4421
  1646.0000    138.9490      0.0000    483.8955      5.6326
  1646.2500    134.6284      0.0000    520.2666      5.9020
  1646.5000    126.0130      0.0000    548.6885      6.1666
  1646.7500    116.7385      0.0000    553.6339      6.2999
  1647.0000    110.3087      0.0000    532.8002      6.2365
  1647.2500    107.9333      0.0000    499.0933      6.0320
  1647.5000    108.5447      0.0000    468.4159      5.8055
  1647.7500    110.7757      0.0000    448.0365      5.6392
  1648.0000    114.3541      0.0000    436.4509      5.5375
  1648.2500    119.2053      0.0000    429.8098      5.4609
  1648.5000    123.9279      0.0000    425.8593      5.3796
  1648.7500    126.3168      0.0000    423.7623      5.2953
  1649.0000    125.4033      0.0000    422.9608      5.2263
  1649.2500    122.3174      0.0000    422.8447      5.1828
  1649.5000    119.3866      0.0000    422.9279      5.1600
  1649.7500    118.8890      0.0000    422.9732      5.1473
  1650.0000    121.8129      0.0000    422.9135      5.1406
  1650.2500    126.6734      0.0000    422.7380      5.1451
  1650.5000    129.9891      0.0000    422.4457      5.1691
  1650.7500    129.0390      0.0000    422.0598      5.2137
  1651.0000    124.3788      0.0000    421.6366      5.2675
  1651.2500    119.2529      0.0000    421.2586      5.3111
  1651.5000    116.4065      0.0000    420.9948      5.3296
  1651.7500    115.8822      0.0000    420.8227      5.3240
  1652.0000    115.8493      0.0000    420.6024      5.3085
  1652.2500    114.5937      0.0000    420.1921      5.2970
  1652.5000    111.3510      0.0000    419.6165      5.2935
  1652.7500    106.4867      0.0000    419.0890      5.2993
  1653.0000    101.8471      0.0000    418.8606      5.3185
  1653.2500    100.1771      0.0000    419.0613      5.3504
  1653.5000    103.1943      0.0000    419.6899      5.3809
  1653.7500    110.3449      0.0000    420.7439      5.3928
  1654.0000    119.5262      0.0000    422.5463      5.3828
  1654.2500    128.4632      0.0000    426.3706      5.3629
  1654.5000    135.3190      0.0000    435.3247      5.3452
  1654.7500    138.8137      0.0000    454.4631      5.3340
  1655.0000    138.6781      0.0000    488.2756      5.3292
  1655.2500    136.3106      0.0000    535.7192      5.3308
  1655.5000    134.2978      0.0000    587.5607      5.3375
  1655.7500    134.2117      0.0000    630.9170      5.3440
  1656.0000    134.6816      0.0000    658.0491      5.3405
  1656.2500    132.6371      0.0000    670.6288      5.3134
  1656.5000    126.8931      0.0000    675.9476      5.2485
  1656.7500    119.5491      0.0000    680.2682      5.1383
  1657.0000    113.4436      0.0000    685.5760      4.9919
  1657.2500    109.2760      0.0000    690.7819      4.8389
  1657.5000    105.5733      0.0000    694.4404      4.7192
  1657.7500    100.3299      0.0000    696.2166      4.6629
  1658.0000     92.2398      0.0000    696.6949      4.6765
  1658.2500     81.4052      0.0000    696.6260      4.7461
  1658.5000     69.5312      0.0000    696.5454      4.8517
  1658.7500     59.0723      0.0000    696.8520      4.9793
  1659.0000     52.0448      0.0000    698.0878      5.1245
  1659.2500     49.5508      0.0000    701.0468      5.2790
  1659.5000     51.6612      0.0000    706.2509      5.4122
  1659.7500     57.2646      0.0000    712.7968      5.4695
  1660.0000     64.3442      0.0000    717.8187      5.4055
  1660.2500     70.8860      0.0000    718.0021      5.2325
  1660.5000     75.6691      0.0000    712.3467      5.0340
  1660.7500     78.2668      0.0000    703.2950      4.9153
  1661.0000     78.4567      0.0000    694.9769      4.9254
  1661.2500     75.9257      0.0000    690.4580      5.0236
  1661.5000     70.7590      0.0000    690.3450      5.1222
  1661.7500     63.9337      0.0000    693.4065      5.1594
  1662.0000     57.0523      0.0000    698.1978      5.1324
  1662.2500     51.9280      0.0000    703.8999      5.0734
  1662.5000     50.6430      0.0000    709.7194      5.0096
  1662.7500     55.2715      0.0000    714.3284      4.9491
  1663.0000     66.3817      0.0000    716.7240      4.8935
  1663.2500     81.4137      0.0000    717.3016      4.8536
  1663.5000     95.2131      0.0000    717.1436      4.8483
  1663.7500    103.0894      0.0000    716.3627      4.8838
  1664.0000    103.9162      0.0000    714.0877      4.9341
  1664.2500    100.5305      0.0000    710.1096      4.9528
  1664.5000     97.2769      0.0000    705.6367      4.9127
  1664.7500     97.0001      0.0000    702.1802      4.8290
  1665.0000     99.7298      0.0000    700.2921      4.7399
  1665.2500    103.5549      0.0000    699.5405      4.6749
  1665.5000    106.4002      0.0000    699.2324      4.6465
  1665.7500    107.2245      0.0000    698.8739      4.6602
  1666.0000    106.3059      0.0000    698.0970      4.7178
  1666.2500    104.9579      0.0000    696.3511      4.8095
  1666.5000    104.6549      0.0000    692.9284      4.9118
