~Version Information
VERS.                      2.0: CWLS Log ASCII Standard - VERSION 2.0
WRAP.                       NO: One line per depth step
~Well Information Block
STRT.FT               830.0000: 
STOP.FT              3122.7500: 
STEP.FT                 0.2500: 
NULL.                -999.2500: 
COMP.          Pioneer Natural Resources: COMPANY
WELL.              Stones 24-8: WELL
FLD.           Purgatoire River: FIELD
LOC.           648' FSL & 2264' FWL: LOCATION
PROV.                 Colorado: PROVINCE
CNTY.               Las Animas: COUNTRY
SRVC.                Patterson: SERVICE COMPANY
DATE.          Wed Jan 19 12:44:32 2005: LOG DATE
UWI.           05 071 07945 00: UNIQUE WELL ID
~Curve Information Block
DEPT.FT            0 000 00 00: Depth
SN.Ohm-m                      : IEL Short Normal
SP.mV                         : IEL Spontaneous Potential
DIR.Ohm-m                     : IEL Induction Resistivity
GR.GAPI                       : Gamma Ray
~Parameter Information Block
~A  Depth        SN          SP         DIR          GR     
# ...
  2036.0000      6.7511   -353.8824     14.9844     71.0076
  2036.2500      7.0317   -364.3904     27.3766     71.7026
  2036.5000      7.3860   -374.0174     82.9714     75.5030
  2036.7500      7.8042   -382.0915    322.4566     78.3522
  2037.0000      8.3934   -388.2124     77.0366     80.5682
  2037.2500      9.3825   -392.3214     25.8896     79.7836
  2037.5000     11.0301   -394.6678     14.5323     75.0920
  2037.7500     13.4311   -395.6979     11.7724     70.2043
  2038.0000     16.3403   -395.9238     14.7749     61.9148
  2038.2500     19.1977   -395.8139    109.4509     56.9353
  2038.5000     21.3880   -395.7269 100000.0000     52.1320
  2038.7500     22.5276   -395.8727 100000.0000     51.4750
  2039.0000     22.5535   -396.3105 100000.0000     55.3456
  2039.2500     21.6094   -396.9745 100000.0000     61.7135
  2039.5000     19.8825   -397.7313 100000.0000     76.9082
  2039.7500     17.5290   -398.4465      9.1507     89.6088
  2040.0000     14.7078   -399.0273      1.5271    109.0381
  2040.2500     11.6529   -399.4402      0.6386    120.4041
  2040.5000      8.6810   -399.6999      0.3437    133.2741
  2040.7500      6.0997   -399.8462      0.2237    138.5815
  2041.0000      4.0874   -399.9215      0.1863    141.3970
  2041.2500      2.6525   -399.9584      0.2035    140.1503
  2041.5000      1.6937   -399.9769      0.2702    134.7486
  2041.7500      1.0896   -399.9871      0.3744    129.5707
  2042.0000      0.7406   -399.9929      0.4563    120.6443
  2042.2500      0.5596   -399.9966      0.4397    114.5410
  2042.5000      0.4613   -399.9985      0.3479    106.3384
  2042.7500      0.3797   -399.9995      0.2551    102.3839
  2043.0000      0.2867   -400.0000      0.1912     99.9140
  2043.2500      0.1869   -400.0002      0.1541    100.3227
  2043.5000      0.0970   -400.0002      0.1365    101.2963
  2043.7500      0.0344   -400.0003      0.1352     99.8819
  2044.0000      0.0118   -400.0003      0.1530     91.9101
  2044.2500      0.0285   -400.0003      0.1999     82.9111
  2044.5000      0.0677   -400.0003      0.2937     67.3114
  2044.7500      0.1075   -400.0003      0.4587     58.0267
  2045.0000      0.1356   -400.0003      0.7226     48.3791
  2045.2500      0.1524   -400.0003      1.1019     44.8971
  2045.5000      0.1631   -399.9980      1.5688     42.9778
  2045.7500      0.1693   -399.9907      2.0456     43.4048
  2046.0000      0.1684   -399.9690      2.3555     46.6239
  2046.2500      0.1609   -399.9089      2.1552     50.4504
  2046.5000      0.1640   -399.7598      1.4720     57.3746
  2046.7500      0.2303   -399.4344      0.8390     61.4853
  2047.0000      0.4716   -398.8046      0.4545     65.3273
  2047.2500      1.0748   -397.7298      0.2457     66.2174
  2047.5000      2.2619   -396.1208      0.1407     65.6810
  2047.7500      4.1381   -394.0248      0.0962     64.6517
  2048.0000      6.4822   -391.6832      0.0866     63.4191
  2048.2500      8.6944   -389.5003      0.1045     63.6157
  2048.5000     10.0763   -387.9194      0.1568     66.1268
  2048.7500     10.2750   -387.2358      0.2512     69.1297
  2049.0000      9.4800   -387.4641      0.3634     75.2771
  2049.2500      8.1891   -388.2914      0.4135     80.7920
  2049.5000      6.8125   -389.1322      0.3517     92.5008
  2049.7500      5.5017   -389.2168      0.2397    102.9157
  2050.0000      4.2709   -387.7085      0.1454    120.6533
  2050.2500      3.1764   -383.8636      0.0870    131.7405
  2050.5000      2.3536   -377.2422      0.0562    144.1650
  2050.7500      1.9428   -367.9071      0.0420    149.2085
  2051.0000      2.0212   -356.4954      0.0376    153.0321
  2051.2500      2.5741   -344.0802      0.0410    153.8993
  2051.5000      3.4843   -331.8586      0.0546    153.5943
  2051.7500      4.5523   -320.8133      0.0862    152.8725
  2052.0000      5.5639   -311.5046      0.1520    152.4336
  2052.2500      6.3677   -304.0662      0.2754    153.3671
  2052.5000      6.9083   -298.3380      0.4873    156.8969
  2052.7500      7.2061   -294.0327      0.8406    159.9954
  2053.0000      7.3155   -290.8519      1.4124    163.7274
  2053.2500      7.2932   -288.5407      2.2139    164.5384
  2053.5000      7.1842   -286.8945      3.0252    162.8059
  2053.7500      7.0219   -285.7551      3.5217    160.4574
  2054.0000      6.8324   -285.0059      3.6771    157.2577
  2054.2500      6.6404   -284.5661      3.6881    156.1565
  2054.5000      6.4699   -284.3790      3.6971    156.0144
  2054.7500      6.3394   -284.3905      3.7588    156.3245
  2055.0000      6.2586   -284.5365      3.9067    156.0742
  2055.2500      6.2324   -284.7278      4.1995    154.7007
  2055.5000      6.2687   -284.8691      4.7485    150.1098
  2055.7500      6.3849   -284.8815      5.7656    145.6626
  2056.0000      6.6053   -284.7356      7.7222    139.1267
  2056.2500      6.9493   -284.4586     11.9959    136.6791
  2056.5000      7.4130   -284.1176     25.1663    137.8207
  2056.7500      7.9567   -283.7820    420.7731    141.3199
  2057.0000      8.5083   -283.4921 100000.0000    147.3866
  2057.2500      8.9830   -283.2434 100000.0000    149.7201
  2057.5000      9.3108   -282.9942 100000.0000    148.4639
  2057.7500      9.4584   -282.6859 100000.0000    144.7313
  2058.0000      9.4398   -282.2698 100000.0000    137.2217
  2058.2500      9.3074   -281.7264 100000.0000    132.5988
  2058.5000      9.1221   -281.0713    250.4560    128.2600
  2058.7500      8.9186   -280.3429     28.9262    127.6471
  2059.0000      8.6912   -279.5824     15.6086    129.9908
  2059.2500      8.4091   -278.8199     11.2551    132.9319
  2059.5000      8.0454   -278.0795      9.3336    137.2994
  2059.7500      7.6002   -277.3943      8.4041    139.2102
  2060.0000      7.1084   -276.8136      7.9544    140.3284
  2060.2500      6.6312   -276.3878      7.7443    140.4843
  2060.5000      6.2301   -276.1428      7.6419    141.1263
  2060.7500      5.9351   -276.0635      7.5769    142.3565
  2061.0000      5.7376   -276.1014      7.5218    145.4754
  2061.2500      5.6159   -276.1976      7.4764    147.8467
  2061.5000      5.5703   -276.3049      7.4501    150.3200
  2061.7500      5.6354   -276.3970      7.4501    150.6047
  2062.0000      5.8528   -276.4655      7.4757    148.9177
  2062.2500      6.2287   -276.5125      7.5195    146.6851
  2062.5000      6.7093   -276.5450      7.5712    142.0553
  2062.7500      7.1955   -276.5710      7.6215    138.3246
  2063.0000      7.5877   -276.5988      7.6666    132.5925
  2063.2500      7.8342   -276.6345      7.7085    129.2994
  2063.5000      7.9501   -276.6822      7.7553    125.6267
  2063.7500      7.9929   -276.7431      7.8177    123.8913
  2064.0000      8.0224   -276.8170      7.9058    122.1437
  2064.2500      8.0743   -276.9024      8.0255    121.5937
  2064.5000      8.1573   -276.9985      8.1771    121.4200
  2064.7500      8.2641   -277.1049      8.3550    121.1848
  2065.0000      8.3843   -277.2212      8.5497    119.7428
  2065.2500      8.5136   -277.3448      8.7497    118.0785
  2065.5000      8.6563   -277.4692      8.9450    115.6753
  2065.7500      8.8201   -277.5854      9.1295    115.0280
  2066.0000      9.0083   -277.6851      9.3031    116.2525
  2066.2500      9.2141   -277.7653      9.4726    118.2060
  2066.5000      9.4231   -277.8314      9.6489    121.5452
  2066.7500      9.6213   -277.8966      9.8414    123.5063
  2067.0000      9.8000   -277.9784     10.0520    125.8967
  2067.2500      9.9586   -278.0933     10.2717    127.1061
  2067.5000     10.1037   -278.2525     10.4853    127.9628
  2067.7500     10.2470   -278.4607     10.6807    127.7361
  2068.0000     10.4001   -278.7161     10.8562    126.5417
  2068.2500     10.5722   -279.0139     11.0209    125.4807
  2068.5000     10.7719   -279.3488     11.1897    123.4878
  2068.7500     11.0072   -279.7180     11.3765    121.6987
  2069.0000     11.2809   -280.1217     11.5902    118.5612
  2069.2500     11.5876   -280.5611     11.8332    116.7686
