~Version Information
VERS.                      2.0: CWLS Log ASCII Standard - VERSION 2.0
WRAP.                       NO: One line per depth step
~Well Information Block
STRT.FT                -2.5000: 
STOP.FT              2329.5000: 
STEP.FT                 0.2500: 
NULL.                -999.2500: 
COMP.          Pioneer Natural Resources: COMPANY
WELL.              Whinny 42-2: WELL
FLD.           Purgatorie River: FIELD
LOC.           1836' FNL & 466' FEL--: LOCATION
PROV.                       CO: PROVINCE
CNTY.               Las Animas: COUNTRY
SRVC.          Patterson Wireline: SERVICE COMPANY
DATE.          Mon Aug 29 13:18:04 2005: LOG DATE
UWI.           05 071 08406 00: UNIQUE WELL ID
~Curve Information Block
DEPT.FT            0 000 00 00: Depth
CCL.                          : Casing Collar Locator
TT3.usec                      : CBL 3' Travel Time
AMP3.mV                       : CBL 3' Amplitude
GR.GAPI                       : Gamma Ray
~Parameter Information Block
~A  Depth       CCL         TT3         AMP3         GR     
# ...
   299.0000      0.0000    337.2877      9.0486     87.1055
   299.2500      0.0000    337.3660      9.0202     87.8046
   299.5000      0.0000    337.4720      8.9927     89.4876
   299.7500      0.0000    337.5883      8.9728     91.3775
   300.0000      0.0000    337.7043      8.9646     92.9025
   300.2500      0.0000    337.8168      8.9686     93.5417
   300.5000      0.0000    337.9298      8.9818     92.7165
   300.7500      0.0000    338.0542      9.0007     90.3055
   301.0000      0.0000    338.2291      9.0241     87.0542
   301.2500      0.0000    338.5787      9.0533     84.1266
   301.5000      0.0000    339.3740      9.0898     82.2746
   301.7500      0.0000    340.9669      9.1347     81.5459
   302.0000      0.0000    343.4649      9.1886     81.6276
   302.2500      0.0000    346.4007      9.2512     82.1685
   302.5000      0.0000    348.9433      9.3207     82.8053
   302.7500      0.0000    350.5689      9.3934     83.0986
   303.0000      0.0000    351.3432      9.4638     82.5632
   303.2500      0.0000    351.5488      9.5251     80.9225
   303.5000      0.0000    351.3218      9.5711     78.4454
   303.7500      0.0000    350.5641      9.6013     75.8194
   304.0000      0.0000    348.9928      9.6214     73.6344
   304.2500      0.0000    346.5062      9.6396     72.2150
   304.5000      0.0000    343.5973      9.6587     71.8159
   304.7500      0.0000    341.1050      9.6743     72.4945
   305.0000      0.0000    339.5399      9.6804     73.8516
   305.2500      0.0000    338.8704      9.6761     75.3539
   305.5000      0.0000    338.9192      9.6659     76.8944
   305.7500      0.0000    339.8079      9.6528     78.6372
   306.0000      0.0000    341.9979      9.6345     80.2229
   306.2500      0.0000    345.7409      9.6078     80.4415
   306.5000      0.0000    350.2171      9.5764     78.0974
   306.7500      0.0000    353.4046      9.5520     73.3703
   307.0000      0.0000    353.4284      9.5433     68.1759
   307.2500      0.0000    350.2482      9.5467     64.8692
   307.5000      0.0000    345.6997      9.5474     64.3947
   307.7500      0.0000    341.8902      9.5330     65.7360
   308.0000      0.0000    339.9298      9.5017     67.2412
   308.2500      0.0000    340.1130      9.4587     68.2898
   308.5000      0.0000    342.6828      9.4071     69.5391
   308.7500      0.0000    347.9558      9.3454     71.8245
   309.0000      0.0000    355.8286      9.2706     75.1190
   309.2500      0.0000    365.7693      9.1822     78.4594
   309.5000      0.0000    378.0805      9.0845     80.7369
   309.7500      0.0000    395.3886      8.9837     81.5565
   310.0000      0.0000    422.0338      8.8819     81.2710
   310.2500      0.0000    461.0469      8.7749     80.1000
   310.5000      0.0000    511.7268      8.6556     77.5371
   310.7500      0.0000    570.1263      8.5191     73.0270
   311.0000      0.0000    630.5237      8.3699     67.0997
   311.2500      0.0000    685.8777      8.2249     61.3999
   311.5000      0.0000    729.2519      8.1042     57.5721
   311.7500      0.0000    757.2171      8.0156     56.3654
   312.0000      0.0000    771.6295      7.9525     57.6489
   312.2500      0.0000    777.4447      7.9053     60.7037
   312.5000      0.0000    779.2452      7.8694     64.3561
   312.7500      0.0000    779.6624      7.8416     67.2762
   313.0000      0.0000    779.7496      7.8180     68.5082
   313.2500      0.0000    779.8040      7.7973     67.8147
   313.5000      0.0000    779.8649      7.7814     65.6392
   313.7500      0.0000    779.9117      7.7717     62.7967
   314.0000      0.0000    779.9308      7.7673     60.1494
   314.2500      0.0000    779.9479      7.7659     58.4438
   314.5000      0.0000    780.0004      7.7661     58.2252
   314.7500      0.0000    780.0988      7.7683     59.6083
   315.0000      0.0000    780.2275      7.7737     62.0954
   315.2500      0.0000    780.3761      7.7845     64.7956
   315.5000      0.0000    780.5526      7.8022     66.9409
   315.7500      0.0000    780.7614      7.8274     68.2547
   316.0000      0.0000    780.9731      7.8591     68.8066
   316.2500      0.0000    781.1246      7.8942     68.4975
   316.5000      0.0000    781.1638      7.9250     66.8387
   316.7500      0.0000    781.1099      7.9421     63.4672
   317.0000      0.0000    781.0557      7.9410     58.8043
   317.2500      0.0000    781.0904      7.9267     53.9061
   317.5000      0.0000    781.2186      7.9122     49.6375
   317.7500      0.0000    781.3276      7.9118     46.2629
   318.0000      0.0000    781.1863      7.9363     43.8214
   318.2500      0.0000    780.4442      7.9896     42.5010
   318.5000      0.0000    778.7603      8.0654     42.4643
   318.7500      0.0000    776.2075      8.1466     43.5255
   319.0000      0.0000    773.6627      8.2105     45.1566
   319.2500      0.0000    772.4654      8.2416     46.6278
   319.5000      0.0000    773.3112      8.2399     47.0974
   319.7500      0.0000    775.5934      8.2194     46.0363
   320.0000      0.0000    778.0452      8.1957     43.9726
   320.2500      0.0000    779.8215      8.1771     42.6952
   320.5000      0.0000    780.8137      8.1639     44.4509
   320.7500      0.0000    781.2664      8.1565     50.7573
   321.0000      0.0000    781.3967      8.1605     61.5714
   321.2500      0.0000    781.2448      8.1817     75.1402
   321.5000      0.0000    780.3637      8.2170     88.6873
   321.7500      0.0000    776.9929      8.2526     99.7310
   322.0000      0.0000    766.7644      8.2723    107.1904
   322.2500      0.0000    742.2950      8.2686    111.3438
   322.5000      0.0000    696.3143      8.2473    112.9791
   322.7500      0.0000    628.5576      8.2228    113.0494
   323.0000      0.0000    550.3469      8.2090    112.7231
   323.2500      0.0000    479.7510      8.2073    112.5065
   323.5000      0.0000    430.2326      8.1981    111.2829
   323.7500      0.0000    404.1408      8.1412    107.5388
   324.0000      0.0000    395.9981      7.9955    101.8139
   324.2500      0.0000    399.5839      7.7544     96.7618
   324.5000      0.0000    411.1976      7.4690     94.3083
   324.7500      0.0000    427.2795      7.2253     93.5501
   325.0000      0.0000    440.5110      7.0928     92.0152
   325.2500      0.0000    441.2325      7.0914     88.4564
   325.5000      0.0000    425.2707      7.1939     83.7659
   325.7500      0.0000    398.9311      7.3473     79.4760
   326.0000      0.0000    373.7004      7.4949     76.3581
   326.2500      0.0000    357.0588      7.5955     74.7043
   326.5000     -2.0000    349.6100      7.6275     74.9536
   326.7500      0.0000    348.5903      7.5839     77.1363
   327.0000      0.0000    351.2733      7.4862     80.1683
   327.2500      0.0000    355.3485      7.4100     82.4816
   327.5000      0.0000    358.3081      7.4643     83.1574
   327.7500      0.0000    358.1326      7.7020     82.1137
   328.0000      0.0000    354.6642      8.0582     79.8721
   328.2500      0.0000    349.6823      8.4049     77.5946
   328.5000      0.0000    345.3030      8.6561     76.5056
   328.7500      0.0000    342.5408      8.7999     76.5536
   329.0000      0.0000    341.2375      8.8617     76.2206
   329.2500      0.0000    340.7872      8.8715     74.2421
   329.5000      0.0000    340.6888      8.8558     71.0903
   329.7500      0.0000    340.6782      8.8335     68.3423
   330.0000      0.0000    340.6647      8.8143     67.0214
   330.2500      0.0000    340.6395      8.8046     66.9594
   330.5000      0.0000    340.6101      8.8149     67.6677
   330.7500      0.0000    340.5698      8.8545     69.5741
   331.0000      0.0000    340.5027      8.9236     73.8565
   331.2500      0.0000    340.4075      9.0110     80.5479
   331.5000      0.0000    340.3037      9.0997     87.3330
   331.7500      0.0000    340.2114      9.1749     91.1654
   332.0000      0.0000    340.1284      9.2294     90.9668
   332.2500      0.0000    340.0328      9.2666     88.2014
