~Version Information
 VERS.                                  2.0 : CWLS LAS VERSION
 WRAP.                                   NO : WRAPING MODE
 SWARE .                 MController 2.5.0J : SOFTWARE VERSION
~Well Information
 WELL.                      Oink Oink 14-36 : WELL
 COMP.    Pioneer Natural Resources USA Ink : COMPANY
 FLD.                      Purgatoire River : FIELD
 LOC.                SW/SW Sec 36 T32S R37W : LOCATION
 DATE.                         6/07-08/2005 : DATE(S) LOGGED
 SRVC.       Blanco Geological Services LLC : SERVICE COMPANY
 STAT.                                   CO : STATE
 CNTY.                           Las Animas : COUNTY
 CTRY.                                  USA : COUNTRY
 API.                       05-071-08394-00 : API NUMBER
 STRT.FT                             514.00 : START DEPTH
 STOP.FT                            2457.00 : STOP DEPTH
 STEP.FT                               1.00 : DEPTH INCREMENT
 NULL.                                -9999 : NULL VALUE
~Curve information
 DEPTH.FT                                   :
 ROP.MIN/FT                                 :
 GAS.UNITS                                  :
~ASCII Log data
# ...
      1914.0         0.37        894.6 
      1915.0         0.23        884.1 
      1916.0         2.78        897.9 
      1917.0         0.57       1224.3 
      1918.0         0.43       1560.7 
      1919.0         0.42       1724.9 
      1920.0         0.27       1744.5 
      1921.0         0.27       1724.9 
      1922.0         0.17       1626.7 
      1923.0         0.17       1564.9 
      1924.0         0.20       1479.5 
      1925.0         0.20       1396.1 
      1926.0         0.23       1312.3 
      1927.0         0.27       1228.3 
      1928.0         0.30       1151.7 
      1929.0         0.27       1081.4 
      1930.0         0.27       1038.5 
      1931.0         0.27       1036.2 
      1932.0         0.25       1039.2 
      1933.0         0.23       1036.9 
      1934.0         0.17       1020.9 
      1935.0         0.23       1013.7 
      1936.0         0.30        984.2 
      1937.0         0.27        942.0 
      1938.0         0.27        921.7 
      1939.0         0.27        926.0 
      1940.0         0.27        941.0 
      1941.0         0.30        948.6 
      1942.0         0.30        938.7 
      1943.0         0.37        931.9 
      1944.0         0.28        927.3 
      1945.0         0.30        922.1 
      1946.0         2.98       1047.0 
      1947.0         0.47       1452.0 
      1948.0         0.37       1668.9 
      1949.0         0.37       1741.2 
      1950.0         0.30       1740.9 
      1951.0         0.30       1676.8 
      1952.0         0.27       1552.1 
      1953.0         0.23       1434.4 
      1954.0         0.20       1345.1 
      1955.0         0.30       1273.1 
      1956.0         0.38       1166.8 
      1957.0         0.37       1071.6 
      1958.0         0.33       1007.8 
      1959.0         0.33       1033.6 
      1960.0         0.33       1041.8 
      1961.0         0.30       1033.3 
      1962.0         0.33       1016.0 
      1963.0         0.33        972.4 
      1964.0         0.30        952.2 
      1965.0         0.30        940.1 
      1966.0         0.32        938.4 
      1967.0         0.30        940.4 
      1968.0         0.33        936.1 
      1969.0         0.27        930.6 
      1970.0         0.37        928.0 
      1971.0         0.27        909.0 
      1972.0         0.33        898.2 
      1973.0         0.33        866.1 
      1974.0         0.30        843.2 
      1975.0         0.33        831.1 
      1976.0         3.48       1332.3 
      1977.0         0.35       1567.9 
      1978.0         0.30       1712.5 
      1979.0         0.20       1733.1 
      1980.0         0.17       1741.6 
      1981.0         0.17       1726.8 
      1982.0         0.17       1675.8 
      1983.0         0.20       1626.7 
      1984.0         0.23       1552.8 
      1985.0         0.20       1459.9 
      1986.0         0.23       1379.7 
      1987.0         0.23       1289.1 
      1988.0         0.33       1190.7 
      1989.0         0.33       1075.5 
      1990.0         0.35        988.5 
      1991.0         0.30        954.8 
      1992.0         0.27        996.7 
      1993.0         0.30       1051.0 
      1994.0         0.30       1060.1 
      1995.0         0.27       1052.9 
      1996.0         0.23       1027.1 
      1997.0         0.23       1003.8 
      1998.0         0.20        998.3 
      1999.0         0.13        988.8 
      2000.0         0.13        987.5 
      2001.0         0.17        980.3 
      2002.0         0.20        962.3 
      2003.0         0.20        938.1 
      2004.0         0.25        914.9 
      2005.0         0.27        880.8 
      2006.0         1.70        924.7 
      2007.0         0.40        648.2 
      2008.0         0.50       1000.9 
      2009.0         0.20       1247.2 
      2010.0         0.35       1647.3 
      2011.0         0.27       1885.2 
      2012.0         0.20       1993.1 
      2013.0         0.20       2022.6 
      2014.0         0.17       2009.5 
      2015.0         0.13       1965.7 
      2016.0         0.17       1908.1 
      2017.0         0.23       1809.9 
      2018.0         0.23       1645.7 
      2019.0         0.23       1512.2 
      2020.0         0.30       1377.5 
      2021.0         0.40       1177.9 
      2022.0         0.30       1081.7 
      2023.0         0.42       1056.2 
      2024.0         0.33       1086.3 
      2025.0         0.37       1114.4 
      2026.0         0.33       1132.1 
      2027.0         0.37       1131.8 
      2028.0         0.33       1098.7 
      2029.0         0.33       1046.7 
      2030.0         0.33       1007.1 
      2031.0         0.30        979.3 
      2032.0         0.33        961.3 
      2033.0         0.38        948.2 
      2034.0         0.30        938.7 
      2035.0         0.23        926.6 
      2036.0         3.85       1690.9 
      2037.0         0.23       1872.4 
      2038.0         0.10       1915.3 
      2039.0         0.20       1979.1 
      2040.0         0.17       2001.7 
      2041.0         0.27       1996.4 
      2042.0         0.30       1934.3 
      2043.0         0.33       1800.1 
      2044.0         0.38       1616.9 
      2045.0         0.33       1475.3 
      2046.0         0.60       1354.2 
      2047.0         0.27       1101.7 
      2048.0         0.33        974.4 
      2049.0         0.27        919.1 
      2050.0         0.17        942.7 
      2051.0         0.27        996.0 
      2052.0         0.27       1040.2 
      2053.0         0.27       1072.5 
      2054.0         0.27       1094.5 
      2055.0         0.28       1107.9 
      2056.0         0.20       1107.2 
      2057.0         0.17       1097.7 
      2058.0         0.10       1055.5 
      2059.0         0.23       1030.7 
      2060.0         0.20        973.4 
      2061.0         0.23        960.3 
      2062.0         0.27        969.8 
      2063.0         0.27        977.7 
      2064.0         0.33        977.7 
      2065.0         0.37        969.5 
      2066.0         2.15        964.6 
      2067.0         0.50       1220.7 
      2068.0         0.40       1642.1 
      2069.0         0.33       1888.5 
      2070.0         0.23       1979.7 
      2071.0         0.27       1999.7 
      2072.0         0.35       1983.3 
      2073.0         0.27       1845.9 
      2074.0         0.23       1676.1 
      2075.0         0.23       1557.7 
      2076.0         0.23       1439.9 
      2077.0         0.27       1342.1 
      2078.0         0.30       1231.2 
      2079.0         0.27       1139.0 
      2080.0         0.30       1078.8 
      2081.0         0.37       1050.3 
      2082.0         0.23       1039.8 
      2083.0         0.28       1042.8 
      2084.0         0.30       1046.7 
      2085.0         0.27       1039.2 
      2086.0         0.17       1024.8 
      2087.0         0.17       1020.9 
      2088.0         0.20       1023.8 
      2089.0         0.20       1027.4 
      2090.0         0.17       1024.1 
      2091.0         0.33       1020.5 
      2092.0         0.47        995.7 
      2093.0         0.33        978.0 
      2094.0         0.23        982.9 
      2095.0         0.17        993.7 
      2096.0         1.98       1000.6 
      2097.0         0.60       1128.2 
      2098.0         0.57       1772.6 
      2099.0         0.38       2061.8 
      2100.0         0.23       2127.3 
      2101.0         0.30       2132.2 
      2102.0         0.27       2032.4 
      2103.0         0.30       1845.9 
      2104.0         0.23       1662.7 
      2105.0         0.23       1541.7 
      2106.0         0.27       1449.1 
      2107.0         0.30       1345.1 
      2108.0         0.30       1245.3 
      2109.0         0.33       1164.8 
      2110.0         0.35       1105.3 
      2111.0         0.33       1088.6 
      2112.0         0.53       1085.6 
      2113.0         0.20       1051.0 
