~Version Information
VERS.                      2.0: CWLS Log ASCII Standard - VERSION 2.0
WRAP.                       NO: One line per depth step
~Well Information Block
STRT.FT               259.0000: 
STOP.FT              2379.0000: 
STEP.FT                 0.2500: 
NULL.                -999.2500: 
COMP.          Pioneer Natural Resources: COMPANY
WELL.          Foothills 12-36: WELL
FLD.           Purgatoire River: FIELD
LOC.           2450' FNL & 201' FWL: LOCATION
PROV.                 Colorado: PROVINCE
CNTY.               Las Animas: COUNTRY
SRVC.                Patterson: SERVICE COMPANY
DATE.          Thu Apr 21 09:19:57 2005: LOG DATE
UWI.           05 071 08339 00: UNIQUE WELL ID
~Curve Information Block
DEPT.FT            0 000 00 00: Depth
DCAL.in                       : CDL Caliper
RHOB.g/cc                     : CDL Bulk Density
RHOC.g/cc                     : CDL Density Correction
DPOR.pu                       : CDL Density Porosity
GR.GAPI                       : Gamma Ray
NPOR.pu                       : Neutron Porosity
~Parameter Information Block
~A  Depth       DCAL        RHOB        RHOC        DPOR         GR         NPOR    
   259.0000      2.0579      2.2093      0.1058     26.7096     86.6548     17.9499
   259.2500      2.0582      2.2317      0.1258     25.3488     81.3314     18.0457
   259.5000      2.0588      2.2313      0.1403     25.3739     94.1025     16.5707
   259.7500      2.0593      2.1994      0.1611     27.3105     94.9125     18.4356
   260.0000      2.0589      2.1876      0.1626     28.0268    100.7872     20.8821
   260.2500      2.0588      2.1768      0.1800     28.6788     88.4426     20.1016
   260.5000      2.0591      2.1963      0.1366     27.4994     91.8789     20.4350
   260.7500      2.0594      2.2437      0.1987     24.6270     89.1410     21.4027
   261.0000      2.0598      2.2132      0.1715     26.4699     84.7375     19.6243
   261.2500      2.0605      2.1020      0.1340     33.2101     70.2363     20.5878
   261.5000      2.0638      1.6596      0.0513     60.0223     71.4071     21.6422
   261.7500      2.0740      1.2391     -0.0848     85.5095     69.2870     19.3751
   262.0000      2.0902      1.0350      0.1429     97.8803     75.3217     18.2117
   262.2500      2.1034      1.1262      0.3834     92.3545     66.3270     17.6513
   262.5000      2.1052      0.8723      0.1102    107.7384     66.3837     15.7693
   262.7500      2.1030      0.5286     -0.2799    128.5674     64.0120     16.7210
   263.0000      2.1063      0.2614     -0.5091    144.7623     56.7287     18.2704
   263.2500      2.1088      0.2172     -0.5712    147.4445     68.7776     18.4821
   263.5000      2.1081      0.2113     -0.5874    147.8010     68.7177     17.8685
   263.7500      2.1082      0.2253     -0.5811    146.9497     72.4758     17.0608
   264.0000      2.1094      0.2730     -0.5303    144.0625     80.1331     18.2255
   264.2500      2.1107      0.3617     -0.4372    138.6858     74.1491     17.5645
   264.5000      2.1119      0.4846     -0.3350    131.2341     63.5318     17.8918
   264.7500      2.1129      0.5531     -0.3117    127.0852     59.8580     17.2831
   265.0000      2.1138      0.6709     -0.1990    119.9452     62.5847     15.3461
   265.2500      2.1161      0.7767     -0.1277    113.5318     63.1814     15.1241
   265.5000      2.1190      1.0518      0.0605     96.8605     65.0125     14.6083
   265.7500      2.1190      1.2116      0.1452     87.1772     64.6677     14.3187
   266.0000      2.1175      1.4416      0.3214     73.2381     59.3891     16.9447
   266.2500      2.1174      1.5979      0.3955     63.7656     62.1237     18.1468
   266.5000      2.1157      1.7889      0.5029     52.1889     57.2619     17.8131
   266.7500      2.1111      1.8785      0.5787     46.7599     62.3689     18.4370
   267.0000      2.1061      1.9880      0.6204     40.1224     69.3681     17.4483
   267.2500      2.1017      2.0576      0.6613     35.9034     66.8921     17.4384
   267.5000      2.0978      2.1192      0.6684     32.1723     65.9814     14.7178
   267.7500      2.0947      2.1700      0.6542     29.0898     62.4404     16.4649
   268.0000      2.0920      2.3489      0.6948     18.2507     56.0753     17.4712
   268.2500      2.0876      2.3877      0.7686     15.8964     50.1127     16.3364
   268.5000      2.0845      2.1919      0.6361     27.7608     51.9906     16.9883
   268.7500      2.0850      2.2123      0.6042     26.5268     56.6927     16.9816
   269.0000      2.0852      2.5113      0.7794      8.4065     53.7598     16.6035
   269.2500      2.0821      2.4647      0.7468     11.2283     47.8658     15.8982
   269.5000      2.0803      2.1909      0.5276     27.8259     46.6249     17.0160
   269.7500      2.0817      2.2944      0.5275     21.5499     38.6293     16.6128
   270.0000      2.0811      2.6014      0.7963      2.9483     44.4799     16.6599
   270.2500      2.0784      2.4929      0.7409      9.5183     43.8544     16.2960
   270.5000      2.0774      2.4209      0.4863     13.8866     44.2617     17.4173
   270.7500      2.0743      2.6134      0.6141      2.2196     51.3572     17.4967
   271.0000      2.0688      2.7505      0.6989     -6.0920     61.5525     20.0376
   271.2500      2.0645      2.8782      0.5342    -13.8297     71.7137     20.5676
   271.5000      2.0602      3.1715      0.6174    -31.6074     96.7129     20.3877
   271.7500      2.0552      3.0936      0.4378    -26.8826     92.3396     22.3068
   272.0000      2.0519      2.6725     -0.1102     -1.3651     90.3277     21.2504
   272.2500      2.0507      2.4918     -0.2795      9.5908     84.7337     22.2968
   272.5000      2.0500      2.2984     -0.3537     21.3105     75.7342     23.5585
   272.7500      2.0494      2.2121     -0.4290     26.5378     78.0637     25.1829
   273.0000      2.0490      2.0822     -0.4707     34.4151     76.8876     22.6434
   273.2500      2.0497      1.9745     -0.3681     40.9422     74.4384     23.6930
   273.5000      2.0523      1.8747     -0.5150     46.9890     81.0622     24.0414
   273.7500      2.0555      1.9633     -0.2434     41.6190     77.5624     22.3056
   274.0000      2.0580      1.8749     -0.1088     46.9743     86.4678     23.5403
   274.2500      2.0634      1.1908     -0.2978     88.4339     98.1551     23.2210
   274.5000      2.0780      0.4939     -0.4772    130.6731     89.3480     21.7783
   274.7500      2.0961      0.7581      0.0191    114.6588     82.1368     23.2345
   275.0000      2.1054      0.7572     -0.0298    114.7134     84.5098     22.4353
   275.2500      2.1083      0.4667     -0.4287    132.3224     87.5980     22.5597
   275.5000      2.1120      0.7094     -0.4225    117.6107     88.5536     24.8683
   275.7500      2.1139      1.1429     -0.1859     91.3399     86.8840     26.7915
   276.0000      2.1076      1.9992      0.4449     39.4454     77.7574     25.8211
   276.2500      2.0944      2.6807      0.7692     -1.8634     79.0017     25.0025
   276.5000      2.0779      3.5174      1.0665    -52.5668     71.9971     24.6824
   276.7500      2.0619      3.6091      1.0189    -58.1259     71.6586     24.5285
   277.0000      2.0524      2.5182      0.1052      7.9854     84.4902     24.8431
   277.2500      2.0527      1.1611     -0.5379     90.2350     90.4828     23.5051
   277.5000      2.0666      0.0801     -0.8385    155.7514     84.7576     22.6771
   277.7500      2.0893      0.4975     -0.3111    130.4546     88.4646     20.7624
   278.0000      2.1049      0.6731     -0.0888    119.8108    108.4751     14.5724
   278.2500      2.1136      0.3586     -0.6129    138.8724    125.0542      9.9789
   278.5000      2.1199      0.9326     -0.3716    104.0861    137.4333     27.8759
   278.7500      2.1413      1.6174      0.0607     62.5841    137.4670     23.7552
   279.0000      2.4462      1.7358      0.1806     55.4063    144.3737     21.7022
   279.2500      3.8659      2.0023      0.6902     39.2534    141.3193     21.3365
   279.5000      6.2227      2.4894      0.7311      9.7319    118.7900     21.9330
   279.7500      7.6545      2.5878      0.6167      3.7671    116.7570     21.4990
   280.0000      7.9734      2.7236      0.7908     -4.4627    126.7295     22.6100
   280.2500      7.9993      2.7949      0.8906     -8.7798    124.0067     22.8227
   280.5000      8.0004      2.8304      0.8833    -10.9360    131.4171     21.2459
   280.7500      8.0011      2.8388      0.9129    -11.4431    126.1434     22.4207
   281.0000      8.0027      2.9610      0.9436    -18.8467    138.9148     21.2164
   281.2500      8.0032      2.9463      0.9537    -17.9552    136.4200     19.7161
   281.5000      8.0008      2.7998      0.9170     -9.0780    146.7861     20.2771
   281.7500      7.9989      2.6452      0.8622      0.2920    146.4288     20.9548
   282.0000      7.9992      2.4559      0.7846     11.7630    145.8358     21.3994
   282.2500      8.0009      2.5620      0.7752      5.3306    149.3950     20.9119
   282.5000      8.0017      2.8763      0.8786    -13.7165    145.3431     22.0076
   282.7500      8.0004      2.8928      0.8369    -14.7155    135.9174     24.0449
