~Version Information
VERS.                      2.0: CWLS Log ASCII Standard - VERSION 2.0
WRAP.                       NO: One line per depth step
~Well Information Block
STRT.FT               -11.0000: 
STOP.FT              1523.2500: 
STEP.FT                 0.2500: 
NULL.                -999.2500: 
COMP.          Petrogulf Corporation: COMPANY
WELL.             State 16-43R: WELL
FLD.           Purgatorie River: FIELD
LOC.           2538' FSL & 716' FEL--: LOCATION
PROV.                       CO: PROVINCE
CNTY.               Las Animas: COUNTRY
SRVC.          Patterson Wireline: SERVICE COMPANY
DATE.          Fri Sep 09 13:13:52 2005: LOG DATE
UWI.           05 071 08338 00: UNIQUE WELL ID
~Curve Information Block
DEPT.FT            0 000 00 00: Depth
CCL.                          : Casing Collar Locator
TT3.usec                      : CBL 3' Travel Time
AMP3.mV                       : CBL 3' Amplitude
GR.GAPI                       : Gamma Ray
~Parameter Information Block
~A  Depth       CCL         TT3         AMP3         GR     
# ...
   491.5000      0.0000    369.0745     11.0163     71.8549
   491.7500      0.0000    374.7532     10.9575     72.3739
   492.0000      0.0000    381.6353     10.7598     72.3382
   492.2500      0.0000    390.6999     10.4502     71.6973
   492.5000      0.0000    405.1980     10.1125     70.8228
   492.7500      0.0000    430.5799      9.8384     69.9640
   493.0000      0.0000    470.8128      9.7039     69.4733
   493.2500      0.0000    523.4259      9.7582     70.0344
   493.5000      0.0000    579.5853      9.9799     72.2359
   493.7500      0.0000    629.0455     10.2622     75.9921
   494.0000      0.0000    662.3142     10.4908     80.5491
   494.2500     -2.0000    670.9241     10.6336     85.0537
   494.5000      0.0000    653.1927     10.7450     89.1758
   494.7500      0.0000    618.8607     10.9021     93.2174
   495.0000      0.0000    580.5196     11.1308     97.4976
   495.2500      0.0000    541.6329     11.3733    101.5873
   495.5000      0.0000    499.3430     11.5447    104.3456
   495.7500      0.0000    455.7208     11.6411    104.8027
   496.0000      0.0000    418.8750     11.7450    102.9948
   496.2500      0.0000    394.5536     11.9014    100.1065
   496.5000      0.0000    381.8334     12.0557     97.8596
   496.7500      0.0000    376.0137     12.1461     97.4906
   497.0000      0.0000    372.7832     12.1938     99.0750
   497.2500      0.0000    369.9790     12.2654    101.6749
   497.5000      0.0000    367.5223     12.3855    104.0308
   497.7500      0.0000    366.3911     12.5185    105.3394
   498.0000      0.0000    367.1825     12.6164    105.6228
   498.2500      0.0000    369.4502     12.6593    105.1882
   498.5000      0.0000    372.5959     12.6558    103.7815
   498.7500      0.0000    377.7476     12.6211    100.8644
   499.0000      0.0000    389.3396     12.5631     96.8044
   499.2500      0.0000    414.7710     12.4808     92.9927
   499.5000      0.0000    460.3148     12.3723     90.3573
   499.7500      0.0000    524.1357     12.2428     88.3556
   500.0000      0.0000    593.0499     12.0999     85.9828
   500.2500      0.0000    648.5551     11.9459     83.3503
   500.5000      0.0000    678.0265     11.7814     81.8350
   500.7500      0.0000    682.0051     11.6200     83.0150
   501.0000      0.0000    673.5007     11.4882     87.6099
   501.2500      0.0000    669.6601     11.4022     94.8085
   501.5000      0.0000    679.8221     11.3500    102.3996
   501.7500      0.0000    699.5956     11.3009    108.0595
   502.0000      0.0000    716.4234     11.2324    110.7274
   502.2500      0.0000    718.6268     11.1484    110.6755
   502.5000      0.0000    698.7775     11.0709    108.6278
   502.7500      0.0000    653.9436     11.0146    105.1644
   503.0000      0.0000    588.5226     10.9687    100.6724
   503.2500      0.0000    516.0401     10.9020     95.5811
   503.5000      0.0000    453.4317     10.7903     90.7264
   503.7500      0.0000    411.0970     10.6419     87.3503
   504.0000      0.0000    388.7208     10.4963     86.3261
   504.2500      0.0000    379.5029     10.3974     87.2225
   504.5000      0.0000    376.5180     10.3642     88.3356
   504.7500      0.0000    375.6446     10.3844     87.8704
   505.0000      0.0000    375.2445     10.4314     85.2173
   505.2500      0.0000    374.9470     10.4841     81.1716
   505.5000      0.0000    374.7867     10.5342     77.2154
   505.7500      0.0000    374.7839     10.5776     74.6278
   506.0000      0.0000    374.8282     10.6045     73.8238
   506.2500      0.0000    374.7261     10.6038     74.1125
   506.5000      0.0000    374.3640     10.5753     74.3037
   506.7500      0.0000    373.8171     10.5319     73.9002
   507.0000      0.0000    373.2939     10.4880     73.5125
   507.2500      0.0000    372.9783     10.4472     73.8875
   507.5000      0.0000    372.9420     10.4015     75.0482
   507.7500      0.0000    373.1871     10.3373     76.8362
   508.0000      0.0000    373.8853     10.2420     79.7218
   508.2500      0.0000    375.7371     10.1123     84.2287
   508.5000      0.0000    380.2396      9.9602     89.6664
   508.7500      0.0000    389.2039      9.8079     94.1019
   509.0000      0.0000    403.0354      9.6723     95.7688
   509.2500      0.0000    419.4160      9.5561     94.2975
   509.5000      0.0000    435.3849      9.4556     90.7879
   509.7500      0.0000    451.8713      9.3745     86.9823
   510.0000      0.0000    474.5809      9.3254     84.2025
   510.2500      0.0000    508.7211      9.3174     82.7618
   510.5000      0.0000    553.4063      9.3419     82.2929
   510.7500      0.0000    601.1398      9.3697     82.3915
   511.0000      0.0000    641.3453      9.3647     82.6312
   511.2500      0.0000    665.1920      9.3059     82.1613
   511.5000      0.0000    670.2863      9.2021     79.9904
   511.7500      0.0000    663.1435      9.0853     75.9189
   512.0000      0.0000    656.9395      8.9926     71.0197
   512.2500      0.0000    664.7474      8.9480     67.1003
   512.5000      0.0000    692.4911      8.9507     65.4605
   512.7500      0.0000    735.9884      8.9749     65.7281
   513.0000      0.0000    783.0988      8.9838     66.0478
   513.2500      0.0000    819.1834      8.9486     64.8861
   513.5000      0.0000    834.0389      8.8617     62.4684
   513.7500      0.0000    827.3627      8.7393     60.0681
   514.0000      0.0000    808.1088      8.6143     58.3124
   514.2500      0.0000    787.4040      8.5204     56.7719
   514.5000      0.0000    771.7587      8.4774     54.9528
   514.7500      0.0000    761.7236      8.4885     53.1210
   515.0000      0.0000    754.4911      8.5446     52.1832
   515.2500      0.0000    746.8965      8.6274     53.0981
   515.5000      0.0000    737.0881      8.7115     56.3815
   515.7500      0.0000    724.4897      8.7728     61.7879
   516.0000      0.0000    709.3848      8.8023     68.1729
   516.2500      0.0000    693.6819      8.8083     73.7561
   516.5000      0.0000    681.5357      8.8024     77.0380
   516.7500      0.0000    677.1059      8.7846     77.9478
   517.0000      0.0000    680.1326      8.7459     77.9927
   517.2500      0.0000    683.3630      8.6804     78.9927
   517.5000      0.0000    676.1429      8.5902     81.6914
   517.7500      0.0000    653.6682      8.4803     85.6040
   518.0000      0.0000    624.1293      8.3578     89.7406
   518.2500      0.0000    605.3135      8.2369     93.0912
   518.5000      0.0000    612.2254      8.1407     94.6839
   518.7500      0.0000    646.1348      8.0920     93.8867
   519.0000      0.0000    694.0557      8.0991     91.0448
   519.2500      0.0000    738.4742      8.1533     87.7125
   519.5000      0.0000    768.1932      8.2369     85.9347
   519.7500      0.0000    781.1734      8.3330     87.0782
   520.0000      0.0000    780.0205      8.4327     91.1065
   520.2500      0.0000    767.3771      8.5391     96.6188
   520.5000      0.0000    745.4871      8.6667    101.4877
   520.7500      0.0000    718.7278      8.8335    104.0648
   521.0000      0.0000    695.4147      9.0481    104.4031
   521.2500      0.0000    684.9628      9.3029    104.2188
   521.5000      0.0000    690.9344      9.5697    105.1967
   521.7500      0.0000    707.4473      9.7987    107.2092
   522.0000      0.0000    724.3665      9.9362    108.2927
   522.2500      0.0000    735.2733      9.9607    106.4700
   522.5000      0.0000    739.2614      9.9031    101.6634
   522.7500      0.0000    737.3260      9.8271     95.8220
   523.0000      0.0000    730.3531      9.7883     91.1295
   523.2500      0.0000    720.5615      9.8107     88.2523
   523.5000      0.0000    712.1099      9.8870     86.4560
   523.7500      0.0000    707.9332      9.9857     85.1889
   524.0000      0.0000    706.4822     10.0584     85.0180
   524.2500      0.0000    704.0855     10.0603     86.7753
   524.5000      0.0000    701.3824      9.9811     90.1650
   524.7500      0.0000    705.2656      9.8629     93.7212
