~Version Information
VERS.                      2.0: CWLS Log ASCII Standard - VERSION 2.0
WRAP.                       NO: One line per depth step
~Well Information Block
STRT.FT                 0.0000: 
STOP.FT              2234.2500: 
STEP.FT                 0.2500: 
NULL.                -999.2500: 
COMP.          Pioner Natural Resources: COMPANY
WELL.          Casablanca 11-28 Tr: WELL
FLD.           Purgatoire River: FIELD
LOC.           422' FNL & 215' FWL--: LOCATION
PROV.                 Colorado: PROVINCE
CNTY.               Las Animas: COUNTRY
SRVC.                         : SERVICE COMPANY
DATE.          Fri Mar 11 13:02:46 2005: LOG DATE
UWI.           005 071 08314  : UNIQUE WELL ID
~Curve Information Block
DEPT.FT            0 000 00 00: Depth
CCL.                          : Casing Collar Locator
TT3.usec                      : CBL 3' Travel Time
AMP3.mV                       : CBL 3' Amplitude
AMP5.mV                       : CBL 5' Amplitude
GR.GAPI                       : Gamma Ray
~Parameter Information Block
~A  Depth       CCL         TT3         AMP3        AMP5         GR     
# ...
  1316.0000      0.0000    700.5317      5.5687     -0.5705     81.8477
  1316.2500      0.0000    707.4538      5.1501     -0.6575     81.9064
  1316.5000      0.0000    720.2257      4.9337     -0.9187     84.1661
  1316.7500      0.0000    734.6206      4.8888     -1.2668     89.2014
  1317.0000      0.0000    746.1639      4.9390     -0.3093     95.6266
  1317.2500      0.0000    753.1017      5.0301     -0.7446    100.9545
  1317.5000      0.0000    756.2440      5.1393     -0.9187    103.6938
  1317.7500      0.0000    756.7438      5.2548     -0.6575    104.6314
  1318.0000      0.0000    754.4299      5.3642     -0.6575    105.9224
  1318.2500      0.0000    747.7535      5.4535     -0.4834    108.9409
  1318.5000      0.0000    735.5453      5.5114     -0.8316    113.2106
  1318.7500      0.0000    719.9152      5.5359     -0.6575    117.5320
  1319.0000      0.0000    707.3355      5.5361     -0.3093    121.5864
  1319.2500      0.0000    704.8658      5.5274     -0.4834    125.5665
  1319.5000      0.0000    714.0281      5.5269      0.3870    128.4296
  1319.7500      0.0000    729.2453      5.5485      0.2129    127.7214
  1320.0000      0.0000    742.6935      5.5980      0.0389    121.7773
  1320.2500      0.0000    749.5146      5.6695      0.0389    111.8569
  1320.5000      0.0000    748.6509      5.7476     -0.7446    101.8316
  1320.7500      0.0000    741.3889      5.8146     -0.0482     95.7557
  1321.0000      0.0000    730.9153      5.8563     -0.3964     95.6351
  1321.2500      0.0000    721.8385      5.8645      0.1259    101.0245
  1321.5000      0.0000    717.5898      5.8388     -0.0482    109.9660
  1321.7500      0.0000    717.8010      5.7883     -0.4834    120.0162
  1322.0000      0.0000    719.4674      5.7308      0.2129    129.0528
  1322.2500      0.0000    720.7112      5.6880     -0.1352    135.9112
  1322.5000      0.0000    722.2841      5.6753     -0.0482    140.3555
  1322.7500      0.0000    725.5761      5.6924     -0.0482    142.2689
  1323.0000      0.0000    730.5265      5.7227      0.6482    140.9601
  1323.2500      0.0000    735.8275      5.7449     -0.0482    135.5767
  1323.5000      0.0000    740.1700      5.7500     -0.1352    126.4536
  1323.7500      0.0000    742.3303      5.7457      0.0389    115.8946
  1324.0000      0.0000    740.4135      5.7451     -0.5705    107.1413
  1324.2500      0.0000    732.3901      5.7517      0.0389    102.3636
  1324.5000      0.0000    718.2245      5.7538     -0.7446    101.8114
  1324.7500      0.0000    701.1809      5.7347     -0.4834    104.6589
  1325.0000      0.0000    686.4193      5.6862     -0.7446    109.9322
  1325.2500      0.0000    678.2296      5.6165     -0.6575    116.4912
  1325.5000      0.0000    678.6313      5.5457     -0.1352    122.8108
  1325.7500      0.0000    687.5603      5.4916      0.6482    127.2610
  1326.0000      0.0000    702.9715      5.4610     -0.3093    128.5544
  1326.2500      0.0000    720.7296      5.4520      0.1259    126.1818
  1326.5000      0.0000    735.7117      5.4638     -0.0482    120.7755
  1326.7500      0.0000    743.7704      5.4973     -0.1352    113.8857
  1327.0000      0.0000    742.5344      5.5448     -0.2223    107.2493
  1327.2500      0.0000    731.0128      5.5827     -0.2223    102.3631
  1327.5000      0.0000    709.9720      5.5817     -0.3093    100.2761
  1327.7500      0.0000    683.1995      5.5290     -0.7446    100.9943
  1328.0000      0.0000    657.4003      5.4416     -0.8316    103.0771
  1328.2500      0.0000    639.7180      5.3512     -0.3093    104.4487
  1328.5000      0.0000    634.6374      5.2779      0.7352    104.0458
  1328.7500      0.0000    642.2182      5.2179     -0.3093    102.4626
  1329.0000      0.0000    658.1469      5.1610      1.6057    100.6425
  1329.2500      0.0000    675.5349      5.1143      0.1259     98.2799
  1329.5000      0.0000    688.2486      5.0952      1.0834     94.2386
  1329.7500      0.0000    694.4850      5.0962      1.0834     88.3341
  1330.0000      0.0000    697.6063      5.0797      0.4741     81.7941
  1330.2500      0.0000    702.6589      5.0293     -1.0927     76.0427
  1330.5000      0.0000    711.8642      4.9893     -1.2668     72.0144
  1330.7500      0.0000    723.5878      5.0242     -1.3539     70.7477
  1331.0000      0.0000    734.2068      5.1507     -1.6150     73.5412
  1331.2500      0.0000    739.5248      5.3277     -1.2668     80.9060
  1331.5000      0.0000    735.8814      5.4974     -0.2223     91.9274
  1331.7500      0.0000    722.5206      5.6237     -0.6575    105.0227
  1332.0000      0.0000    703.2138      5.7059     -0.8316    118.6680
  1332.2500      0.0000    684.5052      5.7694     -0.3964    130.8097
  1332.5000      0.0000    671.7869      5.8338     -0.4834    138.3538
  1332.7500      0.0000    666.4993      5.8880     -0.4834    138.5795
  1333.0000      0.0000    666.4019      5.9063     -1.3539    131.5111
  1333.2500      0.0000    668.1411      5.8850     -1.2668    120.4205
  1333.5000      0.0000    669.6175      5.8448     -2.2244    109.7201
  1333.7500      0.0000    670.5638      5.8073     -0.2223    102.5277
  1334.0000      0.0000    671.8693      5.7835     -1.6150    100.0581
  1334.2500      0.0000    674.8129      5.7768     -1.4409    102.1893
  1334.5000      0.0000    680.4227      5.7838     -1.4409    107.5708
  1334.7500      0.0000    688.8021      5.7959     -0.8316    113.4944
  1335.0000      0.0000    698.9304      5.8086     -1.0057    116.7204
  1335.2500      0.0000    709.3665      5.8241     -1.0927    115.0577
  1335.5000      0.0000    719.0140      5.8451     -0.2223    108.4843
  1335.7500      0.0000    726.6678      5.8634     -0.8316     99.1041
  1336.0000      0.0000    729.9743      5.8582     -0.4834     89.9329
  1336.2500      0.0000    726.0374      5.8060     -0.1352     83.1554
  1336.5000      0.0000    714.1622      5.6973     -0.7446     79.0823
  1336.7500      0.0000    698.1315      5.5448      0.2129     76.4530
  1337.0000      0.0000    685.0156      5.3765     -0.0482     73.7009
  1337.2500      0.0000    680.8533      5.2247     -0.0482     70.4104
  1337.5000      0.0000    686.8743      5.1188     -1.1798     67.9208
  1337.7500      0.0000    699.5419      5.0776     -1.5280     68.1432
  1338.0000      0.0000    713.6240      5.0988     -1.0057     71.4610
  1338.2500      0.0000    724.9417      5.1572     -0.8316     76.0938
  1338.5000      0.0000    731.5692      5.2212     -0.8316     79.7811
  1338.7500      0.0000    734.4150      5.2722     -0.8316     81.8999
  1339.0000      0.0000    736.5751      5.3113     -0.1352     83.9375
  1339.2500      0.0000    740.6622      5.3493     -0.6575     88.1113
  1339.5000      0.0000    746.5895      5.3928     -0.5705     95.5929
  1339.7500      0.0000    752.3741      5.4378     -0.4834    105.8585
  1340.0000      0.0000    756.4990      5.4757     -0.5705    117.1645
  1340.2500      0.0000    758.7875      5.5040     -0.2223    127.2209
  1340.5000      0.0000    759.2264      5.5251     -0.4834    133.9671
  1340.7500      0.0000    755.8712      5.5383     -0.6575    136.7968
  1341.0000      0.0000    743.7611      5.5369     -0.6575    137.2830
  1341.2500      0.0000    717.7754      5.5190     -0.3093    138.2469
  1341.5000      0.0000    679.9372      5.4958     -0.8316    141.7850
  1341.7500      0.0000    644.2983      5.4854     -0.3093    148.0453
  1342.0000      0.0000    630.3870      5.5004      0.1259    155.4426
  1342.2500      0.0000    648.0043      5.5436     -0.3964    161.7902
  1342.5000      0.0000    688.4881      5.6099     -0.8316    165.5944
  1342.7500      0.0000    731.8115      5.6870     -0.3093    166.7474
  1343.0000      0.0000    761.0588      5.7561     -1.0057    166.0667
  1343.2500      0.0000    770.3901      5.7977     -0.3093    164.1888
  1343.5000      0.0000    763.8749      5.8028     -0.9187    161.0624
  1343.7500      0.0000    751.0037      5.7800     -0.6575    156.4250
