~Version Information
VERS.                      2.0: CWLS Log ASCII Standard - VERSION 2.0
WRAP.                       NO: One line per depth step
~Well Information Block
STRT.FT               647.0000: 
STOP.FT              1166.0000: 
STEP.FT                 0.1000: 
NULL.                -999.2500: 
COMP.          Pioneer Natural Resources: COMPANY
WELL.             Linda T 32-3: WELL
FLD.           Purgatoire River: FIELD
LOC.           1350' FNL & 2290' FEL: LOCATION
PROV.                 Colorado: PROVINCE
CNTY.               Las Animas: COUNTRY
SRVC.                Patterson: SERVICE COMPANY
DATE.          Sat Feb 05 08:06:50 2005: LOG DATE
UWI.           05 071 08215 00: UNIQUE WELL ID
~Curve Information Block
DEPT.FT            0 000 00 00: Depth
DCAL.in                       : CDL Caliper
RHOB.g/cc                     : CDL Bulk Density
RHOC.g/cc                     : CDL Density Correction
DPOR.pu                       : CDL Density Porosity
GR.GAPI                       : Gamma Ray
NPOR.pu                       : Neutron Porosity
~Parameter Information Block
~A  Depth       DCAL        RHOB        RHOC        DPOR         GR         NPOR    
# ...
   819.8000      8.1706      2.4795      0.0192     10.3338     76.4739     23.1959
   819.9000      8.1706      2.4347     -0.0007     13.0499     72.1588     24.1793
   820.0000      8.1631      2.3644     -0.0388     17.3079     63.7965     24.9441
   820.1000      8.1631      2.2714     -0.0526     22.9428     57.0859     24.6897
   820.2000      8.1631      2.1598     -0.0498     29.7075     54.2233     24.2937
   820.3000      8.1602      2.0305     -0.0848     37.5466     53.1519     24.9521
   820.4000      8.1602      1.8954     -0.0961     45.7345     49.2727     26.2136
   820.5000      8.1645      1.7751     -0.1244     53.0233     42.9041     27.4273
   820.6000      8.1645      1.6736     -0.1059     59.1767     38.8174     28.8302
   820.7000      8.1645      1.5808     -0.1062     64.8004     36.7671     30.1707
   820.8000      8.1881      1.4993     -0.0819     69.7391     35.5398     30.8143
   820.9000      8.1881      1.4410     -0.0615     73.2700     35.8861     31.0737
   821.0000      8.2275      1.4128      0.0051     74.9818     37.1559     31.3999
   821.1000      8.2275      1.4133      0.0566     74.9508     40.5437     31.6256
   821.2000      8.2275      1.4370      0.0895     73.5158     46.9914     31.8213
   821.3000      8.4024      1.4784      0.1019     71.0039     53.1622     32.2400
   821.4000      8.4024      1.5339      0.1072     67.6428     57.9839     32.7729
   821.5000      8.4487      1.6026      0.0656     63.4814     62.8517     33.1745
   821.6000      8.4487      1.6808      0.1279     58.7371     65.4437     33.3739
   821.7000      8.4487      1.7625      0.1321     53.7855     64.6792     33.2780
   821.8000      8.3967      1.8420      0.1784     48.9677     61.9763     32.8996
   821.9000      8.3967      1.9025      0.1980     45.3012     59.3409     32.4385
   822.0000      8.2083      1.9222      0.1730     44.1104     58.3979     31.8466
   822.1000      8.2083      1.8960      0.1141     45.6981     56.8088     31.1405
   822.2000      8.2083      1.8419      0.0109     48.9764     54.0211     30.6878
   822.3000      8.1454      1.7791      0.0376     52.7839     52.2189     30.7096
   822.4000      8.1454      1.7085      0.0061     57.0583     50.6307     31.1412
   822.5000      8.1715      1.6312     -0.0057     61.7473     49.0793     31.9135
   822.6000      8.1715      1.5575     -0.0267     66.2124     49.1769     32.8920
   822.7000      8.1715      1.4991     -0.0389     69.7543     51.0410     33.5005
   822.8000      8.1687      1.4644     -0.0233     71.8551     53.4173     33.6128
   822.9000      8.1687      1.4513      0.0264     72.6471     55.3341     33.6873
   823.0000      8.1983      1.4489      0.0447     72.7940     58.1685     33.7266
   823.1000      8.1983      1.4531      0.0503     72.5376     64.5632     33.5944
   823.2000      8.1983      1.4684      0.0903     71.6092     71.8056     33.3893
   823.3000      8.2764      1.5008      0.1065     69.6513     73.8451     32.9559
   823.4000      8.2764      1.5594      0.0766     66.0972     72.9236     32.2767
   823.5000      8.3186      1.6528      0.0903     60.4377     75.5034     31.9630
   823.6000      8.3186      1.7744      0.1639     53.0648     78.2244     32.1500
   823.7000      8.3186      1.9014      0.2005     45.3702     76.8428     32.1134
   823.8000      8.3074      2.0164      0.2108     38.4022     75.6088     31.6636
   823.9000      8.3074      2.1215      0.2544     32.0321     76.9981     31.5032
   824.0000      8.2239      2.2208      0.2603     26.0096     78.3589     31.8648
   824.1000      8.2239      2.3098      0.2557     20.6178     77.2728     32.0757
   824.2000      8.2239      2.3816      0.2392     16.2644     74.8728     31.4986
   824.3000      8.2065      2.4359      0.1580     12.9745     74.0305     30.5050
   824.4000      8.2065      2.4764      0.1370     10.5232     77.0028     29.8639
   824.5000      8.1728      2.5017      0.1043      8.9864     83.5450     29.5714
   824.6000      8.1728      2.5088      0.0912      8.5576     89.6635     29.1170
   824.7000      8.1728      2.4980      0.0675      9.2096     92.4686     28.3165
   824.8000      8.1372      2.4800      0.0396     10.3055     93.4613     27.5990
   824.9000      8.1372      2.4729      0.0499     10.7344     95.7576     27.5399
   825.0000      8.1342      2.4835      0.0430     10.0926    100.1506     27.8186
   825.1000      8.1342      2.5041      0.0478      8.8404    103.5824     27.9209
   825.2000      8.1342      2.5274      0.1075      7.4291    101.5922     27.9003
   825.3000      8.1211      2.5472      0.0709      6.2328     95.3388     27.8687
   825.4000      8.1211      2.5542      0.0834      5.8043     90.8817     27.7439
   825.5000      8.1085      2.5408      0.0664      6.6209     91.8705     27.5479
   825.6000      8.1085      2.5204      0.0300      7.8518     94.8274     27.5383
   825.7000      8.1085      2.5172      0.0471      8.0468     93.5117     27.4218
   825.8000      8.0966      2.5291      0.0698      7.3301     89.4410     26.8821
   825.9000      8.0966      2.5365      0.0788      6.8778     89.1675     26.3695
   826.0000      8.0908      2.5366      0.0078      6.8735     92.9625     26.0169
   826.1000      8.0908      2.5369      0.0577      6.8575     95.2753     25.6986
   826.2000      8.0908      2.5399      0.0134      6.6741     96.4436     25.6492
   826.3000      8.0951      2.5506      0.0802      6.0260     99.5300     25.8615
   826.4000      8.0951      2.5647      0.1005      5.1697    101.6609     25.7975
   826.5000      8.0871      2.5686      0.1064      4.9344    100.0775     25.2549
   826.6000      8.0871      2.5558      0.0663      5.7099     98.5015     24.9667
   826.7000      8.0871      2.5330      0.0162      7.0930    100.4779     25.2615
   826.8000      8.0913      2.5125      0.0220      8.3316    103.6029     25.7300
   826.9000      8.0913      2.5012      0.0197      9.0176    105.4360     26.1793
   827.0000      8.0924      2.4937      0.0301      9.4730    105.4775     26.7067
   827.1000      8.0924      2.4842      0.0181     10.0481    104.6386     27.6564
   827.2000      8.0924      2.4777      0.0507     10.4398    104.1138     28.7170
   827.3000      8.1009      2.4796      0.0487     10.3276    104.9648     29.0421
   827.4000      8.1009      2.4908      0.0511      9.6472    110.3440     28.7262
   827.5000      8.0936      2.5069      0.1100      8.6756    118.3523     28.5547
   827.6000      8.0936      2.5138      0.1207      8.2557    120.3964     28.5634
   827.7000      8.0936      2.5043      0.0964      8.8298    114.8128     28.6001
   827.8000      8.0982      2.4895      0.0491      9.7284    108.6259     28.9556
   827.9000      8.0982      2.4813      0.0647     10.2230    106.5446     29.2938
   828.0000      8.1104      2.4774      0.0603     10.4616    108.5582     29.2892
   828.1000      8.1104      2.4715      0.0743     10.8165    113.1040     29.2003
   828.2000      8.1104      2.4621      0.0524     11.3903    116.3172     29.1628
   828.3000      8.1088      2.4487      0.0792     12.1995    114.2562     29.4120
   828.4000      8.1088      2.4340      0.0509     13.0888    109.9998     29.9394
   828.5000      8.0988      2.4242      0.0504     13.6833    108.8133     30.1926
   828.6000      8.0988      2.4199      0.0391     13.9433    108.4485     30.1470
   828.7000      8.0988      2.4204      0.0432     13.9150    107.3893     29.9948
   828.8000      8.0982      2.4311      0.0380     13.2652    108.9653     29.5188
   828.9000      8.0982      2.4480      0.0837     12.2439    110.3213     29.0178
   829.0000      8.1108      2.4576      0.0663     11.6578    106.5574     28.9276
   829.1000      8.1108      2.4666      0.0329     11.1156     99.5253     28.9745
   829.2000      8.1108      2.4879      0.0815      9.8217     95.3021     28.8686
   829.3000      8.1138      2.5085      0.1003      8.5774     97.0695     28.5384
