~Version Information
VERS.                      2.0: CWLS Log ASCII Standard - VERSION 2.0
WRAP.                       NO: One line per depth step
~Well Information Block
STRT.FT               523.0000: 
STOP.FT              1709.0000: 
STEP.FT                 0.1000: 
NULL.                -999.2500: 
COMP.          Evergreen Operating Corporation: COMPANY
WELL.            Rimrock 14-29: WELL
FLD.           Purgatorie River: FIELD
LOC.           945' FSL & 604' FWL: LOCATION
PROV.                 Colorado: PROVINCE
CNTY.               Las Animas: COUNTRY
SRVC.                         : SERVICE COMPANY
DATE.          Tue Sep 21 04:15:40 2004: LOG DATE
UWI.           05 071 08136 00: UNIQUE WELL ID
~Curve Information Block
DEPT.FT            0 000 00 00: Depth
DCAL.in                       : CDL Caliper
RHOB.g/cc                     : CDL Bulk Density
RHOC.g/cc                     : CDL Density Correction
DPOR.pu                       : CDL Density Porosity
GR.GAPI                       : Gamma Ray
NPOR.pu                       : Neutron Porosity
~Parameter Information Block
~A  Depth       DCAL        RHOB        RHOC        DPOR         GR         NPOR    
   523.0000      1.9963      2.1840      0.4404     28.2406    131.2082     23.9504
   523.1000      1.9963      2.1745      0.4501     28.8212    122.5488     23.8327
   523.2000      1.9963      2.1601      0.4491     29.6903    113.9276     23.7042
   523.3000      1.9934      2.1431      0.4397     30.7211    112.3166     23.3174
   523.4000      1.9934      2.1289      0.4493     31.5815    115.9296     23.0377
   523.5000      2.0018      2.1227      0.4407     31.9550    124.6770     23.3858
   523.6000      2.0018      2.1288      0.4413     31.5901    138.4657     23.9607
   523.7000      2.0018      2.1364      0.5003     31.1251    147.2469     24.0632
   523.8000      2.0026      2.1317      0.4623     31.4121    145.3044     23.8134
   523.9000      2.0026      2.1246      0.4425     31.8397    140.6598     23.8098
   524.0000      2.0024      2.1320      0.4677     31.3943    139.7489     24.3324
   524.1000      2.0024      2.1504      0.5071     30.2807    140.7743     25.2413
   524.2000      2.0024      2.1627      0.5347     29.5342    145.6069     25.9403
   524.3000      2.0035      2.1630      0.4946     29.5136    154.0038     25.7989
   524.4000      2.0035      2.1658      0.4822     29.3471    156.8557     25.0616
   524.5000      2.0012      2.1785      0.5178     28.5768    150.5334     24.5621
   524.6000      2.0012      2.1934      0.4937     27.6739    141.3148     24.5559
   524.7000      2.0012      2.2080      0.5036     26.7876    137.8990     24.7644
   524.8000      1.9993      2.2230      0.5149     25.8778    139.0075     25.1855
   524.9000      1.9993      2.2318      0.5283     25.3436    135.5160     25.8314
   525.0000      1.9977      2.2266      0.5110     25.6611    130.2412     26.5914
   525.1000      1.9977      2.2109      0.4738     26.6144    134.4214     27.3925
   525.2000      1.9977      2.1934      0.4710     27.6729    144.4313     27.8837
   525.3000      1.9957      2.1796      0.4318     28.5081    150.5606     27.8646
   525.4000      1.9957      2.1768      0.4416     28.6798    151.2287     27.4429
   525.5000      1.9961      2.1859      0.4526     28.1262    148.2604     26.9433
   525.6000      1.9961      2.1992      0.4449     27.3228    141.8091     26.4233
   525.7000      1.9961      2.2092      0.4762     26.7126    130.8323     25.7234
   525.8000      1.9972      2.2100      0.4695     26.6650    121.4214     25.2593
   525.9000      1.9972      2.2033      0.4481     27.0751    118.5962     25.2381
   526.0000      1.9922      2.1970      0.4507     27.4521    120.8353     25.3715
   526.1000      1.9922      2.1938      0.4400     27.6482    126.7322     25.5081
   526.2000      1.9922      2.1909      0.4320     27.8247    132.4291     25.3792
   526.3000      1.9945      2.1867      0.4494     28.0793    133.3959     25.0489
   526.4000      1.9945      2.1838      0.4363     28.2565    129.3951     24.9875
   526.5000      1.9977      2.1873      0.4351     28.0408    121.1399     25.2727
   526.6000      1.9977      2.1984      0.4438     27.3701    112.0598     25.5522
   526.7000      1.9977      2.2094      0.4735     26.7009    105.8126     25.6082
   526.8000      1.9938      2.2120      0.4759     26.5453    103.0724     25.8334
   526.9000      1.9938      2.2013      0.4881     27.1941    102.5244     26.3618
   527.0000      1.9919      2.1775      0.4382     28.6382    101.8306     26.7320
   527.1000      1.9919      2.1529      0.4034     30.1294    103.1071     26.8110
   527.2000      1.9919      2.1416      0.3803     30.8145    106.1284     26.7956
   527.3000      1.9953      2.1461      0.3960     30.5381    107.4120     26.5983
   527.4000      1.9953      2.1605      0.4116     29.6676    110.6665     26.2434
   527.5000      1.9946      2.1733      0.4358     28.8917    118.6593     25.9362
   527.6000      1.9946      2.1801      0.4341     28.4814    123.7683     25.4802
   527.7000      1.9946      2.1930      0.4110     27.6957    122.3841     25.1213
   527.8000      1.9917      2.2182      0.4268     26.1697    121.9872     25.4827
   527.9000      1.9917      2.2339      0.4679     25.2160    126.1044     26.2910
   528.0000      1.9924      2.2174      0.4500     26.2186    129.6684     26.7476
   528.1000      1.9924      2.1812      0.3871     28.4130    128.9834     26.5877
   528.2000      1.9924      2.1541      0.4076     30.0542    122.4481     26.2635
   528.3000      1.9901      2.1373      0.4224     31.0728    110.7237     25.9840
   528.4000      1.9901      2.1152      0.4166     32.4117     99.5374     25.6429
   528.5000      1.9938      2.0916      0.3683     33.8418     92.8050     25.3956
   528.6000      1.9938      2.0834      0.3923     34.3367     89.3711     25.3307
   528.7000      1.9938      2.0908      0.4044     33.8885     85.5762     25.0993
   528.8000      1.9968      2.1004      0.4129     33.3096     80.7300     24.8407
   528.9000      1.9968      2.1059      0.4020     32.9765     77.7065     25.3437
   529.0000      1.9964      2.1069      0.4096     32.9152     77.8854     26.3501
   529.1000      1.9964      2.1025      0.4167     33.1823     79.4935     26.7331
   529.2000      1.9964      2.0973      0.3698     33.4940     80.8755     26.4509
   529.3000      1.9954      2.0984      0.3882     33.4313     84.3224     26.2080
   529.4000      1.9954      2.1040      0.3970     33.0907     88.5891     26.2415
   529.5000      1.9948      2.1151      0.3758     32.4211     89.1800     26.5420
   529.6000      1.9948      2.1385      0.4033     31.0002     88.1003     27.0404
   529.7000      1.9948      2.1699      0.4145     29.0958     92.5884     27.4303
   529.8000      1.9969      2.1959      0.4341     27.5210    105.2925     27.5965
   529.9000      1.9969      2.2058      0.4540     26.9195    116.0253     27.4443
   530.0000      1.9961      2.1969      0.4276     27.4621    116.2704     26.7136
   530.1000      1.9961      2.1801      0.4162     28.4801    112.4007     25.9442
   530.2000      1.9961      2.1710      0.4018     29.0299    110.5534     25.8317
   530.3000      1.9934      2.1733      0.4559     28.8906    111.2348     25.9520
   530.4000      1.9934      2.1817      0.4252     28.3788    113.7705     25.7074
   530.5000      1.9934      2.1894      0.4337     27.9131    114.2827     25.3945
   530.6000      1.9934      2.1895      0.4309     27.9089    112.9737     25.4979
   530.7000      1.9934      2.1862      0.4221     28.1102    111.7996     25.9689
   530.8000      1.9932      2.1861      0.4432     28.1167    109.0878     26.3609
   530.9000      1.9932      2.1833      0.4458     28.2832    107.5543     26.3255
   531.0000      1.9915      2.1747      0.4129     28.8062    109.0445     25.8774
   531.1000      1.9915      2.1682      0.4026     29.1989    111.2209     25.2178
   531.2000      1.9915      2.1665      0.4131     29.3049    113.7213     24.5119
   531.3000      1.9952      2.1639      0.4262     29.4583    115.7797     23.9759
   531.4000      1.9952      2.1589      0.4126     29.7607    115.4473     23.9384
   531.5000      1.9948      2.1599      0.4022     29.7034    111.5454     24.5484
   531.6000      1.9948      2.1760      0.3859     28.7267    103.9163     25.3755
   531.7000      1.9948      2.1958      0.4787     27.5276     98.1197     25.8721
   531.8000      1.9929      2.1986      0.4268     27.3559    100.7578     25.9884
   531.9000      1.9929      2.1853      0.4644     28.1635    109.0633     25.8720
   532.0000      1.9906      2.1682      0.4241     29.2010    116.0089     25.6387
   532.1000      1.9906      2.1538      0.4086     30.0698    120.9661     25.5361
   532.2000      1.9906      2.1429      0.4009     30.7316    128.8362     25.6174
   532.3000      1.9919      2.1353      0.4266     31.1942    145.1210     25.5726
   532.4000      1.9919      2.1298      0.4252     31.5255    163.3437     25.2768
   532.5000      1.9958      2.1280      0.3812     31.6374    170.1377     24.7395
