~Version Information
VERS.                      2.0: CWLS Log ASCII Standard - VERSION 2.0
WRAP.                       NO: One line per depth step
~Well Information Block
STRT.FT               770.0000: 
STOP.FT              1718.7000: 
STEP.FT                 0.1000: 
NULL.                -999.2500: 
COMP.          Pioneer Natural Resources: COMPANY
WELL.            Salty 42-6 Tr: WELL
FLD.           Purgatoire River: FIELD
LOC.           2409' FNL & 599' FEL: LOCATION
PROV.                 Colorado: PROVINCE
CNTY.               Las Animas: COUNTRY
SRVC.                Patterson: SERVICE COMPANY
DATE.          Thu Dec 16 09:30:36 2004: LOG DATE
UWI.           05 071 08238 00: UNIQUE WELL ID
~Curve Information Block
DEPT.FT            0 000 00 00: Depth
DCAL.in                       : CDL Caliper
RHOB.g/cc                     : CDL Bulk Density
RHOC.g/cc                     : CDL Density Correction
DPOR.pu                       : CDL Density Porosity
NPOR.pu                       : Neutron Porosity
GR.GAPI                       : Gamma Ray
~Parameter Information Block
~A  Depth       DCAL        RHOB        RHOC        DPOR        NPOR         GR     
# ...
  1134.8000      7.9741      2.5328      0.0715      7.1029     23.7930    116.6764
  1134.9000      7.9741      2.5222      0.0375      7.7442     23.5060    121.6927
  1135.0000      7.9779      2.5141      0.0428      8.2378     23.2615    125.1327
  1135.1000      7.9779      2.5074      0.0474      8.6441     23.2993    120.4231
  1135.2000      7.9779      2.4960      0.0400      9.3314     23.5638    111.7412
  1135.3000      7.9750      2.4816      0.0513     10.2083     23.9530    109.2829
  1135.4000      7.9750      2.4740      0.0196     10.6640     24.3101    115.9920
  1135.5000      7.9739      2.4813      0.0269     10.2262     24.5144    125.4825
  1135.6000      7.9739      2.4901      0.0915      9.6916     24.7690    130.7429
  1135.7000      7.9739      2.4867      0.0553      9.8989     25.1671    129.3567
  1135.8000      7.9753      2.4820      0.0632     10.1846     25.3219    125.0304
  1135.9000      7.9753      2.4846      0.0673     10.0266     25.1676    122.6344
  1136.0000      7.9766      2.4840      0.0687     10.0611     25.0332    126.1199
  1136.1000      7.9766      2.4708      0.0515     10.8628     24.9336    133.7895
  1136.2000      7.9766      2.4515      0.0439     12.0280     24.7428    136.2336
  1136.3000      7.9768      2.4454      0.0168     12.3986     24.5842    130.6658
  1136.4000      7.9768      2.4565      0.0868     11.7284     24.5266    125.7072
  1136.5000      7.9758      2.4619      0.0684     11.4001     24.2549    126.5649
  1136.6000      7.9758      2.4490      0.0535     12.1823     23.6770    130.3916
  1136.7000      7.9758      2.4322      0.0398     13.1982     23.0132    132.2052
  1136.8000      7.9759      2.4318      0.0338     13.2224     22.5770    132.8135
  1136.9000      7.9759      2.4553      0.0718     11.8005     22.4531    135.1767
  1137.0000      7.9751      2.4902      0.1069      9.6867     22.3983    139.3188
  1137.1000      7.9751      2.5126      0.1048      8.3293     22.4924    144.7838
  1137.2000      7.9751      2.5131      0.0949      8.2966     22.8741    147.6750
  1137.3000      7.9720      2.5081      0.0142      8.6000     23.2088    143.2810
  1137.4000      7.9720      2.5140      0.0522      8.2404     23.2828    133.2421
  1137.5000      7.9704      2.5193      0.0789      7.9189     23.3264    121.7147
  1137.6000      7.9704      2.5031      0.0509      8.9029     23.4615    112.6457
  1137.7000      7.9704      2.4643      0.0282     11.2533     23.5908    110.7670
  1137.8000      7.9717      2.4201      0.0221     13.9329     23.8656    115.0793
  1137.9000      7.9717      2.3902     -0.0151     15.7456     24.3479    117.7363
  1138.0000      7.9710      2.3805     -0.0180     16.3349     24.7661    113.9192
  1138.1000      7.9710      2.3819      0.0021     16.2512     24.9617    107.0314
  1138.2000      7.9710      2.3945     -0.0403     15.4866     24.9890    104.4051
  1138.3000      7.9623      2.4212      0.0332     13.8637     24.8896    106.0265
  1138.4000      7.9623      2.4346      0.1161     13.0525     24.5679    106.9934
  1138.5000      7.9434      2.4095      0.1045     14.5749     24.3987    109.2760
  1138.6000      7.9434      2.3724      0.0918     16.8219     24.8145    114.6391
  1138.7000      7.9434      2.3681      0.1510     17.0823     25.2229    119.0631
  1138.8000      7.9264      2.4044      0.2296     14.8825     25.0021    123.2248
  1138.9000      7.9264      2.4494      0.2755     12.1604     24.4001    128.6130
  1139.0000      7.9290      2.4808      0.2059     10.2560     23.9033    129.7446
  1139.1000      7.9290      2.5077      0.2165      8.6231     23.5937    125.0223
  1139.2000      7.9290      2.5326      0.2766      7.1164     23.3763    120.3099
  1139.3000      7.9556      2.5430      0.2790      6.4867     23.3242    117.9526
  1139.4000      7.9556      2.5371      0.2467      6.8454     23.4358    118.2492
  1139.5000      7.9895      2.5282      0.2385      7.3795     23.3716    123.9196
  1139.6000      7.9895      2.5280      0.2154      7.3915     23.0754    133.8744
  1139.7000      7.9895      2.5333      0.1961      7.0734     22.8807    139.2795
  1139.8000      8.0115      2.5376      0.1428      6.8105     23.0633    137.0265
  1139.9000      8.0115      2.5443      0.1037      6.4082     23.4852    132.1086
  1140.0000      8.0276      2.5588      0.1077      5.5291     23.5734    125.6353
  1140.1000      8.0276      2.5719      0.1556      4.7335     23.3045    120.0347
  1140.2000      8.0276      2.5664      0.1260      5.0674     23.1517    119.1159
  1140.3000      8.0445      2.5441      0.1101      6.4188     23.2481    123.5414
  1140.4000      8.0445      2.5199      0.1030      7.8838     23.3834    131.1672
  1140.5000      8.0549      2.4998      0.0904      9.1058     23.5649    135.6226
  1140.6000      8.0549      2.4816      0.0954     10.2034     23.9089    135.4525
  1140.7000      8.0549      2.4699      0.0583     10.9148     24.1617    135.1473
  1140.8000      8.0568      2.4697      0.0661     10.9247     24.0155    133.8537
  1140.9000      8.0568      2.4724      0.1016     10.7613     23.5615    132.7143
  1141.0000      8.0554      2.4678      0.0381     11.0438     23.1045    135.7825
  1141.1000      8.0554      2.4574      0.0980     11.6751     23.0545    140.2348
  1141.2000      8.0554      2.4424      0.0681     12.5817     23.4895    142.6218
  1141.3000      8.0574      2.4341      0.0496     13.0857     24.0190    143.6507
  1141.4000      8.0574      2.4472      0.0977     12.2889     24.4239    143.1763
  1141.5000      8.0616      2.4703      0.1214     10.8934     24.7354    139.5762
  1141.6000      8.0616      2.4800      0.1433     10.3052     24.9924    133.3097
  1141.7000      8.0616      2.4686      0.1241     10.9944     25.0355    128.5727
  1141.8000      8.0624      2.4484      0.1043     12.2206     24.7610    128.3298
  1141.9000      8.0624      2.4488      0.0719     12.1970     24.5764    128.4590
  1142.0000      8.0624      2.4847      0.1391     10.0188     24.7737    126.4862
  1142.1000      8.0624      2.5206      0.2300      7.8443     25.1377    125.0690
  1142.2000      8.0624      2.5120      0.1634      8.3666     25.3658    124.4589
  1142.3000      8.0678      2.4644      0.1167     11.2514     25.3741    123.7349
  1142.4000      8.0678      2.4152      0.0405     14.2293     25.3025    123.8455
  1142.5000      8.0788      2.3966      0.0208     15.3601     25.2152    126.4486
  1142.6000      8.0788      2.4091      0.1260     14.6023     25.0281    128.9652
  1142.7000      8.0788      2.4302      0.1036     13.3218     24.7184    127.9362
  1142.8000      8.0868      2.4519      0.1071     12.0074     24.3836    128.0797
  1142.9000      8.0868      2.4741      0.1403     10.6593     23.9837    132.4688
  1143.0000      8.0893      2.4867      0.1481      9.8961     23.3777    136.0669
  1143.1000      8.0893      2.4797      0.1343     10.3196     22.7413    134.8222
  1143.2000      8.0893      2.4549      0.1058     11.8255     22.4459    129.4994
  1143.3000      8.0916      2.4277      0.0828     13.4753     22.7218    123.8835
  1143.4000      8.0916      2.4198      0.0405     13.9504     23.1259    120.9251
  1143.5000      8.0967      2.4388      0.1080     12.8023     23.1101    120.7349
  1143.6000      8.0967      2.4643      0.1133     11.2546     22.7786    124.7610
  1143.7000      8.0967      2.4674      0.1231     11.0667     22.4206    132.6306
  1143.8000      8.1006      2.4407      0.0726     12.6841     22.2270    135.2962
  1143.9000      8.1006      2.3992      0.0894     15.1986     22.2441    128.1005
  1144.0000      8.1036      2.3589      0.0277     17.6433     22.3614    120.9680
  1144.1000      8.1036      2.3368      0.0156     18.9802     22.2875    121.4059
  1144.2000      8.1036      2.3373      0.0741     18.9517     21.9200    126.2426
  1144.3000      8.1063      2.3385      0.0695     18.8801     21.6770    131.7409
