~Version Information
VERS.                      2.0: CWLS Log ASCII Standard - VERSION 2.0
WRAP.                       NO: One line per depth step
~Well Information Block
STRT.FT                -3.5000: 
STOP.FT              1745.0000: 
STEP.FT                 0.2500: 
NULL.                -999.2500: 
COMP.          Pioneer Natural Resources: COMPANY
WELL.           Labrador 34-30: WELL
FLD.           Purgatorie River: FIELD
LOC.           926' FSL & 2080' FEL--: LOCATION
PROV.                       CO: PROVINCE
CNTY.               Las Animas: COUNTRY
SRVC.                         : SERVICE COMPANY
DATE.          Fri Dec 10 09:58:23 2004: LOG DATE
UWI.                071-08202 : UNIQUE WELL ID
~Curve Information Block
DEPT.FT            0 000 00 00: Depth
GR.GAPI                       : Gamma Ray
CCL.                          : Casing Collar Locator
TT3.usec                      : CBL 3' Travel Time
AMP3.mV                       : CBL 3' Amplitude
~Parameter Information Block
~A  Depth        GR         CCL         TT3         AMP3    
# ...
  1604.5000    114.4904      0.0000    625.3336      4.8829
  1604.7500    106.6301      0.0000    623.2846      5.0204
  1605.0000     99.0285      0.0000    623.9419      5.1696
  1605.2500     92.7271      0.0000    630.7589      5.3537
  1605.5000     87.1470      0.0000    644.5941      5.5985
  1605.7500     81.9245      0.0000    663.3942      5.9070
  1606.0000     77.8624      0.0000    684.1703      6.2483
  1606.2500     76.1351      0.0000    705.0487      6.5768
  1606.5000     76.8840      0.0000    724.8730      6.8681
  1606.7500     78.8806      0.0000    741.3635      7.1413
  1607.0000     80.7356      0.0000    751.2655      7.4422
  1607.2500     82.0762      0.0000    752.9377      7.8064
  1607.5000     83.0502      0.0000    748.0018      8.2331
  1607.7500     83.1016      0.0000    739.9394      8.6896
  1608.0000     81.0533      0.0000    731.5300      9.1387
  1608.2500     76.3158      0.0000    724.2022      9.5554
  1608.5000     69.5482      0.0000    719.3150      9.9191
  1608.7500     62.2819      0.0000    718.6672     10.1977
  1609.0000     56.2515      0.0000    722.8961     10.3566
  1609.2500     52.8717      0.0000    730.0238     10.3938
  1609.5000     52.7864      0.0000    736.3005     10.3583
  1609.7500     55.4727      0.0000    738.1431     10.3273
  1610.0000     59.3149      0.0000    733.5732     10.3642
  1610.2500     62.5071      0.0000    723.3375     10.4966
  1610.5000     64.1754      0.0000    710.9418     10.7199
  1610.7500     64.6238      0.0000    700.4371     11.0031
  1611.0000     64.5576      0.0000    693.7559     11.2958
  1611.2500     64.3357      0.0000    690.5583     11.5487
  1611.5000     64.0848      0.0000    690.3366     11.7415
  1611.7500     64.3114      0.0000    693.6724     11.8926
  1612.0000     65.8783      0.0000    700.9454     12.0371
  1612.2500     69.0296      0.0000    710.5298     12.1957
  1612.5000     72.6693      0.0000    719.1421     12.3599
  1612.7500     75.1059      0.0000    723.6954     12.5037
  1613.0000     75.4645      0.0000    722.1730     12.6113
  1613.2500     74.0234      0.0000    713.5780     12.6903
  1613.5000     71.4889      0.0000    698.4481     12.7532
  1613.7500     68.5410      0.0000    679.3438     12.7951
  1614.0000     65.9545      0.0000    660.0131     12.8046
  1614.2500     64.5070      0.0000    643.8525     12.7883
  1614.5000     64.4887      0.0000    633.0182     12.7636
  1614.7500     65.4238      0.0000    628.3397     12.7308
  1615.0000     66.3539      0.0000    629.4307     12.6696
  1615.2500     66.4965      0.0000    634.6246     12.5498
  1615.5000     65.7967      0.0000    641.1766     12.3223
  1615.7500     64.9101      0.0000    646.4769     11.9257
  1616.0000     64.6222      0.0000    649.6702     11.3535
  1616.2500     65.2852      0.0000    651.7863     10.7181
  1616.5000     66.6077      0.0000    654.0461     10.1871
  1616.7500     67.7387      0.0000    656.4378      9.8351
  1617.0000     67.6394      0.0000    658.1757      9.5998
  1617.2500     65.7895      0.0000    658.9954      9.3866
  1617.5000     62.7430      0.0000    659.7614      9.1592
  1617.7500     59.8512      0.0000    662.0104      8.9230
  1618.0000     58.3171      0.0000    666.4244      8.6869
  1618.2500     58.5743     -2.0000    671.0265      8.4766
  1618.5000     60.4973      0.0000    671.6814      8.3616
  1618.7500     63.9167      0.0000    665.9393      8.4209
  1619.0000     68.7116      0.0000    656.1105      8.6400
  1619.2500     74.3738      0.0000    647.3229      8.8502
  1619.5000     79.5839      0.0000    642.9762      8.8294
  1619.7500     82.5524      0.0000    642.8222      8.4938
  1620.0000     82.1616      0.0000    644.5595      7.9611
  1620.2500     78.8411      0.0000    646.1766      7.4221
  1620.5000     74.3142      0.0000    646.9799      6.9931
  1620.7500     70.5268      0.0000    647.2592      6.6887
  1621.0000     68.5995      0.0000    647.5555      6.4721
  1621.2500     68.4258      0.0000    648.1882      6.2962
  1621.5000     68.9912      0.0000    649.1077      6.1193
  1621.7500     69.1240      0.0000    649.7933      5.9180
  1622.0000     68.2154      0.0000    649.2604      5.6987
  1622.2500     66.3985      0.0000    646.5386      5.4881
  1622.5000     64.0887      0.0000    641.6144      5.3066
  1622.7500     61.5929      0.0000    636.0317      5.1495
  1623.0000     59.3058      0.0000    632.2748      4.9987
  1623.2500     57.8676      0.0000    632.2812      4.8484
  1623.5000     57.6234      0.0000    636.2283      4.7104
  1623.7500     58.1677      0.0000    642.2789      4.5967
  1624.0000     58.8931      0.0000    647.5190      4.5046
  1624.2500     59.7355      0.0000    650.0145      4.4243
  1624.5000     61.0522      0.0000    650.5320      4.3564
  1624.7500     63.0605      0.0000    651.8137      4.3199
  1625.0000     65.7568      0.0000    655.6691      4.3422
  1625.2500     69.1042      0.0000    660.9901      4.4372
  1625.5000     72.8168      0.0000    665.0494      4.5895
  1625.7500     76.0264      0.0000    666.8813      4.7600
  1626.0000     77.6305      0.0000    669.4672      4.9080
  1626.2500     77.1627      0.0000    678.5214      5.0102
  1626.5000     75.1580      0.0000    698.2755      5.0655
  1626.7500     72.6976      0.0000    727.0878      5.0904
  1627.0000     70.8080      0.0000    756.5348      5.1115
  1627.2500     70.2215      0.0000    775.5075      5.1511
  1627.5000     71.2912      0.0000    776.5907      5.2131
  1627.7500     73.6123      0.0000    760.1287      5.2822
  1628.0000     75.6779      0.0000    733.5178      5.3365
  1628.2500     75.6224      0.0000    706.4994      5.3641
  1628.5000     72.8495      0.0000    685.5887      5.3696
  1628.7500     68.7055      0.0000    671.5544      5.3691
  1629.0000     65.3378      0.0000    661.4606      5.3775
  1629.2500     63.9945      0.0000    652.6707      5.4013
  1629.5000     64.2706      0.0000    644.9294      5.4420
  1629.7500     64.7208      0.0000    639.5811      5.5002
  1630.0000     64.3233      0.0000    637.8976      5.5675
  1630.2500     63.4452      0.0000    640.0424      5.6223
  1630.5000     63.2091      0.0000    644.6218      5.6414
  1630.7500     64.0228      0.0000    648.9064      5.6189
  1631.0000     65.1382      0.0000    650.3206      5.5692
  1631.2500     65.5817      0.0000    648.5884      5.5136
  1631.5000     65.0409      0.0000    646.2575      5.4654
  1631.7500     63.8370      0.0000    646.4996      5.4264
  1632.0000     62.5579      0.0000    650.3002      5.3919
  1632.2500     61.7763      0.0000    656.0295      5.3605
  1632.5000     61.7042      0.0000    661.4016      5.3380
  1632.7500     62.1449      0.0000    665.2593      5.3301
  1633.0000     62.9086      0.0000    667.7059      5.3323
  1633.2500     64.0337      0.0000    669.3425      5.3293
  1633.5000     65.5002      0.0000    670.7129      5.3074
  1633.7500     66.9687      0.0000    672.1648      5.2703
  1634.0000     67.8623      0.0000    673.8427      5.2356
  1634.2500     67.7377      0.0000    675.6819      5.2199
  1634.5000     66.8223      0.0000    677.4694      5.2316
  1634.7500     66.2643      0.0000    679.0127      5.2760
  1635.0000     67.5204      0.0000    680.3079      5.3503
  1635.2500     71.0535      0.0000    681.5209      5.4309
  1635.5000     75.5948      0.0000    682.7665      5.4791
  1635.7500     79.0291      0.0000    683.8141      5.4689
  1636.0000     80.2343      0.0000    684.0047      5.4077
  1636.2500     79.9050      0.0000    682.5685      5.3280
  1636.5000     79.4570      0.0000    679.1512      5.2614
  1636.7500     79.3927      0.0000    673.9939      5.2189
  1637.0000     79.0683      0.0000    667.8264      5.1915
  1637.2500     77.8740      0.0000    662.1678      5.1655
  1637.5000     76.0390      0.0000    659.9264      5.1348
  1637.7500     74.1150      0.0000    664.6474      5.1026
