~Version Information
VERS.                      2.0: CWLS Log ASCII Standard - VERSION 2.0
WRAP.                       NO: One line per depth step
~Well Information Block
STRT.FT                -9.7500: 
STOP.FT              2158.2500: 
STEP.FT                 0.2500: 
NULL.                -999.2500: 
COMP.          Petrogulf Corporation: COMPANY
WELL.             State 16-41V: WELL
FLD.           Purgatoire River: FIELD
LOC.           335' FNL & 823' FEL--: LOCATION
PROV.                 Colorado: PROVINCE
CNTY.               Las Animas: COUNTRY
SRVC.                Patterson: SERVICE COMPANY
DATE.          Wed Aug 17 12:15:10 2005: LOG DATE
UWI.           05 071 08344 00: UNIQUE WELL ID
~Curve Information Block
DEPT.FT            0 000 00 00: Depth
CCL.                          : Casing Collar Locator
TT3.usec                      : CBL 3' Travel Time
AMP3.mV                       : CBL 3' Amplitude
GR.GAPI                       : Gamma Ray
~Parameter Information Block
~A  Depth       CCL         TT3         AMP3         GR     
# ...
  1263.2500      0.0000    704.7999     14.6235    135.2459
  1263.5000      0.0000    700.7450     14.3347    144.6334
  1263.7500      0.0000    693.3805     14.2435    151.6552
  1264.0000      0.0000    683.2061     14.2762    153.7166
  1264.2500      0.0000    673.5533     14.3142    149.5949
  1264.5000      0.0000    668.5309     14.2797    140.4870
  1264.7500      0.0000    668.3660     14.1754    129.6986
  1265.0000      0.0000    667.7609     14.0493    121.0408
  1265.2500      0.0000    660.3057     13.9320    116.7327
  1265.5000      0.0000    644.8780     13.8195    116.2114
  1265.7500      0.0000    628.2130     13.7127    116.7681
  1266.0000      0.0000    620.9686     13.6627    115.6395
  1266.2500      0.0000    629.3334     13.7648    112.1717
  1266.5000      0.0000    649.8180     14.0959    108.4865
  1266.7500      0.0000    673.0361     14.6572    108.1148
  1267.0000      0.0000    691.6548     15.3780    113.4755
  1267.2500      0.0000    703.2202     16.1776    123.8023
  1267.5000      0.0000    705.8080     17.0382    135.2272
  1267.7500      0.0000    693.1506     18.0402    143.5501
  1268.0000      0.0000    656.9033     19.3282    147.3637
  1268.2500      0.0000    595.9553     21.0171    148.3203
  1268.5000      0.0000    522.2015     23.0934    148.6939
  1268.7500      0.0000    453.8149     25.3858    149.5396
  1269.0000      0.0000    402.3369     27.6397    151.1241
  1269.2500      0.0000    367.7708     29.6589    153.9877
  1269.5000      0.0000    344.3727     31.4174    158.7357
  1269.7500      0.0000    327.7254     33.0469    164.7417
  1270.0000      0.0000    316.2982     34.6908    169.5832
  1270.2500      0.0000    309.4463     36.3401    170.5541
  1270.5000      0.0000    306.0552     37.8031    166.9877
  1270.7500      0.0000    304.7608     38.8451    160.7993
  1271.0000      0.0000    304.5754     39.3572    154.8172
  1271.2500      0.0000    305.2240     39.3821    150.9299
  1271.5000      0.0000    307.2877     38.9832    149.4805
  1271.7500      0.0000    312.1571     38.1259    149.6553
  1272.0000      0.0000    321.3158     36.7253    150.2033
  1272.2500      0.0000    335.2834     34.8111    150.0130
  1272.5000      0.0000    353.8306     32.6094    148.4171
  1272.7500      0.0000    378.6396     30.4229    145.3642
  1273.0000      0.0000    415.6980     28.4275    141.4203
  1273.2500      0.0000    471.9057     26.5998    137.5399
  1273.5000      0.0000    545.7280     24.8317    134.7423
  1273.7500      0.0000    622.0298     23.0888    133.6370
  1274.0000      0.0000    680.5690     21.4617    133.8887
  1274.2500      0.0000    711.2614     20.1050    134.3698
  1274.5000      0.0000    719.5558     19.1561    134.2064
  1274.7500      0.0000    717.9557     18.6993    133.6914
  1275.0000      0.0000    715.3398     18.7546    133.9597
  1275.2500      0.0000    712.9944     19.2620    135.6690
  1275.5000      0.0000    706.3074     20.0867    138.0698
  1275.7500      0.0000    688.9786     21.0847    139.4761
  1276.0000      0.0000    658.0116     22.1737    138.5796
  1276.2500      0.0000    616.9138     23.3122    135.3356
  1276.5000      0.0000    574.4523     24.4105    131.0342
  1276.7500      0.0000    539.1682     25.3041    127.7185
  1277.0000      0.0000    512.7508     25.8431    127.0515
  1277.2500      0.0000    489.0363     25.9733    129.3147
  1277.5000      0.0000    462.4766     25.7047    133.4045
  1277.7500      0.0000    437.5075     25.0288    137.4118
  1278.0000      0.0000    427.1078     23.8949    139.1553
  1278.2500      0.0000    441.8709     22.2576    137.0892
  1278.5000      0.0000    479.9193     20.1641    131.5092
  1278.7500      0.0000    526.1070     17.8324    124.6830
  1279.0000      0.0000    563.1290     15.6076    119.3266
  1279.2500      0.0000    585.7703     13.7725    116.8276
  1279.5000     -2.0000    602.3235     12.4096    116.8023
  1279.7500      0.0000    620.5715     11.4617    118.0128
  1280.0000      2.0000    635.3749     10.8648    119.3861
  1280.2500      0.0000    632.9752     10.6030    120.2695
  1280.5000      0.0000    607.5239     10.6895    120.3167
  1280.7500      0.0000    571.5706     11.1264    119.4826
  1281.0000      0.0000    547.5904     11.8589    117.8887
  1281.2500      0.0000    548.8652     12.7720    115.5638
  1281.5000      0.0000    570.7331     13.7714    112.4655
  1281.7500      0.0000    599.5194     14.8484    108.6382
  1282.0000      0.0000    624.8925     16.0256    104.1754
  1282.2500      0.0000    641.8534     17.2672     99.1478
  1282.5000      0.0000    646.4114     18.4807     93.6595
  1282.7500      0.0000    636.1230     19.5825     87.8683
  1283.0000      0.0000    616.0098     20.5319     82.1878
  1283.2500      0.0000    599.4158     21.3213     77.5796
  1283.5000      0.0000    597.8118     21.9749     75.1325
  1283.7500      0.0000    609.6735     22.5590     75.1029
  1284.0000      0.0000    623.3850     23.1448     76.8631
  1284.2500      0.0000    631.2020     23.7404     80.1284
  1284.5000      0.0000    636.4762     24.2832     85.8779
  1284.7500      0.0000    646.8080     24.7098     95.4499
  1285.0000      0.0000    663.5885     25.0080    108.3889
  1285.2500      0.0000    679.3194     25.1993    121.5648
  1285.5000      0.0000    683.2885     25.3007    131.2351
  1285.7500      0.0000    669.1892     25.3096    136.1600
  1286.0000      0.0000    638.8345     25.2232    138.2152
  1286.2500      0.0000    600.4830     25.0703    139.9979
  1286.5000      0.0000    564.4769     24.9133    142.4128
  1286.7500      0.0000    539.9493     24.7955    144.5263
  1287.0000      0.0000    533.0480     24.6835    145.1003
  1287.2500      0.0000    544.6569     24.4796    143.8698
  1287.5000      0.0000    569.1315     24.0918    141.5166
  1287.7500      0.0000    597.3071     23.4864    138.9115
  1288.0000      0.0000    621.6076     22.6853    136.7021
  1288.2500      0.0000    638.4869     21.7458    135.3741
  1288.5000      0.0000    648.2283     20.7605    135.2254
  1288.7500      0.0000    654.2184     19.8648    136.2828
  1289.0000      0.0000    661.0258     19.2093    138.5493
  1289.2500      0.0000    671.2741     18.8899    142.2574
  1289.5000      0.0000    684.2552     18.8844    147.4893
  1289.7500      0.0000    697.3248     19.0603    153.5433
  1290.0000      0.0000    707.7592     19.2728    158.9540
  1290.2500      0.0000    713.8582     19.4710    162.0712
  1290.5000      0.0000    715.8189     19.7040    161.5810
  1290.7500      0.0000    716.0996     20.0252    157.0719
  1291.0000      0.0000    718.1979     20.4159    149.5935
  1291.2500      0.0000    724.0915     20.8047    141.5162
  1291.5000      0.0000    731.6859     21.1247    135.4938
  1291.7500      0.0000    734.7368     21.3205    133.2078
  1292.0000      0.0000    727.1746     21.3161    134.6059
  1292.2500      0.0000    709.5978     21.0248    138.0227
  1292.5000      0.0000    691.2285     20.4157    141.0752
  1292.7500      0.0000    683.7745     19.5715    141.7993
  1293.0000      0.0000    692.0095     18.6681    139.5384
  1293.2500      0.0000    709.7210     17.8879    135.1321
  1293.5000      0.0000    725.2523     17.3438    130.1298
  1293.7500      0.0000    731.7504     17.0843    125.6097
  1294.0000      0.0000    731.2418     17.1544    121.7220
  1294.2500      0.0000    728.1897     17.6184    118.4601
  1294.5000      0.0000    721.1107     18.5210    116.7591
  1294.7500      0.0000    701.7202     19.8623    118.2207
  1295.0000      0.0000    660.8898     21.6267    123.3764
  1295.2500      0.0000    595.9899     23.8034    130.8115
  1295.5000      0.0000    515.3281     26.3535    138.5601
  1295.7500      0.0000    435.7691     29.1955    145.7091
  1296.0000      0.0000    373.2588     32.2559    151.8427
  1296.2500      0.0000    334.0570     35.4970    155.7288
  1296.5000      0.0000    314.2919     38.8479    155.9011
