~Version Information
VERS.                      2.0: CWLS Log ASCII Standard - VERSION 2.0
WRAP.                       NO: One line per depth step
~Well Information Block
STRT.FT                 8.7500: 
STOP.FT              2723.0000: 
STEP.FT                 0.2500: 
NULL.                -999.2500: 
COMP.          Pioneer Natural Resources: COMPANY
WELL.           Desoto 13-7 Tr: WELL
FLD.           Purgatoire River: FIELD
LOC.           1404' FSL & 1115' FWL: LOCATION
PROV.                 Colorado: PROVINCE
CNTY.               Las Animas: COUNTRY
SRVC.                Patterson: SERVICE COMPANY
DATE.          Wed Mar 16 18:00:51 2005: LOG DATE
UWI.           05 071 08216 00: UNIQUE WELL ID
~Curve Information Block
DEPT.FT            0 000 00 00: Depth
GR.GAPI                       : Gamma Ray
CCL.                          : Casing Collar Locator
TT3.usec                      : CBL 3' Travel Time
AMP3.mV                       : CBL 3' Amplitude
AMP5.mV                       : CBL 5' Amplitude
~Parameter Information Block
~A  Depth        GR         CCL         TT3         AMP3        AMP5    
# ...
   736.7500     79.3524      0.0000   1333.7004      8.7892      1.4911
   737.0000     81.6616      0.0000   1345.0734      9.0935      1.4900
   737.2500     84.4081      0.0000   1348.7946      9.4586      1.4692
   737.5000     86.6405      0.0000   1349.6062      9.8106      1.4375
   737.7500     87.7517      0.0000   1349.0571     10.0762      1.4018
   738.0000     87.5589      0.0000   1346.3188     10.2089      1.3646
   738.2500     86.2847      0.0000   1338.3125     10.2010      1.3295
   738.5000     84.4285      0.0000   1320.5835     10.0798      1.3026
   738.7500     82.2630      0.0000   1290.7927      9.8987      1.2886
   739.0000     79.4873      0.0000   1253.6589      9.7309      1.2880
   739.2500     75.8761      0.0000   1221.7843      9.6477      1.2985
   739.5000     72.2081      0.0000   1209.1368      9.6842      1.3161
   739.7500     69.9494      0.0000   1221.7832      9.8165      1.3353
   740.0000     69.9497      0.0000   1253.6573      9.9751      1.3529
   740.2500     71.9349      0.0000   1290.7914     10.0819      1.3715
   740.5000     75.1866      0.0000   1320.5826     10.0850      1.3972
   740.7500     79.0418      0.0000   1338.3121      9.9745      1.4319
   741.0000     82.6915      0.0000   1346.3187      9.7785      1.4686
   741.2500     85.2802      0.0000   1349.0865      9.5462      1.4956
   741.5000     86.6713      0.0000   1349.8254      9.3283      1.5028
   741.7500     87.7142      0.0000   1349.9733      9.1715      1.4865
   742.0000     89.2155      0.0000   1350.0000      9.1176      1.4520
   742.2500     90.6982      0.0000   1350.0000      9.1874      1.4138
   742.5000     90.7204      0.0000   1350.0000      9.3607      1.3869
   742.7500     88.4702      0.0000   1350.0000      9.5845      1.3762
   743.0000     84.6216      0.0000   1350.0000      9.8131      1.3771
   743.2500     80.7335      0.0000   1350.0000     10.0363      1.3842
   743.5000     78.2689      0.0000   1350.0000     10.2629      1.3955
   743.7500     77.9016      0.0000   1350.0000     10.4843      1.4102
   744.0000     79.1207      0.0000   1350.0000     10.6632      1.4278
   744.2500     80.6033      0.0000   1350.0000     10.7631      1.4497
   744.5000     81.2139      0.0000   1350.0000     10.7879      1.4761
   744.7500     80.4891      0.0000   1350.0000     10.7861      1.5034
   745.0000     78.3918      0.0000   1350.0000     10.8121      1.5266
   745.2500     75.3186      0.0000   1350.0000     10.8856      1.5455
   745.5000     72.4457      0.0000   1350.0000     10.9879      1.5638
   745.7500     71.4282      0.0000   1350.0000     11.0901      1.5832
   746.0000     73.2307      0.0000   1350.0000     11.1808      1.6018
   746.2500     77.2887      0.0000   1350.0000     11.2670      1.6169
   746.5000     82.0023      0.0000   1350.0000     11.3597      1.6275
   746.7500     85.9154      0.0000   1350.0000     11.4669      1.6333
   747.0000     88.2849      0.0000   1350.0000     11.5988      1.6352
   747.2500     89.0240      0.0000   1350.0000     11.7632      1.6366
   747.5000     88.6986      0.0000   1350.0000     11.9470      1.6409
   747.7500     88.3255      0.0000   1350.0000     12.1098      1.6466
   748.0000     88.5616      0.0000   1350.0000     12.2081      1.6491
   748.2500     89.0404      0.0000   1350.0000     12.2244      1.6469
   748.5000     88.7364      0.0000   1349.9730     12.1724      1.6431
   748.7500     86.9944      0.0000   1349.8243     12.0825      1.6404
   749.0000     84.1608      0.0000   1349.0840     11.9904      1.6373
   749.2500     81.3437      0.0000   1346.2889     11.9262      1.6312
   749.5000     79.6526      0.0000   1338.1387     11.8973      1.6219
   749.7500     79.5246      0.0000   1319.7092     11.8793      1.6093
   750.0000     80.5354      0.0000   1287.0516     11.8336      1.5919
   750.2500     81.8029      0.0000   1240.5884     11.7348      1.5701
   750.5000     82.6938      0.0000   1185.1426     11.5773      1.5493
   750.7500     83.1460      0.0000   1126.5735     11.3649      1.5353
   751.0000     83.2947      0.0000   1070.6101     11.1106      1.5290
   751.2500     83.0657      0.0000   1025.0396     10.8463      1.5277
   751.5000     82.3940      0.0000   1000.0427     10.6174      1.5290
   751.7500     81.6787      0.0000   1004.9125     10.4564      1.5306
   752.0000     81.6418      0.0000   1043.6901     10.3686      1.5273
   752.2500     82.5777      0.0000   1110.8260     10.3434      1.5154
   752.5000     83.8683      0.0000   1189.8752     10.3673      1.4987
   752.7500     84.3629      0.0000   1260.2441     10.4232      1.4866
   753.0000     83.2380      0.0000   1308.6775     10.4901      1.4843
   753.2500     80.4953      0.0000   1334.6039     10.5539      1.4869
   753.5000     76.8310      0.0000   1345.4069     10.6165      1.4858
   753.7500     73.3243      0.0000   1348.9127     10.6884      1.4776
   754.0000     71.2268      0.0000   1349.7988     10.7774      1.4641
   754.2500     71.4896      0.0000   1349.9733     10.8870      1.4477
   754.5000     74.0445      0.0000   1350.0000     11.0165      1.4308
   754.7500     77.6501      0.0000   1350.0000     11.1521      1.4198
   755.0000     80.8170      0.0000   1350.0000     11.2590      1.4228
   755.2500     82.9655      0.0000   1350.0000     11.2952      1.4418
   755.5000     84.5492      0.0000   1350.0000     11.2419      1.4682
   755.7500     86.1488      0.0000   1350.0000     11.1192      1.4880
   756.0000     87.6774      0.0000   1350.0000     10.9710      1.4936
   756.2500     88.3604      0.0000   1350.0000     10.8366      1.4886
   756.5000     87.1420      0.0000   1350.0000     10.7353      1.4817
   756.7500     83.3104      0.0000   1350.0000     10.6701      1.4765
   757.0000     77.3602      0.0000   1350.0000     10.6367      1.4690
   757.2500     71.2775      0.0000   1350.0000     10.6277      1.4551
   757.5000     67.3160      0.0000   1350.0000     10.6339      1.4388
   757.7500     66.1968      0.0000   1350.0000     10.6433      1.4303
   758.0000     66.8204      0.0000   1350.0000     10.6434      1.4355
   758.2500     67.8373      0.0000   1350.0000     10.6278      1.4508
   758.5000     69.1396      0.0000   1350.0000     10.6074      1.4659
   758.7500     71.5315      0.0000   1350.0000     10.6091      1.4739
   759.0000     75.2649      0.0000   1350.0000     10.6548      1.4766
   759.2500     79.4322      0.0000   1350.0000     10.7400      1.4786
   759.5000     82.6640      0.0000   1350.0000     10.8355      1.4787
   759.7500     83.8802      0.0000   1349.9761     10.9111      1.4705
   760.0000     82.5572      0.0000   1349.8203     10.9536      1.4528
   760.2500     79.1689      0.0000   1349.0288     10.9653      1.4349
   760.5000     75.5529      0.0000   1345.8983     10.9547      1.4290
   760.7500     74.0168      0.0000   1336.2787     10.9322      1.4391
   761.0000     75.4988      0.0000   1313.2986     10.9125      1.4574
   761.2500     78.8219      0.0000   1270.8597     10.9126      1.4711
   761.5000     81.8351      0.0000   1211.0774     10.9389      1.4713
   761.7500     83.0165      0.0000   1149.4125     10.9788      1.4585
   762.0000     82.1518      0.0000   1109.6008     11.0099      1.4407
   762.2500     80.0752      0.0000   1109.5587     11.0192      1.4259
   762.5000     77.9591      0.0000   1149.3102     11.0124      1.4185
   762.7500     76.5868      0.0000   1210.9662     11.0066      1.4197
   763.0000     76.0679      0.0000   1270.7540     11.0155      1.4310
   763.2500     76.1558      0.0000   1313.0984     11.0427      1.4527
   763.5000     76.7718      0.0000   1335.4690     11.0886      1.4809
   763.7500     78.2811      0.0000   1342.7626     11.1573      1.5083
   764.0000     81.2698      0.0000   1339.3868     11.2505      1.5297
   764.2500     85.8167      0.0000   1326.6937     11.3539      1.5463
   764.5000     90.7739      0.0000   1306.7705     11.4403      1.5630
