~Version Information
VERS.                      2.0: CWLS Log ASCII Standard - VERSION 2.0
WRAP.                       NO: One line per depth step
~Well Information Block
STRT.FT               580.0000: 
STOP.FT              2729.7000: 
STEP.FT                 0.1000: 
NULL.                -999.2500: 
COMP.          Pioneer Natural Resources: COMPANY
WELL.          Sand Pebbles 13-33: WELL
FLD.           Purgatoire River: FIELD
LOC.           1883' FSL & 63' FWL----: LOCATION
PROV.                 Colorado: PROVINCE
CNTY.               Las Animas: COUNTRY
SRVC.                Patterson: SERVICE COMPANY
DATE.          Mon Mar 14 07:33:33 2005: LOG DATE
UWI.           05 071 08224 00: UNIQUE WELL ID
~Curve Information Block
DEPT.FT            0 000 00 00: Depth
DCAL.in                       : CDL Caliper
RHOB.g/cc                     : CDL Bulk Density
RHOC.g/cc                     : CDL Density Correction
DPOR.pu                       : CDL Density Porosity
NPOR.pu                       : Neutron Porosity
GR.GAPI                       : Gamma Ray
~Parameter Information Block
~A  Depth       DCAL        RHOB        RHOC        DPOR        NPOR         GR     
# ...
  2423.2000      7.8918      2.5892      0.0243      3.6866     24.6937     76.6123
  2423.3000      7.8769      2.5768      0.0583      4.4390     23.9688     80.6184
  2423.4000      7.8769      2.5649      0.0078      5.1561     23.4965     84.5853
  2423.5000      7.8613      2.5678      0.0115      4.9818     23.6074     85.1454
  2423.6000      7.8613      2.5931      0.0308      3.4459     23.6494     82.3823
  2423.7000      7.8613      2.6244      0.0678      1.5540     23.1593     79.8259
  2423.8000      7.8483      2.6399      0.0709      0.6136     22.8376     75.9966
  2423.9000      7.8483      2.6387      0.0667      0.6826     23.1332     69.6340
  2424.0000      7.8432      2.6298      0.0875      1.2246     23.1825     66.1640
  2424.1000      7.8432      2.6194      0.0357      1.8544     22.4314     67.4662
  2424.2000      7.8432      2.6125      0.0513      2.2702     21.6976     72.3092
  2424.3000      7.8429      2.6044      0.0571      2.7622     21.6394     78.3651
  2424.4000      7.8429      2.5868      0.0381      3.8299     21.7493     80.8751
  2424.5000      7.8430      2.5675      0.0285      5.0024     21.7013     79.3240
  2424.6000      7.8430      2.5618      0.0169      5.3431     21.7957     78.8738
  2424.7000      7.8430      2.5657      0.0422      5.1088     21.9693     81.6001
  2424.8000      7.8447      2.5618      0.0305      5.3459     22.2738     84.7416
  2424.9000      7.8447      2.5486      0.0213      6.1451     22.8658     84.3195
  2425.0000      7.8477      2.5403      0.0066      6.6479     23.2553     80.7272
  2425.1000      7.8477      2.5459      0.0376      6.3076     23.0522     78.5855
  2425.2000      7.8477      2.5609      0.0307      5.3989     22.8177     78.6528
  2425.3000      7.8505      2.5831      0.0610      4.0553     23.3459     78.6952
  2425.4000      7.8505      2.6127      0.0531      2.2609     24.3217     77.0110
  2425.5000      7.8535      2.6347      0.1075      0.9251     24.7047     73.3446
  2425.6000      7.8535      2.6345      0.0923      0.9371     24.4708     72.1916
  2425.7000      7.8535      2.6191      0.1049      1.8702     24.4399     77.1707
  2425.8000      7.8562      2.6021      0.0718      2.9020     25.0312     84.6938
  2425.9000      7.8562      2.5967      0.0476      3.2298     26.0023     89.2837
  2426.0000      7.8549      2.6097      0.0707      2.4417     26.6127     89.1187
  2426.1000      7.8549      2.6225      0.1041      1.6688     26.4025     84.7322
  2426.2000      7.8549      2.6134      0.0691      2.2183     25.8129     79.1215
  2426.3000      7.8514      2.5835      0.0656      4.0273     25.5772     77.1251
  2426.4000      7.8514      2.5416      0.0281      6.5722     25.8899     79.9863
  2426.5000      7.8515      2.5020      0.0217      8.9707     26.2656     86.9173
  2426.6000      7.8515      2.4764      0.0047     10.5182     26.2936     94.2201
  2426.7000      7.8515      2.4622      0.0231     11.3804     26.0519     96.1123
  2426.8000      7.8533      2.4608      0.0345     11.4696     25.7861     93.6535
  2426.9000      7.8533      2.4800      0.0245     10.3028     25.7257     91.1922
  2427.0000      7.8524      2.5141      0.0536      8.2335     25.8923     89.0588
  2427.1000      7.8524      2.5426      0.0642      6.5107     26.0008     87.0117
  2427.2000      7.8524      2.5573      0.0691      5.6196     25.7995     87.0423
  2427.3000      7.8494      2.5769      0.0870      4.4315     25.3234     89.4046
  2427.4000      7.8494      2.6095      0.1289      2.4571     24.6804     91.8351
  2427.5000      7.8463      2.6368      0.1206      0.8025     24.1670     92.4466
  2427.6000      7.8463      2.6489      0.1206      0.0684     24.5090     93.1319
  2427.7000      7.8463      2.6527      0.1051     -0.1615     25.5978     98.0737
  2427.8000      7.8456      2.6470      0.1395      0.1789     26.1498    104.9101
  2427.9000      7.8456      2.6185      0.1332      1.9116     25.7603    105.4709
  2428.0000      7.8456      2.5733      0.0489      4.6483     25.1706     98.9296
  2428.1000      7.8456      2.5377      0.0479      6.8038     24.9562     92.5524
  2428.2000      7.8456      2.5154      0.0927      8.1566     25.2023     90.4922
  2428.3000      7.8423      2.4996      0.0304      9.1172     25.8280     92.0061
  2428.4000      7.8423      2.4974      0.0550      9.2458     26.6124     94.2467
  2428.5000      7.8404      2.5046      0.0380      8.8143     26.8834     96.3157
  2428.6000      7.8404      2.5147      0.0118      8.2024     26.3236    100.5466
  2428.7000      7.8404      2.5344      0.0632      7.0064     25.6100    104.7333
  2428.8000      7.8457      2.5559      0.1149      5.7031     25.4616    102.1533
  2428.9000      7.8457      2.5630      0.0986      5.2756     26.1060     91.3393
  2429.0000      7.8500      2.5480      0.1052      6.1826     27.2123     79.1365
  2429.1000      7.8500      2.5071      0.0784      8.6625     28.0151     76.3928
  2429.2000      7.8500      2.4493      0.0359     12.1658     28.0018     85.6169
  2429.3000      7.8492      2.3962     -0.0061     15.3845     27.2612     96.2896
  2429.4000      7.8492      2.3584      0.0165     17.6752     26.5052     97.4937
  2429.5000      7.8484      2.3304     -0.0286     19.3702     26.3696     88.7774
  2429.6000      7.8484      2.3102     -0.0764     20.5967     26.5197     78.4980
  2429.7000      7.8484      2.2985     -0.0231     21.3057     26.0861     72.6539
  2429.8000      7.8494      2.2878      0.0227     21.9528     24.8754     69.1947
  2429.9000      7.8494      2.2820     -0.0152     22.3019     23.6764     64.4768
  2430.0000      7.8493      2.2970      0.0621     21.3955     23.0493     58.2613
  2430.1000      7.8493      2.3307      0.0820     19.3511     22.9186     52.7208
  2430.2000      7.8493      2.3643      0.1131     17.3126     23.4489     48.2766
  2430.3000      7.8493      2.3793      0.1139     16.4074     24.4559     44.8721
  2430.4000      7.8493      2.3614      0.1281     17.4896     24.9321     42.7327
  2430.5000      7.8502      2.3050      0.0919     20.9103     24.7810     40.8348
  2430.6000      7.8502      2.2216     -0.0147     25.9636     25.0086     39.1487
  2430.7000      7.8502      2.1326     -0.0378     31.3570     25.6416     37.3584
  2430.8000      7.8509      2.0549     -0.0806     36.0644     25.5601     35.2764
  2430.9000      7.8509      1.9891     -0.1015     40.0522     24.7425     34.7981
  2431.0000      7.8493      1.9179     -0.1021     44.3667     24.1767     36.6497
  2431.1000      7.8493      1.8350     -0.1429     49.3937     24.3204     38.0540
  2431.2000      7.8493      1.7695     -0.1922     53.3647     24.9315     36.4686
  2431.3000      7.8463      1.7561     -0.0780     54.1739     25.4948     31.8111
  2431.4000      7.8463      1.7839      0.0371     52.4894     25.7618     26.8484
  2431.5000      7.8441      1.8138      0.0603     50.6818     25.8377     26.5272
  2431.6000      7.8441      1.8295      0.0573     49.7273     25.9589     31.5370
  2431.7000      7.8441      1.8380      0.0670     49.2108     26.0703     36.2101
  2431.8000      7.8444      1.8508      0.0603     48.4334     25.8548     37.1185
  2431.9000      7.8444      1.8807      0.0681     46.6236     25.1276     36.6591
  2432.0000      7.8468      1.9340      0.0727     43.3958     24.1651     37.2943
  2432.1000      7.8468      2.0003      0.1170     39.3759     23.2602     38.5733
  2432.2000      7.8468      2.0587      0.1143     35.8365     22.3906     38.7053
  2432.3000      7.8487      2.1008      0.1282     33.2839     21.8214     37.6190
  2432.4000      7.8487      2.1452      0.0939     30.5931     21.5288     37.5029
  2432.5000      7.8495      2.2196      0.1236     26.0866     21.0455     38.4944
  2432.6000      7.8495      2.3245      0.1514     19.7272     20.3992     38.2733
  2432.7000      7.8495      2.4327      0.1739     13.1709     19.9950     36.2360
