~Version Information
VERS.                      2.0: CWLS Log ASCII Standard - VERSION 2.0
WRAP.                       NO: One line per depth step
~Well Information Block
STRT.FT               483.0000: 
STOP.FT              1701.5000: 
STEP.FT                 0.1000: 
NULL.                -999.2500: 
COMP.          Pioneer Natural Resources: COMPANY
WELL.            Mad Dog 42-31: WELL
FLD.           Purgatorie River: FIELD
LOC.           2064' FNL & 479' FEL: LOCATION
PROV.                 Colorado: PROVINCE
CNTY.               Las Animas: COUNTRY
SRVC.                         : SERVICE COMPANY
DATE.          Sun Oct 10 04:38:02 2004: LOG DATE
UWI.           05 071 08195 00: UNIQUE WELL ID
~Curve Information Block
DEPT.FT            0 000 00 00: Depth
LTEN.lb                       : Surface Line Tension
DCAL.in                       : CDL Caliper
RHOB.g/cc                     : CDL Bulk Density
RHOC.g/cc                     : CDL Density Correction
DPOR.pu                       : CDL Density Porosity
GR.GAPI                       : Gamma Ray
NPOR.pu                       : Neutron Porosity
~Parameter Information Block
~A  Depth       LTEN        DCAL        RHOB        RHOC        DPOR         GR         NPOR    
# ...
  1692.6000   1163.9460      7.8198      2.6509      0.1491     -0.0529   -999.2500   -999.2500
  1692.7000   1163.9460      7.8198      2.6463      0.0992      0.2235   -999.2500   -999.2500
  1692.8000   1167.7742      7.7903      2.6380      0.1446      0.7263   -999.2500   -999.2500
  1692.9000   1167.7742      7.7903      2.6168      0.1097      2.0126   -999.2500   -999.2500
  1693.0000   1144.8374      7.7938      2.5887      0.0696      3.7172   -999.2500   -999.2500
  1693.1000   1144.8374      7.7938      2.5642      0.0364      5.1973   -999.2500   -999.2500
  1693.2000   1144.8374      7.7938      2.5442      0.0263      6.4128   -999.2500   -999.2500
  1693.3000   1171.9954      7.8052      2.5335      0.0087      7.0612   -999.2500   -999.2500
  1693.4000   1171.9954      7.8052      2.5347      0.0629      6.9851   -999.2500   -999.2500
  1693.5000   1120.7439      7.8118      2.5391      0.0742      6.7213   -999.2500   -999.2500
  1693.6000   1120.7439      7.8118      2.5398      0.0416      6.6793   -999.2500   -999.2500
  1693.7000   1120.7439      7.8118      2.5421      0.0534      6.5379   -999.2500   -999.2500
  1693.8000   1173.5426      7.8201      2.5560      0.0719      5.6994   -999.2500   -999.2500
  1693.9000   1173.5426      7.8201      2.5724      0.0877      4.7037   -999.2500   -999.2500
  1694.0000   1118.0131      7.8041      2.5713      0.0655      4.7683   -999.2500   -999.2500
  1694.1000   1118.0131      7.8041      2.5568      0.0494      5.6515   -999.2500   -999.2500
  1694.2000   1118.0131      7.8041      2.5515      0.0234      5.9718   -999.2500   -999.2500
  1694.3000   1180.1494      7.7978      2.5623      0.0794      5.3138   -999.2500   -999.2500
  1694.4000   1180.1494      7.7978      2.5720      0.0566      4.7300   -999.2500   -999.2500
  1694.5000   1107.5817      7.8008      2.5725      0.0491      4.6996   -999.2500   -999.2500
  1694.6000   1107.5817      7.8008      2.5681      0.0583      4.9653   -999.2500   -999.2500
  1694.7000   1107.5817      7.8008      2.5612      0.0497      5.3812   -999.2500   -999.2500
  1694.8000   1144.4160      7.8111      2.5606      0.0562      5.4196   -999.2500   -999.2500
  1694.9000   1144.4160      7.8111      2.5685      0.0450      4.9399   -999.2500   -999.2500
  1695.0000   1156.7831      7.8230      2.5745      0.0259      4.5780   -999.2500   -999.2500
  1695.1000   1156.7831      7.8230      2.5697      0.0705      4.8683   -999.2500   -999.2500
  1695.2000   1156.7831      7.8230      2.5586      0.0032      5.5394   -999.2500   -999.2500
  1695.3000   1125.5867      7.8289      2.5546      0.0549      5.7840   -999.2500   -999.2500
  1695.4000   1125.5867      7.8289      2.5509      0.0446      6.0057   -999.2500   -999.2500
  1695.5000   1169.5193      7.8307      2.5333      0.0254      7.0726   -999.2500   -999.2500
  1695.6000   1169.5193      7.8307      2.5150     -0.0149      8.1821   -999.2500   -999.2500
  1695.7000   1169.5193      7.8307      2.5154      0.0229      8.1563   -999.2500   -999.2500
  1695.8000   1122.8309      7.8261      2.5233      0.0820      7.6797   -999.2500   -999.2500
  1695.9000   1122.8309      7.8261      2.5257      0.0127      7.5362   -999.2500   -999.2500
  1696.0000   1189.6135      7.8279      2.5363      0.0556      6.8938   -999.2500   -999.2500
  1696.1000   1189.6135      7.8279      2.5593      0.0384      5.4963   -999.2500   -999.2500
  1696.2000   1189.6135      7.8279      2.5752      0.0918      4.5349   -999.2500   -999.2500
  1696.3000   1123.1428      7.8227      2.5697      0.0457      4.8688   -999.2500   -999.2500
  1696.4000   1123.1428      7.8227      2.5524      0.0225      5.9163   -999.2500   -999.2500
  1696.5000   1172.6715      7.8246      2.5412      0.0289      6.5910   -999.2500   -999.2500
  1696.6000   1172.6715      7.8246      2.5476      0.0223      6.2043   -999.2500   -999.2500
  1696.7000   1172.6715      7.8246      2.5680      0.0646      4.9692   -999.2500   -999.2500
  1696.8000   1136.3701      7.8186      2.5806      0.0974      4.2064   -999.2500   -999.2500
  1696.9000   1136.3701      7.8186      2.5757      0.0508      4.5038   -999.2500   -999.2500
  1697.0000   1186.0820      7.8223      2.5722      0.0624      4.7136   -999.2500   -999.2500
  1697.1000   1186.0820      7.8223      2.5836      0.0662      4.0227   -999.2500   -999.2500
  1697.2000   1186.0820      7.8223      2.5946      0.1052      3.3599   -999.2500   -999.2500
  1697.3000   1136.2390      7.8004      2.5892      0.0503      3.6858   -999.2500   -999.2500
  1697.4000   1136.2390      7.8004      2.5781      0.0749      4.3599   -999.2500   -999.2500
  1697.5000   1145.0822      7.8144      2.5699      0.0524      4.8569   -999.2500   -999.2500
  1697.6000   1145.0822      7.8144      2.5515      0.0648      5.9678   -999.2500   -999.2500
  1697.7000   1145.0822      7.8144      2.5145      0.0794      8.2124   -999.2500   -999.2500
  1697.8000   1155.4576      7.8050      2.4923      0.0362      9.5555   -999.2500   -999.2500
  1697.9000   1155.4576      7.8050      2.5482      0.0173      6.1684   -999.2500   -999.2500
  1698.0000   1110.4010      7.7382      2.5790      0.0523      4.3018   -999.2500   -999.2500
  1698.1000   1110.4010      7.7382      2.1660      0.4495     29.3307   -999.2500   -999.2500
  1698.2000   1110.4010      7.7382      1.2333      0.0000     85.8633   -999.2500   -999.2500
  1698.3000   1167.2828      7.3217      0.4188      0.0000    135.2271   -999.2500   -999.2500
  1698.4000   1167.2828      7.3217      0.0796   -999.2500    155.7837   -999.2500   -999.2500
  1698.5000   1129.5371      6.8516      0.0082   -999.2500    160.1088   -999.2500   -999.2500
  1698.6000   1129.5371      6.8516      0.0004   -999.2500    160.5791   -999.2500   -999.2500
  1698.7000   1129.5371      6.8516      0.0000   -999.2500    160.6061   -999.2500   -999.2500
  1698.8000   1077.2118      5.0356      0.0000   -999.2500    160.6061   -999.2500   -999.2500
  1698.9000   1077.2118      5.0356   -999.2500   -999.2500   -999.2500   -999.2500   -999.2500
  1699.0000   1169.7684      4.7930   -999.2500   -999.2500   -999.2500   -999.2500   -999.2500
  1699.1000   1169.7684      4.7930   -999.2500   -999.2500   -999.2500   -999.2500   -999.2500
  1699.2000   1169.7684      4.7930   -999.2500   -999.2500   -999.2500   -999.2500   -999.2500
  1699.3000   1147.6532   -999.2500   -999.2500   -999.2500   -999.2500   -999.2500   -999.2500
  1699.4000   1147.6532   -999.2500   -999.2500   -999.2500   -999.2500   -999.2500   -999.2500
  1699.5000   1094.6655   -999.2500   -999.2500   -999.2500   -999.2500   -999.2500   -999.2500
  1699.6000   1094.6655   -999.2500   -999.2500   -999.2500   -999.2500   -999.2500   -999.2500
  1699.7000   1094.6655   -999.2500   -999.2500   -999.2500   -999.2500   -999.2500   -999.2500
  1699.8000   1144.4548   -999.2500   -999.2500   -999.2500   -999.2500   -999.2500   -999.2500
  1699.9000   1144.4548   -999.2500   -999.2500   -999.2500   -999.2500   -999.2500   -999.2500
  1700.0000   1169.3375   -999.2500   -999.2500   -999.2500   -999.2500   -999.2500   -999.2500
  1700.1000   1169.3375   -999.2500   -999.2500   -999.2500   -999.2500   -999.2500   -999.2500
  1700.2000   1169.3375   -999.2500   -999.2500   -999.2500   -999.2500   -999.2500   -999.2500
  1700.3000   1185.5417   -999.2500   -999.2500   -999.2500   -999.2500   -999.2500   -999.2500
  1700.4000   1185.5417   -999.2500   -999.2500   -999.2500   -999.2500   -999.2500   -999.2500
  1700.5000   1136.1112   -999.2500   -999.2500   -999.2500   -999.2500   -999.2500   -999.2500
  1700.6000   1136.1112   -999.2500   -999.2500   -999.2500   -999.2500   -999.2500   -999.2500
  1700.7000   1136.1112   -999.2500   -999.2500   -999.2500   -999.2500   -999.2500   -999.2500
  1700.8000   1195.2075   -999.2500   -999.2500   -999.2500   -999.2500   -999.2500   -999.2500
  1700.9000   1195.2075   -999.2500   -999.2500   -999.2500   -999.2500   -999.2500   -999.2500
