~Version Information
VERS.                      2.0: CWLS Log ASCII Standard - VERSION 2.0
WRAP.                       NO: One line per depth step
~Well Information Block
STRT.FT               640.0000: 
STOP.FT               927.0000: 
STEP.FT                 0.1000: 
NULL.                -999.2500: 
COMP.          Pioneer Natural Resources: COMPANY
WELL.          Claim Jumper 41-22: WELL
FLD.           Purgatoire River: FIELD
LOC.           1120' FNL & 977' FEL: LOCATION
PROV.                 Colorado: PROVINCE
CNTY.               Las Animas: COUNTRY
SRVC.                Patterson: SERVICE COMPANY
DATE.          Thu Jun 23 08:35:14 2005: LOG DATE
UWI.           05-071-08405-00: UNIQUE WELL ID
~Curve Information Block
DEPT.FT            0 000 00 00: Depth
DCAL.in                       : CDL Caliper
RHOB.g/cc                     : CDL Bulk Density
RHOC.g/cc                     : CDL Density Correction
DPOR.pu                       : CDL Density Porosity
GR.GAPI                       : Gamma Ray
NPOR.pu                       : Neutron Porosity
~Parameter Information Block
~A  Depth       DCAL        RHOB        RHOC        DPOR         GR         NPOR    
# ...
   889.6000      7.8729      2.6395      0.0432      0.6370    103.3019     23.7721
   889.7000      7.8729      2.6283      0.0637      1.3162    107.1776     23.3737
   889.8000      7.8816      2.6215      0.0139      1.7280    105.0230     23.0896
   889.9000      7.8816      2.6219      0.0211      1.7017    103.8844     23.0202
   890.0000      7.8870      2.6203      0.0972      1.7977    108.1517     23.3088
   890.1000      7.8870      2.6161      0.0468      2.0560    109.8049     23.7440
   890.2000      7.8870      2.6255      0.0998      1.4855    106.6564     23.8129
   890.3000      7.8880      2.6445      0.0749      0.3355    104.0225     23.5554
   890.4000      7.8880      2.6519      0.1067     -0.1156    106.4264     23.2919
   890.5000      7.8839      2.6423      0.1117      0.4668    113.3375     23.0303
   890.6000      7.8839      2.6313      0.1255      1.1313    118.7628     22.9118
   890.7000      7.8839      2.6330      0.1196      1.0295    119.2314     23.3158
   890.8000      7.8774      2.6394      0.1142      0.6433    116.5809     23.9201
   890.9000      7.8774      2.6298      0.1521      1.2246    113.3859     24.0226
   891.0000      7.8794      2.6002      0.1004      3.0167    114.3032     23.8021
   891.1000      7.8794      2.5734      0.0660      4.6445    119.5606     23.8395
   891.2000      7.8794      2.5688      0.0673      4.9242    121.7667     24.0179
   891.3000      7.8846      2.5768      0.0949      4.4378    118.0261     24.0308
   891.4000      7.8846      2.5792      0.0685      4.2900    116.4561     24.0005
   891.5000      7.8785      2.5779      0.0911      4.3704    123.5615     24.1432
   891.6000      7.8785      2.5808      0.1049      4.1948    134.8753     24.5544
   891.7000      7.8785      2.5856      0.0784      3.9028    143.5766     25.1034
   891.8000      7.8694      2.5854      0.1282      3.9150    142.3969     25.3713
   891.9000      7.8694      2.5821      0.1093      4.1123    130.3822     24.9714
   892.0000      7.8678      2.5868      0.0879      3.8291    121.5594     24.1827
   892.1000      7.8678      2.5979      0.0948      3.1570    122.7503     23.7420
   892.2000      7.8678      2.6013      0.1393      2.9538    125.8426     23.7953
   892.3000      7.8698      2.5964      0.1054      3.2506    127.3784     24.1437
   892.4000      7.8698      2.6011      0.0926      2.9611    129.9413     24.8038
   892.5000      7.8673      2.6087      0.2231      2.5059    131.3031     25.3382
   892.6000      7.8673      2.5903      0.1099      3.6207    127.4625     25.2269
   892.7000      7.8673      2.5536      0.1016      5.8428    123.6321     24.8091
   892.8000      7.8622      2.5334      0.0763      7.0653    128.7643     24.7269
   892.9000      7.8622      2.5478      0.0884      6.1939    137.7031     25.1524
   893.0000      7.8583      2.5791      0.1315      4.2954    139.4993     25.8073
   893.1000      7.8583      2.5937      0.1437      3.4105    136.1603     26.0156
   893.2000      7.8583      2.5815      0.1459      4.1527    134.6677     25.5447
   893.3000      7.8590      2.5638      0.1323      5.2272    135.0877     25.0618
   893.4000      7.8590      2.5588      0.1095      5.5256    130.6360     24.9821
   893.5000      7.8669      2.5593      0.1381      5.4950    117.2430     25.1473
   893.6000      7.8669      2.5530      0.1021      5.8786    101.3351     25.2642
   893.7000      7.8669      2.5393      0.1250      6.7091     92.4499     25.0987
   893.8000      7.8787      2.5169      0.1282      8.0678     93.6382     24.6422
   893.9000      7.8787      2.4899      0.0883      9.7037     96.6445     24.1776
   894.0000      7.8870      2.4735      0.0805     10.6999     93.3087     23.8660
   894.1000      7.8870      2.4732      0.0928     10.7151     90.0821     23.5555
   894.2000      7.8870      2.4747      0.0730     10.6260     92.2304     23.1863
   894.3000      7.8905      2.4632      0.0864     11.3187     94.0520     22.9227
   894.4000      7.8905      2.4471      0.0790     12.2947     94.4240     22.8001
   894.5000      7.8936      2.4398      0.0933     12.7404     99.7628     22.6338
   894.6000      7.8936      2.4419      0.0486     12.6126    111.6420     22.4070
   894.7000      7.8936      2.4553      0.0485     11.8022    125.0230     22.2250
   894.8000      7.8946      2.4784      0.0940     10.4018    136.8925     22.2330
   894.9000      7.8946      2.5036      0.0955      8.8713    145.4512     22.6285
   895.0000      7.8883      2.5319      0.0841      7.1555    145.4535     23.1563
   895.1000      7.8883      2.5620      0.0862      5.3314    138.3230     23.4130
   895.2000      7.8883      2.5825      0.0933      4.0911    130.7645     23.5590
   895.3000      7.8783      2.5836      0.1219      4.0254    125.0144     23.8142
   895.4000      7.8783      2.5625      0.0608      5.3056    124.9697     23.9027
   895.5000      7.8703      2.5264      0.0352      7.4903    133.0187     23.8609
   895.6000      7.8703      2.5000     -0.0107      9.0905    141.3869     24.0207
   895.7000      7.8703      2.5025      0.0538      8.9375    140.8197     24.1344
   895.8000      7.8641      2.5213      0.0638      7.7991    128.0754     23.7473
   895.9000      7.8641      2.5393      0.1128      6.7116    108.6871     23.0890
   896.0000      7.8555      2.5638      0.0735      5.2268     96.7517     22.9395
   896.1000      7.8555      2.6013      0.1528      2.9526     98.1453     23.3574
   896.2000      7.8555      2.6329      0.1492      1.0381    104.1532     23.6198
   896.3000      7.8454      2.6429      0.1655      0.4314    110.9504     23.4625
   896.4000      7.8454      2.6347      0.1399      0.9259    121.5783     23.1045
   896.5000      7.8411      2.6125      0.1525      2.2734    132.3267     22.8460
   896.6000      7.8411      2.5840      0.1131      3.9992    133.1931     22.9238
   896.7000      7.8411      2.5735      0.0465      4.6364    120.9487     23.3571
   896.8000      7.8510      2.5884      0.1233      3.7333    107.7031     23.9942
   896.9000      7.8510      2.6024      0.1012      2.8821    107.4692     24.5978
   897.0000      7.8743      2.6031      0.0641      2.8398    117.4259     24.9768
   897.1000      7.8743      2.6078      0.0662      2.5593    126.5613     25.0780
   897.2000      7.8743      2.6260      0.0813      1.4534    128.6479     24.9546
   897.3000      7.8910      2.6434      0.0931      0.4029    126.4938     24.8216
   897.4000      7.8910      2.6392      0.0998      0.6544    126.4123     24.9233
   897.5000      7.8936      2.6098      0.0845      2.4358    125.6872     25.3126
   897.6000      7.8936      2.5772      0.0703      4.4094    116.9094     25.5861
   897.7000      7.8936      2.5702      0.0294      4.8360    104.4165     25.1449
   897.8000      7.8860      2.5843      0.1107      3.9844     98.9982     24.2688
   897.9000      7.8860      2.5820      0.1132      4.1198    100.2148     23.8260
   898.0000      7.8751      2.5585      0.0111      5.5439    101.1867     23.8228
   898.1000      7.8751      2.5451      0.0625      6.3546    103.0995     23.7160
   898.2000      7.8751      2.5450      0.1294      6.3650    109.2315     23.5924
   898.3000      7.8701      2.5499      0.0269      6.0677    117.4081     23.7452
   898.4000      7.8701      2.5694      0.0713      4.8826    122.4564     24.0959
   898.5000      7.8706      2.5891      0.1469      3.6891    119.6082     24.4066
   898.6000      7.8706      2.5864      0.0597      3.8554    110.5020     24.5306
   898.7000      7.8706      2.5696      0.0718      4.8720    105.7931     24.3485
   898.8000      7.8671      2.5597      0.0654      5.4756    113.5416     23.9871
   898.9000      7.8671      2.5730      0.1136      4.6681    123.4908     23.8828
   899.0000      7.8599      2.5981      0.1647      3.1437    120.3597     24.0977
   899.1000      7.8599      2.6061      0.1467      2.6634    107.7862     24.1460
