~Version Information
VERS.                      2.0: CWLS Log ASCII Standard - VERSION 2.0
WRAP.                       NO: One line per depth step
~Well Information Block
STRT.FT               259.0000: 
STOP.FT              2382.0000: 
STEP.FT                 0.2500: 
NULL.                -999.2500: 
COMP.          Pioneer Natural Resources: COMPANY
WELL.          Foothills 12-36: WELL
FLD.           Purgatoire River: FIELD
LOC.           2450' FNL & 201' FWL: LOCATION
PROV.                 Colorado: PROVINCE
CNTY.               Las Animas: COUNTRY
SRVC.                Patterson: SERVICE COMPANY
DATE.          Thu Apr 21 03:00:58 2005: LOG DATE
UWI.           05 071 08339 00: UNIQUE WELL ID
~Curve Information Block
DEPT.FT            0 000 00 00: Depth
SN.Ohm-m                      : IEL Short Normal
SP.mV                         : IEL Spontaneous Potential
DIR.Ohm-m                     : IEL Induction Resistivity
GR.GAPI                       : Gamma Ray
~Parameter Information Block
~A  Depth        SN          SP         DIR          GR     
# ...
  1096.5000     14.0174   -209.3329     13.6110     94.0199
  1096.7500     14.0133   -209.8262     13.2751     92.8941
  1097.0000     13.9941   -210.2108     13.0198     90.5789
  1097.2500     13.9729   -210.5087     12.8526     88.5622
  1097.5000     13.9833   -210.7649     12.7714     85.6706
  1097.7500     13.9955   -211.0177     12.7731     84.6060
  1098.0000     13.9518   -211.2779     12.8596     85.1537
  1098.2500     13.8722   -211.5265     13.0390     86.8368
  1098.5000     13.8375   -211.7296     13.3177     90.2474
  1098.7500     13.9338   -211.8597     13.6908     92.3496
  1099.0000     14.2605   -211.9097     14.1379     94.3591
  1099.2500     14.8847   -211.8936     14.6275     94.6356
  1099.5000     15.7836   -211.8397     15.1281     92.8835
  1099.7500     16.8723   -211.7822     15.6198     89.9687
  1100.0000     18.0543   -211.7561     16.1045     83.3074
  1100.2500     19.3173   -211.7921     16.6069     78.2428
  1100.5000     20.7840   -211.9091     17.1631     71.8294
  1100.7500     22.6031   -212.1055     17.8016     69.3129
  1101.0000     24.8249   -212.3564     18.5322     68.6731
  1101.2500     27.3049   -212.6231     19.3515     69.9227
  1101.5000     29.6892   -212.8702     20.2532     72.7962
  1101.7500     31.5811   -213.0806     21.2278     74.3554
  1102.0000     32.7427   -213.2565     22.2459     75.0068
  1102.2500     33.2153   -213.4083     23.2472     74.3386
  1102.5000     33.2956   -213.5417     24.1527     72.6426
  1102.7500     33.3245   -213.6572     24.8990     71.5816
  1103.0000     33.5050   -213.7538     25.4710     70.3768
  1103.2500     33.8378   -213.8335     25.9049     69.7930
  1103.5000     34.1480   -213.9015     26.2628     69.1886
  1103.7500     34.3355   -213.9650     26.6017     68.8862
  1104.0000     34.5055   -214.0249     26.9520     68.2198
  1104.2500     34.7320   -214.0662     27.3072     67.3393
  1104.5000     34.9476   -214.0576     27.6233     64.7688
  1104.7500     35.1868   -213.9604     27.8272     61.8054
  1105.0000     35.7365   -213.7432     27.8378     54.9463
  1105.2500     36.8623   -213.3957     27.5949     48.9416
  1105.5000     38.5261   -212.9375     27.0832     39.3844
  1105.7500     40.5251   -212.4142     26.3390     34.0724
  1106.0000     42.6359   -211.8835     25.4335     29.8473
  1106.2500     44.3359   -211.3932     24.4417     30.1264
  1106.5000     44.5805   -210.9648     23.4158     35.0307
  1106.7500     42.4023   -210.5857     22.3790     40.7678
  1107.0000     37.9366   -210.2171     21.3358     51.7985
  1107.2500     32.4858   -209.8139     20.2810     59.8423
  1107.5000     27.4647   -209.3527     19.2026     71.3433
  1107.7500     23.5499   -208.8466     18.0891     77.9981
  1108.0000     20.7529   -208.3381     16.9429     86.1554
  1108.2500     18.8155   -207.8759     15.7903     90.4875
  1108.5000     17.3979   -207.4933     14.6762     95.5779
  1108.7500     16.2314   -207.1943     13.6463     98.1458
  1109.0000     15.1980   -206.9532     12.7288    101.1254
  1109.2500     14.2293   -206.7317     11.9286    102.9465
  1109.5000     13.2660   -206.5022     11.2329    106.1708
  1109.7500     12.3276   -206.2603     10.6235    108.7444
  1110.0000     11.5270   -206.0185     10.0863    112.6543
  1110.2500     10.9956   -205.7934      9.6137    114.8119
  1110.5000     10.7637   -205.5971      9.2020    116.9794
  1110.7500     10.6984   -205.4341      8.8479    117.8190
  1111.0000     10.5956   -205.3034      8.5472    118.6391
  1111.2500     10.3499   -205.2055      8.2951    119.1630
  1111.5000     10.0128   -205.1472      8.0869    120.2176
  1111.7500      9.6841   -205.1410      7.9190    121.1163
  1112.0000      9.4028   -205.2002      7.7897    122.4081
  1112.2500      9.1846   -205.3327      7.6980    122.8990
  1112.5000      9.1085   -205.5330      7.6423    122.6908
  1112.7500      9.2402   -205.7734      7.6190    121.9083
  1113.0000      9.5173   -206.0041      7.6230    119.9414
  1113.2500      9.8164   -206.1691      7.6505    118.2209
  1113.5000     10.0636   -206.2316      7.7014    115.3239
  1113.7500     10.2413   -206.1927      7.7811    113.4094
  1114.0000     10.3536   -206.0888      7.8992    110.9799
  1114.2500     10.4134   -205.9665      8.0648    109.8322
  1114.5000     10.4524   -205.8551      8.2793    108.4744
  1114.7500     10.5341   -205.7530      8.5319    107.0254
  1115.0000     10.6620   -205.6359      8.8030    102.6570
  1115.2500     10.7341   -205.4773      9.0733     98.3783
  1115.5000     10.7520   -205.2638      9.3334     91.8356
  1115.7500     10.8860   -204.9983      9.5863     88.6788
  1116.0000     11.1885   -204.6946      9.8420     86.7343
  1116.2500     11.5285   -204.3732     10.1090     87.0223
  1116.5000     11.8324   -204.0606     10.3872     88.7054
  1116.7500     12.0977   -203.7884     10.6645     90.1709
  1117.0000     12.2721   -203.5867     10.9178     92.5735
  1117.2500     12.3425   -203.4716     11.1184     94.0674
  1117.5000     12.3986   -203.4335     11.2403     95.0926
  1117.7500     12.5226   -203.4383     11.2688     94.3088
  1118.0000     12.7243   -203.4436     11.2071     90.8780
  1118.2500     12.9451   -203.4221     11.0774     87.9520
  1118.5000     13.0625   -203.3692     10.9144     84.9655
  1118.7500     12.9605   -203.2908     10.7503     85.0418
  1119.0000     12.6367   -203.1910     10.5998     88.6012
  1119.2500     12.2108   -203.0753     10.4560     92.4604
  1119.5000     11.8244   -202.9590     10.3008     98.4030
  1119.7500     11.5376   -202.8678     10.1222    101.6462
  1120.0000     11.3055   -202.8309      9.9246    105.3946
  1120.2500     11.0603   -202.8752      9.7248    107.5846
  1120.5000     10.8025   -203.0209      9.5400    110.6672
  1120.7500     10.5539   -203.2725      9.3788    112.1314
  1121.0000     10.3098   -203.6082      9.2405    112.4140
  1121.2500     10.0947   -203.9780      9.1201    111.3007
  1121.5000      9.9515   -204.3229      9.0137    108.8447
  1121.7500      9.8945   -204.6072      8.9231    107.4106
  1122.0000      9.9177   -204.8369      8.8557    105.8139
  1122.2500     10.0005   -205.0467      8.8216    104.8824
  1122.5000     10.1210   -205.2709      8.8293    103.6025
  1122.7500     10.2885   -205.5251      8.8840    103.0572
  1123.0000     10.5371   -205.8046      8.9886    102.9132
  1123.2500     10.8704   -206.0946      9.1456    103.0618
  1123.5000     11.2358   -206.3841      9.3581    103.0513
  1123.7500     11.5842   -206.6688      9.6271    102.7367
  1124.0000     11.9150   -206.9415      9.9478    101.9732
  1124.2500     12.2285   -207.1866     10.3078    101.3344
  1124.5000     12.5259   -207.3934     10.6903     99.9894
  1124.7500     12.8505   -207.5726     11.0803     98.8053
  1125.0000     13.2250   -207.7567     11.4699     97.0818
  1125.2500     13.6261   -207.9848     11.8589     96.3803
  1125.5000     14.0671   -208.2788     12.2485     96.3092
  1125.7500     14.5763   -208.6271     12.6335     96.7273
  1126.0000     15.1199   -208.9912     12.9959     97.3416
  1126.2500     15.5983   -209.3351     13.3053     97.3837
  1126.5000     15.8711   -209.6442     13.5294     96.7037
  1126.7500     15.8997   -209.9186     13.6542     95.7921
  1127.0000     15.8396   -210.1543     13.6978     93.7839
  1127.2500     15.8016   -210.3347     13.7055     92.1169
  1127.5000     15.6867   -210.4405     13.7284     89.6831
  1127.7500     15.3815   -210.4701     13.8031     88.5566
  1128.0000     14.9522   -210.4491     13.9454     88.1476
  1128.2500     14.6158   -210.4169     14.1562     88.7748
  1128.5000     14.4883   -210.4052     14.4310     90.7672
  1128.7500     14.4575   -210.4255     14.7657     92.5326
  1129.0000     14.4567   -210.4671     15.1558     95.3730
  1129.2500     14.6675   -210.5014     15.5949     97.1071
  1129.5000     15.3733   -210.4902     16.0772     98.8829
  1129.7500     16.7441   -210.4006     16.6033     99.0920
