~Version Information
VERS.                      2.0: CWLS Log ASCII Standard - VERSION 2.0
WRAP.                       NO: One line per depth step
~Well Information Block
STRT.FT               948.2500: 
STOP.FT              2134.5000: 
STEP.FT                 0.2500: 
NULL.                -999.2500: 
COMP.          Petrogulf Corporation: COMPANY
WELL.             Valejo 8-12R: WELL
FLD.           Purgatorie River: FIELD
LOC.           1351'' FNL & 1562' FWL: LOCATION
CNTY.               Las Animas: COUNTY
SRVC.                         : SERVICE COMPANY
DATE.          Wed Apr 28 02:30:32 2004: LOG DATE
UWI.           05 071 08038 00: UNIQUE WELL ID
STAT.                 Colorado: STATE
~Curve Information Block
DEPT.FT            0 000 00 00: Depth
SP.mV                         : DIL Spontaneous Potential
RILD.Ohm-m                    : DIL Deep Resistivity
RILM.Ohm-m                    : DIL Medium Resistivity
RLL3.Ohm-m                    : DIL Shallow Resistivity
GR.GAPI                       : Gamma Ray
~Parameter Information Block
~A  Depth        SP         RILD        RILM        RLL3         GR     
# ...
   976.2500    110.4404   -999.2500   -999.2500   -999.2500     69.4977
   976.5000    102.3002   -999.2500   -999.2500   -999.2500     71.7950
   976.7500     94.5970   -999.2500   -999.2500   -999.2500     72.6416
   977.0000     89.1848   -999.2500   -999.2500   -999.2500     73.4558
   977.2500     86.8072   -999.2500   -999.2500   -999.2500     74.1633
   977.5000     87.4401   -999.2500   -999.2500   -999.2500     75.2091
   977.7500     90.6604   -999.2500   -999.2500   -999.2500     74.9641
   978.0000     95.9648   -999.2500   -999.2500   -999.2500     71.8242
   978.2500    103.0069   -999.2500   -999.2500   -999.2500     68.1798
   978.5000    111.5390   -999.2500   -999.2500   -999.2500     62.6257
   978.7500    121.0304   -999.2500   -999.2500   -999.2500     60.2004
   979.0000    130.3514   -999.2500   -999.2500   -999.2500     59.4053
   979.2500    137.9462   -999.2500   -999.2500   -999.2500     60.5784
   979.5000    142.4644   -999.2500   -999.2500   -999.2500     64.0819
   979.7500    143.4003   -999.2500   -999.2500   -999.2500     66.9954
   980.0000    141.3056   -999.2500   -999.2500   -999.2500     71.0273
   980.2500    137.4826   -999.2500   -999.2500   -999.2500     72.8723
   980.5000    133.3764   -999.2500   -999.2500   -999.2500     73.9980
   980.7500    129.9937   -999.2500   -999.2500   -999.2500     73.8644
   981.0000    127.6374   -999.2500   -999.2500   -999.2500     72.9559
   981.2500    126.0694   -999.2500   -999.2500   -999.2500     72.1235
   981.5000    124.9151   -999.2500   -999.2500   -999.2500     70.7468
   981.7500    123.9123   -999.2500   -999.2500   -999.2500     69.9455
   982.0000    122.8131   -999.2500   -999.2500   -999.2500     69.5584
   982.2500    121.2250      5.9813   -999.2500   -999.2500     70.2117
   982.5000    118.7667      5.9892   -999.2500   -999.2500     72.7217
   982.7500    115.4143      5.9987   -999.2500   -999.2500     75.1589
   983.0000    111.5462      6.0112   -999.2500   -999.2500     79.0834
   983.2500    107.5754      6.0289   -999.2500   -999.2500     81.2407
   983.5000    103.6296      6.0526   -999.2500   -999.2500     82.7982
   983.7500     99.6290      6.0799   -999.2500   -999.2500     82.4818
   984.0000     95.5731      6.1054   -999.2500   -999.2500     80.5400
   984.2500     91.6768      6.1220   -999.2500     -3.0086     78.9320
   984.5000     88.2738      6.1250   -999.2500     -2.9906     76.8632
   984.7500     85.6413      6.1144   -999.2500     -2.9516     75.7955
   985.0000     83.9127      6.0956   -999.2500     -2.9072     74.4572
   985.2500     83.1257      6.0772   -999.2500     -2.8832     73.5339
   985.5000     83.3167      6.0679   -999.2500     -2.8919     71.5810
   985.7500     84.4911      6.0731   -999.2500     -2.9196     69.6849
   986.0000     86.4464      6.0933   -999.2500     -2.9414     66.2685
   986.2500     88.6685      6.1244   -999.2500     -2.9426     64.1235
   986.5000     90.5042      6.1591   -999.2500     -2.9240     61.8074
   986.7500     91.4938      6.1904   -999.2500     -2.8963     60.9305
   987.0000     91.5519      6.2134 100000.0000     -2.8722     60.2795
   987.2500     90.8848      6.2274 100000.0000     -2.8610     59.9824
   987.5000     89.8093      6.2352 100000.0000     -2.8692     59.2207
   987.7500     88.6253      6.2410 100000.0000     -2.8993     58.3252
   988.0000     87.5523      6.2491 100000.0000     -2.9440     56.5152
   988.2500     86.7178      6.2622 100000.0000     -2.9827     55.3339
   988.5000     86.2027      6.2811 100000.0000     -2.9943     54.5070
   988.7500     86.0873      6.3045 100000.0000     -2.9754     55.0827
   989.0000     86.4146      6.3291 100000.0000     -2.9460     57.7982
   989.2500     87.0943      6.3506 100000.0000     -2.9387     60.3774
   989.5000     87.8676      6.3652 100000.0000     -2.9781     64.0863
   989.7500     88.3981      6.3718 100000.0000     -3.0601     65.8072
   990.0000     88.4234      6.3720 100000.0000     -3.1556     66.8851
   990.2500     87.8602      6.3693 100000.0000     -3.2441     66.8587
   990.5000     86.8243      6.3671 100000.0000     -3.3276     66.5200
   990.7500     85.5823      6.3672 100000.0000     -3.3934     66.4191
   991.0000     84.4526      6.3702 100000.0000     -3.3911     66.5212
   991.2500     83.6872      6.3761 100000.0000     -3.2864     66.7192
   991.5000     83.3987      6.3845 100000.0000     -3.1170     67.2702
   991.7500     83.5754      6.3939 100000.0000     -2.9616     67.8524
   992.0000     84.1436      6.4021 100000.0000     -2.8702     69.0454
   992.2500     85.0083      6.4064 100000.0000     -2.8526     70.0114
   992.5000     86.0589      6.4041 100000.0000     -2.9063     71.6175
   992.7500     87.1633      6.3938 100000.0000     -3.0337     72.7907
   993.0000     88.1607      6.3755 100000.0000     -3.2374     74.8946
   993.2500     88.8890      6.3512 100000.0000     -3.4910     76.6216
   993.5000     89.2798      6.3237 100000.0000     -3.7046     79.3684
   993.7500     89.4490      6.2966 100000.0000     -3.7569     80.8145
   994.0000     89.6529      6.2737 100000.0000     -3.6031     81.7491
   994.2500     90.1294      6.2579 100000.0000     -3.3342     81.6298
   994.5000     90.9889      6.2507 100000.0000     -3.0936     81.1180
   994.7500     92.2467      6.2515 100000.0000     -2.9560     80.9430
   995.0000     93.9289      6.2587 100000.0000     -2.9109     80.7572
   995.2500     96.1496      6.2694 100000.0000     -2.9199     80.1338
   995.5000     99.1044      6.2811 100000.0000     -2.9502     77.7983
   995.7500    102.9609      6.2921 100000.0000     -2.9788     75.6694
   996.0000    107.6918      6.3021 100000.0000     -3.0017     73.2015
   996.2500    112.9720      6.3123 100000.0000     -3.0313     72.7944
   996.5000    118.2617      6.3246 100000.0000     -3.0686     74.1359
   996.7500    123.0549      6.3405 100000.0000     -3.0919     75.8099
   997.0000    127.1052      6.3598 100000.0000     -3.0798     78.4303
   997.2500    130.4529      6.3808 100000.0000     -3.0315     79.8873
   997.5000    133.2679      6.3999 100000.0000     -2.9608     81.4515
   997.7500    135.6916      6.4122 100000.0000     -2.8870     82.0266
   998.0000    137.8186      6.4112 100000.0000     -2.8340     82.0576
   998.2500    139.7821      6.3891 100000.0000     -2.8203     81.5490
   998.5000    141.7912      6.3398 100000.0000     -2.8421     80.2929
   998.7500    144.0356      6.2666 100000.0000     -2.8739     79.3237
   999.0000    146.5538      6.1897 100000.0000     -2.8926     77.8898
   999.2500    149.2535      6.1448 100000.0000     -2.8962     77.1680
   999.5000    152.0999      6.1707 100000.0000     -2.8939     77.1915
   999.7500    155.2045      6.2919 100000.0000     -2.8876     78.3582
  1000.0000    158.5801      6.5042 100000.0000     -2.8730     81.7325
  1000.2500    161.7578      6.7677 100000.0000     -2.8539     84.4076
  1000.5000    163.7819      7.0151 100000.0000     -2.8391     87.4371
  1000.7500    163.7662      7.1809 100000.0000     -2.8289     88.0256
  1001.0000    161.5108      7.2378 100000.0000     -2.8144     86.3259
  1001.2500    157.5246      7.2151 100000.0000     -2.7867     83.7333
  1001.5000    152.4771      7.1854 100000.0000     -2.7436     78.4849
  1001.7500    146.7546      7.2359 100000.0000     -2.6935     74.5072
  1002.0000    140.5884      7.4422 100000.0000     -2.6547     68.3464
  1002.2500    134.4975      7.8410 100000.0000     -2.6407     64.4591
  1002.5000    129.4651      8.3893 100000.0000     -2.6452     59.9765
  1002.7500    126.5865      8.9166 100000.0000     -2.6494     58.6286
  1003.0000    126.4656      9.1555 100000.0000     -2.6448     59.8622
  1003.2500    128.8934      8.9366 100000.0000     -2.6398     62.6649
  1003.5000    133.0919      8.3608 100000.0000     -2.6413     68.3247
  1003.7500    138.2691      7.6857 100000.0000     -2.6423     71.8238
  1004.0000    143.9761      7.1093 100000.0000     -2.6351     75.0157
