~Version Information
VERS.                      2.0: CWLS Log ASCII Standard - VERSION 2.0
WRAP.                       NO: One line per depth step
~Well Information Block
STRT.FT               652.0000: 
STOP.FT              1880.5000: 
STEP.FT                 0.2500: 
NULL.                -999.2500: 
COMP.          Pioneer Natural Resources: COMPANY
WELL.          Corkscrew 33-12 Tr: WELL
FLD.           Purgatoire River: FIELD
LOC.           1870' FSL & 1706' FEL: LOCATION
PROV.                 Colorado: PROVINCE
CNTY.               Las Animas: COUNTRY
SRVC.                Patterson: SERVICE COMPANY
DATE.          Mon Mar 28 22:58:28 2005: LOG DATE
UWI.           05 071 08295 00: UNIQUE WELL ID
~Curve Information Block
DEPT.FT            0 000 00 00: Depth
SN.Ohm-m                      : IEL Short Normal
SP.mV                         : IEL Spontaneous Potential
DIR.Ohm-m                     : IEL Induction Resistivity
GR.GAPI                       : Gamma Ray
~Parameter Information Block
~A  Depth        SN          SP         DIR          GR     
   652.0000   2000.0000   2000.0000     77.2910    109.9875
   652.2500   2000.0000   2000.0000     78.8687    107.9288
   652.5000   2000.0000   2000.0000     81.0469    107.2801
   652.7500   2000.0000   2000.0000     83.9249    108.2426
   653.0000   2000.0000   2000.0000     87.1698    111.3967
   653.2500   2000.0000   2000.0000     89.7506    114.7040
   653.5000   2000.0000   2000.0000     90.3289    121.3547
   653.7500   2000.0000   2000.0000     88.3977    125.9895
   654.0000   2000.0000   2000.0000     84.9013    130.3438
   654.2500   2000.0000   2000.0000     81.4207    130.2185
   654.5000   2000.0000   2000.0000     79.0582    125.9107
   654.7500   2000.0000   2000.0000     78.0970    121.9849
   655.0000   2000.0000   2000.0000     78.2092    117.7068
   655.2500   2000.0000   2000.0000     78.7698    116.6054
   655.5000   2000.0000   2000.0000     79.1539    115.9368
   655.7500   2000.0000   2000.0000     78.9750    114.5460
   656.0000   2000.0000   2000.0000     78.2003    110.0486
   656.2500   2000.0000   2000.0000     77.0849    106.4845
   656.5000   2000.0000   2000.0000     76.0675    103.2783
   656.7500   2000.0000   2000.0000     75.7035    103.6278
   657.0000   2000.0000   2000.0000     76.6028    107.2222
   657.2500   2000.0000   2000.0000     79.2204    110.2390
   657.5000   2000.0000   2000.0000     83.4227    113.4105
   657.7500   2000.0000   2000.0000     87.9553    114.1849
   658.0000   2000.0000   2000.0000     90.5601    114.0475
   658.2500   2000.0000   2000.0000     89.6478    113.7665
   658.5000   2000.0000   2000.0000     85.9836    113.6137
   658.7500   2000.0000   2000.0000     81.7598    113.4084
   659.0000   2000.0000   2000.0000     78.5960    111.5791
   659.2500   2000.0000   2000.0000     76.9170    108.4777
   659.5000   2000.0000   2000.0000     76.3793    100.6414
   659.7500   2000.0000   2000.0000     76.3857     94.2412
   660.0000   2000.0000   2000.0000     76.4421     85.8988
   660.2500   2000.0000   2000.0000     76.3118     82.6877
   660.5000   2000.0000   2000.0000     76.0014     82.0302
   660.7500   2000.0000   2000.0000     75.6570     83.7128
   661.0000   2000.0000   2000.0000     75.4749     87.7966
   661.2500   2000.0000   2000.0000     75.6362     90.7700
   661.5000   2000.0000   2000.0000     76.2084     94.7253
   661.7500   2000.0000   2000.0000     76.9906     96.7375
   662.0000   2000.0000   2000.0000     77.4425     98.5579
   662.2500   2000.0000   2000.0000     76.8981     98.9879
   662.5000   2000.0000   2000.0000     75.0291     99.0512
   662.7500   2000.0000   2000.0000     72.1685     99.4223
   663.0000   2000.0000   2000.0000     69.1414    101.8458
   663.2500   2000.0000   2000.0000     66.7800    105.1629
   663.5000   2000.0000   2000.0000     65.5264    112.2821
   663.7500   2000.0000   2000.0000     65.2467    117.5000
   664.0000   2000.0000   2000.0000     65.2336    123.8658
   664.2500   2000.0000   2000.0000     64.4271    126.2238
   664.5000   2000.0000   2000.0000     61.9267    127.0906
   664.7500   2000.0000   2000.0000     57.5589    126.9967
   665.0000   2000.0000   2000.0000     52.1028    127.7632
   665.2500   2000.0000   2000.0000     46.9534    128.8848
   665.5000   2000.0000   2000.0000     43.5504    129.6243
   665.7500   2000.0000   2000.0000     43.1564    128.6567
   666.0000   2000.0000   2000.0000     47.3319    126.0290
   666.2500   2000.0000   2000.0000     59.2449    124.9662
   666.5000   2000.0000   2000.0000     86.5998    125.5785
   666.7500   2000.0000   2000.0000    146.9310    118.1644
   667.0000   2000.0000   2000.0000    252.8082    118.3212
   667.2500   2000.0000   2000.0000    303.5035    117.2674
   667.5000   2000.0000   2000.0000    238.9850    115.4984
   667.7500   2000.0000   2000.0000    178.1776    115.2026
   668.0000   2000.0000   2000.0000    148.9530    116.1425
   668.2500   2000.0000   2000.0000    144.1455    116.9925
   668.5000   2000.0000   2000.0000    169.5757    117.7455
   668.7500   2000.0000   2000.0000    303.2192    109.4917
   669.0000   2000.0000   2000.0000 100000.0000    109.5996
   669.2500   2000.0000   2000.0000 100000.0000    109.7254
   669.5000   2000.0000   2000.0000 100000.0000    109.9550
   669.7500   2000.0000   2000.0000 100000.0000    101.4606
   670.0000   2000.0000   2000.0000 100000.0000    100.9486
   670.2500   2000.0000   2000.0000   1165.2742    100.7457
   670.5000   2000.0000   2000.0000    332.7577    102.4669
   670.7500   2000.0000   2000.0000 100000.0000     97.1644
   671.0000   2000.0000   2000.0000 100000.0000    105.3168
   671.2500   2000.0000   2000.0000 100000.0000    111.6691
   671.5000   2000.0000   2000.0000 100000.0000    119.2400
   671.7500   2000.0000   2000.0000 100000.0000    110.5380
   672.0000   2000.0000   2000.0000 100000.0000    110.2651
   672.2500   2000.0000   2000.0000 100000.0000    109.0662
   672.5000   2000.0000   2000.0000 100000.0000    108.1565
   672.7500   2000.0000   2000.0000     52.9056    108.7684
   673.0000   2000.0000   2000.0000      6.7601    111.1199
   673.2500   2000.0000   2000.0000      3.6796    113.0512
   673.5000   2000.0000   2000.0000      2.8484    115.5818
   673.7500   2000.0000   2000.0000      2.6942    116.6675
   674.0000   2000.0000   2000.0000      2.9043    117.0374
   674.2500   2000.0000   2000.0000      3.4072    116.4365
   674.5000   2000.0000   2000.0000      4.2342    114.8397
   674.7500   2000.0000   2000.0000      5.5497    113.8630
   675.0000   2000.0000   2000.0000      7.7613    112.9119
   675.2500   2000.0000   2000.0000     11.5719    112.3194
   675.5000   2000.0000   2000.0000     16.9844    111.1635
   675.7500   2000.0000   2000.0000     19.8053    110.6781
   676.0000   2000.0000   2000.0000     16.4845    111.5745
   676.2500   2000.0000   2000.0000     11.9776    113.3891
   676.5000   2000.0000   2000.0000      9.0764    117.0376
   676.7500   2000.0000   2000.0000      7.5080    119.5347
   677.0000   2000.0000   2000.0000      6.7061    123.1707
   677.2500   2000.0000   2000.0000      6.3143    125.5506
   677.5000   2000.0000   2000.0000      6.1327    128.4333
   677.7500   2000.0000   2000.0000      6.0528    129.2141
   678.0000   2000.0000   2000.0000      6.0194    128.2379
   678.2500   2000.0000   2000.0000      6.0110    126.7314
   678.5000   2000.0000   2000.0000      6.0312    124.7482
   678.7500   2000.0000   2000.0000      6.1041    124.1377
   679.0000   2000.0000   2000.0000      6.2596    124.3146
   679.2500   2000.0000   2000.0000      6.5145    124.9719
   679.5000   2000.0000   2000.0000      6.8551    126.3439
   679.7500   2000.0000   2000.0000      7.2351    127.1922
   680.0000   2000.0000   2000.0000      7.5989    127.8654
   680.2500   2000.0000   2000.0000      7.9186    127.7739
   680.5000   2000.0000   2000.0000      8.2097    126.5654
   680.7500   2000.0000   2000.0000      8.5117    124.6365
   681.0000   2000.0000   2000.0000      8.8557    119.0233
   681.2500   2000.0000   2000.0000      9.2517    113.0386
   681.5000   2000.0000   2000.0000      9.6974    100.8228
   681.7500   2000.0000   2000.0000     10.1971     91.2276
   682.0000   2000.0000   2000.0000     10.7755     76.9126
   682.2500   2000.0000   2000.0000     11.4731     68.9437
   682.5000   2000.0000   2000.0000     12.3263     61.0072
   682.7500   2000.0000   2000.0000     13.3425     58.4833
   683.0000   2000.0000   2000.0000     14.4820     58.1868
   683.2500   2000.0000   2000.0000     15.6490     59.8609
   683.5000   2000.0000   2000.0000     16.6961     64.3464
   683.7500   2000.0000   2000.0000     17.4487     68.2476
   684.0000   2000.0000   2000.0000     17.7619     75.5266
   684.2500   2000.0000   2000.0000     17.5891     81.7813
   684.5000   2000.0000   2000.0000     17.0060     93.6424
   684.7500   2000.0000   2000.0000     16.1602    102.6520
   685.0000   2000.0000   2000.0000     15.1999    115.7560
   685.2500   2000.0000   2000.0000     14.2385    123.0324
