~Version Information
 VERS.                                  2.0 : CWLS LAS VERSION
 WRAP.                                   NO : WRAPING MODE
 SWARE .                 MController 2.5.0E : SOFTWARE VERSION
~Well Information
 WELL.                          Nomad 32-10 : WELL
 COMP.            EVERGREEN OPERATING CORP. : COMPANY
 FLD.                      PURGATOIRE RIVER : FIELD
 LOC.                    SW/NE 26 T32S R66W : LOCATION
 DATE.                              6/11/04 : DATE(S) LOGGED
 SRVC.       BLANCO GEOLOGICAL SERVICES LLC : SERVICE COMPANY
 STAT.                             COLORADO : STATE
 CNTY.                           LAS ANIMAS : COUNTY
 CTRY.                                  USA : COUNTRY
 API.                       05-071-08127-00 : API NUMBER
 STRT.FT                             446.00 : START DEPTH
 STOP.FT                            2455.00 : STOP DEPTH
 STEP.FT                               1.00 : DEPTH INCREMENT
 NULL.                                -9999 : NULL VALUE
~Curve information
 DEPTH.FT                                   :
 ROP.MIN/FT                                 :
 GAS.UNITS                                  :
~ASCII Log data
# ...
     2046.00        0.433        146.2 
     2047.00        0.567        137.6 
     2048.00        0.600        135.4 
     2049.00        0.417        136.4 
     2050.00        0.467        137.3 
     2051.00        0.500        140.7 
     2052.00        0.567        146.2 
     2053.00        0.500        149.2 
     2054.00        0.533        118.0 
     2055.00        0.717        110.7 
     2056.00        0.700        112.9 
     2057.00        0.500        112.5 
     2058.00        0.400        126.1 
     2059.00        0.467        157.7 
     2060.00        0.367        190.9 
     2061.00        0.333        211.4 
     2062.00        0.350        147.6 
     2063.00        0.333        120.8 
     2064.00        0.367         99.5 
     2065.00        0.333         86.5 
     2066.00        3.817        180.4 
     2067.00        0.233        179.6 
     2068.00        0.433        164.4 
     2069.00        0.400        137.1 
     2070.00        0.400        125.3 
     2071.00        0.300        120.7 
     2072.00        0.283        122.1 
     2073.00        0.267        124.6 
     2074.00        0.267        123.1 
     2075.00        0.333        122.1 
     2076.00        0.267        126.4 
     2077.00        0.300        132.7 
     2078.00        0.367        143.9 
     2079.00        0.333        154.3 
     2080.00        0.367        156.9 
     2081.00        0.467        158.4 
     2082.00        0.350        159.8 
     2083.00        0.367        159.5 
     2084.00        0.500        163.0 
     2085.00        0.533        156.4 
     2086.00        0.400        143.2 
     2087.00        0.467        134.7 
     2088.00        0.400        130.0 
     2089.00        0.400        148.5 
     2090.00        0.417        251.5 
     2091.00        0.367        251.6 
     2092.00        0.400        225.5 
     2093.00        0.433        132.0 
     2094.00        0.467        102.2 
     2095.00        0.433         76.7 
     2096.00        3.283        228.9 
     2097.00        0.067        224.9 
     2098.00        0.633        222.8 
     2099.00        0.650        195.3 
     2100.00        0.367        141.7 
     2101.00        0.367        126.9 
     2102.00        0.400        124.7 
     2103.00        0.433        128.5 
     2104.00        0.267        128.6 
     2105.00        0.233        127.1 
     2106.00        0.300        127.3 
     2107.00        0.333        124.7 
     2108.00        0.350        129.6 
     2109.00        0.433        152.4 
     2110.00        0.400        147.6 
     2111.00        0.400        137.1 
     2112.00        0.400        129.7 
     2113.00        0.367        133.6 
     2114.00        0.333        133.4 
     2115.00        0.300        131.9 
     2116.00        0.267        133.3 
     2117.00        0.450        134.8 
     2118.00        0.500        129.9 
     2119.00        0.500        207.1 
     2120.00        0.467        233.9 
     2121.00        0.433        158.0 
     2122.00        0.433        127.5 
     2123.00        0.367        101.2 
     2124.00        0.300         94.7 
     2125.00        0.167         84.9 
     2126.00        3.500        208.7 
     2127.00        0.100        187.2 
     2128.00        0.467        169.5 
     2129.00        0.667        149.1 
     2130.00        0.567        121.8 
     2131.00        0.500        118.0 
     2132.00        0.533        114.2 
     2133.00        0.517        117.4 
     2134.00        0.367        131.6 
     2135.00        0.500        133.0 
     2136.00        0.567        121.8 
     2137.00        0.633        127.7 
     2138.00        0.833        122.8 
     2139.00        0.917        113.2 
     2140.00        0.867        114.2 
     2141.00        0.833        112.3 
     2142.00        0.733        109.8 
     2143.00        0.617        110.6 
     2144.00        0.667        110.7 
     2145.00        0.700        110.6 
     2146.00        0.633        112.3 
     2147.00        0.667        114.5 
     2148.00        0.683        116.2 
     2149.00        0.733        117.4 
     2150.00        0.733        111.7 
     2151.00        0.800        112.9 
     2152.00        0.783        119.0 
     2153.00        1.200        122.4 
     2154.00        1.133        180.4 
     2155.00        1.417        251.4 
     2156.00        4.050        246.3 
     2157.00        0.267        248.0 
     2158.00        0.367        241.5 
     2159.00        0.333        219.9 
     2160.00        0.767        189.8 
     2161.00        0.683        140.5 
     2162.00        0.433        137.3 
     2163.00        0.267        124.6 
     2164.00        0.200        121.2 
     2165.00        0.200        113.7 
     2166.00        0.367        115.6 
     2167.00        0.433        118.3 
     2168.00        0.367        118.7 
     2169.00        0.200        119.7 
     2170.00        0.200        116.4 
     2171.00        0.233        119.7 
     2172.00        0.317        130.6 
     2173.00        0.367        140.0 
     2174.00        0.333        144.7 
     2175.00        0.400        147.2 
     2176.00        0.500        149.1 
     2177.00        0.567        153.7 
     2178.00        0.500        152.4 
     2179.00        0.683        157.1 
     2180.00        0.567        198.8 
     2181.00        0.500        240.0 
     2182.00        0.567        214.9 
     2183.00        0.467        122.6 
     2184.00        0.433        117.6 
     2185.00        0.400        106.8 
     2186.00        3.767        286.4 
     2187.00        0.100        286.4 
     2188.00        0.567        276.5 
     2189.00        0.633        237.0 
     2190.00        0.533        180.4 
     2191.00        0.500        157.2 
     2192.00        0.533        137.9 
     2193.00        0.417        133.4 
     2194.00        0.400        139.9 
     2195.00        0.433        137.3 
     2196.00        0.367        136.5 
     2197.00        0.400        137.3 
     2198.00        0.333        135.2 
     2199.00        0.333        139.2 
     2200.00        0.300        142.6 
     2201.00        0.300        153.7 
     2202.00        0.383        154.6 
     2203.00        0.400        154.3 
     2204.00        0.467        154.3 
     2205.00        0.400        148.8 
     2206.00        0.367        149.3 
     2207.00        0.367        152.5 
     2208.00        0.400        157.1 
     2209.00        0.367        227.3 
     2210.00        0.333        247.2 
     2211.00        0.483        219.4 
     2212.00        0.267        163.5 
     2213.00        0.333        145.1 
     2214.00        0.333        134.7 
     2215.00        0.333        112.9 
     2216.00        3.350        285.6 
     2217.00        0.100        275.1 
     2218.00        0.500        255.9 
     2219.00        0.633        224.0 
     2220.00        0.650        157.9 
     2221.00        0.467        146.2 
     2222.00        0.567        144.6 
     2223.00        0.500        146.4 
     2224.00        0.567        140.3 
     2225.00        0.633        137.3 
     2226.00        0.650        132.6 
     2227.00        0.800        133.3 
     2228.00        1.033        143.2 
     2229.00        1.483        133.1 
     2230.00        1.633        126.6 
     2231.00        1.567        132.9 
     2232.00        0.983        121.4 
     2233.00        0.667        102.7 
     2234.00        0.600        102.7 
     2235.00        0.600        112.6 
     2236.00        0.533        118.5 
     2237.00        0.650        167.8 
     2238.00        0.533        179.3 
     2239.00        0.533        177.1 
     2240.00        0.667        225.0 
     2241.00        0.600        222.0 
     2242.00        0.450        186.2 
     2243.00        0.400        156.7 
     2244.00        0.367        171.1 
     2245.00        0.200        188.5 
