~Version Information
VERS.                      2.0: CWLS Log ASCII Standard - VERSION 2.0
WRAP.                       NO: One line per depth step
~Well Information Block
STRT.FT               550.0000: 
STOP.FT              2359.0000: 
STEP.FT                 0.1000: 
NULL.                -999.2500: 
COMP.          Pioneer Natural Resources: COMPANY
WELL.              Whinny 42-2: WELL
FLD.           Purgatoire River: FIELD
LOC.           1836' FNL & 466' FEL: LOCATION
PROV.                 Colorado: PROVINCE
CNTY.               Las Animas: COUNTRY
SRVC.                Patterson: SERVICE COMPANY
DATE.          Mon Aug 22 07:28:42 2005: LOG DATE
UWI.           05 071 08406 00: UNIQUE WELL ID
~Curve Information Block
DEPT.FT            0 000 00 00: Depth
DCAL.in                       : CDL Caliper
RHOB.g/cc                     : CDL Bulk Density
RHOC.g/cc                     : CDL Density Correction
DPOR.pu                       : CDL Density Porosity
GR.GAPI                       : Gamma Ray
NPOR.pu                       : Neutron Porosity
~Parameter Information Block
~A  Depth       DCAL        RHOB        RHOC        DPOR         GR         NPOR    
# ...
   665.2000      8.1867      2.6102      0.1127      2.4123    119.0453     28.7612
   665.3000      8.1864      2.6015      0.1201      2.9394    121.9650     28.6974
   665.4000      8.1864      2.5642      0.0357      5.2022    122.6967     28.1766
   665.5000      8.1867      2.5268      0.0370      7.4638    122.5479     27.2964
   665.6000      8.1867      2.5070     -0.0093      8.6652    128.1447     26.2597
   665.7000      8.1867      2.4975      0.0252      9.2394    136.2996     25.3656
   665.8000      8.1812      2.4882     -0.0126      9.8063    142.4647     24.7559
   665.9000      8.1812      2.4846     -0.0526     10.0251    143.4605     24.6201
   666.0000      8.1542      2.4875      0.0442      9.8499    139.1620     25.0338
   666.1000      8.1542      2.4793      0.0632     10.3443    136.2273     25.5680
   666.2000      8.1542      2.4597      0.0133     11.5340    139.1687     25.7928
   666.3000      8.1294      2.4461      0.0544     12.3594    144.5688     25.5743
   666.4000      8.1294      2.4387      0.0828     12.8066    145.7364     24.9516
   666.5000      8.1424      2.4319      0.0786     13.2170    139.2779     24.2885
   666.6000      8.1424      2.4360      0.0526     12.9696    131.2974     23.7266
   666.7000      8.1424      2.4545      0.0588     11.8478    129.9772     23.2687
   666.8000      8.1407      2.4654      0.0613     11.1881    134.2701     23.3260
   666.9000      8.1407      2.4515      0.0173     12.0310    138.5173     24.2013
   667.0000      8.1457      2.4278      0.0197     13.4642    139.6013     25.5890
   667.1000      8.1457      2.4176      0.0169     14.0852    139.5090     26.7714
   667.2000      8.1457      2.4296      0.0653     13.3580    142.6034     27.2544
   667.3000      8.1482      2.4638      0.0635     11.2839    143.4323     27.2822
   667.4000      8.1482      2.5094      0.0906      8.5226    134.3434     27.3107
   667.5000      8.1607      2.5439      0.0789      6.4328    123.2097     27.4075
   667.6000      8.1607      2.5592      0.0630      5.5035    120.0855     27.6217
   667.7000      8.1607      2.5699      0.0514      4.8566    120.5046     27.9739
   667.8000      8.1618      2.5841      0.0988      3.9936    118.6042     28.2679
   667.9000      8.1618      2.5979      0.0517      3.1598    116.2156     28.4802
   668.0000      8.1630      2.6115      0.0745      2.3326    118.2562     28.7374
   668.1000      8.1630      2.6241      0.0653      1.5667    125.9027     28.8149
   668.2000      8.1630      2.6342      0.0377      0.9572    130.0538     28.4675
   668.3000      8.1551      2.6411      0.0273      0.5401    124.5610     27.9354
   668.4000      8.1551      2.6370     -0.0366      0.7873    116.6597     27.5847
   668.5000      8.1530      2.6137     -0.0088      2.2003    114.3948     27.3239
   668.6000      8.1530      2.5774     -0.0337      4.3980    117.1709     26.9703
   668.7000      8.1530      2.5441      0.0254      6.4155    121.9060     26.5392
   668.8000      8.1556      2.5143      0.0431      8.2252    129.9592     26.0770
   668.9000      8.1556      2.4835      0.0202     10.0921    135.8780     25.8901
   669.0000      8.1559      2.4663     -0.0055     11.1322    132.2142     26.0279
   669.1000      8.1559      2.4668      0.0592     11.1026    126.6812     25.9279
   669.2000      8.1559      2.4662     -0.0034     11.1386    128.0673     25.5753
   669.3000      8.1589      2.4584     -0.0113     11.6130    132.0460     25.4993
   669.4000      8.1589      2.4481     -0.0070     12.2356    132.2077     25.7811
   669.5000      8.1610      2.4431     -0.0023     12.5370    129.4351     26.0661
   669.6000      8.1610      2.4607     -0.0476     11.4731    129.8863     26.2049
   669.7000      8.1610      2.5020      0.0236      8.9691    136.3148     26.4117
   669.8000      8.1602      2.5341      0.0723      7.0252    143.8422     26.6373
   669.9000      8.1602      2.5284      0.0344      7.3700    146.7946     26.5624
   670.0000      8.1630      2.4954      0.0287      9.3673    146.2783     26.2809
   670.1000      8.1630      2.4681      0.0082     11.0229    145.5721     26.1606
   670.2000      8.1630      2.4683      0.0099     11.0148    145.0837     26.4538
   670.3000      8.1652      2.4931      0.0096      9.5120    145.6436     27.1572
   670.4000      8.1652      2.5190      0.0284      7.9407    147.8797     27.6297
   670.5000      8.1677      2.5286      0.0227      7.3584    147.8467     27.3903
   670.6000      8.1677      2.5289      0.0194      7.3390    142.9458     26.9060
   670.7000      8.1677      2.5362      0.0226      6.8995    138.9086     26.7759
   670.8000      8.1642      2.5600      0.0197      5.4542    139.7342     26.9792
   670.9000      8.1642      2.5940      0.0582      3.3931    140.6822     27.1213
   671.0000      8.1633      2.6208      0.0187      1.7700    139.4567     27.2081
   671.1000      8.1633      2.6284      0.0952      1.3073    139.6883     27.5145
   671.2000      8.1633      2.6144      0.0015      2.1587    141.8247     27.9663
   671.3000      8.1636      2.5958     -0.0037      3.2865    143.6533     28.3135
   671.4000      8.1636      2.5937     -0.0167      3.4098    145.2237     28.5246
   671.5000      8.1654      2.6074      0.0503      2.5832    146.9498     28.7944
   671.6000      8.1654      2.6328     -0.0262      1.0395    145.6321     29.1821
   671.7000      8.1654      2.6766      0.0762     -1.6095    138.1126     29.3607
   671.8000      8.1577      2.7198      0.1099     -4.2322    128.7213     29.0327
   671.9000      8.1577      2.7230      0.1321     -4.4226    124.0106     28.4503
   672.0000      8.1518      2.6753      0.0716     -1.5322    125.1746     28.0704
   672.1000      8.1518      2.6088      0.0161      2.4966    128.5924     27.9320
   672.2000      8.1518      2.5598     -0.0639      5.4686    129.1300     27.9676
   672.3000      8.1469      2.5379     -0.0548      6.7953    130.1119     28.1115
   672.4000      8.1469      2.5351     -0.0388      6.9651    136.2287     28.0893
   672.5000      8.1490      2.5442     -0.0206      6.4147    139.2537     27.8930
   672.6000      8.1490      2.5557      0.0099      5.7175    136.2361     27.6897
   672.7000      8.1490      2.5612      0.0168      5.3817    135.6525     27.3772
   672.8000      8.1483      2.5615      0.1127      5.3610    136.3226     27.0354
   672.9000      8.1483      2.5565      0.1352      5.6640    133.4790     27.0307
   673.0000      8.1479      2.5503      0.0989      6.0449    131.2635     27.2553
   673.1000      8.1479      2.5575      0.0761      5.6063    131.2160     27.1665
   673.2000      8.1479      2.5807      0.1214      4.1982    131.6665     26.7019
   673.3000      8.1484      2.6007      0.0847      2.9879    134.3596     26.3726
   673.4000      8.1484      2.6034      0.0731      2.8226    138.4855     26.4507
   673.5000      8.1468      2.5913      0.1079      3.5601    139.2088     26.5966
   673.6000      8.1468      2.5746      0.0670      4.5726    137.0781     26.4777
   673.7000      8.1468      2.5608      0.1082      5.4047    140.6781     25.9944
   673.8000      8.1506      2.5424      0.0742      6.5212    150.0370     25.2914
   673.9000      8.1506      2.5079      0.0850      8.6096    153.1656     24.8712
   674.0000      8.1465      2.4668     -0.0641     11.1005    145.6558     24.9736
   674.1000      8.1465      2.4487     -0.0853     12.1977    137.4790     25.4431
   674.2000      8.1465      2.4673     -0.0159     11.0718    138.7142     26.1676
   674.3000      8.1461      2.4982      0.1065      9.2007    144.3164     26.9336
   674.4000      8.1461      2.5034      0.1398      8.8855    145.4994     27.4266
   674.5000      8.1480      2.4872      0.0212      9.8678    144.9224     27.4835
   674.6000      8.1480      2.4885      0.0327      9.7905    146.8620     27.2886
   674.7000      8.1480      2.5184      0.0674      7.9734    150.0255     27.1025
