~Version Information
 VERS.                2.0:  CWLS LOG ASCII STANDARD -VERSION 2.0
 WRAP.                 NO:  ONE LINE PER DEPTH STEP
~WELL INFORMATION BLOCK
#MNEM.UNIT       DATA		            DESCRIPTION OF MNEMONIC
#---------    -------------            ------------------------
 STRT.FT  0.500                          :START DEPTH
 STOP.FT  1812.700                       :STOP DEPTH
 STEP.FT  0.100                          :STEP    UP_HOLE  
 NULL.    -999.25                        :NULL VALUE
 COMP.              EL PASO PRODUCTIONS  :COMPANY
 WELL.                     COREHOLE #38  :WELL
 FLD .                 PURGATOIRE RIVER  :FIELD
 LOC .      15   35S   65W               :LOCATION
 CNTY.                           COLFAX  :COUNTY
 STAT.                     NM            :STATE
 CTRY.                                   :
 SRVC.     O'DRISCOLL                    :SERVICE COMPANY
 DATE.   04/28/05                        :LOG DATE
 API .                                   :API NUMBER
 LIC .                                   :LICENSE NUMBER
~Curve Information Block
#MNEM.UNIT      API CODE     Curve Description
#---------    -------------  ------------------------
 DEPT     .FT        00 001 00 00          :  1  DEPTH   
 GAMMA    .API-GR    00 310 00 00          :  2                GAMMA
 TEMP     .DEG F     00 660 00 00          :  3                 TEMP
 RES(16N) .OHM-M     00 040 00 00          :  4             RES(16N)
 RES(64N) .OHM-M     00 060 00 00          :  5             RES(64N)
 RES      .OHM       00 000 00 00          :  6                  RES
 LATERAL  .OHM-M     00 070 00 00          :  7              LATERAL
 NEUTRON  .API-N     00 000 00 00          :  8              NEUTRON
 POR(NEU) .PERCENT   00 330 00 00          :  9             POR(NEU)
 SANGB    .DEG       00 631 00 00          : 10                SANGB
 DEL_TEMP .DEG F     00 000 00 00          : 11             DEL_TEMP
 SANG     .DEG       00 620 00 00          : 12                 SANG
 SP       .MV        00 010 00 00          : 13                   SP
 TIME     .MINUTES   00 000 00 00          : 14                 TIME
~Parameter Information Block
#MNEM.UNIT   Information     Description
#---------- ---------------  ------------------------
 FILE.      ORIGINAL           :File Type
 FIID.      9057A              :File Type Identifier
 VERS.      3.58G              :System Version
 SER .      1                  :System Serial Number
 TRUK.      .498775            :Truck Calibration Number
 TOOL.        1061             :Tool Serial Number
 TIME.      1335               :Time    HrHrMinMin
 LAT .       36 59'            :Latitude
 LON .       104 39'           :Longitude
 LMF .            GL           :Log Measured From
 DMF .            GL           :Driller Measured From
 PD  .            GL           :Permanent Data
 PDEV.                         :Elevation Permanent Data
 EKB .M                        :Elevation Kelly Bushing
 ELEV.DF                       :Elevation DF
 EGL .M        7777            :Elevation Ground Level
 DRDP.          1825           :Driller's Depth
 CASD.       10.               :Casing Diameter
 CASB.           300           :Casing Bottom
 CASX.         STEEL           :Casing Type
 CAST.                         :Casing Thickness
 TNOC.                         :Time Circulation Stopped
 LOGU.        108              :Logging Unit
 RECB.           R.SIPES       :Recorded By
 OSR1.          9139           :Other Services
 OSR2.                         :Other Services
 OSR3.                         :Other Services
 BS  .MM         3.5           :Bit Size
 MST .                         :Mean Surface Temperature
 TGRD.                         :Temperature Gradiant
 MAGN.            12           :Magnetic Declination
 MDEN.       2.7               :Density Matrix
 MATR.      SANDSTONE          :Neutron Matrix
 DTMT.            54           :Delta T Matrix
 DTFL.                         :Delta T Fluid
 MUDS.                         :Mud Sample Source
 MRS .                         :Mud Resistivity
 MTP .                         :Mud Temperature
 MFRS.                         :Resistivity Mud Filtrate
 MFTP.                         :Temperature Mud Filtrate
 MCRS.                         :Resistivity Mud Cake
 MCTP.                         :Temperature Mud Cake
 FTYP.                         :Fluid Type
 FD  .K/M3                     :Fluid Density
 DFV .S                        :Fluid Viscosity
 FPH .                         :Fuild PH
 ELCO.       50000             :Electron Cutoff
~Other Information
#MNEM.UNIT  Information      Description
#---------- ---------------  ------------------------
# -------------------------- 
~A DEPTH  GAMMA    TEMP  RES(16N) RES(64N) RES      LATERAL  NEUTRON  POR(NEU) SANGB  DEL_TEMP SANG   SP    TIME    
# ...
1562.300     52.4  89.7      0.6      7.4      8.7     -1.7   1271.3  28.3  259.50 0.07  1.58  -1318.2 0.10000 
1562.400     49.8  89.7      1.7      7.0      8.0     -0.2   1255.7  29.1  275.73 0.03  1.57  -1318.2 0.20000 
1562.500     50.8  89.7      0.1      7.0      7.9     -2.6   1175.9  29.8  276.92 -0.04  1.60  -1318.2 0.20000 
1562.600     48.7  89.7     -1.8      6.9      8.0     -5.7   1113.4  30.7  276.98 -0.04  1.60  -1318.3 0.20000 
1562.700     46.6  89.7     -1.0      6.7      8.6     -3.8   1050.8  32.2  97.24  0.01  1.60  -1318.4 0.20000 
1562.800     43.9  89.7      1.8      6.7      8.7      0.5   1005.5  33.2  129.37 0.01  1.63  -1318.4 0.20000 
1562.900     45.0  89.7      1.3      6.6      7.9     -0.3    927.3  34.1  130.34 -0.04  1.67  -1318.4 0.20000 
1563.000     42.3  89.7     -0.7      6.7      8.2     -2.5    917.9  35.4  130.41 0.06  1.67  -1318.4 0.20000 
1563.100     45.5  89.7     -1.8      6.9      8.6     -3.7    883.5  36.5  202.68 -0.03  1.67  -1318.4 0.20000 
1563.200     48.2  89.7     -0.6      7.1      8.6     -3.3    856.9  36.9  247.50 -0.01  1.65  -1318.4 0.20000 
1563.300     55.1  89.7      0.0      7.3      8.0     -2.0    813.2  38.1  245.66 0.02  1.60  -1318.4 0.20000 
1563.400     59.3  89.7     -1.1      7.5      8.1     -3.2    806.9  38.2  246.00 -0.04  1.60  -1318.4 0.20000 
1563.500     63.5  89.7     -0.7      7.8      7.7     -3.0    789.7  38.9  359.45 0.01  1.60  -1318.5 0.20000 
1563.600     68.3  89.7      1.4      8.2      7.9     -0.4    758.4  39.2   5.23  -0.01  1.65  -1318.5 0.20000 
1563.700     72.0  89.7      0.0      8.4      7.4     -2.8    752.2  39.4   4.86  -0.02  1.60  -1318.5 0.20000 
1563.800     78.9  89.8     -1.5      8.6      7.1     -5.3    792.8  39.0   4.86  0.02  1.60  -1318.5 0.20000 
1563.900     86.3  89.8     -2.3      8.9      7.1     -6.9    775.6  38.7  41.64  -0.04  1.60  -1318.6 0.20000 
1564.000     86.8  89.8     -0.4      8.8      7.2     -4.2    789.7  38.3  115.03 0.04  1.63  -1318.6 0.10000 
1564.100     95.3  89.8     -0.3      8.9      6.8     -4.6    802.2  37.8  110.04 0.04  1.55  -1318.6 0.20000 
1564.200     97.4  89.8     -1.8      9.2      6.5     -6.5    806.9  37.0  110.04 -0.04  1.55  -1318.6 0.20000 
1564.300    100.1  89.7     -1.7      9.3      7.2     -5.9    799.1  36.5  139.08 0.00  1.55  -1318.6 0.20000 
1564.400    102.7  89.7      0.0      9.3      7.4     -3.1    855.4  36.4  279.49 0.02  1.59  -1318.6 0.20000 
1564.500    108.0  89.8      1.6      9.1      7.5     -0.4    878.8  35.6  272.85 0.00  1.53  -1318.6 0.20000 
1564.600    113.3  89.8      0.6      9.0      7.6     -1.9    941.4  34.9  272.85 -0.07  1.53  -1318.6 0.20000 
1564.700    114.3  89.8     -0.8      8.7      6.8     -3.5    977.4  34.9  261.76 0.07  1.53  -1318.2 0.20000 
1564.800    117.5  89.8      1.4      8.4      6.9     -0.7   1005.5  34.3  196.21 -0.04  1.54  -1318.2 0.20000 
1564.900    117.5  89.8      2.1      8.0      6.6      0.1   1008.6  33.9  194.15 0.00  1.52  -1318.2 0.20000 
1565.000    116.5  89.8      0.4      7.6      7.0     -2.1    980.5  33.5  194.15 0.01  1.52  -1318.2 0.20000 
1565.100    117.0  89.8     -1.6      7.2      6.9     -4.5    968.0  33.1  175.25 -0.01  1.52  -1318.3 0.20000 
1565.200    115.9  89.8      0.8      7.0      7.1     -1.1    983.6  33.0  130.34 0.05  1.49  -1318.5 0.20000 
1565.300    111.2  89.8      1.9      6.9      7.2      0.2    963.3  32.8  133.62 -0.02  1.50  -1318.5 0.20000 
1565.400    106.4  89.8      1.1      6.7      7.4     -0.8    947.6  32.9  133.62 -0.02  1.50  -1318.5 0.20000 
1565.500    106.9  89.8     -1.0      6.7      6.7     -3.8    983.6  33.0  133.69 -0.02  1.50  -1318.4 0.20000 
1565.600    103.8  89.8      0.5      6.5      7.1     -1.4    969.5  32.9  165.58 0.01  1.50  -1318.3 0.20000 
1565.700     96.3  89.8      1.6      6.2      7.2      0.4    950.8  32.8  215.71 -0.01  1.54  -1318.3 0.20000 
1565.800     95.8  89.8      0.8      5.9      7.2     -0.8    950.8  32.7  214.96 -0.02  1.53  -1318.3 0.10000 
1565.900     92.6  89.8     -0.9      5.7      7.3     -3.1    977.4  32.4  215.16 0.01  1.53  -1318.4 0.20000 
1566.000     92.1  89.8      0.7      5.7      7.5     -1.1    960.2  32.5  228.91 -0.01  1.53  -1318.5 0.20000 
1566.100     86.8  89.8      1.4      6.0      8.0     -0.1    975.8  32.7  234.10 0.01  1.53  -1318.5 0.20000 
1566.200     88.4  89.8      0.4      6.4      7.2     -1.6    991.4  32.7  231.33 -0.02  1.49  -1318.5 0.20000 
1566.300     88.4  89.8     -0.7      6.9      8.0     -2.5   1018.0  32.3  231.45 -0.01  1.49  -1318.6 0.20000 
1566.400     85.8  89.8     -1.3      7.5      7.7     -2.9   1022.7  32.3  321.32 0.02  1.49  -1318.6 0.20000 
1566.500     85.8  89.8      0.2      8.3      7.8     -0.8   1029.0  32.3  314.56 0.06  1.49  -1318.6 0.20000 
1566.600     88.9  89.8      1.0      9.1      7.7     -0.2   1013.3  32.3  311.20 -0.06  1.46  -1318.6 0.20000 
1566.700     85.2  89.8     -0.6     10.0      7.7     -3.1   1002.4  32.0  311.10 0.02  1.46  -1318.6 0.20000 
1566.800     82.6  89.8      0.0     10.5      7.0     -3.7    975.8  32.0  21.32  -0.04  1.46  -1318.5 0.20000 
1566.900     79.9  89.8      2.6     10.9      7.6     -0.8    975.8  32.2  35.15  0.03  1.45  -1318.5 0.20000 
1567.000     81.5  89.8      1.1     11.2      7.1     -3.2    986.7  32.1  33.41  -0.01  1.44  -1318.5 0.20000 
1567.100     81.5  89.8     -0.3     11.7      7.3     -5.7    988.3  32.3  33.40  0.01  1.44  -1318.5 0.20000 
1567.200     80.5  89.8     -0.8     12.3      6.8     -6.8    986.7  32.8  36.48  0.00  1.44  -1318.3 0.20000 
1567.300     75.7  89.8      1.1     13.0      7.4     -4.8   1018.0  33.2  57.01  0.04  1.43  -1318.3 0.20000 
1567.400     73.1  89.8      1.4     13.3      7.3     -4.0   1008.6  33.7  56.82  -0.07  1.42  -1318.3 0.20000 
1567.500     70.9  89.8     -0.5     13.5      7.4     -5.3    977.4  34.1  56.82  0.03  1.42  -1318.3 0.20000 
1567.600     70.4  89.8     -1.7     13.3      6.9     -6.2    994.6  34.3  53.36  -0.04  1.42  -1318.5 0.10000 
1567.700     74.1  89.8      0.0     13.0      7.1     -4.0    986.7  34.2  49.15  0.08  1.40  -1318.5 0.20000 
1567.800     68.8  89.8      0.6     12.6      6.9     -3.2    942.9  34.4  44.62  -0.03  1.37  -1318.5 0.20000 
1567.900     70.9  89.8     -0.6     11.9      6.9     -5.1    916.4  34.3  44.62  -0.05  1.37  -1318.5 0.20000 
1568.000     67.8  89.8     -0.9     11.2      6.8     -5.4    894.5  33.8  44.31  0.03  1.37  -1318.5 0.20000 
1568.100     64.6  89.9      1.2     10.5      7.8     -1.8    844.4  33.4  46.25  -0.05  1.37  -1318.5 0.20000 
1568.200     66.7  89.9      0.9      9.8      6.4     -1.9    835.0  33.1  39.54  0.02  1.36  -1318.5 0.20000 
1568.300     64.1  89.9      0.1      9.4      6.8     -2.7    856.9  32.6  39.54  0.01  1.36  -1318.5 0.20000 
1568.400     57.7  89.9     -1.8      9.3      6.9     -5.2    872.6  31.7  47.53  0.04  1.36  -1318.4 0.20000 
1568.500     55.6  89.8     -0.3      9.2      6.8     -2.8    939.8  31.3  28.42  -0.01  1.34  -1318.4 0.20000 
1568.600     50.8  89.8      0.4      9.0      6.5     -1.4   1027.4  30.3  24.91  0.01  1.33  -1318.4 0.20000 
1568.700     49.8  89.8      0.2      8.7      6.8     -2.1   1094.6  29.1  24.91  -0.02  1.33  -1318.4 0.20000 
1568.800     44.5  89.8     -1.5      8.3      6.3     -4.5   1157.2  28.1  22.26  -0.07  1.33  -1318.4 0.20000 
1568.900     46.1  89.8      0.5      8.0      6.3     -1.7   1227.6  26.9  32.63  0.12  1.34  -1318.4 0.20000 
1569.000     44.5  89.9      1.1      7.8      6.4     -1.5   1297.9  25.6  30.73  -0.04  1.35  -1318.4 0.20000 
1569.100     41.3  89.9      0.5      7.8      6.3     -2.6   1307.3  24.7  30.73  -0.08  1.35  -1318.4 0.20000 
1569.200     42.3  89.9     -1.0      7.8      6.2     -4.6   1388.6  23.7  30.72  -0.01  1.35  -1318.3 0.20000 
1569.300     45.5  89.9      0.4      7.8      6.8     -2.4   1440.2  23.0  24.48  0.12  1.35  -1318.3 0.20000 
1569.400     46.6  89.9      1.8      7.8      6.4     -0.3   1493.4  22.6  24.07  -0.05  1.32  -1318.3 0.20000 
