~Version Information
VERS.                      2.0: CWLS Log ASCII Standard - VERSION 2.0
WRAP.                       NO: One line per depth step
~Well Information Block
STRT.FT                -9.2500: 
STOP.FT              2685.7500: 
STEP.FT                 0.2500: 
NULL.                -999.2500: 
COMP.          Pioneer Natural Resources: COMPANY
WELL.          Beacon 11-18 Tr: WELL
FLD.           Purgatorie River: FIELD
LOC.           409' FNL & 203' FWL--: LOCATION
PROV.                       CO: PROVINCE
CNTY.               Las Animas: COUNTRY
SRVC.                         : SERVICE COMPANY
DATE.          Fri Jan 21 09:45:44 2005: LOG DATE
UWI.        005 071 08251  : UNIQUE WELL ID
~Curve Information Block
DEPT.FT            0 000 00 00: Depth
CCL.                          : Casing Collar Locator
TT3.usec                      : CBL 3' Travel Time
AMP3.mV                       : CBL 3' Amplitude
GR.GAPI                       : Gamma Ray
~Parameter Information Block
~A  Depth       CCL         TT3         AMP3         GR     
# ...
   526.7500      0.0000    265.1835     58.3691     67.8636
   527.0000      0.0000    265.1583     58.5653     67.9202
   527.2500      0.0000    265.1305     58.8388     69.9211
   527.5000      0.0000    265.1056     59.1681     75.1061
   527.7500      0.0000    265.0822     59.5316     83.1990
   528.0000      0.0000    265.0568     59.9070     92.3124
   528.2500      0.0000    265.0310     60.2647    100.2025
   528.5000      0.0000    265.0099     60.5787    105.4310
   528.7500      0.0000    264.9947     60.8441    107.3269
   529.0000      0.0000    264.9808     61.0776    105.3887
   529.2500      0.0000    264.9612     61.3044     99.4091
   529.5000      0.0000    264.9313     61.5443     90.1840
   529.7500      0.0000    264.8910     61.8008     79.5495
   530.0000      0.0000    264.8452     62.0589     69.5079
   530.2500      0.0000    264.8029     62.3002     61.2976
   530.5000      0.0000    264.7734     62.5204     55.0567
   530.7500      0.0000    264.7614     62.7320     50.2109
   531.0000      0.0000    264.7656     62.9517     46.2930
   531.2500      0.0000    264.7811     63.1931     43.5166
   531.5000      0.0000    264.8013     63.4681     42.5785
   531.7500      0.0000    264.8196     63.7851     43.9695
   532.0000      0.0000    264.8307     64.1419     47.3815
   532.2500      0.0000    264.8325     64.5217     51.6522
   532.5000      0.0000    264.8270     64.8901     55.3942
   532.7500      0.0000    264.8188     65.1986     57.8985
   533.0000      0.0000    264.8123     65.4034     59.3439
   533.2500      0.0000    264.8139     65.4770     60.0034
   533.5000      0.0000    264.8414     65.3509     59.5269
   533.7500      0.0000    264.9387     64.7952     57.4138
   534.0000      0.0000    265.1938     63.3689     54.0216
   534.2500      0.0000    265.7364     60.6684     50.5587
   534.5000      0.0000    266.6834     56.8235     47.9817
   534.7500      0.0000    268.0350     52.6757     46.2008
   535.0000      0.0000    269.6019     49.1940     44.4226
   535.2500      0.0000    271.0581     46.7383     42.1551
   535.5000      0.0000    272.1131     45.1180     39.8993
   535.7500      0.0000    272.6712     44.1600     38.8148
   536.0000      0.0000    272.8478     43.8363     39.5353
   536.2500      0.0000    272.8447     43.9795     41.3660
   536.5000      0.0000    272.8234     44.2515     42.8020
   536.7500      0.0000    272.8725     44.3932     42.8879
   537.0000      0.0000    273.0173     44.4325     41.9845
   537.2500      0.0000    273.1666     44.7405     41.2298
   537.5000      0.0000    273.0427     45.8783     41.4199
   537.7500      0.0000    272.2896     48.1879     42.4302
   538.0000      0.0000    270.7984     51.4836     43.5634
   538.2500      0.0000    268.9099     55.2401     44.4405
   538.5000      0.0000    267.1926     58.9480     45.4823
   538.7500      0.0000    266.0215     62.1806     47.2094
   539.0000      0.0000    265.4076     64.5811     49.1157
   539.2500      0.0000    265.1552     66.0246     49.8333
   539.5000      0.0000    265.0739     66.6961     48.5961
   539.7500      0.0000    265.0578     66.9198     45.9652
   540.0000      0.0000    265.0630     66.9548     42.9426
   540.2500      0.0000    265.0711     66.9356     40.0933
   540.5000      0.0000    265.0739     66.9129     37.7826
   540.7500      0.0000    265.0711     66.8909     36.4453
   541.0000      0.0000    265.0680     66.8598     36.1266
   541.2500      0.0000    265.0685     66.8150     36.4032
   541.5000      0.0000    265.0716     66.7684     37.2211
   541.7500      0.0000    265.0741     66.7361     39.2692
   542.0000      0.0000    265.0748     66.7174     43.0728
   542.2500      0.0000    265.0750     66.6944     48.1324
   542.5000      0.0000    265.0734     66.6526     53.3335
   542.7500      0.0000    265.0660     66.5937     57.9743
   543.0000      0.0000    265.0518     66.5238     62.1564
   543.2500      0.0000    265.0370     66.4398     66.3561
   543.5000      0.0000    265.0311     66.3306     70.8608
   543.7500      0.0000    265.0388     66.1908     75.5694
   544.0000      0.0000    265.0574     66.0285     80.1292
   544.2500      0.0000    265.0778     65.8652     84.2291
   544.5000      0.0000    265.0897     65.7258     87.8780
   544.7500      0.0000    265.0877     65.6217     91.2162
   545.0000      0.0000    265.0744     65.5413     93.6530
   545.2500      0.0000    265.0578     65.4627     93.4750
   545.5000      0.0000    265.0452     65.3720     89.1766
   545.7500      0.0000    265.0405     65.2659     81.3841
   546.0000      0.0000    265.0451     65.1433     72.8253
   546.2500      0.0000    265.0582     65.0014     66.0587
   546.5000      0.0000    265.0757     64.8373     61.5825
   546.7500      0.0000    265.0923     64.6486     58.2697
   547.0000      0.0000    265.1042     64.4355     55.0700
   547.2500      0.0000    265.1098     64.2047     51.9700
   547.5000      0.0000    265.1096     63.9696     49.6119
   547.7500      0.0000    265.1067     63.7450     48.3061
   548.0000      0.0000    265.1061     63.5369     47.5427
   548.2500      0.0000    265.1118     63.3357     46.5704
   548.5000      0.0000    265.1235     63.1217     45.3767
   548.7500      0.0000    265.1375     62.8841     44.7911
   549.0000      0.0000    265.1492     62.6317     45.5332
   549.2500      0.0000    265.1558     62.3831     47.3818
   549.5000      0.0000    265.1587     62.1440     49.4357
   549.7500      0.0000    265.1628     61.9005     51.0121
   550.0000      0.0000    265.1738     61.6345     52.0620
   550.2500      0.0000    265.1943     61.3424     52.7967
   550.5000      0.0000    265.2224     61.0361     53.2264
   550.7500      0.0000    265.2534     60.7325     53.2333
   551.0000      0.0000    265.2824     60.4433     52.8942
   551.2500      0.0000    265.3083     60.1708     52.4304
   551.5000      0.0000    265.3351     59.9052     51.8785
   551.7500      0.0000    265.3698     59.6298     51.0727
   552.0000      0.0000    265.4144     59.3374     49.9635
   552.2500      0.0000    265.4614     59.0423     48.7274
   552.5000      0.0000    265.4999     58.7712     47.5160
   552.7500      0.0000    265.5253     58.5418     46.3941
   553.0000      0.0000    265.5411     58.3551     45.7598
   553.2500      0.0000    265.5518     58.2067     46.5187
   553.5000      0.0000    265.5592     58.0937     49.4560
   553.7500      0.0000    265.5639     58.0075     54.3791
   554.0000      0.0000    265.5685     57.9316     59.9782
   554.2500      0.0000    265.5750     57.8519     64.6027
   554.5000      0.0000    265.5836     57.7682     67.3792
   554.7500      0.0000    265.5940     57.6892     68.8315
   555.0000      0.0000    265.6076     57.6181     70.4086
   555.2500      0.0000    265.6268     57.5412     73.1124
   555.5000      0.0000    265.6515     57.4357     76.2576
   555.7500      0.0000    265.6781     57.2901     77.6700
   556.0000      0.0000    265.7022     57.1199     75.4872
   556.2500      0.0000    265.7213     56.9604     69.9377
   556.5000      0.0000    265.7351     56.8412     63.2185
   556.7500      0.0000    265.7442     56.7651     57.6532
   557.0000      0.0000    265.7496     56.7136     54.1268
   557.2500      0.0000    265.7523     56.6709     52.1001
   557.5000      0.0000    265.7519     56.6353     50.6778
   557.7500      0.0000    265.7471     56.6074     49.4830
   558.0000      0.0000    265.7375     56.5789     48.6991
   558.2500      0.0000    265.7261     56.5380     48.6326
   558.5000      0.0000    265.7198     56.4799     49.6087
   558.7500      0.0000    265.7277     56.4127     52.1308
   559.0000      0.0000    265.7538     56.3579     56.5376
   559.2500      0.0000    265.7914     56.3431     62.4026
   559.5000      0.0000    265.8250     56.3783     68.6592
   559.7500      0.0000    265.8401     56.4355     74.3096
   560.0000      0.0000    265.8340     56.4581     78.7459
