~Version Information
VERS.                      2.0: CWLS Log ASCII Standard - VERSION 2.0
WRAP.                       NO: One line per depth step
~Well Information Block
STRT.FT               456.0000: 
STOP.FT              1703.0000: 
STEP.FT                 0.2500: 
NULL.                -999.2500: 
COMP.          Pioneer Natural Resources: COMPANY
WELL.                Mead 11-9: WELL
FLD.           Purgatoire River: FIELD
LOC.           1127' FNL & 668' FWL: LOCATION
PROV.                 Colorado: PROVINCE
CNTY.               Las Animas: COUNTRY
SRVC.                Patterson: SERVICE COMPANY
DATE.          Fri Feb 18 16:14:34 2005: LOG DATE
UWI.           05 071 08160 00: UNIQUE WELL ID
~Curve Information Block
DEPT.FT            0 000 00 00: Depth
SN.Ohm-m                      : IEL Short Normal
SP.mV                         : IEL Spontaneous Potential
DIR.Ohm-m                     : IEL Induction Resistivity
GR.GAPI                       : Gamma Ray
~Parameter Information Block
~A  Depth        SN          SP         DIR          GR     
# ...
  1092.5000     22.9423   -179.7563     22.8652     97.8687
  1092.7500     23.7550   -179.7345     23.9532     99.8995
  1093.0000     24.3532   -179.7716     24.6967    103.1805
  1093.2500     24.8131   -179.8314     25.1203    105.0206
  1093.5000     25.2085   -179.8820     25.3658    106.1019
  1093.7500     25.5740   -179.9101     25.5919    105.0893
  1094.0000     25.9271   -179.9182     25.8987    100.7445
  1094.2500     26.3030   -179.9137     26.3182     96.4822
  1094.5000     26.7420   -179.9017     26.8383     89.4108
  1094.7500     27.2613   -179.8846     27.4239     84.6832
  1095.0000     27.8614   -179.8659     28.0280     77.3573
  1095.2500     28.5341   -179.8534     28.6010     72.1784
  1095.5000     29.2488   -179.8599     29.1043     64.6774
  1095.7500     29.9647   -179.9000     29.5260     60.5946
  1096.0000     30.6636   -179.9850     29.8887     56.4870
  1096.2500     31.3486   -180.1176     30.2431     54.8490
  1096.5000     32.0194   -180.2878     30.6380     53.2087
  1096.7500     32.6611   -180.4725     31.0852     52.3622
  1097.0000     33.2498   -180.6432     31.5409     51.3709
  1097.2500     33.7680   -180.7781     31.9233     50.8805
  1097.5000     34.1976   -180.8716     32.1625     50.3514
  1097.7500     34.5000   -180.9320     32.2496     50.2483
  1098.0000     34.6376   -180.9748     32.2509     50.8968
  1098.2500     34.6086   -181.0175     32.2719     51.9709
  1098.5000     34.4320   -181.0745     32.3973     54.1124
  1098.7500     34.1220   -181.1472     32.6463     55.4690
  1099.0000     33.7053   -181.2174     32.9649     56.9753
  1099.2500     33.2476   -181.2577     33.2609     57.6154
  1099.5000     32.8367   -181.2521     33.4558     58.0509
  1099.7500     32.5327   -181.2074     33.5170     57.9195
  1100.0000     32.3320   -181.1517     33.4485     57.1047
  1100.2500     32.1848   -181.1257     33.2659     56.4403
  1100.5000     32.0337   -181.1679     32.9835     56.0265
  1100.7500     31.8408   -181.2945     32.6153     56.3331
  1101.0000     31.6070   -181.4859     32.1762     57.1949
  1101.2500     31.3767   -181.6947     31.6828     57.5991
  1101.5000     31.2072   -181.8769     31.1643     57.6543
  1101.7500     31.1190   -182.0188     30.6760     57.4582
  1102.0000     31.0738   -182.1340     30.2964     57.2237
  1102.2500     31.0036   -182.2358     30.1014     57.3555
  1102.5000     30.8795   -182.3158     30.1297     58.3291
  1102.7500     30.7655   -182.3519     30.3632     59.4586
  1103.0000     30.7778   -182.3302     30.7307     61.1823
  1103.2500     30.9798   -182.2575     31.1351     61.7971
  1103.5000     31.3468   -182.1605     31.4870     61.4427
  1103.7500     31.8273   -182.0787     31.7275     60.4726
  1104.0000     32.3846   -182.0507     31.8308     58.3297
  1104.2500     32.9668   -182.0940     31.7961     56.5682
  1104.5000     33.5002   -182.1867     31.6436     53.5668
  1104.7500     33.9204   -182.2689     31.4156     51.5657
  1105.0000     34.1883   -182.2665     31.1745     49.3259
  1105.2500     34.2882   -182.1255     30.9873     48.8260
  1105.5000     34.2280   -181.8358     30.8965     50.0550
  1105.7500     34.0464   -181.4321     30.8897     52.1055
  1106.0000     33.8015   -180.9754     30.8945     56.2029
  1106.2500     33.5131   -180.5305     30.8058     58.9604
  1106.5000     33.1280   -180.1469     30.5399     62.3239
  1106.7500     32.5694   -179.8450     30.0785     63.8833
  1107.0000     31.8222   -179.6105     29.4805     65.1425
  1107.2500     30.9787   -179.4042     28.8543     65.2662
  1107.5000     30.1900   -179.1815     28.3086     64.7321
  1107.7500     29.5633   -178.9125     27.8906     64.3663
  1108.0000     29.1175   -178.5944     27.5370     64.4861
  1108.2500     28.8114   -178.2532     27.0704     64.9957
  1108.5000     28.6073   -177.9355     26.2778     65.7987
  1108.7500     28.5191   -177.6922     25.0492     66.0349
  1109.0000     28.5540   -177.5588     23.4660     65.8852
  1109.2500     28.6150   -177.5352     21.7445     65.6887
  1109.5000     28.5164   -177.5746     20.0982     65.7941
  1109.7500     28.0379   -177.5902     18.6442     66.4043
  1110.0000     26.9379   -177.4892     17.4000     68.6773
  1110.2500     25.0313   -177.2180     16.3282     71.6827
  1110.5000     22.3801   -176.7871     15.3855     79.9352
  1110.7500     19.4071   -176.2551     14.5467     88.7019
  1111.0000     16.6946   -175.6889     13.8028    106.4900
  1111.2500     14.6105   -175.1399     13.1468    119.8549
  1111.5000     13.1684   -174.6462     12.5645    137.9530
  1111.7500     12.1827   -174.2417     12.0362    146.8218
  1112.0000     11.4586   -173.9539     11.5450    154.8703
  1112.2500     10.8859   -173.7970     11.0858    157.6252
  1112.5000     10.4451   -173.7661     10.6669    159.1833
  1112.7500     10.1443   -173.8332     10.3059    158.7259
  1113.0000      9.9614   -173.9485     10.0225    156.2195
  1113.2500      9.8519   -174.0547      9.8324    154.1393
  1113.5000      9.7898   -174.1098      9.7444    152.2388
  1113.7500      9.7766   -174.0997      9.7590    152.3585
  1114.0000      9.8152   -174.0346      9.8692    154.0213
  1114.2500      9.8996   -173.9424     10.0638    155.2072
  1114.5000     10.0282   -173.8640     10.3330    155.8504
  1114.7500     10.2045   -173.8405     10.6713    155.3323
  1115.0000     10.4311   -173.8873     11.0758    153.4783
  1115.2500     10.7086   -173.9794     11.5389    151.8054
  1115.5000     11.0358   -174.0665     12.0440    148.9297
  1115.7500     11.4153   -174.1058     12.5677    146.7976
  1116.0000     11.8426   -174.0850     13.0884    143.1238
  1116.2500     12.2846   -174.0251     13.5951    140.2531
  1116.5000     12.6989   -173.9651     14.0903    135.4815
  1116.7500     13.0836   -173.9389     14.5873    132.3763
  1117.0000     13.4921   -173.9548     15.1055    128.5545
  1117.2500     13.9984   -173.9924     15.6646    126.6712
  1117.5000     14.6638   -174.0164     16.2805    124.3315
  1117.7500     15.5306   -173.9982     16.9609    122.6248
  1118.0000     16.6053   -173.9305     17.7031    119.3045
  1118.2500     17.8297   -173.8262     18.4926    116.6219
  1118.5000     19.0968   -173.7081     19.3041    112.5261
  1118.7500     20.3180   -173.5966     20.1026    110.1654
  1119.0000     21.4620   -173.5036     20.8514    107.1472
  1119.2500     22.5320   -173.4346     21.5213    104.8166
  1119.5000     23.5431   -173.3965     22.0992     99.4606
  1119.7500     24.5222   -173.4018     22.5892     94.5740
  1120.0000     25.4814   -173.4644     23.0092     86.9194
  1120.2500     26.3825   -173.5908     23.3853     82.8788
  1120.5000     27.1623   -173.7727     23.7407     79.4082
  1120.7500     27.7837   -173.9865     24.0799     78.4969
  1121.0000     28.2440   -174.1971     24.3803     78.0785
  1121.2500     28.5531   -174.3677     24.6021     77.9001
  1121.5000     28.7125   -174.4728     24.7177     77.2418
  1121.7500     28.7194   -174.5082     24.7405     76.4161
  1122.0000     28.6244   -174.4892     24.7310     74.9854
  1122.2500     28.5402   -174.4398     24.7730     74.4458
  1122.5000     28.5260   -174.3826     24.9384     74.9121
  1122.7500     28.5368   -174.3316     25.2571     75.9149
  1123.0000     28.5246   -174.2887     25.7017     77.5443
  1123.2500     28.4984   -174.2415     26.1909     78.2480
  1123.5000     28.4958   -174.1679     26.6197     78.5857
  1123.7500     28.5560   -174.0487     26.9074     78.6501
  1124.0000     28.6973   -173.8796     27.0326     79.2947
  1124.2500     28.9144   -173.6794     27.0209     80.2811
  1124.5000     29.1966   -173.4955     26.9005     81.9838
  1124.7500     29.5307   -173.4032     26.6678     82.5507
  1125.0000     29.8942   -173.4850     26.2914     81.5847
  1125.2500     30.2551   -173.7917     25.7442     79.7159
  1125.5000     30.5684   -174.3056     25.0296     75.9497
  1125.7500     30.7758   -174.9377     24.1789     73.4082
