~Version Information
VERS.                      2.0: CWLS Log ASCII Standard - VERSION 2.0
WRAP.                       NO: One line per depth step
~Well Information Block
STRT.FT               318.1000: 
STOP.FT              2688.0000: 
STEP.FT                 0.1000: 
NULL.                -999.2500: 
COMP.          Petrogulf Corporation: COMPANY
WELL.            Montoya 1-24V: WELL
FLD.           Purgatorie River: FIELD
LOC.           605' FSL & 2557' FWL: LOCATION
CNTY.               Las Animas: COUNTY
SRVC.                         : SERVICE COMPANY
DATE.          Wed Oct 20 14:56:37 2004: LOG DATE
UWI.           05 071 08194 00: UNIQUE WELL ID
STAT.                 Colorado: STATE
~Curve Information Block
DEPT.FT            0 000 00 00: Depth
DCAL.in                       : CDL Caliper
RHOB.g/cc                     : CDL Bulk Density
RHOC.g/cc                     : CDL Density Correction
DPOR.pu                       : CDL Density Porosity
GR.GAPI                       : Gamma Ray
NPOR.pu                       : Neutron Porosity
~Parameter Information Block
~A  Depth       DCAL        RHOB        RHOC        DPOR         GR         NPOR    
# ...
  1585.3000      7.8925      2.6017      0.0003      2.9249    130.7055     24.5180
  1585.4000      7.8925      2.6190      0.0718      1.8761    129.9796     24.7274
  1585.5000      7.9084      2.6403      0.0496      0.5854    128.9863     25.1147
  1585.6000      7.9084      2.6592      0.0595     -0.5584    126.9146     25.3347
  1585.7000      7.9084      2.6614      0.0600     -0.6910    126.3849     25.2289
  1585.8000      7.9182      2.6339      0.0416      0.9743    128.5950     24.7011
  1585.9000      7.9182      2.5964      0.0059      3.2508    129.1438     24.0900
  1586.0000      7.9122      2.5739     -0.0047      4.6094    125.8164     23.9339
  1586.1000      7.9122      2.5645      0.0357      5.1815    125.7412     24.0700
  1586.2000      7.9122      2.5579     -0.0134      5.5801    131.4112     24.1367
  1586.3000      7.9146      2.5602      0.0229      5.4454    134.9178     24.3533
  1586.4000      7.9146      2.5684      0.0514      4.9472    132.7014     24.8876
  1586.5000      7.9757      2.5617      0.0091      5.3533    129.4482     25.3573
  1586.6000      7.9757      2.5373      0.0059      6.8305    128.7828     25.5364
  1586.7000      7.9757      2.5159      0.0057      8.1243    131.6465     25.5605
  1586.8000      7.9322      2.5162     -0.0117      8.1081    137.7089     25.4285
  1586.9000      7.9322      2.5383      0.0674      6.7680    141.3523     25.2432
  1587.0000      7.9761      2.5626      0.0787      5.2970    137.4975     25.0562
  1587.1000      7.9761      2.5738      0.0833      4.6198    128.3895     24.8126
  1587.2000      7.9761      2.5786      0.0639      4.3276    121.4015     24.7190
  1587.3000      7.9813      2.5929      0.0691      3.4594    123.3208     24.8558
  1587.4000      7.9813      2.6239      0.1073      1.5794    132.9370     24.9255
  1587.5000      7.9341      2.6631      0.1203     -0.7927    140.6315     24.7121
  1587.6000      7.9341      2.6868      0.1574     -2.2310    141.3508     24.2337
  1587.7000      7.9341      2.6837      0.1705     -2.0413    139.7320     23.5880
  1587.8000      7.9536      2.6683      0.0996     -1.1104    141.6395     22.9946
  1587.9000      7.9536      2.6593      0.0781     -0.5628    146.4621     22.8181
  1588.0000      7.9366      2.6622      0.0493     -0.7410    147.5100     23.0851
  1588.1000      7.9366      2.6606      0.0927     -0.6431    143.7030     23.6585
  1588.2000      7.9366      2.6380      0.0465      0.7246    143.0657     24.3325
  1588.3000      7.9123      2.6036      0.0450      2.8129    149.6054     24.6273
  1588.4000      7.9123      2.5755      0.0075      4.5147    156.3492     24.3014
  1588.5000      7.9406      2.5655      0.0291      5.1238    157.8110     23.6600
  1588.6000      7.9406      2.5724      0.0311      4.7023    155.9231     23.3263
  1588.7000      7.9406      2.5818      0.0524      4.1313    150.7585     23.8892
  1588.8000      7.9417      2.5827      0.0735      4.0804    145.0901     25.1397
  1588.9000      7.9417      2.5788      0.0424      4.3177    145.0975     26.1459
  1589.0000      7.9571      2.5761      0.0230      4.4793    149.8465     26.5150
  1589.1000      7.9571      2.5791      0.0076      4.2985    152.2568     26.6965
  1589.2000      7.9571      2.5893      0.0376      3.6767    149.5601     26.9259
  1589.3000      7.9394      2.5992      0.0449      3.0804    146.4882     26.9284
  1589.4000      7.9394      2.6017      0.0556      2.9264    149.1896     26.5903
  1589.5000      7.9054      2.5953      0.0344      3.3155    152.9307     26.1430
  1589.6000      7.9054      2.5837      0.0813      4.0180    150.4163     26.0860
  1589.7000      7.9054      2.5777      0.0397      4.3789    150.3483     26.7490
  1589.8000      7.9238      2.5819      0.0452      4.1263    158.2144     27.5453
  1589.9000      7.9238      2.5813      0.0621      4.1653    163.0346     27.5536
  1590.0000      7.9090      2.5627      0.0721      5.2900    160.3656     26.6383
  1590.1000      7.9090      2.5412      0.0176      6.5936    156.2107     25.7831
  1590.2000      7.9090      2.5406      0.0323      6.6312    153.2082     25.7968
  1590.3000      7.9385      2.5567      0.0769      5.6554    150.4434     26.1970
  1590.4000      7.9385      2.5708      0.0386      4.8005    148.0754     26.3033
  1590.5000      7.9259      2.5800      0.0566      4.2413    148.2378     26.1417
  1590.6000      7.9259      2.5813      0.1092      4.1639    150.0222     25.9396
  1590.7000      7.9259      2.5663      0.0665      5.0727    148.7501     25.8628
  1590.8000      7.8994      2.5507     -0.0073      6.0159    142.3253     26.0517
  1590.9000      7.8994      2.5631      0.0183      5.2665    133.9391     26.2781
  1591.0000      7.8711      2.5929      0.0855      3.4580    127.7890     26.1149
  1591.1000      7.8711      2.6089      0.1034      2.4933    127.3319     25.5828
  1591.2000      7.8711      2.6177      0.0576      1.9557    130.5656     25.0270
  1591.3000      7.8709      2.6376      0.1346      0.7536    128.8761     24.5840
  1591.4000      7.8709      2.6549      0.1517     -0.2982    121.3245     24.4727
  1591.5000      7.8663      2.6591      0.1441     -0.5534    117.0415     24.7703
  1591.6000      7.8663      2.6595      0.1509     -0.5773    119.1842     24.8598
  1591.7000      7.8663      2.6550      0.1533     -0.3031    122.9613     24.3918
  1591.8000      7.8627      2.6360      0.0713      0.8481    125.1811     24.0511
  1591.9000      7.8627      2.6141     -0.0035      2.1776    124.5740     24.3338
  1592.0000      7.9062      2.6090      0.0293      2.4822    117.9610     24.5161
  1592.1000      7.9062      2.6136      0.0878      2.2068    105.3771     23.8213
  1592.2000      7.9062      2.6120      0.0652      2.3053     95.6400     22.6997
  1592.3000      7.8864      2.6091      0.0345      2.4770     93.9802     21.7520
  1592.4000      7.8864      2.6161      0.0466      2.0534     96.4512     21.2083
  1592.5000      7.8871      2.6327      0.0243      1.0514     99.2741     21.2356
  1592.6000      7.8871      2.6435      0.1193      0.3941    103.2163     21.6045
  1592.7000      7.8871      2.6338      0.0653      0.9788    108.9051     21.7029
  1592.8000      7.8702      2.6141      0.0588      2.1767    110.4347     21.2109
  1592.9000      7.8702      2.5985      0.0867      3.1227    102.9011     20.5578
  1593.0000      7.8859      2.5869      0.0857      3.8228     91.5556     20.1951
  1593.1000      7.8859      2.5744      0.1300      4.5838     84.7034     20.0416
  1593.2000      7.8859      2.5596      0.0898      5.4761     83.3109     19.7409
  1593.3000      7.8753      2.5511      0.0621      5.9940     82.4302     18.9568
  1593.4000      7.8753      2.5510      0.0366      6.0015     78.4182     17.9827
  1593.5000      7.8921      2.5478      0.0757      6.1935     72.5052     17.3732
  1593.6000      7.8921      2.5327      0.0481      7.1106     66.9538     17.1192
  1593.7000      7.8921      2.5070      0.0650      8.6654     62.5398     16.9890
  1593.8000      7.8995      2.4816      0.0317     10.2053     60.6525     16.7562
  1593.9000      7.8995      2.4758      0.0301     10.5562     61.2606     16.4436
  1594.0000      7.8999      2.4948      0.0499      9.4040     61.2551     16.2971
  1594.1000      7.8999      2.5225      0.1008      7.7300     59.8636     16.3427
  1594.2000      7.8999      2.5423      0.0853      6.5265     59.3370     16.3825
  1594.3000      7.8908      2.5510      0.0958      5.9975     60.4855     16.3091
  1594.4000      7.8908      2.5530      0.0826      5.8808     62.7301     16.1114
  1594.5000      7.8877      2.5576      0.0350      5.5976     63.9518     15.8759
  1594.6000      7.8877      2.5735      0.0864      4.6341     61.4183     15.7947
  1594.7000      7.8877      2.5847      0.1110      3.9569     55.5282     16.0815
  1594.8000      7.9055      2.5652      0.1054      5.1424     51.3285     16.3831
