~Version Information
VERS.                      2.0: CWLS Log ASCII Standard - VERSION 2.0
WRAP.                       NO: One line per depth step
~Well Information Block
STRT.FT               830.0000: 
STOP.FT              3122.7000: 
STEP.FT                 0.1000: 
NULL.                -999.2500: 
COMP.          Pioneer Natural Resources: COMPANY
WELL.              Stones 24-8: WELL
FLD.           Purgatoire River: FIELD
LOC.           648' FSL & 2264' FWL: LOCATION
PROV.                 Colorado: PROVINCE
CNTY.               Las Animas: COUNTRY
SRVC.                Patterson: SERVICE COMPANY
DATE.          Wed Jan 19 15:33:00 2005: LOG DATE
UWI.           05 071 07945 00: UNIQUE WELL ID
~Curve Information Block
DEPT.FT            0 000 00 00: Depth
DCAL.in                       : CDL Caliper
RHOB.g/cc                     : CDL Bulk Density
RHOC.g/cc                     : CDL Density Correction
DPOR.pu                       : CDL Density Porosity
NPOR.pu                       : Neutron Porosity
GR.GAPI                       : Gamma Ray
~Parameter Information Block
~A  Depth       DCAL        RHOB        RHOC        DPOR        NPOR         GR     
# ...
  1588.4000      8.0828      2.5701      0.0260      4.8398     30.7606    141.2311
  1588.5000      8.0817      2.5731      0.0698      4.6579     30.7876    140.3776
  1588.6000      8.0817      2.5697      0.0446      4.8669     30.8315    135.0158
  1588.7000      8.0817      2.5538      0.0505      5.8321     31.1169    129.9350
  1588.8000      8.0809      2.5231      0.0485      7.6906     31.1580    126.2027
  1588.9000      8.0809      2.4844      0.0065     10.0373     30.5510    125.2651
  1589.0000      8.0825      2.4576     -0.0303     11.6625     29.5922    126.4620
  1589.1000      8.0825      2.4534      0.0197     11.9131     28.9871    128.4422
  1589.2000      8.0825      2.4542      0.0007     11.8675     28.9254    130.9443
  1589.3000      8.0826      2.4352      0.0215     13.0187     28.9843    132.0331
  1589.4000      8.0826      2.3900      0.0124     15.7555     28.6935    129.9783
  1589.5000      8.0809      2.3383     -0.0129     18.8909     28.0055    127.1940
  1589.6000      8.0809      2.3098     -0.0287     20.6198     27.2609    126.4494
  1589.7000      8.0809      2.3117      0.0022     20.5023     26.5961    128.2203
  1589.8000      8.0825      2.3261      0.0175     19.6316     25.9942    132.8533
  1589.9000      8.0825      2.3394      0.0444     18.8229     25.2285    136.7226
  1590.0000      8.0874      2.3527      0.0640     18.0174     23.6701    134.5919
  1590.1000      8.0874      2.3694      0.0744     17.0056     21.3631    127.1139
  1590.2000      8.0874      2.3901      0.0975     15.7538     19.5572    119.1872
  1590.3000      8.0923      2.4222      0.1054     13.8065     19.0823    114.6890
  1590.4000      8.0923      2.4747      0.1548     10.6213     19.4545    112.8578
  1590.5000      8.0951      2.5304      0.2100      7.2496     19.9901    108.8991
  1590.6000      8.0951      2.5590      0.2067      5.5162     20.7714    102.7490
  1590.7000      8.0951      2.5666      0.0710      5.0557     22.0781    101.0708
  1590.8000      8.0959      2.5827      0.0766      4.0802     23.6214    104.7718
  1590.9000      8.0959      2.6033      0.1131      2.8296     24.9110    108.3189
  1591.0000      8.1003      2.6037      0.1327      2.8052     25.7220    109.2373
  1591.1000      8.1003      2.5854      0.0758      3.9178     26.1065    108.7810
  1591.2000      8.1003      2.5692      0.0547      4.8962     26.1833    110.1152
  1591.3000      8.1078      2.5628      0.0630      5.2824     26.3035    113.2835
  1591.4000      8.1078      2.5640      0.0343      5.2128     26.9963    112.0987
  1591.5000      8.1137      2.5699      0.1207      4.8535     28.0735    107.7060
  1591.6000      8.1137      2.5737      0.0908      4.6236     28.9547    107.1327
  1591.7000      8.1137      2.5703      0.0962      4.8289     29.3324    109.0777
  1591.8000      8.1159      2.5587      0.0955      5.5306     29.2200    109.0584
  1591.9000      8.1159      2.5460      0.0833      6.3015     28.8673    107.0078
  1592.0000      8.1167      2.5412      0.0607      6.5927     28.6424    106.5901
  1592.1000      8.1167      2.5433      0.0696      6.4695     28.8916    109.8366
  1592.2000      8.1167      2.5457      0.0653      6.3185     29.6034    116.3491
  1592.3000      8.1205      2.5422      0.0869      6.5328     30.2905    126.0029
  1592.4000      8.1205      2.5326      0.0411      7.1126     30.3430    135.1833
  1592.5000      8.1269      2.5303      0.0570      7.2554     29.8499    137.5105
  1592.6000      8.1269      2.5363      0.0845      6.8934     29.5489    134.4340
  1592.7000      8.1269      2.5408      0.0424      6.6200     29.7350    132.6548
  1592.8000      8.1312      2.5497      0.0294      6.0772     29.8914    132.3105
  1592.9000      8.1312      2.5637      0.0461      5.2309     29.7570    130.0972
  1593.0000      8.1308      2.5694      0.0634      4.8856     29.5726    125.9951
  1593.1000      8.1308      2.5651      0.0383      5.1444     29.0996    123.8893
  1593.2000      8.1308      2.5596      0.0532      5.4805     28.1002    126.5050
  1593.3000      8.1293      2.5553      0.0674      5.7386     27.2597    128.9308
  1593.4000      8.1293      2.5527      0.0568      5.8992     27.0569    128.6408
  1593.5000      8.1282      2.5587      0.0433      5.5343     27.1186    129.8942
  1593.6000      8.1282      2.5748      0.0476      4.5603     27.4312    130.5359
  1593.7000      8.1282      2.5860      0.0731      3.8762     27.9244    125.4878
  1593.8000      8.1268      2.5823      0.0658      4.1034     27.8497    116.4485
  1593.9000      8.1268      2.5750      0.0577      4.5438     27.1469    107.9919
  1594.0000      8.1265      2.5804      0.0581      4.2168     26.6115    103.2953
  1594.1000      8.1265      2.5988      0.0780      3.1054     26.6598    103.5651
  1594.2000      8.1265      2.6162      0.0784      2.0481     27.2919    107.4233
  1594.3000      8.1273      2.6266      0.0516      1.4170     28.3978    108.9657
  1594.4000      8.1273      2.6352      0.0527      0.8977     29.6576    106.0027
  1594.5000      8.1255      2.6405      0.0677      0.5737     30.7326    103.9930
  1594.6000      8.1255      2.6330      0.0507      1.0299     31.3841    103.0586
  1594.7000      8.1255      2.6109      0.0507      2.3689     31.6434     97.8464
  1594.8000      8.1224      2.5848      0.0324      3.9508     31.7670     91.7697
  1594.9000      8.1224      2.5721     -0.0168      4.7239     31.6991     92.1094
  1595.0000      8.1225      2.5776      0.0113      4.3884     31.2180     99.2815
  1595.1000      8.1225      2.5842      0.0320      3.9865     30.5599    108.3792
  1595.2000      8.1225      2.5763      0.0453      4.4667     30.2008    113.4620
  1595.3000      8.1271      2.5504      0.0590      6.0364     29.8352    114.7393
  1595.4000      8.1271      2.5154      0.0030      8.1568     28.8366    116.2196
  1595.5000      8.1323      2.4917     -0.0102      9.5950     27.5583    117.0534
  1595.6000      8.1323      2.4906      0.0200      9.6587     26.6927    114.7710
  1595.7000      8.1323      2.5036      0.0432      8.8723     26.1510    108.4980
  1595.8000      8.1368      2.5158      0.0701      8.1353     25.5055    100.6087
  1595.9000      8.1368      2.5273      0.0418      7.4334     24.6513     96.6445
  1596.0000      8.1439      2.5524      0.0763      5.9124     23.8723     97.9162
  1596.1000      8.1439      2.5946      0.1031      3.3597     23.8179    100.4638
  1596.2000      8.1439      2.6339      0.1486      0.9745     24.6690    105.1330
  1596.3000      8.1481      2.6449      0.1493      0.3080     25.9579    112.1201
  1596.4000      8.1481      2.6286      0.0749      1.2948     27.4101    116.9635
  1596.5000      8.1472      2.6041      0.0708      2.7802     28.8956    118.9881
  1596.6000      8.1472      2.5774      0.0582      4.3997     29.9656    118.9287
  1596.7000      8.1472      2.5456      0.0467      6.3276     30.3669    116.2236
  1596.8000      8.1453      2.5160      0.0032      8.1227     30.5152    112.3826
  1596.9000      8.1453      2.5021     -0.0076      8.9617     30.8958    111.3764
  1597.0000      8.1431      2.5032      0.0304      8.8978     31.4594    116.3498
  1597.1000      8.1431      2.5094     -0.0113      8.5212     31.5564    125.5740
  1597.2000      8.1431      2.5180      0.0418      8.0020     31.0295    133.0723
  1597.3000      8.1421      2.5198      0.0649      7.8910     30.4372    136.1924
  1597.4000      8.1421      2.5088      0.0075      8.5592     30.0501    136.1716
  1597.5000      8.1422      2.5048      0.0110      8.8004     30.0271    132.0540
  1597.6000      8.1422      2.5237      0.0350      7.6558     30.3585    123.1960
  1597.7000      8.1422      2.5502      0.0537      6.0468     30.6266    115.7057
  1597.8000      8.1430      2.5629      0.0740      5.2761     30.6293    115.5269
  1597.9000      8.1430      2.5604      0.1024      5.4317     30.5277    119.9784
