~Version Information
VERS.                      2.0: CWLS Log ASCII Standard - VERSION 2.0
WRAP.                       NO: One line per depth step
~Well Information Block
STRT.FT               -16.5000: 
STOP.FT              1695.5000: 
STEP.FT                 0.2500: 
NULL.                -999.2500: 
COMP.          Pioneer Natural Resources: COMPANY
WELL.          Rancher 12-35 Tr: WELL
FLD.           Purgatorie River: FIELD
LOC.           2242' FNL & 308' FWL SWNW 35 32S 67W: LOCATION
PROV.                       CO: PROVINCE
CNTY.               Las Animas: COUNTRY
SRVC.                         : SERVICE COMPANY
DATE.         Fri Jul 08 09:39:00 2005: LOG DATE
UWI.                071 08430 : UNIQUE WELL ID
~Curve Information Block
DEPT.FT            0 000 00 00: Depth
CCL.                          : Casing Collar Locator
TT3.usec                      : CBL 3' Travel Time
AMP3.mV                       : CBL 3' Amplitude
GR.GAPI                       : Gamma Ray
~Parameter Information Block
~A  Depth       CCL         TT3         AMP3         GR     
# ...
    84.0000      0.0000    876.0000      5.5406     52.6876
    84.2500      0.0000    876.0000      5.3900     51.7948
    84.5000      0.0000    876.0000      5.1990     49.7883
    84.7500      0.0000    876.0000      4.9877     47.4379
    85.0000      0.0000    876.0000      4.8031     45.8187
    85.2500      0.0000    876.0000      4.6839     45.5776
    85.5000      0.0000    876.0000      4.6366     46.4764
    85.7500      0.0000    876.0000      4.6379     47.6552
    86.0000      0.0000    876.0000      4.6533     48.3176
    86.2500      0.0000    876.0000      4.6594     48.1292
    86.5000      0.0000    876.0000      4.6583     47.1644
    86.7500      0.0000    876.0000      4.6754     45.8357
    87.0000      0.0000    876.0000      4.7410     44.8669
    87.2500      0.0000    876.0000      4.8690     44.8423
    87.5000      0.0000    876.0000      5.0448     45.5248
    87.7500      0.0000    876.0000      5.2305     45.8829
    88.0000      0.0000    876.0000      5.3832     45.1055
    88.2500      0.0000    876.0000      5.4763     43.5370
    88.5000      0.0000    876.0000      5.5092     42.3635
    88.7500      0.0000    876.0000      5.5007     42.3906
    89.0000      0.0000    876.0000      5.4726     43.3860
    89.2500      0.0000    876.0000      5.4412     44.6720
    89.5000      0.0000    876.0000      5.4194     46.0977
    89.7500      0.0000    876.0000      5.4171     48.2027
    90.0000      0.0000    876.0000      5.4331     51.4802
    90.2500      0.0000    876.0000      5.4513     55.6824
    90.5000      0.0000    876.0000      5.4527     59.7864
    90.7500      0.0000    876.0000      5.4327     62.5074
    91.0000      0.0000    876.0000      5.4074     63.0784
    91.2500      0.0000    876.0000      5.4015     61.9226
    91.5000      0.0000    876.0000      5.4295     60.6761
    91.7500      0.0000    876.0000      5.4844     61.3104
    92.0000      0.0000    876.0000      5.5459     64.9812
    92.2500      0.0000    876.0000      5.6003     71.5070
    92.5000      0.0000    876.0000      5.6502     79.7154
    92.7500      0.0000    876.0000      5.7010     88.0814
    93.0000      0.0000    876.0000      5.7395     95.1553
    93.2500      0.0000    876.0000      5.7369    100.0133
    93.5000      0.0000    876.0000      5.6798    102.7483
    93.7500      0.0000    876.0000      5.5916    104.2176
    94.0000      0.0000    876.0000      5.5163    104.9101
    94.2500      0.0000    876.0000      5.4795    104.3467
    94.5000      0.0000    876.0000      5.4792    101.9135
    94.7500      0.0000    876.0000      5.5136     98.0479
    95.0000      0.0000    876.0000      5.5984     94.3936
    95.2500      0.0000    876.0000      5.7401     92.7639
    95.5000      0.0000    876.0000      5.9027     93.7413
    95.7500      0.0000    876.0000      6.0174     96.1919
    96.0000      0.0000    876.0000      6.0346     98.4726
    96.2500      0.0000    876.0000      5.9643    100.0635
    96.5000      0.0000    876.0000      5.8676    101.5824
    96.7500      0.0000    876.0000      5.8098    103.3988
    97.0000      0.0000    876.0000      5.8205    105.0988
    97.2500      0.0000    876.0000      5.8870    106.4428
    97.5000      0.0000    876.0000      5.9711    107.9085
    97.7500      0.0000    876.0000      6.0345    109.7696
    98.0000      0.0000    876.0000      6.0632    111.4151
    98.2500      0.0000    876.0000      6.0730    112.3338
    98.5000      0.0000    876.0000      6.0873    113.1453
    98.7500      0.0000    876.0000      6.1044    114.7354
    99.0000      0.0000    876.0000      6.0943    116.6822
    99.2500      0.0000    876.0000      6.0322    117.3838
    99.5000      0.0000    876.0000      5.9269    115.6877
    99.7500      0.0000    876.0000      5.8094    111.8566
   100.0000      0.0000    876.0000      5.7005    107.1747
   100.2500      0.0000    876.0000      5.5964    103.0586
   100.5000      0.0000    876.0000      5.4826    100.3516
   100.7500      0.0000    876.0000      5.3547     99.0207
   101.0000      0.0000    876.0000      5.2249     98.4973
   101.2500      0.0000    876.0000      5.1139     98.3944
   101.5000      0.0000    876.0000      5.0363     98.6829
   101.7500      0.0000    876.0000      4.9952     99.1398
   102.0000      0.0000    876.0000      4.9832     99.1414
   102.2500      0.0000    876.0000      4.9871     98.2694
   102.5000      0.0000    876.0000      4.9938     96.8286
   102.7500      0.0000    876.0000      4.9982     95.6724
   103.0000      0.0000    876.0000      5.0060     95.6877
   103.2500      0.0000    876.0000      5.0258     97.2075
   103.5000      0.0000    876.0000      5.0599     99.6395
   103.7500      0.0000    876.0000      5.1050    101.8960
   104.0000      0.0000    876.0000      5.1588    103.2841
   104.2500      0.0000    876.0000      5.2184    103.7262
   104.5000      0.0000    876.0000      5.2744    103.2693
   104.7500      0.0000    876.0000      5.3130    101.8138
   105.0000      0.0000    876.0000      5.3271     99.4735
   105.2500      0.0000    876.0000      5.3186     97.1151
   105.5000      0.0000    876.0000      5.2896     96.2306
   105.7500      0.0000    876.0000      5.2367     97.7194
   106.0000      0.0000    876.0000      5.1549    100.7189
   106.2500      0.0000    876.0000      5.0438    103.2164
   106.5000      0.0000    876.0000      4.9092    103.9703
   106.7500      0.0000    876.0000      4.7632    103.4139
   107.0000      0.0000    876.0000      4.6234    102.6709
   107.2500      0.0000    876.0000      4.5058    102.0713
   107.5000      0.0000    876.0000      4.4096    100.7227
   107.7500      0.0000    876.0000      4.3132     97.4817
   108.0000      0.0000    876.0000      4.1925     92.4133
   108.2500      0.0000    876.0000      4.0477     87.2493
   108.5000      0.0000    876.0000      3.9109     84.1950
   108.7500      0.0000    876.0000      3.8228     84.1774
   109.0000      0.0000    875.9999      3.7992     86.2266
   109.2500      0.0000    875.9997      3.8181     88.3766
   109.5000      0.0000    875.9984      3.8363     88.9887
   109.7500      0.0000    875.9937      3.8211     87.3153
   110.0000      0.0000    875.9807      3.7767     83.3349
   110.2500      0.0000    875.9536      3.7378     77.6416
   110.5000      0.0000    875.9133      3.7278     71.5017
   110.7500      0.0000    875.8738      3.7223     66.4456
   111.0000      0.0000    875.8570      3.6734     63.3561
   111.2500      0.0000    875.8738      3.5736     61.9302
   111.5000      0.0000    875.9133      3.4707     61.0682
   111.7500      0.0000    875.9536      3.4093     59.7658
   112.0000      0.0000    875.9807      3.3819     57.7252
   112.2500      3.0000    875.9937      3.3539     55.3375
   112.5000      3.0000    875.9984      3.3188     53.3027
   112.7500      0.0000    875.9997      3.3138     52.3058
   113.0000      0.0000    875.9999      3.3968     52.7694
   113.2500      0.0000    876.0000      3.6103     54.5444
   113.5000      0.0000    876.0000      3.9440     56.7373
   113.7500      0.0000    876.0000      4.3248     58.0825
   114.0000      0.0000    876.0000      4.6610     57.7623
   114.2500      0.0000    876.0000      4.8995     55.9550
   114.5000      0.0000    876.0000      5.0292     53.7227
   114.7500      0.0000    876.0000      5.0541     52.4791
   115.0000      0.0000    876.0000      4.9898     53.2337
   115.2500      0.0000    876.0000      4.8729     55.9055
   115.5000      0.0000    876.0000      4.7486     59.4388
   115.7500      0.0000    876.0000      4.6474     62.7230
   116.0000      0.0000    876.0000      4.5748     65.1212
   116.2500      0.0000    876.0000      4.5245     66.1724
   116.5000      0.0000    876.0000      4.4983     65.5774
   116.7500      0.0000    876.0000      4.5104     63.9335
   117.0000      0.0000    876.0000      4.5706     63.0041
   117.2500      0.0000    876.0000      4.6679     64.6882
