~Version Information
VERS.                      2.0: CWLS Log ASCII Standard - VERSION 2.0
WRAP.                       NO: One line per depth step
~Well Information Block
STRT.FT                -1.5000: 
STOP.FT              1317.0000: 
STEP.FT                 0.2500: 
NULL.                -999.2500: 
COMP.          Pioneer Natural Resources: COMPANY
WELL.              Border 21-3: WELL
FLD.           Purgatoire River: FIELD
LOC.           865' FNL & 1415' FWL: LOCATION
PROV.                 Colorado: PROVINCE
CNTY.               Las Animas: COUNTRY
SRVC.                Patterson: SERVICE COMPANY
DATE.          Tue Dec 14 14:08:05 2004: LOG DATE
UWI.           05 071 08169 00: UNIQUE WELL ID
~Curve Information Block
DEPT.FT            0 000 00 00: Depth
GR.GAPI                       : Gamma Ray
CCL.                          : Casing Collar Locator
TT3.usec                      : CBL 3' Travel Time
AMP3.mV                       : CBL 3' Amplitude
~Parameter Information Block
~A  Depth        GR         CCL         TT3         AMP3    
# ...
   769.0000    122.6945      0.0000    758.5636      7.4797
   769.2500    117.9102      0.0000    760.2778      7.4594
   769.5000    117.7815      0.0000    764.5695      7.4434
   769.7500    121.3868      0.0000    768.9915      7.4319
   770.0000    127.2394      0.0000    771.9810      7.4168
   770.2500    133.6812      0.0000    773.7310      7.3888
   770.5000    138.9854      0.0000    775.6754      7.3522
   770.7500    141.8983      0.0000    779.2875      7.3275
   771.0000    142.3376      0.0000    784.4883      7.3349
   771.2500    141.4331      0.0000    788.8683      7.3781
   771.5000    140.5699      0.0000    789.2926      7.4438
   771.7500    140.1483      0.0000    784.5461      7.5106
   772.0000    139.3391      0.0000    775.8362      7.5566
   772.2500    137.3454      0.0000    765.1043      7.5666
   772.5000    134.8758      0.0000    753.8920      7.5423
   772.7500    133.8716      0.0000    743.7255      7.5068
   773.0000    135.5352      0.0000    736.6345      7.4909
   773.2500    139.0835      0.0000    734.7787      7.5085
   773.5000    142.6935      0.0000    739.1237      7.5415
   773.7500    145.2675      0.0000    748.1194      7.5520
   774.0000    147.0233      0.0000    758.1500      7.5108
   774.2500    148.7401      0.0000    765.8401      7.4204
   774.5000    150.7477      0.0000    769.7068      7.3138
   774.7500    152.4192      0.0000    769.5879      7.2304
   775.0000    152.3820      0.0000    765.2420      7.1852
   775.2500    149.4184      0.0000    756.2402      7.1608
   775.5000    143.5217      0.0000    743.3613      7.1271
   775.7500    136.1868      0.0000    729.6417      7.0720
   776.0000    129.5314      0.0000    719.1994      7.0102
   776.2500    124.9655      0.0000    714.3099      6.9646
   776.5000    122.3840      0.0000    713.6281      6.9423
   776.7500    120.2980      0.0000    713.6978      6.9288
   777.0000    116.7880      0.0000    712.4933      6.9082
   777.2500    110.7692      0.0000    711.2664      6.8813
   777.5000    102.8292      0.0000    712.7842      6.8619
   777.7500     95.1205      0.0000    718.2333      6.8563
   778.0000     90.1803      0.0000    726.0888      6.8558
   778.2500     89.2237      0.0000    733.3490      6.8498
   778.5000     91.3759      0.0000    737.4169      6.8420
   778.7500     94.7246      0.0000    737.5963      6.8512
   779.0000     98.0414      0.0000    735.7699      6.8968
   779.2500    101.3971      0.0000    735.3719      6.9843
   779.5000    105.3970      0.0000    738.9359      7.1028
   779.7500    110.0640      0.0000    746.3120      7.2346
   780.0000    114.4815      0.0000    754.8966      7.3640
   780.2500    117.5134      0.0000    761.2689      7.4816
   780.5000    118.8865      0.0000    762.7992      7.5862
   780.7500    119.5075      0.0000    758.4543      7.6872
   781.0000    120.6306      0.0000    749.0792      7.8003
   781.2500    122.7258      0.0000    737.3217      7.9333
   781.5000    125.1520      0.0000    726.6415      8.0739
   781.7500    126.6717      0.0000    719.4499      8.1936
   782.0000    126.1483      0.0000    715.8709      8.2648
   782.2500    123.1973      0.0000    714.3531      8.2746
   782.5000    118.7195      0.0000    713.5235      8.2276
   782.7500    114.5354      0.0000    713.4468      8.1414
   783.0000    111.9425      0.0000    715.0368      8.0377
   783.2500    110.7358      0.0000    718.4924      7.9295
   783.5000    109.7636      0.0000    722.8335      7.8187
   783.7500    108.0266      0.0000    726.9598      7.7097
   784.0000    105.1549      0.0000    730.5092      7.6206
   784.2500    101.5051      0.0000    733.3065      7.5757
   784.5000     98.2083      0.0000    734.3914      7.5872
   784.7500     96.7061      0.0000    732.4564      7.6447
   785.0000     97.8297      0.0000    727.6680      7.7191
   785.2500    101.4165      0.0000    722.4750      7.7742
   785.5000    106.8030      0.0000    719.7521      7.7806
   785.7500    113.3422      0.0000    720.1762      7.7288
   786.0000    120.3298      0.0000    721.8339      7.6343
   786.2500    126.6885      0.0000    722.0842      7.5295
   786.5000    131.0730      0.0000    719.4293      7.4439
   786.7500    132.5341      0.0000    714.1757      7.3880
   787.0000    131.2739      0.0000    708.1408      7.3574
   787.2500    128.7225      0.0000    703.6307      7.3544
   787.5000    126.6734      0.0000    702.0399      7.3870
   787.7500    126.1581      0.0000    703.2155      7.4335
   788.0000    126.8623      0.0000    706.3810      7.4310
   788.2500    127.3840      0.0000    711.3486      7.3344
   788.5000    126.3293      0.0000    717.9258      7.1718
   788.7500    123.5547      0.0000    724.3926      7.0160
   789.0000    120.4044      2.0000    728.3515      6.9154
   789.2500    118.6750     -2.0000    729.9687      6.8741
   789.5000    119.1677     -2.0000    732.7561      6.8799
   789.7500    120.8840      0.0000    739.8319      6.9368
   790.0000    121.5563      0.0000    750.3611      7.0717
   790.2500    119.2702      0.0000    760.7601      7.2995
   790.5000    113.9129      0.0000    768.5684      7.5674
   790.7500    107.2915      0.0000    773.9276      7.7644
   791.0000    101.9754      0.0000    777.8902      7.8167
   791.2500     99.7904      0.0000    780.7861      7.7534
   791.5000    100.9133      0.0000    782.4868      7.6565
   791.7500    104.1287      0.0000    783.4127      7.5750
   792.0000    108.1089      0.0000    784.5762      7.5074
   792.2500    112.5497      0.0000    786.3382      7.4354
   792.5000    117.8135      0.0000    787.4056      7.3493
   792.7500    123.2922      0.0000    785.5828      7.2559
   793.0000    126.5939      0.0000    779.5229      7.1774
   793.2500    125.0624      0.0000    769.7245      7.1415
   793.5000    118.3623      0.0000    758.5667      7.1611
   793.7500    109.1614      0.0000    749.9633      7.2203
   794.0000    101.0458      0.0000    747.8214      7.2832
   794.2500     96.1627      0.0000    753.2969      7.3185
   794.5000     94.9683      0.0000    763.7995      7.3177
   794.7500     97.2881      0.0000    775.5063      7.2928
   795.0000    102.7203      0.0000    786.2061      7.2626
   795.2500    110.2950      0.0000    794.8973      7.2402
   795.5000    118.5591      0.0000    799.7870      7.2272
   795.7500    126.1651      0.0000    798.5025      7.2140
   796.0000    132.1973      0.0000    790.3229      7.1844
   796.2500    136.2702      0.0000    777.0792      7.1270
   796.5000    138.7305      0.0000    761.4987      7.0496
   796.7500    140.6063      0.0000    745.3002      6.9822
   797.0000    142.8918      0.0000    729.3202      6.9605
   797.2500    145.6560      0.0000    714.8105      7.0004
   797.5000    147.9309      0.0000    703.5385      7.0862
   797.7500    148.6581      0.0000    696.6163      7.1816
   798.0000    147.7809      0.0000    693.9880      7.2517
   798.2500    146.3025      0.0000    695.3079      7.2783
   798.5000    145.4144      0.0000    700.8433      7.2576
   798.7500    145.8909      0.0000    711.0705      7.1901
   799.0000    148.1299      0.0000    725.4355      7.0780
   799.2500    151.9765      0.0000    741.8936      6.9346
   799.5000    156.1968      0.0000    757.6579      6.7913
   799.7500    158.6372      0.0000    770.0722      6.6864
   800.0000    157.4483      0.0000    777.2770      6.6435
   800.2500    152.2831      0.0000    779.1384      6.6608
   800.5000    144.3914      0.0000    777.5306      6.7196
   800.7500    135.8275      0.0000    775.0259      6.8004
   801.0000    128.6253      0.0000    773.2449      6.8911
   801.2500    124.1392      0.0000    772.4709      6.9855
   801.5000    122.4219      0.0000    772.2388      7.0776
   801.7500    122.2143      0.0000    771.7985      7.1620
   802.0000    121.9590      0.0000    770.0722      7.2409
   802.2500    120.9104      0.0000    765.6741      7.3306
