~Version Information
VERS.                      2.0: CWLS Log ASCII Standard - VERSION 2.0
WRAP.                       NO: One line per depth step
~Well Information Block
STRT.FT               750.6000: 
STOP.FT              2495.5000: 
STEP.FT                 0.1000: 
NULL.                -999.2500: 
COMP.                         : COMPANY
WELL.                         : WELL
FLD.                          : FIELD
LOC.                          : LOCATION
CNTY.                         : COUNTY
SRVC.                         : SERVICE COMPANY
DATE.          Sat Feb 28 14:05:57 2004: LOG DATE
UWI.                          : UNIQUE WELL ID
STAT.                         : STATE
~Curve Information Block
DEPT.FT            0 000 00 00: Depth
DCAL.in                       : CDL Caliper
RHOB.g/cc                     : CDL Bulk Density
RHOC.g/cc                     : CDL Density Correction
DPOR.pu                       : CDL Density Porosity
GR.GAPI                       : Gamma Ray
NPOR.pu                       : Neutron Porosity
~Parameter Information Block
~A  Depth       DCAL        RHOB        RHOC        DPOR         GR         NPOR    
# ...
  2363.4000      7.8626      2.6875      0.1439     -2.2706     50.3030     13.9224
  2363.5000      7.8429      2.6866      0.1311     -2.2210     49.0299     13.3934
  2363.6000      7.8429      2.6809      0.1615     -1.8735     45.9762     12.5550
  2363.7000      7.8429      2.6653      0.1505     -0.9294     41.7950     11.6076
  2363.8000      7.8158      2.6486      0.1040      0.0824     36.8796     11.2680
  2363.9000      7.8158      2.6384      0.0552      0.7045     32.4981     11.4018
  2364.0000      7.8005      2.6248      0.1554      1.5268     30.8189     11.5736
  2364.1000      7.8005      2.6104     -0.0146      2.4028     32.6848     11.7007
  2364.2000      7.8005      2.6220      0.0465      1.6975     36.7635     11.5125
  2364.3000      7.8055      2.6458      0.1879      0.2541     38.3562     10.8660
  2364.4000      7.8055      2.6411      0.0444      0.5395     36.5019      9.9548
  2364.5000      7.8232      2.6130      0.0552      2.2444     36.0351      9.0943
  2364.6000      7.8232      2.5909     -0.0232      3.5819     37.7010      8.4213
  2364.7000      7.8232      2.5878     -0.0077      3.7687     37.7158      8.0595
  2364.8000      7.8367      2.5969      0.0450      3.2163     35.7821      8.3758
  2364.9000      7.8367      2.6091      0.0097      2.4778     35.4208      9.3095
  2365.0000      7.8403      2.6214      0.0504      1.7313     39.1861     10.2826
  2365.1000      7.8403      2.6414      0.0121      0.5204     43.6640     10.8728
  2365.2000      7.8403      2.6820      0.0884     -1.9369     44.0548     11.1638
  2365.3000      7.8362      2.7183      0.1287     -4.1402     42.4546     11.3932
  2365.4000      7.8362      2.7148      0.0843     -3.9263     42.4968     11.4572
  2365.5000      7.8362      2.6805      0.1637     -1.8506     44.5612     11.4289
  2365.6000      7.8362      2.6487     -0.0250      0.0762     47.0594     11.7600
  2365.7000      7.8362      2.6338      0.0859      0.9815     47.3152     12.6660
  2365.8000      7.8343      2.6213      0.0586      1.7422     45.7347     13.7696
  2365.9000      7.8343      2.6043      0.0447      2.7686     43.7614     14.5994
  2366.0000      7.8393      2.5815      0.0728      4.1522     41.5997     15.1384
  2366.1000      7.8393      2.5583      0.0469      5.5563     40.5763     15.4570
  2366.2000      7.8393      2.5572      0.0250      5.6239     40.1294     15.2900
  2366.3000      7.8382      2.5723      0.0838      4.7103     40.1042     14.9112
  2366.4000      7.8382      2.5694      0.0814      4.8845     43.4026     15.1270
  2366.5000      7.8319      2.5403      0.0955      6.6461     47.0009     16.0211
  2366.6000      7.8319      2.5106      0.0692      8.4496     45.1688     17.0066
  2366.7000      7.8319      2.5025      0.0742      8.9364     40.2736     17.6940
  2366.8000      7.8338      2.5115      0.0593      8.3954     37.5529     18.0880
  2366.9000      7.8338      2.5164      0.1211      8.0980     38.7855     18.6565
  2367.0000      7.8411      2.5046      0.0834      8.8132     42.1021     19.3806
  2367.1000      7.8411      2.4937     -0.0035      9.4723     43.5172     19.6173
  2367.2000      7.8411      2.5039      0.0429      8.8516     41.4123     19.4909
  2367.3000      7.8474      2.5178      0.1495      8.0121     39.7366     19.7397
  2367.4000      7.8474      2.5098      0.1372      8.4950     42.4793     20.4244
  2367.5000      7.8551      2.4792      0.0948     10.3507     46.6979     21.0690
  2367.6000      7.8551      2.4360      0.0105     12.9694     48.0098     21.3572
  2367.7000      7.8551      2.3992      0.0078     15.1974     46.5604     21.2527
  2367.8000      7.8609      2.3938     -0.0171     15.5264     44.5845     21.1033
  2367.9000      7.8609      2.4205      0.0126     13.9113     46.5702     21.1593
  2368.0000      7.8624      2.4477      0.0204     12.2592     53.4785     21.2379
  2368.1000      7.8624      2.4547     -0.0033     11.8354     58.5587     21.2782
  2368.2000      7.8624      2.4601     -0.0160     11.5106     58.1358     21.2233
  2368.3000      7.8484      2.4794      0.1220     10.3424     54.1027     20.8807
  2368.4000      7.8484      2.5044      0.0551      8.8215     49.5138     20.3468
  2368.5000      7.8410      2.5343      0.1192      7.0134     47.9225     19.9970
  2368.6000      7.8410      2.5574      0.1714      5.6133     49.9165     19.9952
  2368.7000      7.8410      2.5547      0.0855      5.7752     50.6848     20.1381
  2368.8000      7.8344      2.5353      0.0959      6.9524     48.4105     20.3707
  2368.9000      7.8344      2.5248      0.0406      7.5878     47.2271     20.8549
  2369.0000      7.8440      2.5329      0.0505      7.0956     48.0230     21.3340
  2369.1000      7.8440      2.5397      0.1304      6.6840     47.2056     21.4242
  2369.2000      7.8440      2.5287      0.0758      7.3534     45.1403     21.1479
  2369.3000      7.8498      2.5158      0.0634      8.1329     45.0703     20.7164
  2369.4000      7.8498      2.5102      0.0547      8.4730     45.9655     20.3521
  2369.5000      7.8563      2.4948      0.0849      9.4081     46.8091     20.2838
  2369.6000      7.8563      2.4717      0.0039     10.8058     48.4253     20.6212
  2369.7000      7.8563      2.4665      0.0276     11.1218     49.6796     21.2449
  2369.8000      7.8614      2.4788      0.0729     10.3755     50.7340     21.7185
  2369.9000      7.8614      2.4845      0.0597     10.0301     52.1488     21.6734
  2370.0000      7.8672      2.4777      0.0280     10.4447     52.6260     21.0630
  2370.1000      7.8672      2.4796     -0.0080     10.3245     52.0462     20.4905
  2370.2000      7.8672      2.4970      0.0829      9.2718     50.7600     20.5168
  2370.3000      7.8660      2.5050      0.0438      8.7855     49.3738     20.7855
  2370.4000      7.8660      2.4952      0.0109      9.3797     48.6109     20.6959
  2370.5000      7.8647      2.4886      0.0457      9.7798     48.5747     20.4284
  2370.6000      7.8647      2.4969      0.0475      9.2803     50.4525     20.6426
  2370.7000      7.8647      2.5068      0.1089      8.6780     53.7310     21.1059
  2370.8000      7.8615      2.5104      0.0370      8.4577     56.1909     21.0748
  2370.9000      7.8615      2.5111      0.0866      8.4153     57.3855     20.6126
  2371.0000      7.8453      2.5059      0.1167      8.7354     58.0569     20.3851
  2371.1000      7.8453      2.5044      0.0508      8.8252     58.3958     20.7954
  2371.2000      7.8453      2.5193      0.0965      7.9228     57.9275     21.2316
  2371.3000      7.8400      2.5363      0.1041      6.8892     56.2688     20.9650
  2371.4000      7.8400      2.5365      0.1486      6.8763     53.1633     20.6067
  2371.5000      7.8440      2.5206      0.0885      7.8402     49.1336     20.9767
  2371.6000      7.8440      2.4970      0.1089      9.2720     47.3493     21.5278
  2371.7000      7.8440      2.4746      0.0054     10.6273     50.3508     21.5182
  2371.8000      7.8518      2.4740      0.0575     10.6644     55.6541     20.9044
  2371.9000      7.8518      2.5007      0.0653      9.0510     57.6209     20.2342
  2372.0000      7.8585      2.5239      0.0970      7.6400     55.4411     20.2739
  2372.1000      7.8585      2.5201      0.0572      7.8707     52.9364     20.9435
  2372.2000      7.8585      2.5092      0.0424      8.5323     52.4896     21.7236
  2372.3000      7.8550      2.5072      0.0670      8.6521     52.4677     22.1782
  2372.4000      7.8550      2.4929      0.1227      9.5217     49.6817     21.9397
  2372.5000      7.8555      2.4631      0.0625     11.3281     45.5829     21.2717
  2372.6000      7.8555      2.4550     -0.0402     11.8156     44.9745     20.7195
  2372.7000      7.8555      2.4778      0.0348     10.4354     50.7090     20.4722
  2372.8000      7.8509      2.4931      0.0442      9.5068     59.2318     20.4734
  2372.9000      7.8509      2.4784      0.0174     10.4021     63.3890     20.3431
