~Version Information
VERS.                      2.0: CWLS Log ASCII Standard - VERSION 2.0
WRAP.                       NO: One line per depth step
~Well Information Block
STRT.FT               507.5000: 
STOP.FT              2145.0000: 
STEP.FT                 0.2500: 
NULL.                -999.2500: 
COMP.          Petrogulf Corporation: COMPANY
WELL.            Montoya 1-44R: WELL
FLD.           Purgatorie River: FIELD
LOC.           658' FSL & 1052' FWL: LOCATION
CNTY.               Las Animas: COUNTY
SRVC.                         : SERVICE COMPANY
DATE.          Tue Nov 16 02:59:24 2004: LOG DATE
UWI.           05 071 08239 00: UNIQUE WELL ID
STAT.                 Colorado: STATE
~Curve Information Block
DEPT.FT            0 000 00 00: Depth
SP.mV                         : DIL Spontaneous Potential
RILD.Ohm-m                    : DIL Deep Resistivity
RILM.Ohm-m                    : DIL Medium Resistivity
RLL3.Ohm-m                    : DIL Shallow Resistivity
GR.GAPI                       : Gamma Ray
~Parameter Information Block
~A  Depth        SP         RILD        RILM        RLL3         GR     
# ...
  1907.5000      0.9213     12.7977     13.2735     13.2431    134.3817
  1907.7500      1.5080     12.2929     12.6961     12.7766    134.7367
  1908.0000      2.0069     11.8541     12.1945     12.3483    136.3779
  1908.2500      2.4446     11.4738     11.7617     11.9421    138.6840
  1908.5000      2.8678     11.1445     11.3924     11.5645    143.5301
  1908.7500      3.3244     10.8594     11.0825     11.2327    146.6504
  1909.0000      3.8597     10.6124     10.8281     10.9639    149.3966
  1909.2500      4.5210     10.3986     10.6259     10.7673    149.7544
  1909.5000      5.3520     10.2141     10.4720     10.6386    149.2816
  1909.7500      6.3876     10.0566     10.3626     10.5621    149.0610
  1910.0000      7.6434      9.9245     10.2934     10.5186    149.0072
  1910.2500      9.0986      9.8172     10.2596     10.4947    148.6736
  1910.5000     10.6887      9.7340     10.2562     10.4887    147.1645
  1910.7500     12.3106      9.6745     10.2780     10.5095    145.7295
  1911.0000     13.8364      9.6375     10.3196     10.5696    143.8557
  1911.2500     15.1403      9.6211     10.3757     10.6762    143.0088
  1911.5000     16.1242      9.6229     10.4414     10.8263    141.6517
  1911.7500     16.7300      9.6396     10.5120     11.0057    140.1147
  1912.0000     16.9452      9.6677     10.5839     11.1938    136.9048
  1912.2500     16.7878      9.7037     10.6541     11.3712    134.9506
  1912.5000     16.2947      9.7450     10.7206     11.5244    133.7605
  1912.7500     15.5114      9.7899     10.7826     11.6488    134.2099
  1913.0000     14.4796      9.8385     10.8401     11.7479    135.3899
  1913.2500     13.2442      9.8924     10.8938     11.8307    135.6761
  1913.5000     11.8436      9.9545     10.9448     11.9086    135.3676
  1913.7500     10.3114     10.0282     10.9948     11.9923    135.3733
  1914.0000      8.6664     10.1171     11.0460     12.0892    136.4627
  1914.2500      6.8969     10.2241     11.1011     12.2012    137.6051
  1914.5000      4.9639     10.3509     11.1640     12.3237    138.8557
  1914.7500      2.8159     10.4979     11.2399     12.4478    139.0062
  1915.0000      0.4155     10.6642     11.3355     12.5645    138.2820
  1915.2500     -2.2236     10.8483     11.4583     12.6715    137.4038
  1915.5000     -5.0095     11.0480     11.6169     12.7785    135.9018
  1915.7500     -7.7725     11.2620     11.8195     12.9100    134.9564
  1916.0000    -10.2833     11.4894     12.0738     13.1043    133.8186
  1916.2500    -12.2937     11.7309     12.3863     13.4089    133.2878
  1916.5000    -13.5842     11.9880     12.7617     13.8710    132.7843
  1916.7500    -13.9980     12.2632     13.2028     14.5273    132.5572
  1917.0000    -13.4666     12.5585     13.7099     15.3926    132.0216
  1917.2500    -12.0181     12.8743     14.2805     16.4550    131.1243
  1917.5000     -9.7734     13.2082     14.9079     17.6786    128.2903
  1917.7500     -6.9307     13.5533     15.5803     19.0175    125.4630
  1918.0000     -3.7421     13.8969     16.2790     20.4346    120.8039
  1918.2500     -0.4867     14.2209     16.9772     21.9129    118.0330
  1918.5000      2.5698     14.5030     17.6393     23.4497    114.6520
  1918.7500      5.2125     14.7194     18.2214     25.0293    112.7389
  1919.0000      7.3061     14.8503     18.6760     26.5877    110.1916
  1919.2500      8.8101     14.8835     18.9573     27.9885    108.7772
  1919.5000      9.7660     14.8177     19.0310     29.0326    107.1686
  1919.7500     10.2733     14.6629     18.8824     29.5071    106.3314
  1920.0000     10.4383     14.4363     18.5213     29.2566    105.0626
  1920.2500     10.3414     14.1594     17.9814     28.2463    104.0529
  1920.5000     10.0071     13.8522     17.3125     26.5861    102.5570
  1920.7500      9.4037     13.5308     16.5711     24.5005    102.2106
  1921.0000      8.4666     13.2061     15.8096     22.2634    104.0620
  1921.2500      7.1372     12.8847     15.0704     20.1237    107.1060
  1921.5000      5.4064     12.5696     14.3830     18.2561    113.0655
  1921.7500      3.3419     12.2630     13.7652     16.7493    116.8394
  1922.0000      1.0869     11.9669     13.2250     15.6263    121.3472
  1922.2500     -1.1607     11.6851     12.7638     14.8740    123.7452
  1922.5000     -3.1941     11.4231     12.3791     14.4653    126.4478
  1922.7500     -4.8458     11.1878     12.0665     14.3652    127.1104
  1923.0000     -6.0260     10.9875     11.8212     14.5233    125.4549
  1923.2500     -6.7249     10.8307     11.6393     14.8677    122.7436
  1923.5000     -7.0030     10.7262     11.5180     15.3088    117.8169
  1923.7500     -6.9487     10.6821     11.4566     15.7556    115.0486
  1924.0000     -6.6375     10.7063     11.4564     16.1450    112.9009
  1924.2500     -6.1083     10.8055     11.5212     16.4706    112.9718
  1924.5000     -5.3576     10.9858     11.6575     16.8097    114.8290
  1924.7500     -4.3575     11.2526     11.8740     17.3335    116.8025
  1925.0000     -3.0948     11.6098     12.1822     18.3070    120.5924
  1925.2500     -1.5894     12.0595     12.5959     20.0687    123.8067
  1925.5000      0.0859     12.6019     13.1311     22.9843    129.4738
  1925.7500      1.8120     13.2337     13.8059     27.3698    132.9476
  1926.0000      3.4573     13.9483     14.6401     33.3866    135.1808
  1926.2500      4.8975     14.7344     15.6547     40.9432    133.3359
  1926.5000      6.0528     15.5760     16.8712     49.6603    124.6723
  1926.7500      6.8866     16.4521     18.3098     58.9420    115.4606
  1927.0000      7.4036     17.3375     19.9863     68.1495     98.8556
  1927.2500      7.6353     18.2038     21.9055     76.8116     87.8632
  1927.5000      7.6238     19.0204     24.0502     84.7635     74.5607
  1927.7500      7.4179     19.7568     26.3638     92.1211     68.6398
  1928.0000      7.0686     20.3837     28.7285     99.0849     63.2956
  1928.2500      6.6370     20.8749     30.9485    105.6604     60.7878
  1928.5000      6.1923     21.2089     32.7576    111.4474     56.8515
  1928.7500      5.7997     21.3720     33.8722    115.6185     53.9796
  1929.0000      5.5059     21.3607     34.0909    117.1222     50.4297
  1929.2500      5.3219     21.1836     33.3865    115.0360     49.5214
  1929.5000      5.2188     20.8614     31.9237    108.9248     51.8002
  1929.7500      5.1372     20.4243     29.9870     99.0579     56.4113
  1930.0000      5.0092     19.9080     27.8708     86.3986     68.5797
  1930.2500      4.7980     19.3482     25.8044     72.3740     79.8978
  1930.5000      4.5133     18.7764     23.9277     58.5199     99.6053
  1930.7500      4.2277     18.2178     22.3044     46.1325    112.7315
  1931.0000      4.0512     17.6892     20.9473     36.0439    129.4836
  1931.2500      4.0930     17.2012     19.8409     28.5638    137.6847
  1931.5000      4.4125     16.7587     18.9573     23.5664    145.3162
  1931.7500      4.9958     16.3636     18.2653     20.6509    147.8441
  1932.0000      5.7413     16.0159     17.7359     19.3064    149.0881
  1932.2500      6.4940     15.7160     17.3442     19.0318    148.7249
  1932.5000      7.0934     15.4643     17.0703     19.4058    146.4750
  1932.7500      7.4185     15.2623     16.8991     20.1116    143.5234
  1933.0000      7.4291     15.1119     16.8192     20.9346    136.3958
  1933.2500      7.1617     15.0147     16.8228     21.7440    130.0042
  1933.5000      6.7035     14.9719     16.9037     22.4669    119.2980
  1933.7500      6.1533     14.9829     17.0568     23.0647    112.4669
  1934.0000      5.5816     15.0453     17.2765     23.5225    104.1748
  1934.2500      5.0096     15.1547     17.5550     23.8549    100.4614
  1934.5000      4.4144     15.3042     17.8807     24.1111     97.7460
  1934.7500      3.7508     15.4842     18.2357     24.3657     97.4585
  1935.0000      2.9799     15.6827     18.5957     24.6863     98.1127
  1935.2500      2.0938     15.8853     18.9307     25.0890     98.4882
