~Version Information
VERS.                      2.0: CWLS Log ASCII Standard - VERSION 2.0
WRAP.                       NO: One line per depth step
~Well Information Block
STRT.FT                -6.5000: 
STOP.FT              1719.0000: 
STEP.FT                 0.5000: 
NULL.                -999.2500: 
COMP.          Pioneer Natural Resources: COMPANY
WELL.             Tami J 23-18: WELL
FLD.           Purgatorie River: FIELD
LOC.           2250' FSL & 2400' FWL: LOCATION
PROV.                 Colorado: PROVINCE
CNTY.               Las Animas: COUNTRY
SRVC.          Patterson Wireline: SERVICE COMPANY
DATE.          Fri Dec 17 13:50:12 2004: LOG DATE
UWI.           05-071-08073-00: UNIQUE WELL ID
~Curve Information Block
DEPT.FT            0 000 00 00: Depth
CCL.                          : Casing Collar Locator
TT3.usec                      : CBL 3' Travel Time
AMP3.mV                       : CBL 3' Amplitude
GR.GAPI                       : Gamma Ray
~Parameter Information Block
~A  Depth       CCL         TT3         AMP3         GR     
# ...
   663.5000      0.0000    767.4427      5.7909    139.7350
   664.0000      0.0000    765.9381      5.8494    141.2070
   664.5000      0.0000    786.2515      5.9005    148.6900
   665.0000      0.0000    799.0253      5.9246    149.7553
   665.5000      0.0000    799.5044      6.0209    147.8143
   666.0000      0.0000    795.3649      6.1966    144.2939
   666.5000      0.0000    797.1721      6.3338    137.9956
   667.0000      0.0000    800.7518      6.3274    136.7173
   667.5000      0.0000    787.8046      6.2601    141.5780
   668.0000      0.0000    767.9165      6.2343    151.7392
   668.5000      0.0000    755.4116      6.2245    162.0570
   669.0000      0.0000    762.3956      6.2485    154.5690
   669.5000      0.0000    785.9137      6.4146    128.5323
   670.0000      0.0000    797.8603      6.5744    104.3851
   670.5000      0.0000    780.9711      6.3792     99.6693
   671.0000      0.0000    729.2230      5.9669    118.5712
   671.5000      0.0000    699.8148      5.7577    135.2050
   672.0000      0.0000    732.2657      5.7192    129.1853
   672.5000      0.0000    766.2100      5.7164    119.4612
   673.0000      0.0000    786.5712      5.7765    126.6513
   673.5000      0.0000    812.2871      6.2167    137.6129
   674.0000      0.0000    835.4023      6.9266    134.9745
   674.5000      0.0000    847.3026      7.0521    130.9857
   675.0000      0.0000    846.0519      6.8119    130.1280
   675.5000      0.0000    837.3002      6.7238    125.7797
   676.0000      0.0000    825.9984      6.6994    123.4835
   676.5000      0.0000    805.5203      6.6760    126.8821
   677.0000      0.0000    776.0475      6.5899    132.4954
   677.5000      0.0000    761.1421      6.3886    131.4185
   678.0000      0.0000    784.5268      6.2017    123.1170
   678.5000      0.0000    811.7448      6.0490    109.5277
   679.0000      0.0000    815.3098      5.8825     87.4351
   679.5000      0.0000    792.2888      5.8407     62.2887
   680.0000      0.0000    749.7053      5.9061     49.8676
   680.5000      0.0000    736.3596      5.8448     51.4819
   681.0000      0.0000    761.2529      5.7088     61.5448
   681.5000      0.0000    778.7687      5.6843     75.5764
   682.0000      0.0000    782.3085      5.7204     86.7083
   682.5000      0.0000    791.8837      5.7435     96.9146
   683.0000      0.0000    800.9568      5.7739    112.4534
   683.5000      0.0000    795.7249      5.7701    130.6409
   684.0000      0.0000    801.7266      5.7695    137.0840
   684.5000      0.0000    820.1298      5.7834    124.1727
   685.0000      0.0000    825.1862      5.7019    108.0204
   685.5000      0.0000    816.5311      5.5028    105.2162
   686.0000      0.0000    809.4913      5.3137    108.5585
   686.5000      0.0000    816.4579      5.2311    110.0778
   687.0000      0.0000    826.1390      5.2007    111.9071
   687.5000      0.0000    829.0892      5.1913    117.4252
   688.0000      0.0000    828.9092      5.1978    125.7195
   688.5000      0.0000    828.5940      5.2451    133.7826
   689.0000      0.0000    826.6601      5.3423    144.8922
   689.5000      0.0000    822.0117      5.4467    151.1489
   690.0000      0.0000    820.5573      5.5655    143.6964
   690.5000      0.0000    818.3863      5.7078    131.0804
   691.0000      0.0000    807.4161      5.8359    126.2997
   691.5000      0.0000    799.7554      5.9109    131.3569
   692.0000      0.0000    803.4455      5.9473    134.0040
   692.5000      0.0000    805.0837      5.9288    130.4359
   693.0000      0.0000    797.1218      5.8487    119.0556
   693.5000      0.0000    787.9689      5.7468    102.8991
   694.0000      0.0000    773.8767      5.6750     90.1000
   694.5000      0.0000    754.1200      5.6323     84.7435
   695.0000      0.0000    740.0753      5.5746     83.4372
   695.5000      0.0000    738.5172      5.4847     81.8706
   696.0000      0.0000    743.7314      5.3989     79.7678
   696.5000      0.0000    746.3185      5.3957     79.4354
   697.0000      0.0000    747.0007      5.4813     80.9769
   697.5000      0.0000    747.4667      5.5286     79.8596
   698.0000      0.0000    747.5787      5.5014     82.7917
   698.5000      0.0000    747.3568      5.4794     97.4562
   699.0000      0.0000    747.4647      5.4109    115.3712
   699.5000      0.0000    750.5422      5.2777    121.9434
   700.0000      0.0000    759.8599      5.2650    108.9023
   700.5000      0.0000    770.7006      5.3986     80.5107
   701.0000      0.0000    772.6788      5.5161     56.6118
   701.5000      0.0000    766.4126      5.6006     54.2151
   702.0000      0.0000    762.5904      5.6954     64.9149
   702.5000      0.0000    764.3594      5.6903     72.5892
   703.0000      0.0000    779.8116      5.6387     75.9651
   703.5000      0.0000    799.7859      5.6374     77.6982
   704.0000      0.0000    808.2855      5.6398     79.6088
   704.5000      0.0000    803.7141      5.6267     86.6278
   705.0000      0.0000    796.4396      5.6508     94.0008
   705.5000      0.0000    792.7772      5.6545     93.2019
   706.0000      0.0000    788.3909      5.6069     97.4561
   706.5000      0.0000    784.4760      5.6177    108.6363
   707.0000      0.0000    787.9029      5.6957    102.8581
   707.5000      0.0000    792.5775      5.7915     89.4629
   708.0000      0.0000    794.3704      5.8736     90.7513
   708.5000      0.0000    794.5579      5.8711     96.1511
   709.0000      0.0000    794.0968      5.8733     95.3070
   709.5000      0.0000    794.2004      5.9573     89.6332
   710.0000      0.0000    797.5571      6.0007     82.7104
   710.5000      0.0000    805.6526      6.0064     82.7240
   711.0000      0.0000    803.2236      6.0719     86.1542
   711.5000      0.0000    778.1694      6.2449     84.8011
   712.0000      0.0000    759.8183      6.3920     85.1654
   712.5000      0.0000    778.7117      6.5470     91.4386
   713.0000      0.0000    800.7805      6.5502     96.8846
   713.5000      0.0000    792.4720      6.2138    102.5425
   714.0000      0.0000    775.2736      5.8424    108.5496
   714.5000      0.0000    769.0140      5.7607    108.9841
   715.0000      0.0000    759.8540      5.8476    104.0488
   715.5000      0.0000    751.0465      5.9571    105.4738
   716.0000      0.0000    771.7988      5.8716    115.0892
   716.5000      0.0000    808.8645      6.0200    116.8942
   717.0000      0.0000    812.5092      6.5773    109.7898
   717.5000      0.0000    776.0435      7.0638    100.3710
   718.0000      0.0000    736.4277      7.2726     95.1312
   718.5000      0.0000    716.7839      7.1805    103.6756
   719.0000      0.0000    719.2217      6.9442    118.3852
   719.5000      0.0000    735.9539      6.7023    127.5027
   720.0000      0.0000    760.4040      6.6226    135.8602
   720.5000      0.0000    770.9341      6.4878    140.8081
   721.0000      0.0000    760.0750      6.2066    130.3332
   721.5000      0.0000    774.8629      5.8963    106.5894
   722.0000      0.0000    794.1804      5.5697     77.6825
   722.5000      0.0000    779.6937      5.4434     59.9135
   723.0000      0.0000    757.0582      5.3498     58.6880
   723.5000      0.0000    752.8171      5.1516     61.6199
   724.0000      0.0000    769.4838      5.1229     59.4086
   724.5000      0.0000    787.7770      5.2005     61.5999
   725.0000      0.0000    800.7985      5.2106     80.3428
   725.5000      0.0000    795.5825      5.1961     98.5048
   726.0000      0.0000    741.6082      5.1469     92.1459
   726.5000      0.0000    701.4591      5.0536     68.7661
   727.0000      0.0000    732.5488      5.0836     51.2409
   727.5000      0.0000    761.9909      5.1529     41.8675
   728.0000      0.0000    756.6151      5.2176     37.9529
   728.5000      0.0000    740.9994      5.4167     36.3066
   729.0000      0.0000    736.8914      5.3514     34.8128
   729.5000      0.0000    744.8613      4.9226     34.7313
   730.0000      0.0000    755.0308      4.6652     34.2161
