~Version Information
VERS.                      2.0: CWLS Log ASCII Standard - VERSION 2.0
WRAP.                       NO: One line per depth step
~Well Information Block
STRT.FT               350.0000: 
STOP.FT              1390.0000: 
STEP.FT                 0.1000: 
NULL.                -999.2500: 
COMP.          Petrogulf Corporation: COMPANY
WELL.             Leier 17-42R: WELL
FLD.           Purgatorie River: FIELD
LOC.           2398' FNL & 1109' FEL: LOCATION
PROV.                 Colorado: PROVINCE
CNTY.               Las Animas: COUNTRY
SRVC.                Patterson: SERVICE COMPANY
DATE.          Tue Oct 18 07:06:44 2005: LOG DATE
UWI.                          : UNIQUE WELL ID
~Curve Information Block
DEPT.FT            0 000 00 00: Depth
DCAL.in                       : CDL Caliper
RHOB.g/cc                     : CDL Bulk Density
RHOC.g/cc                     : CDL Density Correction
DPOR.pu                       : CDL Density Porosity
GR.GAPI                       : Gamma Ray
NPOR.pu                       : Neutron Porosity
~Parameter Information Block
~A  Depth       DCAL        RHOB        RHOC        DPOR         GR         NPOR    
# ...
   417.2000      8.1942      2.6473      0.0458      0.1611    145.4430     25.3189
   417.3000      8.1779      2.6401      0.1078      0.6004    149.3660     25.6803
   417.4000      8.1779      2.5973      0.0582      3.1951    152.7357     26.0320
   417.5000      8.1548      2.5470     -0.0277      6.2415    152.9785     26.1878
   417.6000      8.1548      2.5258     -0.0438      7.5291    150.3540     26.0888
   417.7000      8.1548      2.5315      0.0100      7.1836    147.5123     25.8892
   417.8000      8.1323      2.5398      0.0033      6.6773    145.4375     25.7027
   417.9000      8.1323      2.5457      0.0246      6.3224    144.0488     25.7443
   418.0000      8.1190      2.5544      0.0385      5.7952    143.3797     26.1255
   418.1000      8.1190      2.5579      0.0818      5.5839    141.9989     26.5816
   418.2000      8.1190      2.5467      0.0691      6.2632    138.2040     26.8793
   418.3000      8.1138      2.5346      0.0736      6.9929    131.6724     26.9829
   418.4000      8.1138      2.5415      0.1133      6.5738    125.3407     26.8895
   418.5000      8.1066      2.5640      0.0984      5.2114    123.4303     26.6862
   418.6000      8.1066      2.5866      0.1212      3.8439    126.1868     26.3677
   418.7000      8.1066      2.5998      0.0958      3.0410    129.3535     26.0711
   418.8000      8.0961      2.6084      0.1039      2.5214    129.2105     25.9801
   418.9000      8.0961      2.6222      0.0870      1.6819    126.6770     25.8532
   419.0000      8.1021      2.6346      0.1637      0.9309    124.2075     25.5288
   419.1000      8.1021      2.6321      0.1313      1.0834    122.6438     25.0640
   419.2000      8.1021      2.6250      0.0857      1.5176    122.2453     24.5853
   419.3000      8.0741      2.6317      0.0535      1.1067    122.7692     24.3437
   419.4000      8.0741      2.6515      0.0690     -0.0932    123.6264     24.4279
   419.5000      8.0573      2.6749      0.0816     -1.5115    123.4545     24.5921
   419.6000      8.0573      2.6904      0.0932     -2.4488    121.0969     24.6107
   419.7000      8.0573      2.6812      0.0936     -1.8908    119.1703     24.3930
   419.8000      8.0477      2.6490      0.0738      0.0578    119.7898     23.9258
   419.9000      8.0477      2.6179      0.0327      1.9447    120.3621     23.4810
   420.0000      8.0172      2.6040     -0.0005      2.7852    119.2365     23.1928
   420.1000      8.0172      2.6009      0.0106      2.9767    116.5411     22.8210
   420.2000      8.0172      2.6005     -0.0506      3.0015    112.1863     22.2597
   420.3000      7.9986      2.6097     -0.0091      2.4426    108.7612     21.6424
   420.4000      7.9986      2.6265      0.0596      1.4216    108.4557     21.1883
   420.5000      7.9946      2.6369      0.0391      0.7930    110.8364     21.1141
   420.6000      7.9946      2.6376      0.0510      0.7524    115.3824     21.3020
   420.7000      7.9946      2.6363      0.0734      0.8288    120.7357     21.4897
   420.8000      8.0039      2.6363      0.0688      0.8296    122.8119     21.5501
   420.9000      8.0039      2.6249      0.0869      1.5199    119.3643     21.4476
   421.0000      8.0138      2.5979      0.0302      3.1550    114.9793     21.3152
   421.1000      8.0138      2.5805     -0.0205      4.2116    114.1433     21.3343
   421.2000      8.0138      2.5863      0.0367      3.8585    114.7044     21.4900
   421.3000      8.0033      2.5942      0.0295      3.3809    111.9427     21.4921
   421.4000      8.0033      2.5863      0.0294      3.8586    107.7044     21.2231
   421.5000      7.9976      2.5765     -0.0223      4.4563    107.7347     21.0688
   421.6000      7.9976      2.5797      0.0050      4.2618    110.1449     21.4919
   421.7000      7.9976      2.5782      0.0788      4.3520    111.3517     22.1045
   421.8000      7.9972      2.5554      0.0180      5.7350    113.4466     22.2195
   421.9000      7.9972      2.5305     -0.0042      7.2413    115.0414     21.9085
   422.0000      7.9985      2.5288      0.0007      7.3464    113.6674     21.6286
   422.1000      7.9985      2.5475      0.0519      6.2124    111.1679     21.5569
   422.2000      7.9985      2.5655      0.0486      5.1196    109.9312     21.5660
   422.3000      8.0004      2.5786      0.0324      4.3279    110.4350     21.6754
   422.4000      8.0004      2.5995      0.0521      3.0636    112.1659     21.9435
   422.5000      7.9986      2.6233      0.0881      1.6160    114.8662     22.1627
   422.6000      7.9986      2.6354      0.0596      0.8832    119.6554     22.1437
   422.7000      7.9986      2.6387      0.0599      0.6821    126.1929     21.8024
   422.8000      7.9993      2.6355      0.1166      0.8770    130.4975     21.2887
   422.9000      7.9993      2.6222      0.0579      1.6847    130.4565     21.1057
   423.0000      8.0033      2.6076      0.0827      2.5720    127.9066     21.3284
   423.1000      8.0033      2.5970      0.0469      3.2099    125.2518     21.3472
   423.2000      8.0033      2.5881      0.0246      3.7520    123.4617     21.1055
   423.3000      7.9818      2.5807     -0.0127      4.1982    122.5646     21.0030
   423.4000      7.9818      2.5746      0.0022      4.5717    123.2438     21.0971
   423.5000      7.9917      2.5632      0.0015      5.2618    125.8809     21.2307
   423.6000      7.9917      2.5377      0.0274      6.8053    126.6407     21.2161
   423.7000      7.9917      2.5074     -0.0784      8.6419    123.0158     20.9926
   423.8000      8.0204      2.4951     -0.0565      9.3904    120.4861     20.7155
   423.9000      8.0204      2.5053     -0.0313      8.7722    121.7463     20.5871
   424.0000      8.0182      2.5289      0.0134      7.3411    124.4880     20.7010
   424.1000      8.0182      2.5566      0.0171      5.6628    127.0290     20.8782
   424.2000      8.0182      2.5754      0.0655      4.5184    126.7815     21.0231
   424.3000      7.9984      2.5764      0.0535      4.4620    124.1975     21.2457
   424.4000      7.9984      2.5675      0.0141      5.0023    123.2902     21.4198
   424.5000      8.0164      2.5630      0.0055      5.2712    123.0982     21.3033
   424.6000      8.0164      2.5566      0.0549      5.6585    120.3013     21.0531
   424.7000      8.0164      2.5406     -0.0102      6.6306    116.9624     21.0542
   424.8000      8.0419      2.5347     -0.0253      6.9879    115.3945     21.3280
   424.9000      8.0419      2.5451      0.0362      6.3569    115.5875     21.5423
   425.0000      8.0343      2.5497      0.0279      6.0769    116.9313     21.7128
   425.1000      8.0343      2.5467     -0.0049      6.2627    118.1230     22.1128
   425.2000      8.0343      2.5570     -0.0188      5.6355    120.3984     22.4265
   425.3000      8.0456      2.5807      0.0561      4.2020    122.9650     22.2635
   425.4000      8.0456      2.5940      0.0450      3.3936    121.5481     21.9236
   425.5000      8.0632      2.5976      0.0126      3.1756    117.3370     21.7934
   425.6000      8.0632      2.6153      0.0280      2.1021    116.2816     21.8873
   425.7000      8.0632      2.6488      0.0418      0.0701    119.7275     22.2211
   425.8000      8.0358      2.6729      0.0933     -1.3901    124.0426     22.6450
   425.9000      8.0358      2.6687      0.0614     -1.1308    126.8251     22.9943
   426.0000      7.9996      2.6398     -0.0013      0.6179    127.5137     23.2465
   426.1000      7.9996      2.6018     -0.0453      2.9239    125.8624     23.3181
   426.2000      7.9996      2.5692     -0.0490      4.8942    122.4530     23.4559
   426.3000      7.9942      2.5562     -0.0600      5.6856    120.4269     23.9005
   426.4000      7.9942      2.5704     -0.0481      4.8265    122.6831     24.3034
   426.5000      8.0792      2.5953      0.0258      3.3176    126.7963     24.3893
   426.6000      8.0792      2.6075      0.0607      2.5769    129.3391     24.3229
   426.7000      8.0792      2.6131      0.0273      2.2340    130.8541     24.2195
