~Version Information
VERS.                      2.0: CWLS Log ASCII Standard - VERSION 2.0
WRAP.                       NO: One line per depth step
~Well Information Block
STRT.FT               546.0000: 
STOP.FT              1771.5000: 
STEP.FT                 0.2500: 
NULL.                -999.2500: 
COMP.          Petrogulf Corporation: COMPANY
WELL.             McLeod 9-42R: WELL
FLD.           Purgatorie River: FIELD
LOC.           1748' FNL & 372' FEL: LOCATION
PROV.                 Colorado: PROVINCE
CNTY.               Las Animas: COUNTRY
SRVC.                Patterson: SERVICE COMPANY
DATE.          Tue Aug 16 11:11:38 2005: LOG DATE
UWI.           071 08092  : UNIQUE WELL ID
~Curve Information Block
DEPT.FT            0 000 00 00: Depth
SP.mV                         : DIL Spontaneous Potential
RILD.Ohm-m                    : DIL Deep Resistivity
RILM.Ohm-m                    : DIL Medium Resistivity
RLL3.Ohm-m                    : DIL Shallow Resistivity
GR.GAPI                       : Gamma Ray
~Parameter Information Block
~A  Depth        SP         RILD        RILM        RLL3         GR     
# ...
  1246.0000     56.6852     11.4615     13.2321     15.0036    131.3534
  1246.2500     57.0271     10.5083     12.7538     15.7085    129.0800
  1246.5000     54.8430     10.2595     12.1698     17.0930    128.0385
  1246.7500     53.5959      9.6294     11.7225     17.7190    128.7186
  1247.0000     53.1461      9.5566     10.7172     16.9376    133.3654
  1247.2500     54.1538      9.3258     10.4537     15.7200    133.0432
  1247.5000     53.2912      9.2417     10.2142     13.8481    140.9989
  1247.7500     51.9328      9.2229      9.7413     12.0301    139.5347
  1248.0000     49.7335      9.0156      9.3015     10.4738    127.6725
  1248.2500     49.3069      9.0953      9.4853     10.1428    128.3588
  1248.5000     50.8710      9.5664      9.7341     10.3624    128.6972
  1248.7500     49.9506      9.0410      9.6972     11.0972    135.8243
  1249.0000     47.9268      9.3167     10.1196     12.6049    131.0519
  1249.2500     46.4798      9.3135     10.3353     12.8435    132.1225
  1249.5000     46.7438      9.7968     10.7604     12.5357    130.6567
  1249.7500     46.9377      9.7386     10.8640     12.3888    120.4623
  1250.0000     46.2593     10.6118     11.4327     12.6321    114.6436
  1250.2500     46.5371     10.7032     12.3800     13.4693    102.4311
  1250.5000     46.0306     10.8561     13.2226     15.5571     89.5244
  1250.7500     48.0583     10.6624     15.0790     24.2082     72.0183
  1251.0000     52.6121     10.9896     15.9210     50.2348     65.8696
  1251.2500     57.1692     11.5108     15.0795     95.7131     71.8242
  1251.5000     61.5582     12.4649     14.8589    118.9560     93.5384
  1251.7500     68.2454     12.2891     14.1770     90.2261    112.7349
  1252.0000     71.8063     13.6027     14.3448     37.8049    127.1399
  1252.2500     73.6659     14.4715     14.3147     19.2542    118.7308
  1252.5000     74.5049     15.0238     15.6426     11.7491    101.1299
  1252.7500     75.4718     15.7467     17.8383     10.7691    101.9193
  1253.0000     75.3548     15.0904     19.3392     14.9930     91.7657
  1253.2500     74.8645     13.5406     21.3262     25.7955     91.5273
  1253.5000     74.4832     13.5032     21.9091     38.6391     98.1008
  1253.7500     75.3407     12.8920     20.5474     40.6589     95.2522
  1254.0000     75.0096     12.3922     19.0553     40.7944     85.7795
  1254.2500     75.5739     11.5785     15.9731     45.3917     86.2630
  1254.5000     75.8770     11.7545     15.0711     48.0480    117.7156
  1254.7500     75.7260     11.9792     12.6282     40.6086    134.7860
  1255.0000     75.7038     12.2824     11.8420     25.3610    138.4265
  1255.2500     76.2427     12.1226     10.9501     15.7548    140.4887
  1255.5000     75.6275     12.0778     11.2365      9.2948    133.7914
  1255.7500     75.5310     12.4614     11.4605      8.2469    139.2259
  1256.0000     74.4820     12.1475     11.3332      9.3287    132.4727
  1256.2500     73.2160     11.8071     12.2242     11.5250    123.8278
  1256.5000     70.5600     11.6404     12.3512     14.4495    115.6930
  1256.7500     66.9014     10.9194     12.3773     16.0783    113.2216
  1257.0000     64.3173     10.8470     12.9580     18.3032    114.9857
  1257.2500     61.2473     10.1858     12.3633     20.5599    118.1410
  1257.5000     58.3895     10.0005     12.4004     20.9204    109.1146
  1257.7500     54.1779     10.0209     12.0494     20.2927    115.9885
  1258.0000     51.2443     10.0437     12.1320     19.8652    117.1260
  1258.2500     48.1355     10.3951     11.9304     19.7883    117.7983
  1258.5000     47.6354     10.3180     12.0952     19.2854    116.6987
  1258.7500     48.4450     10.7154     11.7378     17.0638    113.6511
  1259.0000     47.4344     10.3065     11.6231     16.5489    127.7007
  1259.2500     48.4297     10.5112     11.6481     18.9808    130.3645
  1259.5000     48.5608     10.5958     11.3193     19.2379    137.5234
  1259.7500     49.6963     10.4189     10.7936     15.9341    136.2997
  1260.0000     50.5893     10.1537     10.4904     13.4433    132.7004
  1260.2500     50.2184     10.3729     10.3640     10.9521    127.0261
  1260.5000     48.6671     10.2833     10.7925     10.2670    113.6177
  1260.7500     46.9009     10.6996     11.3575     10.0721    107.5190
  1261.0000     47.1892     11.0335     12.2970     12.3486    103.8352
  1261.2500     51.8636     10.8441     12.5000     21.8224    108.7711
  1261.5000     57.0542     11.1431     13.0809     26.3064    116.2655
  1261.7500     62.4582     11.6240     12.9870     23.1385    112.3100
  1262.0000     67.4194     12.2657     12.7957     20.6967    113.6788
  1262.2500     70.6194     13.2207     12.7605     18.0167    113.0836
  1262.5000     72.7151     13.5043     12.8997     17.8372    111.1272
  1262.7500     74.3915     14.8057     14.3683     18.7098    111.5751
  1263.0000     76.7360     14.6196     15.0909     19.0849     99.6729
  1263.2500     80.1744     15.3415     15.8306     18.6219    101.9755
  1263.5000     79.6854     15.2413     18.6483     19.7535     97.4019
  1263.7500     79.5872     15.3776     20.0857     24.3439     91.5759
  1264.0000     81.2509     14.3302     20.6616     30.6384     87.2742
  1264.2500     79.4009     13.6359     21.1673     39.0480     84.1515
  1264.5000     79.2292     14.0372     21.0439     46.2382     80.8436
  1264.7500     78.7186     15.5386     20.7757     64.5790     87.6067
  1265.0000     79.3608     14.9504     19.3049     75.1719    100.6122
  1265.2500     80.3939     14.6962     18.6655     64.8590    110.6283
  1265.5000     80.9509     15.9068     18.0088     42.7645    109.8406
  1265.7500     81.0342     15.4425     16.4707     24.2911    110.6054
  1266.0000     80.8434     14.6269     15.6086     20.3978    118.5801
  1266.2500     79.4796     15.7827     15.4133     22.3623    121.0243
  1266.5000     77.8437     15.2228     15.5229     17.5434    123.6883
  1266.7500     73.8345     16.5763     15.8181     13.0471    114.5714
  1267.0000     70.1565     16.3098     16.7334     13.8357    103.9514
  1267.2500     65.5738     15.6694     18.1147     15.5720     92.4015
  1267.5000     63.5994     15.6568     20.2009     16.3376     75.9635
  1267.7500     60.7187     15.6369     22.6007     21.0047     67.4825
  1268.0000     58.7042     16.7255     26.0701     39.4462     71.2791
  1268.2500     57.7840     15.5285     27.1038     60.1485     72.3432
  1268.5000     58.0533     14.5030     26.1377     87.2928     68.6240
  1268.7500     57.9188     14.0372     26.3409    101.4246     76.1067
  1269.0000     58.9627     13.5320     24.0531    119.2762     78.1149
  1269.2500     59.8461     12.5244     22.4286    118.7695     95.0135
  1269.5000     62.7288     12.3752     19.6637     92.9474    107.6931
  1269.7500     64.0891     12.7432     18.2335     64.0391    123.8796
  1270.0000     65.6004     13.1100     16.0157     31.1522    133.6333
  1270.2500     65.9778     12.7680     15.1564     18.5681    134.1498
  1270.5000     65.5327     12.8139     12.9969     12.9641    144.2625
  1270.7500     64.7408     12.8161     12.6358     11.6443    135.6804
  1271.0000     63.7522     12.5900     12.0590     11.3157    135.8088
  1271.2500     61.2336     12.2537     11.2956     11.1393    140.6485
  1271.5000     61.4556     10.8698     10.4083     11.0799    140.6655
  1271.7500     63.1911     10.4920     10.0984     11.7748    146.6400
  1272.0000     65.1208     10.0601      9.5658     12.3549    141.1111
  1272.2500     65.6914     10.0717      9.5143     12.4025    140.6713
  1272.5000     61.7522     10.7119      9.9025     11.1763    151.3219
  1272.7500     59.7956     11.1415      9.8031      9.8498    141.1180
  1273.0000     58.2399     12.2167     11.3584      9.9905    123.2222
  1273.2500     57.4503     12.2761     12.2935     11.0908    107.0296
  1273.5000     56.8376     13.7682     13.5761     15.2110    103.4939
  1273.7500     56.1195     15.3061     14.7388     23.7854     99.6291
