~Version Information
VERS.                      2.0: CWLS Log ASCII Standard - VERSION 2.0
WRAP.                       NO: One line per depth step
~Well Information Block
STRT.FT                -5.5000: 
STOP.FT              1979.7500: 
STEP.FT                 0.2500: 
NULL.                -999.2500: 
COMP.          Pioneer Natural Resources: COMPANY
WELL.          Bucksnort 41-35: WELL
FLD.           Purgatorie River: FIELD
LOC.           117' FNL & 463' FEL: LOCATION
PROV.                 Colorado: PROVINCE
CNTY.               Las Animas: COUNTRY
SRVC.                Patterson: SERVICE COMPANY
DATE.          Fri Jul 29 10:31:46 2005: LOG DATE
UWI.                          : UNIQUE WELL ID
~Curve Information Block
DEPT.FT            0 000 00 00: Depth
GR.GAPI                       : Gamma Ray
CCL.                          : Casing Collar Locator
TT3.usec                      : CBL 3' Travel Time
AMP3.mV                       : CBL 3' Amplitude
~Parameter Information Block
~A  Depth        GR         CCL         TT3         AMP3    
# ...
   765.0000    127.2396      0.0000    763.0386      8.1346
   765.2500    127.2545      0.0000    762.5969      8.2632
   765.5000    126.2163      0.0000    762.3477      8.3037
   765.7500    124.0286      0.0000    762.1334      8.2842
   766.0000    121.5389      0.0000    760.7747      8.2216
   766.2500    120.4133      0.0000    754.5926      8.1615
   766.5000    121.8752      0.0000    737.7932      8.1635
   766.7500    125.6125      0.0000    709.9404      8.2499
   767.0000    129.9624      0.0000    681.0787      8.3907
   767.2500    133.2967      0.0000    659.5106      8.5224
   767.5000    135.3565      0.0000    644.1078      8.5936
   767.7500    137.0415      0.0000    635.0436      8.6270
   768.0000    138.7860      0.0000    635.4885      8.6875
   768.2500    139.6725      0.0000    646.1334      8.7861
   768.5000    138.5178      0.0000    665.6503      8.8664
   768.7500    135.4264      0.0000    687.6448      8.8733
   769.0000    131.9432      0.0000    698.5674      8.8127
   769.2500    129.8555      0.0000    690.1317      8.7399
   769.5000    129.9609      0.0000    669.0104      8.6891
   769.7500    131.6621      0.0000    645.2686      8.6487
   770.0000    133.3830      0.0000    623.7332      8.5983
   770.2500    133.5947      0.0000    610.7694      8.5447
   770.5000    131.9162      0.0000    616.3321      8.5351
   770.7500    129.4437      0.0000    643.0101      8.6199
   771.0000    127.9476      0.0000    678.8217      8.8001
   771.2500    128.5851      0.0000    710.2079      9.0492
   771.5000    131.1400      0.0000    733.9281      9.3453
   771.7500    134.2408      0.0000    750.1507      9.6339
   772.0000    136.1973      0.0000    758.5107      9.8296
   772.2500    136.0513      0.0000    761.3085      9.8920
   772.5000    134.3170      0.0000    761.8165      9.8690
   772.7500    132.5618      0.0000    761.7160      9.8567
   773.0000    131.9855      0.0000    761.5141      9.9160
   773.2500    132.5623      0.0000    761.3785     10.0333
   773.5000    133.4175      0.0000    761.3145     10.1665
   773.7500    133.5386      0.0000    760.9636     10.2829
   774.0000    132.4267      0.0000    759.2604     10.3359
   774.2500    130.8016      0.0000    755.1923     10.2746
   774.5000    130.4549      0.0000    751.0981     10.0886
   774.7500    132.6217      0.0000    752.8638      9.8279
   775.0000    136.4860      0.0000    760.9948      9.5955
   775.2500    139.8092      0.0000    767.0679      9.4796
   775.5000    141.0138      0.0000    766.5742      9.4956
   775.7500    140.3048      0.0000    766.4587      9.6194
   776.0000    138.7947      0.0000    772.0192      9.8036
   776.2500    137.0458      0.0000    776.6448      9.9645
   776.5000    134.8856      0.0000    773.6772     10.0382
   776.7500    132.4517      0.0000    765.4740     10.0342
   777.0000    130.6864      0.0000    755.2072     10.0011
   777.2500    130.4338      0.0000    742.6584      9.9689
   777.5000    131.5028      0.0000    729.3419      9.9299
   777.7500    133.1192      0.0000    718.6278      9.8663
   778.0000    135.0884      0.0000    710.0706      9.7742
   778.2500    137.9066      0.0000    697.1216      9.6589
   778.5000    141.5033      0.0000    675.7173      9.5460
   778.7500    144.4248      0.0000    653.3130      9.4745
   779.0000    144.9628      0.0000    638.8995      9.4514
   779.2500    142.9778      0.0000    631.7108      9.4510
   779.5000    139.9777      0.0000    626.1161      9.4616
   779.7500    137.3378      0.0000    619.4339      9.4999
   780.0000    135.0133      0.0000    613.4805      9.5681
   780.2500    132.3650      0.0000    611.1447      9.6281
   780.5000    129.8357      0.0000    613.1903      9.6505
   780.7500    128.9962      0.0000    617.6690      9.6466
   781.0000    130.5904      0.0000    621.0007      9.6230
   781.2500    133.0972      0.0000    624.1791      9.5753
   781.5000    133.9133      0.0000    637.1008      9.5349
   781.7500    131.8018      0.0000    667.6654      9.5542
   782.0000    127.6611      0.0000    707.1500      9.6384
   782.2500    123.2541      0.0000    737.1514      9.7437
   782.5000    120.0571      0.0000    749.0873      9.8400
   782.7500    119.2566      0.0000    748.7260      9.9283
   783.0000    121.7484      0.0000    746.7933     10.0052
   783.2500    127.2814      0.0000    748.5721     10.0624
   783.5000    133.6836      0.0000    749.4236     10.1078
   783.7500    137.7297      0.0000    740.2804     10.1350
   784.0000    137.4751      0.0000    719.0556     10.1166
   784.2500    133.8255      0.0000    698.9670     10.0721
   784.5000    129.7588      0.0000    698.5132     10.0676
   784.7500    128.1910      0.0000    718.1979     10.1223
   785.0000    130.2570      0.0000    740.1929     10.1898
   785.2500    134.7050      0.0000    750.8193     10.2214
   785.5000    138.5863      0.0000    749.4031     10.2087
   785.7500    139.1950      0.0000    742.2487     10.1725
   786.0000    136.0762      0.0000    738.2165     10.1234
   786.2500    131.2864      0.0000    742.0900     10.0575
   786.5000    127.4095      0.0000    749.6514      9.9915
   786.7500    125.2407      0.0000    754.6266      9.9669
   787.0000    123.5678      0.0000    755.2083     10.0012
   787.2500    121.1303      0.0000    750.5995     10.0516
   787.5000    118.2104      0.0000    737.0255     10.0693
   787.7500    116.0401      0.0000    712.3743     10.0677
   788.0000    115.1680      0.0000    684.8663     10.0859
   788.2500    114.8427      0.0000    668.5477     10.1326
   788.5000    113.6099      0.0000    668.2919     10.2003
   788.7500    110.2103      0.0000    680.5665     10.2886
   789.0000    104.4884      0.0000    703.8154     10.3940
   789.2500     98.0647      0.0000    733.8605     10.5112
   789.5000     93.7323      0.0000    759.3218     10.6540
   789.7500     93.4064      0.0000    770.4008     10.8330
   790.0000     96.6153      0.0000    763.7269     10.9957
   790.2500    101.2759      0.0000    743.6921     11.0584
   790.5000    105.7605      0.0000    723.9869     11.0220
   790.7500    109.8710      0.0000    716.8871     10.9780
   791.0000    113.9809      0.0000    718.6360     10.9915
   791.2500    117.8928      0.0000    715.4728     11.0575
   791.5000    120.8066      0.0000    703.3214     11.1363
   791.7500    122.1638      0.0000    690.4114     11.1716
   792.0000    122.2427      0.0000    683.6154     11.1227
   792.2500    121.8685      0.0000    683.3328     11.0064
   792.5000    121.5983      0.0000    688.2355     10.8900
   792.7500    121.3091      0.0000    695.9313     10.8230
   793.0000    120.5885      0.0000    701.4754     10.7737
   793.2500    119.3419      0.0000    703.1406     10.6746
   793.5000    117.9054      0.0000    705.2821     10.5209
   793.7500    116.6887      0.0000    709.8559     10.3656
   794.0000    115.9853      0.0000    714.2247     10.2587
   794.2500    116.0321      0.0000    717.7574     10.2233
   794.5000    116.8236      0.0000    722.3018     10.2378
   794.7500    117.7702      0.0000    728.0880     10.2441
   795.0000    117.9916      0.0000    734.5612     10.1676
   795.2500    117.0967      0.0000    744.3977      9.9117
   795.5000    115.3313      0.0000    756.5223      9.4796
   795.7500    112.8117      0.0000    759.3348      9.1902
   796.0000    108.7764      0.0000    746.1954      9.3749
   796.2500    101.8878      0.0000    728.8088      9.6923
   796.5000     91.6301      0.0000    721.9815      9.5228
   796.7500     79.5558      0.0000    728.2025      8.9783
   797.0000     68.8200      0.0000    741.7960      8.5853
   797.2500     62.1441      0.0000    752.6257      8.4684
   797.5000     60.0745     -2.0000    754.1614      8.4430
   797.7500     61.0207     -2.0000    754.3849      8.3753
   798.0000     62.7551      0.0000    763.3234      8.2178
   798.2500     63.7383      0.0000    776.5940      7.9836
