~Version Information
VERS.                      2.0: CWLS Log ASCII Standard - VERSION 2.0
WRAP.                       NO: One line per depth step
~Well Information Block
STRT.FT                -4.2500: 
STOP.FT              2218.5000: 
STEP.FT                 0.2500: 
NULL.                -999.2500: 
COMP.          Pioneer Natural Resources: COMPANY
WELL.             Warrior 32-1: WELL
FLD.           Purgatorie River: FIELD
LOC.           2624' FNL & 2392' FEL--: LOCATION
PROV.                       CO: PROVINCE
CNTY.               Las Animas: COUNTRY
SRVC.                         : SERVICE COMPANY
DATE.          Tue Oct 12 10:54:12 2004: LOG DATE
UWI.           005 071 08176 : UNIQUE WELL ID
~Curve Information Block
DEPT.FT            0 000 00 00: Depth
GR.GAPI                       : Gamma Ray
CCL.                          : Casing Collar Locator
TT3.usec                      : CBL 3' Travel Time
AMP3.mV                       : CBL 3' Amplitude
~Parameter Information Block
~A  Depth        GR         CCL         TT3         AMP3    
# ...
   732.7500    120.6701      0.0000    760.0423     12.0768
   733.0000    113.2826      0.0000    759.8165     12.5038
   733.2500    109.7263      0.0000    759.6079     12.9539
   733.5000    109.6564      0.0000    759.4811     13.2003
   733.7500    111.8114      0.0000    759.4921     13.1135
   734.0000    115.1091      0.0000    759.6714     12.7146
   734.2500    118.9405      0.0000    760.0115     12.1102
   734.5000    122.5662      0.0000    760.4595     11.4072
   734.7500    124.7824      0.0000    760.9344     10.6969
   735.0000    124.9571      0.0000    761.3695     10.0751
   735.2500    124.3185      0.0000    761.7402      9.6297
   735.5000    125.2789      0.0000    762.0959      9.4012
   735.7500    129.0456      0.0000    762.6273      9.3587
   736.0000    134.3364      0.0000    763.8380      9.4151
   736.2500    138.6223      0.0000    766.6508      9.4773
   736.5000    140.2450      0.0000    772.2066      9.5039
   736.7500    139.2566      0.0000    781.1818      9.5021
   737.0000    136.8347      0.0000    792.9020      9.4444
   737.2500    134.3716      0.0000    805.2796      9.2167
   737.5000    132.7523      0.0000    816.5190      8.7140
   737.7500    131.7262      0.0000    827.0207      7.9952
   738.0000    129.9256      0.0000    838.4432      7.2854
   738.2500    126.2263      0.0000    850.9485      6.7959
   738.5000    121.3641      0.0000    863.2814      6.5699
   738.7500    117.7736      2.0000    875.2936      6.5077
   739.0000    117.6837      0.0000    887.7510      6.4971
   739.2500    121.6291      0.0000    899.6805      6.5104
   739.5000    128.6168      0.0000    908.0671      6.6095
   739.7500    136.9306      0.0000    910.1396      6.8683
   740.0000    144.4521      0.0000    904.6703      7.2711
   740.2500    148.9296      0.0000    891.4698      7.6960
   740.5000    148.9512      0.0000    871.0234      8.0222
   740.7500    144.9249      0.0000    845.2278      8.2260
   741.0000    138.7982      0.0000    818.1825      8.3459
   741.2500    132.6904      0.0000    795.1941      8.4046
   741.5000    127.7504      0.0000    780.1054      8.4012
   741.7500    123.9965      0.0000    773.5365      8.3381
   742.0000    120.9400      0.0000    773.4575      8.2257
   742.2500    118.2885      0.0000    776.5576      8.0746
   742.5000    116.2353      0.0000    779.2610      7.8969
   742.7500    115.1511      0.0000    779.0031      7.7021
   743.0000    114.8093      0.0000    775.5388      7.4890
   743.2500    114.0833      0.0000    770.7333      7.2529
   743.5000    111.9897      0.0000    766.7049      7.0055
   743.7500    109.1116      0.0000    764.3062      6.7817
   744.0000    107.4726      0.0000    763.1675      6.6162
   744.2500    108.7309      0.0000    762.6055      6.5146
   744.5000    112.5532      0.0000    762.2220      6.4498
   744.7500    116.6746      0.0000    761.9213      6.3848
   745.0000    118.5931      0.0000    761.7004      6.2958
   745.2500    117.4900      0.0000    761.5244      6.1792
   745.5000    114.5825      0.0000    761.3440      6.0453
   745.7500    111.7505      0.0000    761.1530      5.9112
   746.0000    110.1456      0.0000    760.9878      5.7923
   746.2500    110.0024      0.0000    760.8862      5.6934
   746.5000    111.1334      0.0000    760.8681      5.6109
   746.7500    113.2723      0.0000    760.9709      5.5479
   747.0000    116.1789      0.0000    761.3250      5.5178
   747.2500    119.7008      0.0000    762.2352      5.5276
   747.5000    123.7442      0.0000    764.2111      5.5658
   747.7500    128.1339      0.0000    767.9054      5.6107
   748.0000    132.3566      0.0000    774.1642      5.6491
   748.2500    135.4158      0.0000    784.1630      5.6835
   748.5000    136.2664      0.0000    798.5965      5.7272
   748.7500    134.6485      0.0000    815.5122      5.7915
   749.0000    131.2020      0.0000    829.8039      5.8735
   749.2500    126.7260      0.0000    837.3202      5.9552
   749.5000    121.9809      0.0000    839.1502      6.0190
   749.7500    118.2875      0.0000    838.9289      6.0663
   750.0000    117.2789      0.0000    836.3979      6.1151
   750.2500    119.5600      0.0000    827.5385      6.1827
   750.5000    124.2918      0.0000    811.4716      6.2711
   750.7500    130.3286      0.0000    793.6641      6.3649
   751.0000    136.9090      0.0000    781.4847      6.4407
   751.2500    143.0764      0.0000    778.6718      6.4861
   751.5000    147.4795      0.0000    783.7205      6.5140
   751.7500    149.3135      0.0000    791.1444      6.5541
   752.0000    149.0832      0.0000    794.5134      6.6269
   752.2500    148.2673      0.0000    790.7183      6.7208
   752.5000    147.9995      0.0000    781.9868      6.7970
   752.7500    147.5422      0.0000    773.1149      6.8186
   753.0000    144.3556      0.0000    767.1934      6.7810
   753.2500    136.7192      0.0000    764.3472      6.7136
   753.5000    126.4780      0.0000    763.2953      6.6565
   753.7500    118.4181      0.0000    762.9362      6.6350
   754.0000    116.5963      0.0000    762.7624      6.6498
   754.2500    121.4453      0.0000    762.6503      6.6852
   754.5000    130.2380      0.0000    762.6211      6.7244
   754.7500    139.7385      0.0000    762.6899      6.7568
   755.0000    148.1845      0.0000    762.8337      6.7760
   755.2500    155.0070      0.0000    763.0107      6.7707
   755.5000    159.3146      0.0000    763.1953      6.7252
   755.7500    159.5053      0.0000    763.3738      6.6364
   756.0000    154.5490      0.0000    763.5163      6.5287
   756.2500    144.9217      0.0000    763.5760      6.4408
   756.5000    132.0885      0.0000    763.5255      6.3923
   756.7500    117.9280      0.0000    763.3799      6.3667
   757.0000    104.9660      0.0000    763.1721      6.3273
   757.2500     96.2611      0.0000    762.9195      6.2474
   757.5000     94.1770      0.0000    762.6354      6.1328
   757.7500     99.0458      0.0000    762.3512      6.0226
   758.0000    108.9862      0.0000    762.0992      5.9667
   758.2500    120.8463      0.0000    761.8866      5.9970
   758.5000    131.4835      0.0000    761.7116      6.1183
   758.7500    138.7514      0.0000    761.5903      6.3113
   759.0000    141.9018      0.0000    761.5449      6.5327
   759.2500    141.2246      0.0000    761.5721      6.7208
   759.5000    137.3754      0.0000    761.6304      6.8247
   759.7500    131.0892      0.0000    761.6499      6.8336
   760.0000    123.3055      0.0000    761.5703      6.7754
   760.2500    115.2218      0.0000    761.3900      6.6910
   760.5000    108.1729      0.0000    761.1729      6.6150
   760.7500    103.4299      0.0000    760.9933      6.5656
   761.0000    101.7929      0.0000    760.8759      6.5348
   761.2500    103.0407      0.0000    760.7919      6.4931
   761.5000    105.7931      0.0000    760.6985      6.4144
   761.7500    108.1039      0.0000    760.5744      6.2976
   762.0000    108.3234      0.0000    760.4221      6.1621
   762.2500    105.8124      0.0000    760.2535      6.0294
   762.5000    101.4420      0.0000    760.0952      5.9121
   762.7500     97.5415      0.0000    760.0527      5.8184
   763.0000     96.8280      0.0000    760.5046      5.7627
   763.2500    100.6542      0.0000    762.4772      5.7644
   763.5000    107.9443      0.0000    767.9861      5.8287
   763.7500    115.8490      0.0000    779.5303      5.9335
   764.0000    121.5304      0.0000    797.8680      6.0478
   764.2500    123.5387      0.0000    819.2292      6.1637
   764.5000    122.1038      0.0000    835.6779      6.2958
   764.7500    118.6723      0.0000    840.4104      6.4455
   765.0000    114.9461      0.0000    833.3699      6.5856
   765.2500    111.6839      0.0000    820.8016      6.6902
   765.5000    108.2518      0.0000    809.5103      6.7656
   765.7500    103.6404      0.0000    802.4755      6.8385
   766.0000     97.8845      0.0000    799.1337      6.9228
