~Version Information
VERS.                      2.0: CWLS Log ASCII Standard - VERSION 2.0
WRAP.                       NO: One line per depth step
~Well Information Block
STRT.FT               481.5000: 
STOP.FT              2033.5000: 
STEP.FT                 0.2500: 
NULL.                -999.2500: 
COMP.          Petrogulf Corporation: COMPANY
WELL.            Montoya 7-12R: WELL
FLD.           Purgatorie River: FIELD
LOC.           1769' FNL & 658' FWL: LOCATION
CNTY.               Las Animas: COUNTY
SRVC.                         : SERVICE COMPANY
DATE.          Sat Nov 20 02:31:05 2004: LOG DATE
UWI.           05 071 08240 00: UNIQUE WELL ID
STAT.                 Colorado: STATE
~Curve Information Block
DEPT.FT            0 000 00 00: Depth
SP.mV                         : DIL Spontaneous Potential
RILD.Ohm-m                    : DIL Deep Resistivity
RILM.Ohm-m                    : DIL Medium Resistivity
RLL3.Ohm-m                    : DIL Shallow Resistivity
GR.GAPI                       : Gamma Ray
~Parameter Information Block
~A  Depth        SP         RILD        RILM        RLL3         GR     
# ...
   621.5000   2000.0000     18.0896     18.0518   2000.0000    170.7564
   621.7500   2000.0000     17.5930     17.7275   2000.0000    174.2375
   622.0000   2000.0000     17.1002     17.3516   2000.0000    178.9642
   622.2500   2000.0000     16.6315     16.9321   2000.0000    181.3939
   622.5000   2000.0000     16.2016     16.4842   2000.0000    183.8630
   622.7500   2000.0000     15.8199     16.0272   2000.0000    184.7586
   623.0000   2000.0000     15.4923     15.5827   2000.0000    185.2918
   623.2500   2000.0000     15.2219     15.1708   2000.0000    185.4267
   623.5000   2000.0000     15.0101     14.8084   2000.0000    185.7607
   623.7500   2000.0000     14.8577     14.5084   2000.0000    186.2469
   624.0000   2000.0000     14.7645     14.2794   2000.0000    187.5085
   624.2500   2000.0000     14.7302     14.1268   2000.0000    188.5040
   624.5000   2000.0000     14.7541     14.0532   2000.0000    189.2613
   624.7500   2000.0000     14.8351     14.0594   2000.0000    188.6116
   625.0000   2000.0000     14.9726     14.1458   2000.0000    185.2406
   625.2500   2000.0000     15.1659     14.3124   2000.0000    181.4416
   625.5000   2000.0000     15.4153     14.5597   2000.0000    174.2586
   625.7500   2000.0000     15.7220     14.8890   2000.0000    169.2522
   626.0000   2000.0000     16.0881     15.3028   2000.0000    162.5042
   626.2500   2000.0000     16.5162     15.8040   2000.0000    158.6919
   626.5000   2000.0000     17.0091     16.3962   2000.0000    153.6443
   626.7500   2000.0000     17.5694     17.0826   2000.0000    150.5228
   627.0000   2000.0000     18.1986     17.8659   2000.0000    146.4651
   627.2500   2000.0000     18.8982     18.7476   2000.0000    144.6018
   627.5000   2000.0000     19.6701     19.7271   2000.0000    143.5530
   627.7500   2000.0000     20.5172     20.8027   2000.0000    143.9102
   628.0000   2000.0000     21.4459     21.9709   2000.0000    145.1334
   628.2500   2000.0000     22.4656     23.2282   2000.0000    145.4487
   628.5000   2000.0000     23.5903     24.5725   2000.0000    143.2223
   628.7500   2000.0000     24.8363     26.0053   2000.0000    139.3839
   629.0000   2000.0000     26.2204     27.5330   2000.0000    131.2202
   629.2500   2000.0000     27.7538     29.1682   2000.0000    125.5773
   629.5000   2000.0000     29.4374     30.9297   2000.0000    118.5249
   629.7500   2000.0000     31.2537     32.8396   2000.0000    114.9034
   630.0000   2000.0000     33.1634     34.9196   2000.0000    110.6849
   630.2500   2000.0000     35.1036     37.1857   2000.0000    108.5245
   630.5000   2000.0000     36.9983     39.6421   2000.0000    105.9754
   630.7500   2000.0000     38.7725     42.2765   2000.0000    104.3886
   631.0000   2000.0000     40.3725     45.0534   2000.0000    101.6880
   631.2500   2000.0000     41.7809     47.9099   2000.0000     99.7719
   631.5000   2000.0000     43.0143     50.7548   2000.0000     97.4221
   631.7500   2000.0000     44.1128     53.4704   2000.0000     96.5027
   632.0000   2000.0000     45.1174     55.9170   2000.0000     95.8095
   632.2500   2000.0000     46.0498     57.9494   2000.0000     95.2945
   632.5000   2000.0000     46.9022     59.4391   2000.0000     93.9590
   632.7500   2000.0000     47.6332     60.3012   2000.0000     93.0372
   633.0000   2000.0000     48.1803     60.5215   2000.0000     92.7140
   633.2500   2000.0000     48.4809     60.1592   2000.0000     93.3968
   633.5000   2000.0000     48.4921     59.3399   2000.0000     94.7657
   633.7500   2000.0000     48.2087     58.2289   2000.0000     95.0601
   634.0000   2000.0000     47.6655     56.9945   2000.0000     93.9118
   634.2500   2000.0000     46.9277     55.7855   2000.0000     92.3141
   634.5000   2000.0000     46.0726     54.7029   2000.0000     89.4218
   634.7500   2000.0000     45.1676     53.7989   2000.0000     87.4179
   635.0000   2000.0000     44.2556     53.0652   2000.0000     84.2769
   635.2500   2000.0000     43.3510     52.4367   2000.0000     81.9846
   635.5000   2000.0000     42.4376     51.7997   2000.0000     78.1617
   635.7500   2000.0000     41.4809     51.0062   2000.0000     75.3829
   636.0000   2000.0000     40.4373     49.9035   2000.0000     71.1213
   636.2500   2000.0000     39.2708     48.3728   2000.0000     68.5908
   636.5000   2000.0000     37.9643     46.3649   2000.0000     66.2781
   636.7500   2000.0000     36.5226     43.9219   2000.0000     66.3477
   637.0000   2000.0000     34.9728     41.1612   2000.0000     69.5610
   637.2500   2000.0000     33.3576     38.2440   2000.0000     73.8345
   637.5000   2000.0000     31.7254     35.3326   2000.0000     82.8537
   637.7500   2000.0000     30.1226     32.5597   2000.0000     89.8341
   638.0000   2000.0000     28.5881     30.0150   2000.0000    100.0135
   638.2500   2000.0000     27.1514     27.7470   2000.0000    105.7573
   638.5000   2000.0000     25.8313     25.7698   2000.0000    112.2650
   638.7500   2000.0000     24.6392     24.0754   2000.0000    115.3229
   639.0000   2000.0000     23.5795     22.6402   2000.0000    118.3233
   639.2500   2000.0000     22.6513     21.4337   2000.0000    119.4173
   639.5000   2000.0000     21.8502     20.4224   2000.0000    120.1945
   639.7500   2000.0000     21.1683     19.5735   2000.0000    120.6116
   640.0000   2000.0000     20.5956     18.8582   2000.0000    121.7755
   640.2500   2000.0000     20.1193     18.2524   2000.0000    123.0520
   640.5000   2000.0000     19.7261     17.7381   2000.0000    125.5908
   640.7500   2000.0000     19.4023     17.3030   2000.0000    127.4593
   641.0000   2000.0000     19.1356     16.9396   2000.0000    129.7956
   641.2500   2000.0000     18.9167     16.6445   2000.0000    130.6013
   641.5000   2000.0000     18.7396     16.4160   2000.0000    130.4800
   641.7500   2000.0000     18.6020     16.2539   2000.0000    129.7737
   642.0000   2000.0000     18.5051     16.1582   2000.0000    128.2971
   642.2500   2000.0000     18.4520     16.1297   2000.0000    127.1831
   642.5000   2000.0000     18.4467     16.1692   2000.0000    125.5634
   642.7500   2000.0000     18.4936     16.2778   2000.0000    124.7457
   643.0000   2000.0000     18.5963     16.4568   2000.0000    124.0948
   643.2500   2000.0000     18.7583     16.7064   2000.0000    123.9458
   643.5000   2000.0000     18.9826     17.0251   2000.0000    124.1014
   643.7500   2000.0000     19.2715     17.4088   2000.0000    124.6081
   644.0000   2000.0000     19.6271     17.8493   2000.0000    125.9121
   644.2500   2000.0000     20.0501     18.3354   2000.0000    126.6399
   644.5000   2000.0000     20.5388     18.8536   2000.0000    126.3822
   644.7500   2000.0000     21.0882     19.3906   2000.0000    125.0060
   645.0000   2000.0000     21.6882     19.9363   2000.0000    121.4524
   645.2500   2000.0000     22.3224     20.4866   2000.0000    118.4723
   645.5000   2000.0000     22.9688     21.0448   2000.0000    113.6119
   645.7500   2000.0000     23.6005     21.6213   2000.0000    110.3187
   646.0000   2000.0000     24.1907     22.2312   2000.0000    105.5935
   646.2500   2000.0000     24.7164     22.8903   2000.0000    102.8130
   646.5000   2000.0000     25.1628     23.6107   2000.0000     99.9246
   646.7500   2000.0000     25.5264     24.3961   2000.0000     99.3733
   647.0000   2000.0000     25.8127     25.2386   2000.0000    100.7009
   647.2500   2000.0000     26.0325     26.1175   2000.0000    102.2365
   647.5000   2000.0000     26.1947     26.9977   2000.0000    103.5426
   647.7500   2000.0000     26.3023     27.8358   2000.0000    103.1257
   648.0000   2000.0000     26.3476     28.5828   2000.0000    101.0767
   648.2500   2000.0000     26.3149     29.1940   2000.0000     99.5881
   648.5000   2000.0000     26.1848     29.6329   2000.0000     98.4351
   648.7500   2000.0000     25.9389     29.8751   2000.0000     98.7204
   649.0000   2000.0000     25.5682     29.9074   2000.0000    100.5646
   649.2500   2000.0000     25.0757     29.7239   2000.0000    102.3959
