~Version Information
VERS.                      2.0: CWLS Log ASCII Standard - VERSION 2.0
WRAP.                       NO: One line per depth step
~Well Information Block
STRT.FT               507.5000: 
STOP.FT              2145.0000: 
STEP.FT                 0.2500: 
NULL.                -999.2500: 
COMP.          Petrogulf Corporation: COMPANY
WELL.            Montoya 1-44R: WELL
FLD.           Purgatorie River: FIELD
LOC.           658' FSL & 1052' FWL: LOCATION
CNTY.               Las Animas: COUNTY
SRVC.                         : SERVICE COMPANY
DATE.          Tue Nov 16 02:59:24 2004: LOG DATE
UWI.           05 071 08239 00: UNIQUE WELL ID
STAT.                 Colorado: STATE
~Curve Information Block
DEPT.FT            0 000 00 00: Depth
SP.mV                         : DIL Spontaneous Potential
RILD.Ohm-m                    : DIL Deep Resistivity
RILM.Ohm-m                    : DIL Medium Resistivity
RLL3.Ohm-m                    : DIL Shallow Resistivity
GR.GAPI                       : Gamma Ray
~Parameter Information Block
~A  Depth        SP         RILD        RILM        RLL3         GR     
# ...
   731.5000   2000.0000     35.9997     39.2973   2000.0000     88.3544
   731.7500   2000.0000     36.6491     39.9141   2000.0000     86.6727
   732.0000   2000.0000     37.2354     40.2859   2000.0000     85.0906
   732.2500   2000.0000     37.7984     40.4749   2000.0000     84.6806
   732.5000   2000.0000     38.3657     40.5575   2000.0000     84.9505
   732.7500   2000.0000     38.9478     40.6122   2000.0000     85.4963
   733.0000   2000.0000     39.5368     40.7087   2000.0000     86.6182
   733.2500   2000.0000     40.1056     40.9017   2000.0000     87.8067
   733.5000   2000.0000     40.6118     41.2308   2000.0000     91.0925
   733.7500   2000.0000     41.0015     41.7158   2000.0000     94.4960
   734.0000   2000.0000     41.2172     42.3519   2000.0000    100.3759
   734.2500   2000.0000     41.2045     43.1026   2000.0000    103.4118
   734.5000   2000.0000     40.9230     43.8907   2000.0000    104.1505
   734.7500   2000.0000     40.3529     44.5984   2000.0000    101.5027
   735.0000   2000.0000     39.5017     45.0757   2000.0000     93.9222
   735.2500   2000.0000     38.4038     45.1648   2000.0000     87.8758
   735.5000   2000.0000     37.1154     44.7436   2000.0000     79.7397
   735.7500   2000.0000     35.7044     43.7628   2000.0000     75.9636
   736.0000   2000.0000     34.2409     42.2647   2000.0000     73.6121
   736.2500   2000.0000     32.7852     40.3680   2000.0000     74.1316
   736.5000   2000.0000     31.3852     38.2295   2000.0000     77.0739
   736.7500   2000.0000     30.0709     36.0009   2000.0000     79.8861
   737.0000   2000.0000     28.8575     33.8025   2000.0000     84.8411
   737.2500   2000.0000     27.7456     31.7154   2000.0000     88.5549
   737.5000   2000.0000     26.7269     29.7848   2000.0000     94.7432
   737.7500   2000.0000     25.7860     28.0298   2000.0000     99.3634
   738.0000   2000.0000     24.9051     26.4543   2000.0000    107.3978
   738.2500   2000.0000     24.0685     25.0530   2000.0000    113.6840
   738.5000   2000.0000     23.2651     23.8168   2000.0000    124.0732
   738.7500   2000.0000     22.4908     22.7352   2000.0000    130.6408
   739.0000   2000.0000     21.7491     21.7973   2000.0000    137.5896
   739.2500   2000.0000     21.0497     20.9928   2000.0000    139.4491
   739.5000   2000.0000     20.4062     20.3125   2000.0000    138.7855
   739.7500   2000.0000     19.8339     19.7481   2000.0000    137.2809
   740.0000   2000.0000     19.3460     19.2921   2000.0000    135.0743
   740.2500   2000.0000     18.9522     18.9374   2000.0000    133.8912
   740.5000   2000.0000     18.6572     18.6774   2000.0000    132.6483
   740.7500   2000.0000     18.4605     18.5048   2000.0000    132.5105
   741.0000   2000.0000     18.3562     18.4114   2000.0000    134.0474
   741.2500   2000.0000     18.3335     18.3878   2000.0000    136.2698
   741.5000   2000.0000     18.3783     18.4229   2000.0000    140.6591
   741.7500   2000.0000     18.4745     18.5048   2000.0000    143.6431
   742.0000   2000.0000     18.6058     18.6211   2000.0000    147.0587
   742.2500   2000.0000     18.7569     18.7601   2000.0000    147.9570
   742.5000   2000.0000     18.9161     18.9122   2000.0000    146.4014
   742.7500   2000.0000     19.0758     19.0712   2000.0000    143.4927
   743.0000   2000.0000     19.2327     19.2346   2000.0000    137.7549
   743.2500   2000.0000     19.3870     19.4034   2000.0000    134.3643
   743.5000   2000.0000     19.5416     19.5808   2000.0000    131.8244
   743.7500   2000.0000     19.6994     19.7708   2000.0000    132.0197
   744.0000   2000.0000     19.8628     19.9764   2000.0000    133.9226
   744.2500   2000.0000     20.0314     20.1986   2000.0000    135.2859
   744.5000   2000.0000     20.2030     20.4361   2000.0000    136.3850
   744.7500   2000.0000     20.3739     20.6863   2000.0000    136.2630
   745.0000   2000.0000     20.5409     20.9463   2000.0000    134.8115
   745.2500   2000.0000     20.7029     21.2147   2000.0000    133.1387
   745.5000   2000.0000     20.8622     21.4922   2000.0000    129.9471
   745.7500   2000.0000     21.0244     21.7821   2000.0000    127.6096
   746.0000   2000.0000     21.1980     22.0898   2000.0000    124.2609
   746.2500   2000.0000     21.3905     22.4214   2000.0000    122.4440
   746.5000   2000.0000     21.6078     22.7814   2000.0000    120.6520
   746.7500   2000.0000     21.8513     23.1722   2000.0000    119.9443
   747.0000   2000.0000     22.1191     23.5918   2000.0000    118.9593
   747.2500   2000.0000     22.4060     24.0330   2000.0000    117.9439
   747.5000   2000.0000     22.7045     24.4838   2000.0000    115.3935
   747.7500   2000.0000     23.0075     24.9274   2000.0000    112.9304
   748.0000   2000.0000     23.3076     25.3426   2000.0000    108.6439
   748.2500   2000.0000     23.5965     25.7054   2000.0000    106.2644
   748.5000   2000.0000     23.8641     25.9912   2000.0000    105.5651
   748.7500   2000.0000     24.0964     26.1758   2000.0000    108.0115
   749.0000   2000.0000     24.2770     26.2400   2000.0000    115.7146
   749.2500   2000.0000     24.3887     26.1717   2000.0000    121.8395
   749.5000   2000.0000     24.4189     25.9693   2000.0000    128.6093
   749.7500   2000.0000     24.3628     25.6422   2000.0000    130.1091
   750.0000   2000.0000     24.2266     25.2110   2000.0000    128.2777
   750.2500   2000.0000     24.0272     24.7050   2000.0000    125.7107
   750.5000   2000.0000     23.7869     24.1576   2000.0000    122.2214
   750.7500   2000.0000     23.5283     23.6025   2000.0000    120.9681
   751.0000   2000.0000     23.2692     23.0693   2000.0000    121.1389
   751.2500   2000.0000     23.0193     22.5821   2000.0000    122.4125
   751.5000   2000.0000     22.7799     22.1576   2000.0000    125.1677
   751.7500   2000.0000     22.5454     21.8060   2000.0000    127.0087
   752.0000   2000.0000     22.3074     21.5314   2000.0000    129.2812
   752.2500   2000.0000     22.0582     21.3334   2000.0000    130.4811
   752.5000   2000.0000     21.7948     21.2074   2000.0000    131.8339
   752.7500   2000.0000     21.5195     21.1461   2000.0000    132.1304
   753.0000   2000.0000     21.2407     21.1394   2000.0000    130.5780
   753.2500   2000.0000     20.9694     21.1748   2000.0000    127.7005
   753.5000   2000.0000     20.7182     21.2382   2000.0000    120.9453
   753.7500   2000.0000     20.4971     21.3136   2000.0000    115.8621
   754.0000   2000.0000     20.3126     21.3841   2000.0000    110.0597
   754.2500   2000.0000     20.1660     21.4323   2000.0000    108.8400
   754.5000   2000.0000     20.0529     21.4415   2000.0000    111.8295
   754.7500   2000.0000     19.9643     21.3975   2000.0000    116.2643
   755.0000   2000.0000     19.8878     21.2895   2000.0000    123.8743
   755.2500   2000.0000     19.8096     21.1124   2000.0000    128.0456
   755.5000   2000.0000     19.7173     20.8674   2000.0000    131.6662
   755.7500   2000.0000     19.6019     20.5632   2000.0000    132.6176
   756.0000   2000.0000     19.4596     20.2136   2000.0000    133.5930
   756.2500   2000.0000     19.2914     19.8369   2000.0000    134.9310
   756.5000   2000.0000     19.1029     19.4522   2000.0000    138.4059
   756.7500   2000.0000     18.9023     19.0774   2000.0000    141.2165
   757.0000   2000.0000     18.6988     18.7272   2000.0000    145.0122
   757.2500   2000.0000     18.5010     18.4118   2000.0000    146.8551
   757.5000   2000.0000     18.3152     18.1370   2000.0000    148.6752
   757.7500   2000.0000     18.1452     17.9039   2000.0000    149.7268
   758.0000   2000.0000     17.9924     17.7110   2000.0000    152.0473
   758.2500   2000.0000     17.8557     17.5547   2000.0000    154.3479
   758.5000   2000.0000     17.7333     17.4301   2000.0000    158.5065
   758.7500   2000.0000     17.6233     17.3323   2000.0000    161.2401
   759.0000   2000.0000     17.5254     17.2566   2000.0000    164.6101
   759.2500   2000.0000     17.4403     17.1987   2000.0000    166.2316
