~Version Information
VERS.                      2.0: CWLS Log ASCII Standard - VERSION 2.0
WRAP.                       NO: One line per depth step
~Well Information Block
STRT.FT               483.5000: 
STOP.FT              2348.7500: 
STEP.FT                 0.2500: 
NULL.                -999.2500: 
COMP.          Pioneer Natural Resources: COMPANY
WELL.          Hill Climb 22-2: WELL
FLD.           Purgatoire River: FIELD
LOC.           1820' FNL & 2193' FWL: LOCATION
PROV.                 Colorado: PROVINCE
CNTY.               Las Animas: COUNTRY
SRVC.                Patterson: SERVICE COMPANY
DATE.          Wed Oct 20 08:57:51 2004: LOG DATE
UWI.           05 071 08175 00: UNIQUE WELL ID
~Curve Information Block
DEPT.FT            0 000 00 00: Depth
DIR.Ohm-m                     : IEL Induction Resistivity
SN.Ohm-m                      : IEL Short Normal
SP.mV                         : IEL Spontaneous Potential
GR.GAPI                       : Gamma Ray
~Parameter Information Block
~A  Depth       DIR          SN          SP          GR     
   483.5000   -999.2500   -999.2500   -999.2500   -999.2500
   483.7500   -999.2500   -999.2500   -999.2500     76.1665
   484.0000   -999.2500   -999.2500   -999.2500     80.5430
   484.2500   -999.2500   -999.2500   -999.2500     82.1775
   484.5000   -999.2500   -999.2500   -999.2500     82.3357
   484.7500   -999.2500   -999.2500   -999.2500     81.6064
   485.0000   -999.2500   -999.2500   -999.2500     80.7143
   485.2500   -999.2500   -999.2500   -999.2500     80.5078
   485.5000   -999.2500   -999.2500   -999.2500     80.1055
   485.7500   -999.2500   -999.2500   -999.2500     79.2582
   486.0000   -999.2500   -999.2500   -999.2500     76.8584
   486.2500   -999.2500   -999.2500   -999.2500     74.7940
   486.5000   -999.2500   -999.2500   -999.2500     72.0096
   486.7500   -999.2500   -999.2500   -999.2500     70.8749
   487.0000   -999.2500   -999.2500   -999.2500     70.0026
   487.2500   -999.2500   -999.2500   -999.2500     69.0901
   487.5000   -999.2500   -999.2500   -999.2500     65.7400
   487.7500   -999.2500   -999.2500   -999.2500     61.9977
   488.0000   -999.2500   -999.2500   -999.2500     54.8123
   488.2500   -999.2500   -999.2500   -999.2500     49.5990
   488.5000   -999.2500   -999.2500   -999.2500     42.2973
   488.7500   -999.2500   -999.2500   -999.2500     38.4347
   489.0000   -999.2500   -999.2500   -999.2500     34.9497
   489.2500   -999.2500   -999.2500   -999.2500     34.2094
   489.5000   -999.2500   -999.2500   -999.2500     34.6492
   489.7500   -999.2500   -999.2500   -999.2500     35.2587
   490.0000   -999.2500   -999.2500   -999.2500     35.7906
   490.2500   -999.2500   -999.2500   -999.2500     35.7403
   490.5000   -999.2500   -999.2500   -999.2500     35.1919
   490.7500   -999.2500   -999.2500   -999.2500     34.7807
   491.0000   -999.2500   -999.2500   -999.2500     34.7174
   491.2500   -999.2500   -999.2500   -999.2500     35.1413
   491.5000   -999.2500   -999.2500   -999.2500     35.8229
   491.7500   -999.2500   -999.2500   -999.2500     35.7919
   492.0000   -999.2500   -999.2500   -999.2500     34.8170
   492.2500   -999.2500   -999.2500   -999.2500     33.8451
   492.5000   -999.2500   -999.2500   -999.2500     32.5597
   492.7500   -999.2500   -999.2500   -999.2500     32.1524
   493.0000   -999.2500   -999.2500   -999.2500     32.7286
   493.2500   -999.2500   -999.2500   -999.2500     33.9759
   493.5000   -999.2500   -999.2500   -999.2500     36.4847
   493.7500   -999.2500   -999.2500   -999.2500     37.9690
   494.0000   -999.2500   -999.2500   -999.2500     39.6156
   494.2500   -999.2500   -999.2500   -999.2500     40.8815
   494.5000   -999.2500   -999.2500   -999.2500     44.1903
   494.7500   -999.2500   -999.2500   -999.2500     47.2468
   495.0000   -999.2500   -999.2500   -999.2500     51.2449
   495.2500   -999.2500   -999.2500   -999.2500     52.1282
   495.5000   -999.2500   -999.2500   -999.2500     49.6142
   495.7500   -999.2500   -999.2500   -999.2500     45.8422
   496.0000   -999.2500   -999.2500   -999.2500     39.1595
   496.2500   -999.2500   -999.2500   -999.2500     35.2778
   496.5000   -999.2500   -999.2500   -999.2500     31.4526
   496.7500   -999.2500   -999.2500   -999.2500     30.1952
   497.0000   -999.2500   -999.2500   -999.2500     29.4746
   497.2500   -999.2500   -999.2500   -999.2500     29.2696
   497.5000   -999.2500   -999.2500   -999.2500     28.8309
   497.7500   -999.2500   -999.2500   -999.2500     28.3767
   498.0000   -999.2500   -999.2500   -999.2500     27.7768
   498.2500   -999.2500     -7.8436   -999.2500     27.8323
   498.5000   -999.2500     -7.8463   -999.2500     29.2122
   498.7500   -999.2500     -7.8523    213.2659     31.0051
   499.0000   -999.2500     -7.8639    209.3349     34.3237
   499.2500   -999.2500     -7.8866    204.9683     36.4688
   499.5000   -999.2500     -7.9265    200.2758     39.3002
   499.7500   -999.2500     -7.9789    195.2699     41.1075
   500.0000   -999.2500     -8.0217    189.8861     44.1004
   500.2500   -999.2500     -8.0305    184.0863     46.4984
   500.5000   -999.2500     -8.0024    177.9856     51.2845
   500.7500 100000.0000     -7.9572    171.9203     55.6030
   501.0000 100000.0000     -7.9162    166.4013     63.3819
   501.2500 100000.0000     -7.8856    161.9722     68.4497
   501.5000 100000.0000     -7.8599    159.0442     73.9677
   501.7500 100000.0000     -7.8346    157.7906     75.8850
   502.0000 100000.0000     -7.8110    158.1363     77.1294
   502.2500 100000.0000     -7.7923    159.8184     77.7431
   502.5000 100000.0000     -7.7798    162.4678     78.9562
   502.7500 100000.0000     -7.7718    165.6785     79.7356
   503.0000 100000.0000     -7.7637    169.0620     80.4118
   503.2500 100000.0000     -7.7496    172.3007     80.7016
   503.5000 100000.0000     -7.7290    175.2038     81.7993
   503.7500 100000.0000     -7.7123    177.7433     83.1827
   504.0000 100000.0000     -7.7165    180.0397     85.0454
   504.2500 100000.0000     -7.7491    182.2867     84.9387
   504.5000 100000.0000     -7.7985    184.6394     81.7943
   504.7500 100000.0000     -7.8455    187.1232     78.3639
   505.0000 100000.0000     -7.8789    189.6093     73.6365
   505.2500 100000.0000     -7.8977    191.8727     72.0148
   505.5000 100000.0000     -7.9031    193.6986     72.4804
   505.7500 100000.0000     -7.8963    194.9858     74.0743
   506.0000 100000.0000     -7.8827    195.7924     76.6070
   506.2500 100000.0000     -7.8698    196.3098     77.7269
   506.5000 100000.0000     -7.8615    196.7783     78.5446
   506.7500 100000.0000     -7.8561    197.3869     78.7895
   507.0000 100000.0000     -7.8497    198.1985     78.6740
   507.2500 100000.0000     -7.8392    199.1285     77.8753
   507.5000 100000.0000     -7.8248    199.9808     75.1817
   507.7500 100000.0000     -7.8121    200.5227     72.8216
   508.0000 100000.0000     -7.8101    200.5692     69.9321
   508.2500 100000.0000     -7.8230    200.0437     69.1315
   508.5000 100000.0000     -7.8432    198.9936     70.0943
   508.7500 100000.0000     -7.8542    197.5596     72.0873
   509.0000 100000.0000     -7.8434    195.9135     75.8884
   509.2500 100000.0000     -7.8151    194.1922     77.6701
   509.5000 100000.0000     -7.7884    192.4525     77.6553
   509.7500 100000.0000     -7.7806    190.6599     76.2421
   510.0000 100000.0000     -7.7941    188.7151     74.3793
   510.2500 100000.0000     -7.8182    186.5076     74.4441
   510.5000 100000.0000     -7.8406    183.9754     76.1541
   510.7500 100000.0000     -7.8534    181.1488     76.8739
   511.0000 100000.0000     -7.8534    178.1588     74.7057
   511.2500 100000.0000     -7.8433    175.2078     70.9188
   511.5000 100000.0000     -7.8318    172.5142     64.0979
   511.7500 100000.0000     -7.8284    170.2540     60.4001
   512.0000 100000.0000     -7.8358    168.5209     56.7685
   512.2500 100000.0000     -7.8493    167.3183     54.9004
   512.5000 100000.0000     -7.8634    166.5854     51.9898
   512.7500 100000.0000     -7.8753    166.2462     50.0976
   513.0000 100000.0000     -7.8822    166.2584     47.4574
   513.2500 100000.0000     -7.8812    166.6370     45.3540
   513.5000 100000.0000     -7.8756    167.4354     40.8110
   513.7500 100000.0000     -7.8747    168.6920     36.9983
   514.0000 100000.0000     -7.8824    170.3695     31.4776
   514.2500 100000.0000     -7.8922    172.3214     28.8210
   514.5000 100000.0000     -7.8962    174.3101     26.9674
   514.7500 100000.0000     -7.8938    176.0701     26.7716
   515.0000 100000.0000     -7.8898    177.3902     26.8392
   515.2500 100000.0000     -7.8879    178.1750     26.7136
   515.5000 100000.0000     -7.8879    178.4618     26.4580
   515.7500 100000.0000     -7.8868    178.3892     26.5452
   516.0000 100000.0000     -7.8811    178.1374     27.1439
   516.2500 100000.0000     -7.8704    177.8689     27.6531
   516.5000 100000.0000     -7.8569    177.6911     28.4771
   516.7500 100000.0000     -7.8434    177.6507     29.3149
