~Version Information
VERS.                      2.0: CWLS Log ASCII Standard - VERSION 2.0
WRAP.                       NO: One line per depth step
~Well Information Block
STRT.FT               665.0000: 
STOP.FT              1972.5000: 
STEP.FT                 0.1000: 
NULL.                -999.2500: 
COMP.          Petrogulf Corporation: COMPANY
WELL.          Great Plains 22-21V: WELL
FLD.           Purgatorie River: FIELD
LOC.           63' FNL & 1895' FWL: LOCATION
PROV.                 Colorado: PROVINCE
CNTY.               Las Animas: COUNTRY
SRVC.                Patterson: SERVICE COMPANY
DATE.          Thu Sep 01 07:39:43 2005: LOG DATE
UWI.                          : UNIQUE WELL ID
~Curve Information Block
DEPT.FT            0 000 00 00: Depth
DCAL.in                       : CDL Caliper
RHOB.g/cc                     : CDL Bulk Density
RHOC.g/cc                     : CDL Density Correction
DPOR.pu                       : CDL Density Porosity
GR.GAPI                       : Gamma Ray
NPOR.pu                       : Neutron Porosity
~Parameter Information Block
~A  Depth       DCAL        RHOB        RHOC        DPOR         GR         NPOR    
# ...
  1615.4000      7.9776      2.6248      0.1115      1.5273     96.4432     21.2679
  1615.5000      7.9825      2.6063      0.0745      2.6501     98.3189     20.8787
  1615.6000      7.9825      2.5998      0.0519      3.0440     96.7706     21.0286
  1615.7000      7.9825      2.6136      0.1072      2.2052     96.3996     21.8364
  1615.8000      7.8875      2.6344      0.1204      0.9459     98.9609     22.7808
  1615.9000      7.8875      2.6475      0.0992      0.1497     99.9346     23.0581
  1616.0000      7.9622      2.6472      0.0956      0.1709     98.5922     22.2345
  1616.1000      7.9622      2.6314      0.0704      1.1262     96.4900     20.7550
  1616.2000      7.9622      2.6085      0.0278      2.5158     93.5264     19.8405
  1616.3000      8.0446      2.5889      0.0779      3.7002     90.6342     20.0237
  1616.4000      8.0446      2.5726      0.0635      4.6902     90.5688     20.7069
  1616.5000      8.0623      2.5632      0.0369      5.2608     93.0795     21.3255
  1616.6000      8.0623      2.5641      0.0650      5.2068     95.4759     21.7934
  1616.7000      8.0623      2.5609      0.0918      5.3991     96.2876     22.0353
  1616.8000      8.0085      2.5461      0.0156      6.2989     96.9337     22.0421
  1616.9000      8.0085      2.5341      0.0239      7.0272    100.3794     22.0111
  1617.0000      8.0000      2.5302      0.0604      7.2632    105.4360     22.2685
  1617.1000      8.0000      2.5281      0.0100      7.3849    107.8963     22.8938
  1617.2000      8.0000      2.5321      0.0403      7.1472    106.0685     23.4184
  1617.3000      8.0250      2.5438      0.0280      6.4382    102.1943     23.5782
  1617.4000      8.0250      2.5541      0.0794      5.8142     99.6194     23.6440
  1617.5000      7.9287      2.5531      0.0536      5.8725    101.6947     23.8464
  1617.6000      7.9287      2.5438      0.0431      6.4367    109.9555     24.0635
  1617.7000      7.9287      2.5405      0.0653      6.6385    118.4731     24.2788
  1617.8000      7.9620      2.5503      0.0895      6.0453    119.6731     24.6273
  1617.9000      7.9620      2.5632      0.0783      5.2578    115.2382     24.9211
  1618.0000      7.9361      2.5641      0.1094      5.2055    112.2268     24.9386
  1618.1000      7.9361      2.5551      0.0728      5.7490    113.9687     24.7037
  1618.2000      7.9361      2.5550      0.0512      5.7562    117.2514     24.4114
  1618.3000      7.9320      2.5681      0.0904      4.9643    117.3154     24.2157
  1618.4000      7.9320      2.5805      0.0772      4.2127    113.6277     24.1652
  1618.5000      7.9534      2.5801      0.0902      4.2344    109.3150     24.3455
  1618.6000      7.9534      2.5632      0.0599      5.2629    109.1699     24.6063
  1618.7000      7.9534      2.5399      0.0427      6.6755    115.0948     24.6822
  1618.8000      8.0341      2.5273      0.0343      7.4383    121.0527     24.7522
  1618.9000      8.0341      2.5289      0.0666      7.3404    122.6602     24.7882
  1619.0000      8.0933      2.5374      0.0448      6.8241    121.6061     24.5447
  1619.1000      8.0933      2.5472      0.1062      6.2314    119.2022     24.4425
  1619.2000      8.0933      2.5563      0.0686      5.6812    117.8949     24.6025
  1619.3000      8.0689      2.5687      0.1005      4.9284    118.2698     24.4359
  1619.4000      8.0689      2.5799      0.1545      4.2502    117.6430     23.7671
  1619.5000      7.9167      2.5779      0.1383      4.3725    116.1610     22.7244
  1619.6000      7.9167      2.5644      0.1296      5.1891    114.7000     21.5572
  1619.7000      7.9167      2.5457      0.1440      6.3224    112.5957     20.8847
  1619.8000      7.8522      2.5241      0.0970      7.6322    110.1768     21.1157
  1619.9000      7.8522      2.5110      0.0197      8.4216    109.4348     21.9385
  1620.0000      7.8747      2.5162      0.0960      8.1066    111.1954     22.7017
  1620.1000      7.8747      2.5359      0.0619      6.9179    113.2280     22.9962
  1620.2000      7.8747      2.5675      0.1021      5.0012    113.7919     22.8501
  1620.3000      7.9665      2.6044      0.1911      2.7636    112.8111     22.6253
  1620.4000      7.9665      2.6352      0.2000      0.8942    110.7162     22.6195
  1620.5000      7.9040      2.6540      0.2385     -0.2439    108.6095     22.7543
  1620.6000      7.9040      2.6524      0.2745     -0.1464    107.5400     22.7405
  1620.7000      7.9040      2.6282      0.1804      1.3186    107.2644     22.4694
  1620.8000      7.8103      2.5940      0.1893      3.3969    106.4043     22.3451
  1620.9000      7.8103      2.5582      0.1729      5.5638    105.3882     22.7198
  1621.0000      7.8026      2.5252      0.1077      7.5612    107.5737     23.1140
  1621.1000      7.8026      2.4960      0.0902      9.3316    112.0473     23.0580
  1621.2000      7.8026      2.4631      0.0889     11.3264    114.0695     22.6436
  1621.3000      7.8371      2.4305      0.0375     13.3041    111.4823     21.9206
  1621.4000      7.8371      2.4180      0.0250     14.0587    107.4198     21.0862
  1621.5000      7.9635      2.4325      0.0952     13.1803    106.0113     20.5255
  1621.6000      7.9635      2.4653      0.1197     11.1967    106.1696     20.4450
  1621.7000      7.9635      2.5145      0.1640      8.2126    106.0157     20.7047
  1621.8000      8.0014      2.5785      0.2853      4.3333    105.8767     21.0389
  1621.9000      8.0014      2.6411      0.2943      0.5403    104.8393     21.2848
  1622.0000      7.8352      2.6850      0.3273     -2.1207    101.0300     21.1768
  1622.1000      7.8352      2.7057      0.3110     -3.3763     93.9320     20.6712
  1622.2000      7.8352      2.7109      0.3350     -3.6888     86.0953     20.4171
  1622.3000      7.7811      2.7080      0.2926     -3.5152     81.6115     20.8416
  1622.4000      7.7811      2.7014      0.2240     -3.1165     81.1720     21.5069
  1622.5000      7.7960      2.6905      0.2198     -2.4516     81.2099     21.9988
  1622.6000      7.7960      2.6692      0.1121     -1.1618     79.2986     22.3405
  1622.7000      7.7960      2.6391      0.1130      0.6630     78.2836     22.5539
  1622.8000      7.8803      2.6100      0.0551      2.4238     80.6234     22.5796
  1622.9000      7.8803      2.5909      0.0618      3.5809     83.3734     22.3578
  1623.0000      8.0278      2.5847      0.0558      3.9575     82.8956     22.0956
  1623.1000      8.0278      2.5919      0.0629      3.5238     80.2956     22.0112
  1623.2000      8.0278      2.6060      0.0741      2.6676     78.2527     21.8828
  1623.3000      8.1646      2.6142      0.0619      2.1708     75.8674     21.2732
  1623.4000      8.1646      2.6117      0.0679      2.3234     72.1994     20.2965
  1623.5000      8.4959      2.6073      0.0470      2.5857     69.5178     19.5108
  1623.6000      8.4959      2.6107      0.0533      2.3788     68.2479     19.0261
  1623.7000      8.4959      2.6152      0.0874      2.1086     67.0832     18.9408
  1623.8000      9.0073      2.6107      0.0638      2.3804     67.6144     19.4169
  1623.9000      9.0073      2.6001      0.0511      3.0244     70.3062     19.9152
  1624.0000      9.4699      2.5830      0.0550      4.0634     72.5872     20.1090
  1624.1000      9.4699      2.5546      0.0385      5.7790     72.6581     20.2782
  1624.2000      9.4699      2.5233      0.0222      7.6771     72.4393     20.3023
  1624.3000      9.5670      2.5032     -0.0040      8.8957     73.7752     20.0926
  1624.4000      9.5670      2.4991      0.0315      9.1431     74.3744     19.9581
  1624.5000      8.3308      2.5072      0.0036      8.6557     74.2753     19.9286
  1624.6000      8.3308      2.5218      0.0428      7.7682     75.9392     19.8203
  1624.7000      8.3308      2.5374      0.0463      6.8271     77.7471     19.4711
  1624.8000      8.0321      2.5473      0.1187      6.2261     77.7620     18.9187
  1624.9000      8.0321      2.5474      0.1145      6.2198     76.2815     18.5595
