~Version Information
VERS.                      2.0: CWLS Log ASCII Standard - VERSION 2.0
WRAP.                       NO: One line per depth step
~Well Information Block
STRT.FT               965.2500: 
STOP.FT              2602.5000: 
STEP.FT                 0.2500: 
NULL.                -999.2500: 
COMP.          Petrogulf Corporation: COMPANY
WELL.             Valejo 8-12V: WELL
FLD.           Purgatorie River: FIELD
LOC.           1510' FNL & 1460' FWL: LOCATION
CNTY.               Las Animas: COUNTY
SRVC.                         : SERVICE COMPANY
DATE.          Fri Nov 14 05:32:33 2003: LOG DATE
UWI.                          : UNIQUE WELL ID
STAT.                 Colorado: STATE
~Curve Information Block
DEPT.FT            0 000 00 00: Depth
RILD.Ohm-m                    : DIL Deep Resistivity
RILM.Ohm-m                    : DIL Medium Resistivity
RLL3.Ohm-m                    : DIL Shallow Resistivity
SP.mV                         : DIL Spontaneous Potential
GR.GAPI                       : Gamma Ray
~Parameter Information Block
~A  Depth       RILD        RILM        RLL3         SP          GR     
# ...
  1721.2500     11.6421     13.1253     18.7055    -19.4459    125.5954
  1721.5000     11.2414     12.7178     17.9616    -19.5598    128.6329
  1721.7500     10.8758     12.3930     17.6207    -19.7685    130.6678
  1722.0000     10.5560     12.1233     18.1664    -20.0895    131.8420
  1722.2500     10.2970     11.8655     19.6589    -20.5139    130.7405
  1722.5000     10.1123     11.5766     21.4382    -21.0171    126.9055
  1722.7500     10.0101     11.2369     22.4211    -21.5748    124.0005
  1723.0000      9.9944     10.8651     21.8847    -22.1635    120.5457
  1723.2500     10.0674     10.5137     20.0152    -22.7505    118.9850
  1723.5000     10.2308     10.2478     17.6869    -23.2895    117.9130
  1723.7500     10.4828     10.1240     15.7925    -23.7323    118.4905
  1724.0000     10.8152     10.1814     14.8184    -24.0468    121.3940
  1724.2500     11.2128     10.4430     14.8986    -24.2287    123.6960
  1724.5000     11.6574     10.9208     16.0622    -24.3028    125.3082
  1724.7500     12.1360     11.6198     18.3578    -24.3148    124.4270
  1725.0000     12.6451     12.5372     21.7713    -24.3161    120.3344
  1725.2500     13.1912     13.6603     26.0566    -24.3423    116.1017
  1725.5000     13.7854     14.9665     30.6817    -24.3986    108.0260
  1725.7500     14.4396     16.4330     35.0138    -24.4608    101.9200
  1726.0000     15.1655     18.0544     38.6849    -24.4899     92.8331
  1726.2500     15.9766     19.8545     41.8740    -24.4504     87.6441
  1726.5000     16.8875     21.8700     45.1403    -24.3228     82.2810
  1726.7500     17.9050     24.1077     48.7610    -24.1100     80.4152
  1727.0000     19.0176     26.4956     52.1752    -23.8369     79.2256
  1727.2500     20.1892     28.8680     54.2557    -23.5471     78.7231
  1727.5000     21.3637     31.0049     54.2293    -23.2945     77.8023
  1727.7500     22.4702     32.7023     52.2490    -23.1286     77.3483
  1728.0000     23.4107     33.8252     49.1013    -23.0761     77.8347
  1728.2500     24.0309     34.3180     45.5894    -23.1312     79.2149
  1728.5000     24.1194     34.1886     42.2719    -23.2583     82.2231
  1728.7500     23.4973     33.4778     39.5364    -23.4081     83.9401
  1729.0000     22.1667     32.2234     37.6159    -23.5400     84.7819
  1729.2500     20.3602     30.4476     36.4523    -23.6388     84.1459
  1729.5000     18.4082     28.1924     35.6406    -23.7159     82.3921
  1729.7500     16.5671     25.5725     34.6204    -23.7927     81.4233
  1730.0000     14.9580     22.7813     32.9911    -23.8817     81.2553
  1730.2500     13.6027     20.0333     30.6928    -23.9807     82.2866
  1730.5000     12.4789     17.4973     27.9345    -24.0833     85.3134
  1730.7500     11.5531     15.2697     24.9900    -24.1903     87.8028
  1731.0000     10.7919     13.3855     22.0612    -24.3108     91.2942
  1731.2500     10.1660     11.8398     19.2785    -24.4534     93.2435
  1731.5000      9.6520     10.6047     16.7515    -24.6183     96.1408
  1731.7500      9.2349      9.6420     14.5925    -24.7965     98.7803
  1732.0000      8.9070      8.9119     12.9082    -24.9710    104.8624
  1732.2500      8.6641      8.3795     11.7584    -25.1187    110.2645
  1732.5000      8.5005      8.0176     11.1043    -25.2156    118.8518
  1732.7500      8.4066      7.8070     10.8172    -25.2470    123.7611
  1733.0000      8.3707      7.7349     10.7820    -25.2133    128.8167
  1733.2500      8.3827      7.7923     11.0185    -25.1330    130.7093
  1733.5000      8.4378      7.9711     11.6901    -25.0413    131.9993
  1733.7500      8.5374      8.2620     12.9568    -24.9803    132.0830
  1734.0000      8.6862      8.6538     14.7901    -24.9793    130.7520
  1734.2500      8.8890      9.1338     16.9352    -25.0372    128.5102
  1734.5000      9.1486      9.6896     19.0567    -25.1197    123.1221
  1734.7500      9.4668     10.3122     20.8964    -25.1750    118.8569
  1735.0000      9.8470     11.0003     22.2911    -25.1593    113.1743
  1735.2500     10.2957     11.7628     23.1376    -25.0561    110.6571
  1735.5000     10.8186     12.6162     23.4642    -24.8782    109.0243
  1735.7500     11.4097     13.5752     23.5459    -24.6554    108.6863
  1736.0000     12.0399     14.6404     23.8272    -24.4181    107.3180
  1736.2500     12.6523     15.7870     24.6142    -24.1884    105.0020
  1736.5000     13.1732     16.9553     25.8147    -23.9817     99.8691
  1736.7500     13.5351     18.0450     27.0228    -23.8088     96.5261
  1737.0000     13.6994     18.9216     27.8547    -23.6723     93.4571
  1737.2500     13.6649     19.4494     28.1609    -23.5626     92.8651
  1737.5000     13.4613     19.5441     27.9431    -23.4624     93.1211
  1737.7500     13.1346     19.2041     27.1963    -23.3579     93.3930
  1738.0000     12.7328     18.4963     25.9191    -23.2461     93.6517
  1738.2500     12.2944     17.5166     24.2271    -23.1360     94.0674
  1738.5000     11.8458     16.3656     22.3601    -23.0449     95.8775
  1738.7500     11.4042     15.1469     20.5393    -22.9916     97.9683
  1739.0000     10.9825     13.9629     18.8447    -22.9866    101.6681
  1739.2500     10.5917     12.8968     17.2652    -23.0263    104.0483
  1739.5000     10.2405     11.9933     15.8634    -23.0993    107.6769
  1739.7500      9.9351     11.2545     14.8369    -23.1984    110.5138
  1740.0000      9.6798     10.6520     14.3676    -23.3272    115.0542
  1740.2500      9.4803     10.1499     14.4063    -23.4959    117.4277
  1740.5000      9.3445      9.7244     14.6354    -23.7092    119.2485
  1740.7500      9.2812      9.3746     14.6711    -23.9537    119.9572
  1741.0000      9.2974      9.1194     14.3206    -24.1961    121.9466
  1741.2500      9.3970      8.9879     13.6768    -24.3929    123.8839
  1741.5000      9.5810      9.0129     13.0316    -24.5069    125.6219
  1741.7500      9.8488      9.2281     12.7529    -24.5219    124.7204
  1742.0000     10.1982      9.6681     13.2383    -24.4488    119.9939
  1742.2500     10.6256     10.3677     14.9125    -24.3218    115.5023
  1742.5000     11.1268     11.3588     18.1813    -24.1852    108.4882
  1742.7500     11.7002     12.6657     23.3088    -24.0768    103.9658
  1743.0000     12.3503     14.3009     30.2892    -24.0153     96.9368
  1743.2500     13.0894     16.2633     38.8090    -23.9954     91.8298
  1743.5000     13.9325     18.5348     48.2979    -23.9901     83.8931
  1743.7500     14.8820     21.0655     57.9771    -23.9605     78.9874
  1744.0000     15.9004     23.7410     66.8631    -23.8726     73.3709
  1744.2500     16.8849     26.3390     73.7938    -23.7123     71.3699
  1744.5000     17.6726     28.5033     77.5836    -23.4912     71.2186
  1744.7500     18.1061     29.7953     77.3837    -23.2374     72.5651
  1745.0000     18.1231     29.8721     73.1066    -22.9838     75.6879
  1745.2500     17.7811     28.7096     65.5304    -22.7647     78.2022
  1745.5000     17.1972     26.6529     55.9182    -22.6144     82.6038
  1745.7500     16.4733     24.2117     45.5621    -22.5568     85.8698
  1746.0000     15.6688     21.8050     35.6637    -22.5888     90.7545
  1746.2500     14.8141     19.6544     27.3213    -22.6756     93.7261
  1746.5000     13.9334     17.8158     21.2666    -22.7688     97.8602
  1746.7500     13.0564     16.2578     17.5562    -22.8338    100.8428
  1747.0000     12.2144     14.9221     15.6277    -22.8662    106.4532
  1747.2500     11.4320     13.7575     14.7069    -22.8855    111.0332
  1747.5000     10.7218     12.7282     14.2009    -22.9167    118.5256
  1747.7500     10.0859     11.8114     13.8313    -22.9731    123.4097
  1748.0000      9.5217     10.9937     13.5363    -23.0507    129.7713
  1748.2500      9.0265     10.2696     13.3040    -23.1330    132.8548
  1748.5000      8.5984      9.6404     13.0705    -23.2037    134.6900
  1748.7500      8.2348      9.1094     12.7338    -23.2592    133.7255
  1749.0000      7.9304      8.6740     12.2560    -23.3101    129.9392
