~Version Information
VERS.                      2.0: CWLS Log ASCII Standard - VERSION 2.0
WRAP.                       NO: One line per depth step
~Well Information Block
STRT.FT                -8.2500: 
STOP.FT              1175.7500: 
STEP.FT                 0.2500: 
NULL.                -999.2500: 
COMP.          Evergreen Operating Corporation: COMPANY
WELL.             Justin 32-10: WELL
FLD.           Purgatorie River: FIELD
LOC.           2994' FNL & 1449' FEL: LOCATION
PROV.                 Colorado: PROVINCE
CNTY.               Las Animas: COUNTRY
SRVC.                         : SERVICE COMPANY
DATE.          Wed Sep 29 10:00:10 2004: LOG DATE
UWI.           05 071 08053 00: UNIQUE WELL ID
~Curve Information Block
DEPT.FT            0 000 00 00: Depth
GR.GAPI                       : Gamma Ray
CCL.                          : Casing Collar Locator
TT3.usec                      : CBL 3' Travel Time
AMP3.mV                       : CBL 3' Amplitude
~Parameter Information Block
~A  Depth        GR         CCL         TT3         AMP3    
# ...
  1063.7500     79.1865      0.0000    822.7331      4.5157
  1064.0000     82.1532      0.0000    798.7631      4.8870
  1064.2500     86.0487      0.0000    756.9892      5.3614
  1064.5000     89.9378      0.0000    696.4641      5.9169
  1064.7500     92.1868      0.0000    622.5132      6.5092
  1065.0000     91.7396      0.0000    545.7025      7.0938
  1065.2500     89.2715      0.0000    480.7747      7.6368
  1065.5000     86.8698      0.0000    444.3904      8.1067
  1065.7500     86.0912      0.0000    445.6682      8.4666
  1066.0000     86.2443      0.0000    473.8146      8.6895
  1066.2500     85.0059      0.0000    499.4591      8.7791
  1066.5000     80.8169      0.0000    495.9833      8.7623
  1066.7500     74.3355      0.0000    462.0057      8.6522
  1067.0000     67.5452      0.0000    421.6641      8.4255
  1067.2500     61.9614      0.0000    404.4922      8.0369
  1067.5000     57.8865      0.0000    426.2464      7.4598
  1067.7500     55.0395      0.0000    483.3378      6.7278
  1068.0000     53.3977      0.0000    558.7866      5.9461
  1068.2500     53.0439      0.0000    632.7189      5.2471
  1068.5000     53.3352      0.0000    690.6209      4.7175
  1068.7500     52.9142      0.0000    725.2237      4.3623
  1069.0000     50.9840      0.0000    734.9186      4.1351
  1069.2500     48.2256      0.0000    723.5327      3.9901
  1069.5000     46.0893      0.0000    700.8969      3.9058
  1069.7500     45.4556      0.0000    679.7869      3.8771
  1070.0000     46.2053      0.0000    667.5590      3.9034
  1070.2500     47.6238      0.0000    659.3284      3.9847
  1070.5000     48.7685      0.0000    643.0523      4.1200
  1070.7500     48.7640      0.0000    613.4512      4.2984
  1071.0000     47.3085      0.0000    578.0286      4.4876
  1071.2500     45.0202      0.0000    548.5095      4.6349
  1071.5000     43.0683      0.0000    530.0590      4.6904
  1071.7500     42.4064      0.0000    519.8486      4.6349
  1072.0000     43.3025      0.0000    512.5071      4.4914
  1072.2500     45.4291      0.0000    504.8310      4.3083
  1072.5000     48.3081      0.0000    496.8355      4.1276
  1072.7500     51.6279      0.0000    490.1533      3.9620
  1073.0000     55.0445      0.0000    485.9549      3.8006
  1073.2500     57.8481      0.0000    484.0512      3.6368
  1073.5000     59.2147      0.0000    483.4403      3.4840
  1073.7500     58.9240      0.0000    483.2045      3.3634
  1074.0000     57.6529      0.0000    482.9285      3.2828
  1074.2500     56.4394      0.0000    482.5879      3.2347
  1074.5000     55.8563      0.0000    482.2407      3.2092
  1074.7500     55.6945      0.0000    481.7776      3.2008
  1075.0000     55.4063      0.0000    480.8312      3.1999
  1075.2500     54.7803      0.0000    478.9489      3.1853
  1075.5000     54.0875      0.0000    476.0663      3.1348
  1075.7500     53.6051      0.0000    472.9620      3.0450
  1076.0000     53.1842      0.0000    470.9982      2.9352
  1076.2500     52.4049      0.0000    471.2610      2.8291
  1076.5000     51.0195      0.0000    474.2865      2.7392
  1076.7500     49.1152      0.0000    481.0295      2.6682
  1077.0000     47.0386      0.0000    493.2393      2.6144
  1077.2500     45.3556      0.0000    510.9872      2.5720
  1077.5000     44.7283      0.0000    529.1954      2.5290
  1077.7500     45.6655      0.0000    538.8832      2.4773
  1078.0000     48.3741      0.0000    534.4396      2.4214
  1078.2500     52.7171      0.0000    518.9991      2.3753
  1078.5000     58.1528      0.0000    501.0916      2.3499
  1078.7500     63.8654      0.0000    487.2599      2.3469
  1079.0000     69.1247      0.0000    479.0971      2.3606
  1079.2500     73.4311      0.0000    475.1425      2.3800
  1079.5000     76.3027      0.0000    472.9809      2.3924
  1079.7500     77.1576      0.0000    470.2914      2.3891
  1080.0000     75.6421      0.0000    466.2927      2.3709
  1080.2500     72.2064      0.0000    462.7932      2.3439
  1080.5000     68.2438      0.0000    462.6369      2.3115
  1080.7500     65.3298      0.0000    466.7411      2.2726
  1081.0000     64.2084      0.0000    473.5089      2.2289
  1081.2500     64.5526      0.0000    481.5414      2.1889
  1081.5000     65.4786      0.0000    491.9008      2.1621
  1081.7500     66.0752      0.0000    506.4809      2.1508
  1082.0000     65.8508      0.0000    523.8505      2.1481
  1082.2500     65.2370      0.0000    537.6458      2.1417
  1082.5000     65.4854      0.0000    540.7441      2.1221
  1082.7500     67.4940      0.0000    531.4205      2.0889
  1083.0000     70.6741      0.0000    514.3192      2.0508
  1083.2500     73.2501      0.0000    495.4823      2.0164
  1083.5000     73.6201      0.0000    478.2264      1.9857
  1083.7500     71.2539      0.0000    464.1579      1.9535
  1084.0000     66.5390      0.0000    455.9891      1.9193
  1084.2500     60.2972      0.0000    457.4177      1.8901
  1084.5000     53.5834      0.0000    469.5926      1.8713
  1084.7500     47.5947      0.0000    487.3175      1.8589
  1085.0000     43.3539      0.0000    499.5764      1.8444
  1085.2500     41.2439      0.0000    496.4684      1.8243
  1085.5000     40.8852      0.0000    476.9890      1.8030
  1085.7500     41.5568      0.0000    449.1112      1.7861
  1086.0000     42.6711      0.0000    422.5339      1.7761
  1086.2500     43.8698      0.0000    402.8874      1.7742
  1086.5000     44.9599      0.0000    391.9755      1.7806
  1086.7500     45.9795      0.0000    390.7636      1.7912
  1087.0000     47.2107      0.0000    400.4997      1.7941
  1087.2500     48.9578      0.0000    420.7877      1.7718
  1087.5000     51.3514      0.0000    447.0227      1.7079
  1087.7500     54.2915      0.0000    471.3336      1.5992
  1088.0000     57.2809      0.0000    488.5373      1.4590
  1088.2500     59.2686      0.0000    502.1633      1.3130
  1088.5000     59.0590      0.0000    522.9522      1.1919
  1088.7500     56.2083      0.0000    558.6242      1.1225
  1089.0000     51.5319      0.0000    605.0529      1.1122
  1089.2500     46.6853      0.0000    650.1098      1.1437
  1089.5000     43.3108      0.0000    685.7411      1.1887
  1089.7500     42.4526      0.0000    712.4716      1.2287
  1090.0000     44.3471      0.0000    732.3934      1.2665
  1090.2500     48.4538      0.0000    743.0089      1.3226
  1090.5000     53.7625      0.0000    740.6373      1.4170
  1090.7500     59.2030      0.0000    727.2500      1.5451
  1091.0000     63.8194      0.0000    710.1953      1.6734
  1091.2500     66.8833      0.0000    695.2933      1.7643
  1091.5000     68.2672      0.0000    682.6411      1.8025
  1091.7500     68.6184      0.0000    668.9847      1.7994
  1092.0000     68.8245      0.0000    651.0927      1.7784
  1092.2500     69.2985      0.0000    626.0731      1.7600
  1092.5000     69.9023      0.0000    591.6301      1.7552
  1092.7500     70.2671      0.0000    548.8723      1.7655
  1093.0000     69.9623      0.0000    504.3213      1.7854
  1093.2500     68.6288      0.0000    466.8963      1.8062
  1093.5000     66.2984      0.0000    442.0841      1.8207
  1093.7500     63.5449      0.0000    429.3151      1.8258
  1094.0000     61.1389      0.0000    424.3446      1.8240
  1094.2500     59.4966      0.0000    422.9878      1.8213
  1094.5000     58.4370      0.0000    422.8250      1.8219
  1094.7500     57.3603      0.0000    422.9498      1.8258
  1095.0000     55.7134      0.0000    423.1927      1.8305
  1095.2500     53.6160      0.0000    423.7191      1.8340
  1095.5000     52.1747      0.0000    425.0148      1.8353
  1095.7500     52.8412      0.0000    428.0233      1.8332
  1096.0000     56.0486      0.0000    433.7681      1.8264
  1096.2500     60.5509      0.0000    441.9804      1.8150
  1096.5000     64.3930      0.0000    449.7660      1.7996
  1096.7500     66.4742      0.0000    452.7690      1.7775
  1097.0000     67.0402      0.0000    448.9120      1.7459
