~Version Information
VERS.                      2.0: CWLS Log ASCII Standard - VERSION 2.0
WRAP.                       NO: One line per depth step
~Well Information Block
STRT.FT               480.0000: 
STOP.FT              1994.2500: 
STEP.FT                 0.2500: 
NULL.                -999.2500: 
COMP.          Evergreen Operating Corporation: COMPANY
WELL.          McCullough 34-32 Tr: WELL
FLD.           Purgatoire River: FIELD
LOC.           394' FSL & 2077' FEL: LOCATION
PROV.                 Colorado: PROVINCE
CNTY.               Las Animas: COUNTRY
SRVC.                Patterson: SERVICE COMPANY
DATE.          Sun Sep 19 05:48:59 2004: LOG DATE
UWI.           05 071 08157 00: UNIQUE WELL ID
~Curve Information Block
DEPT.FT            0 000 00 00: Depth
SN.Ohm-m                      : IEL Short Normal
SP.mV                         : IEL Spontaneous Potential
DIR.Ohm-m                     : IEL Induction Resistivity
GR.GAPI                       : Gamma Ray
~Parameter Information Block
~A  Depth        SN          SP         DIR          GR     
# ...
  1083.0000     17.9523    280.5613     18.2284     94.9243
  1083.2500     19.1350    280.4361     18.9384     94.4719
  1083.5000     20.6847    280.2556     19.6461     98.3275
  1083.7500     22.4418    280.0390     20.3293    103.2647
  1084.0000     24.1659    279.8089     20.9571    111.7972
  1084.2500     25.6352    279.5859     21.4989    116.6679
  1084.5000     26.7232    279.3864     21.9314    121.3851
  1084.7500     27.4084    279.2211     22.2449    123.0562
  1085.0000     27.7435    279.0957     22.4445    124.2923
  1085.2500     27.8221    279.0111     22.5488    124.2762
  1085.5000     27.7480    278.9638     22.5839    122.2003
  1085.7500     27.6061    278.9468     22.5787    119.3375
  1086.0000     27.4537    278.9516     22.5616    114.0586
  1086.2500     27.3420    278.9714     22.5602    111.0276
  1086.5000     27.3337    279.0035     22.6005    108.5921
  1086.7500     27.4874    279.0497     22.7068    108.5352
  1087.0000     27.8250    279.1143     22.9019    110.3382
  1087.2500     28.3230    279.2006     23.2115    112.3961
  1087.5000     28.9386    279.3072     23.6626    115.8927
  1087.7500     29.6439    279.4269     24.2710    117.6226
  1088.0000     30.4396    279.5483     25.0236    116.9467
  1088.2500     31.3458    279.6599     25.8753    112.9161
  1088.5000     32.4014    279.7543     26.7776    101.0382
  1088.7500     33.6713    279.8314     27.7200     90.7654
  1089.0000     35.2268    279.8970     28.7399     76.3136
  1089.2500     37.0854    279.9594     29.8730     69.4114
  1089.5000     39.1651    280.0251     31.0858     63.9263
  1089.7500     41.3115    280.0962     32.2578     62.6039
  1090.0000     43.3740    280.1691     33.2452     62.0904
  1090.2500     45.2559    280.2370     33.9697     61.9979
  1090.5000     46.8989    280.2926     34.4419     62.0226
  1090.7500     48.2425    280.3308     34.7092     62.4101
  1091.0000     49.2109    280.3517     34.8084     63.9601
  1091.2500     49.7396    280.3615     34.7687     65.4540
  1091.5000     49.8106    280.3716     34.6361     67.1820
  1091.7500     49.4706    280.3954     34.4762     67.2523
  1092.0000     48.8196    280.4449     34.3536     65.6107
  1092.2500     47.9744    280.5266     34.3072     64.1814
  1092.5000     47.0183    280.6422     34.3347     63.7956
  1092.7500     45.9587    280.7895     34.3861     65.7537
  1093.0000     44.7246    280.9644     34.3684     72.0057
  1093.2500     43.2209    281.1606     34.1747     77.2286
  1093.5000     41.4114    281.3673     33.7279     84.1079
  1093.7500     39.3643    281.5674     33.0098     87.3167
  1094.0000     37.2259    281.7367     32.0533     90.7507
  1094.2500     35.1527    281.8497     30.9104     93.0881
  1094.5000     33.2588    281.8869     29.6335     97.6304
  1094.7500     31.5976    281.8445     28.2805    101.1224
  1095.0000     30.1640    281.7394     26.9204    106.0002
  1095.2500     28.9083    281.6070     25.6212    108.5564
  1095.5000     27.7672    281.4899     24.4322    110.9309
  1095.7500     26.7065    281.4219     23.3810    111.2492
  1096.0000     25.7458    281.4126     22.4860    109.6810
  1096.2500     24.9404    281.4425     21.7666    107.9892
  1096.5000     24.3256    281.4723     21.2354    106.8262
  1096.7500     23.8680    281.4622     20.8780    107.8397
  1097.0000     23.4573    281.3907     20.6345    111.1463
  1097.2500     22.9522    281.2635     20.4067    113.1290
  1097.5000     22.2605    281.1081     20.0989    114.0349
  1097.7500     21.4065    280.9597     19.6732    113.2436
  1098.0000     20.5303    280.8458     19.1728    111.2103
  1098.2500     19.8036    280.7780     18.6839    110.3719
  1098.5000     19.3248    280.7502     18.2715    111.8359
  1098.7500     19.0722    280.7442     17.9440    115.3464
  1099.0000     18.9344    280.7372     17.6621    123.8561
  1099.2500     18.7815    280.7114     17.3736    130.2470
  1099.5000     18.5268    280.6598     17.0443    137.9260
  1099.7500     18.1543    280.5890     16.6714    140.7866
  1100.0000     17.7075    280.5163     16.2771    141.9349
  1100.2500     17.2520    280.4614     15.8964    141.3707
  1100.5000     16.8404    280.4379     15.5657    139.8374
  1100.7500     16.4980    280.4474     15.3166    138.9237
  1101.0000     16.2326    280.4795     15.1743    138.1839
  1101.2500     16.0565    280.5164     15.1565    138.0083
  1101.5000     16.0013    280.5398     15.2741    137.7074
  1101.7500     16.1156    280.5363     15.5310    137.2372
  1102.0000     16.4463    280.4991     15.9252    135.7193
  1102.2500     17.0162    280.4278     16.4504    133.6804
  1102.5000     17.8166    280.3265     17.0968    127.8780
  1102.7500     18.8196    280.2029     17.8507    121.7440
  1103.0000     20.0024    280.0694     18.6962    109.6991
  1103.2500     21.3652    279.9439     19.6159    100.6993
  1103.5000     22.9306    279.8492     20.5928     87.2781
  1103.7500     24.7176    279.8092     21.6129     78.8637
  1104.0000     26.6994    279.8423     22.6677     67.3414
  1104.2500     28.7749    279.9548     23.7520     60.5334
  1104.5000     30.7848    280.1361     24.8560     52.0751
  1104.7500     32.5759    280.3613     25.9564     47.9612
  1105.0000     34.0691    280.5975     27.0152     44.5112
  1105.2500     35.2810    280.8138     27.9891     43.9531
  1105.5000     36.2880    280.9891     28.8443     45.0757
  1105.7500     37.1657    281.1159     29.5692     46.6890
  1106.0000     37.9534    281.1994     30.1778     49.7984
  1106.2500     38.6643    281.2530     30.7014     51.9546
  1106.5000     39.3132    281.2922     31.1690     54.4515
  1106.7500     39.9285    281.3297     31.5898     55.0780
  1107.0000     40.5480    281.3724     31.9510     53.7930
  1107.2500     41.2123    281.4214     32.2399     51.4485
  1107.5000     41.9525    281.4732     32.4709     46.5882
  1107.7500     42.7754    281.5233     32.6924     43.3457
  1108.0000     43.6559    281.5685     32.9650     39.9807
  1108.2500     44.5465    281.6077     33.3274     39.3241
  1108.5000     45.3921    281.6391     33.7763     41.1351
  1108.7500     46.1453    281.6586     34.2677     44.1157
  1109.0000     46.7782    281.6586     34.7345     50.4211
  1109.2500     47.2908    281.6304     35.1139     54.9829
  1109.5000     47.7121    281.5690     35.3734     60.6713
  1109.7500     48.0941    281.4771     35.5241     62.9875
  1110.0000     48.5012    281.3646     35.6094     64.0887
  1110.2500     48.9939    281.2445     35.6776     63.6873
  1110.5000     49.6030    281.1263     35.7595     62.2993
  1110.7500     50.3084    281.0131     35.8657     61.0892
  1111.0000     51.0367    280.9024     35.9956     58.7790
  1111.2500     51.6865    280.7909     36.1471     56.8740
  1111.5000     52.1668    280.6783     36.3173     53.7373
  1111.7500     52.4233    280.5690     36.5051     51.7130
  1112.0000     52.4406    280.4685     36.7139     49.0453
  1112.2500     52.2284    280.3811     36.9472     47.5341
  1112.5000     51.8146    280.3060     37.2014     45.7362
  1112.7500     51.2525    280.2370     37.4635     45.0214
  1113.0000     50.6224    280.1646     37.7338     45.0307
  1113.2500     50.0067    280.0784     38.0560     45.8320
  1113.5000     49.4522    279.9704     38.5121     48.0508
  1113.7500     48.9549    279.8369     39.1495     50.0400
  1114.0000     48.4814    279.6795     39.8648     53.4918
  1114.2500     48.0045    279.5041     40.3463     55.8359
  1114.5000     47.5240    279.3199     40.2077     58.6404
  1114.7500     47.0590    279.1371     39.2860     59.5331
  1115.0000     46.6294    278.9647     37.8009     58.9425
  1115.2500     46.2423    278.8080     36.1737     57.3702
  1115.5000     45.8880    278.6672     34.7469     53.9016
  1115.7500     45.5399    278.5375     33.6786     51.2982
  1116.0000     45.1581    278.4123     32.9924     47.5709
  1116.2500     44.6927    278.2878     32.6470     45.5172
