~Version Information
VERS.                      2.0: CWLS Log ASCII Standard - VERSION 2.0
WRAP.                       NO: One line per depth step
~Well Information Block
STRT.FT               238.0000: 
STOP.FT              1377.0000: 
STEP.FT                 0.1000: 
NULL.                -999.2500: 
COMP.          Pioneer Natural Resources: COMPANY
WELL.             Raptor 44-26: WELL
FLD.           Purgatoire River: FIELD
LOC.           180' FSL & 812' FEL: LOCATION
PROV.                 Colorado: PROVINCE
CNTY.               Las Animas: COUNTRY
SRVC.                Patterson: SERVICE COMPANY
DATE.          Tue Mar 22 15:28:33 2005: LOG DATE
UWI.           05 071 08187 00: UNIQUE WELL ID
~Curve Information Block
DEPT.FT            0 000 00 00: Depth
DCAL.in                       : CDL Caliper
RHOB.g/cc                     : CDL Bulk Density
RHOC.g/cc                     : CDL Density Correction
DPOR.pu                       : CDL Density Porosity
GR.GAPI                       : Gamma Ray
NPOR.pu                       : Neutron Porosity
~Parameter Information Block
~A  Depth       DCAL        RHOB        RHOC        DPOR         GR         NPOR    
# ...
   910.0000      7.8683      2.5268      0.0242      7.4668     56.3269     21.8789
   910.1000      7.8683      2.5280     -0.0287      7.3926     57.0703     21.2291
   910.2000      7.8683      2.5245      0.0458      7.6058     58.0573     20.8323
   910.3000      7.8747      2.5114      0.0480      8.3973     59.7173     21.1904
   910.4000      7.8747      2.4955     -0.0279      9.3651     62.1035     21.9561
   910.5000      7.8830      2.4894      0.0196      9.7334     62.5527     22.3472
   910.6000      7.8830      2.4934      0.0465      9.4898     59.7606     22.2618
   910.7000      7.8830      2.5053     -0.0058      8.7673     55.8106     22.2019
   910.8000      7.9205      2.5307     -0.0184      7.2305     53.4672     22.4788
   910.9000      7.9205      2.5630      0.0657      5.2730     53.1159     22.9692
   911.0000      7.9373      2.5790      0.0896      4.3007     54.4402     23.3538
   911.1000      7.9373      2.5666      0.0431      5.0539     56.7360     23.5005
   911.2000      7.9373      2.5371      0.0677      6.8422     57.9103     23.6144
   911.3000      7.9142      2.5098      0.0602      8.4942     56.9380     23.9123
   911.4000      7.9142      2.5000     -0.0173      9.0915     54.5678     24.3458
   911.5000      7.9025      2.5048      0.0636      8.7998     51.5054     24.7232
   911.6000      7.9025      2.5116     -0.0009      8.3892     48.4076     24.8344
   911.7000      7.9025      2.5270      0.0320      7.4553     47.4377     24.7952
   911.8000      7.8797      2.5565      0.0265      5.6658     48.4044     24.8681
   911.9000      7.8797      2.5833      0.0929      4.0409     49.6831     24.7473
   912.0000      7.8734      2.5885      0.0350      3.7248     52.4984     24.2302
   912.1000      7.8734      2.5756      0.0498      4.5094     55.8269     23.6387
   912.2000      7.8734      2.5621      0.0244      5.3263     57.9676     23.1650
   912.3000      7.8507      2.5547      0.0406      5.7770     60.1321     22.7884
   912.4000      7.8507      2.5461      0.0298      6.2947     61.8624     22.5803
   912.5000      7.8554      2.5345      0.0204      6.9979     60.6243     22.8622
   912.6000      7.8554      2.5289      0.0343      7.3377     55.9743     23.7456
   912.7000      7.8554      2.5310      0.0252      7.2111     53.0261     24.8115
   912.8000      7.8162      2.5335      0.0162      7.0606     54.7075     25.6247
   912.9000      7.8162      2.5500      0.0057      6.0576     56.4338     25.9321
   913.0000      7.8292      2.5994      0.0248      3.0660     55.2311     25.8522
   913.1000      7.8292      2.6628      0.1204     -0.7738     54.6676     25.8186
   913.2000      7.8292      2.7095      0.0831     -3.6057     56.9128     26.0965
   913.3000      7.8254      2.7324      0.1399     -4.9959     57.6436     26.6807
   913.4000      7.8254      2.7334      0.1457     -5.0568     55.1459     26.9732
   913.5000      7.8466      2.7167      0.1097     -4.0424     54.3810     26.5240
   913.6000      7.8466      2.6872      0.0530     -2.2571     58.4708     25.8070
   913.7000      7.8466      2.6525     -0.0137     -0.1536     63.2318     25.4949
   913.8000      7.8505      2.6233      0.0005      1.6179     65.5138     25.6452
   913.9000      7.8505      2.5957      0.0115      3.2912     70.2817     25.8546
   914.0000      7.8548      2.5677      0.0162      4.9875     81.0742     25.9706
   914.1000      7.8548      2.5509      0.0138      6.0068     93.6574     26.1894
   914.2000      7.8548      2.5497      0.0055      6.0795    104.5892     26.4702
   914.3000      7.8182      2.5515      0.1044      5.9687    115.6453     26.6216
   914.4000      7.8182      2.5379      0.1165      6.7936    125.7271     26.7558
   914.5000      7.8491      2.5114      0.0475      8.3985    130.2380     27.0302
   914.6000      7.8491      2.4922      0.0752      9.5640    129.9757     27.2808
   914.7000      7.8491      2.4919      0.0199      9.5822    129.6476     27.1796
   914.8000      7.8616      2.5149      0.0185      8.1898    130.4618     26.8239
   914.9000      7.8616      2.5575      0.0570      5.6040    130.4127     26.7330
   915.0000      7.8606      2.6038      0.1067      2.8014    129.8001     26.9191
   915.1000      7.8606      2.6310      0.1581      1.1544    131.0177     27.0974
   915.2000      7.8606      2.6270      0.1538      1.3930    132.8876     27.3532
   915.3000      7.8699      2.6034      0.1253      2.8227    132.5142     27.7413
   915.4000      7.8699      2.5862      0.0429      3.8682    131.3335     28.2001
   915.5000      7.8755      2.5934      0.0886      3.4288    133.7596     28.4955
   915.6000      7.8755      2.6143      0.1179      2.1610    137.1195     28.2406
   915.7000      7.8755      2.6259      0.0727      1.4586    137.3607     27.7372
   915.8000      7.8748      2.6162      0.0883      2.0473    134.6980     27.7339
   915.9000      7.8748      2.5878      0.0626      3.7675    127.1269     28.2198
   916.0000      7.8662      2.5572      0.0539      5.6219    118.2167     28.6192
   916.1000      7.8662      2.5401      0.0416      6.6631    117.0245     28.6323
   916.2000      7.8662      2.5393      0.0718      6.7085    122.2754     28.3459
   916.3000      7.8721      2.5514      0.0401      5.9770    126.5107     27.9845
   916.4000      7.8721      2.5647      0.0772      5.1689    127.1434     27.7639
   916.5000      7.8665      2.5673      0.0789      5.0127    125.2897     27.6844
   916.6000      7.8665      2.5660      0.0500      5.0928    124.7967     27.6428
   916.7000      7.8665      2.5627      0.1123      5.2901    127.6467     27.7175
   916.8000      7.8678      2.5388      0.0703      6.7416    133.7349     27.8188
   916.9000      7.8678      2.4945      0.0475      9.4265    142.5382     27.7710
   917.0000      7.8581      2.4613      0.0088     11.4394    149.0529     27.7323
   917.1000      7.8581      2.4648     -0.0280     11.2227    149.9498     27.9457
   917.2000      7.8581      2.4958      0.0211      9.3449    149.0981     28.3544
   917.3000      7.8709      2.5244      0.0736      7.6109    149.0023     28.5729
   917.4000      7.8709      2.5421      0.0303      6.5384    148.9344     28.4823
   917.5000      7.8843      2.5568      0.0619      5.6515    149.3972     28.2946
   917.6000      7.8843      2.5596      0.0849      5.4762    149.4825     28.0803
   917.7000      7.8843      2.5465      0.0423      6.2754    149.3303     27.8108
   917.8000      7.9206      2.5352      0.0042      6.9559    150.3522     27.4857
   917.9000      7.9206      2.5376      0.0219      6.8115    149.6535     27.1463
   918.0000      7.9238      2.5440      0.0353      6.4243    146.6741     26.9620
   918.1000      7.9238      2.5430     -0.0185      6.4825    146.4912     27.1311
   918.2000      7.9238      2.5380     -0.0123      6.7886    150.0324     27.6614
   918.3000      7.9252      2.5373      0.0009      6.8318    155.6432     28.3248
   918.4000      7.9252      2.5438     -0.0068      6.4365    161.9975     28.7523
   918.5000      7.9484      2.5528      0.0517      5.8934    164.1309     28.7936
   918.6000      7.9484      2.5555      0.0348      5.7247    158.0089     28.5981
   918.7000      7.9484      2.5451      0.0556      6.3582    148.0724     28.3289
   918.8000      7.9586      2.5178      0.0314      8.0105    142.1009     28.3619
   918.9000      7.9586      2.4906     -0.0202      9.6631    139.7979     28.7012
   919.0000      7.9688      2.4838      0.0136     10.0720    138.7237     28.7933
   919.1000      7.9688      2.4948      0.0069      9.4079    139.4909     28.6962
   919.2000      7.9688      2.5112      0.0422      8.4137    139.3397     28.7922
   919.3000      7.9627      2.5195      0.0304      7.9091    137.9763     29.0011
   919.4000      7.9627      2.5141      0.0081      8.2349    137.5947     29.0363
   919.5000      7.9484      2.5022      0.0051      8.9587    133.7990     28.8340
