~Version Information
VERS.                      2.0: CWLS Log ASCII Standard - VERSION 2.0
WRAP.                       NO: One line per depth step
~Well Information Block
STRT.FT               906.0000: 
STOP.FT              1960.5000: 
STEP.FT                 0.2500: 
NULL.                -999.2500: 
COMP.          Petrogulf Corporation: COMPANY
WELL.            Torcom 17-33R: WELL
FLD.           Purgatorie River: FIELD
LOC.           1483' FSL & 1804' FEL: LOCATION
PROV.                 Colorado: PROVINCE
CNTY.               Las Animas: COUNTRY
SRVC.                Patterson: SERVICE COMPANY
DATE.          Thu Aug 18 08:33:01 2005: LOG DATE
UWI.                071 08069 : UNIQUE WELL ID
~Curve Information Block
DEPT.FT            0 000 00 00: Depth
SP.mV                         : DIL Spontaneous Potential
RILD.Ohm-m                    : DIL Deep Resistivity
RILM.Ohm-m                    : DIL Medium Resistivity
RLL3.Ohm-m                    : DIL Shallow Resistivity
GR.GAPI                       : Gamma Ray
~Parameter Information Block
~A  Depth        SP         RILD        RILM        RLL3         GR     
# ...
  1942.0000     18.4822     31.9814     37.1240     39.8475    126.9826
  1942.2500     22.3290     29.3696     37.9202     37.0851    117.0177
  1942.5000     23.3541     27.0682     39.4714     37.1259     88.9463
  1942.7500     27.1136     27.5159     39.4410     41.8833     82.2573
  1943.0000     31.9497     26.3103     40.1330     47.0492     74.6297
  1943.2500     35.3792     26.0153     40.3880     49.5406     81.3208
  1943.5000     35.5998     25.2971     39.9594     48.6172     81.9227
  1943.7500     34.1627     24.0331     37.2148     41.9757     79.5011
  1944.0000     34.6940     22.6007     34.9780     34.7740     74.2260
  1944.2500     34.7235     21.5817     31.8732     32.7049     72.9521
  1944.5000     34.9290     20.7139     30.2020     35.8124     82.9361
  1944.7500     32.8797     19.8526     28.2048     37.5594     85.4900
  1945.0000     29.8398     19.1570     25.6912     31.5834     93.8674
  1945.2500     28.8500     19.1363     23.3747     23.2033    107.6053
  1945.5000     30.5856     19.0646     21.7465     17.9756    105.0918
  1945.7500     31.9696     18.7093     21.1296     15.8269     95.6486
  1946.0000     31.6118     19.5955     21.1937     15.1865     95.8698
  1946.2500     29.8530     19.7065     22.2164     17.7034     92.8053
  1946.5000     27.1243     19.4994     23.7825     24.4281     79.5406
  1946.7500     23.5934     19.3457     25.2084     30.5771     81.0972
  1947.0000     23.4670     18.6777     26.3825     33.3198     78.3238
  1947.2500     25.0096     18.4534     26.7211     32.2211     74.7897
  1947.5000     26.4696     18.1476     26.3694     31.4747     55.5810
  1947.7500     29.8653     17.7515     25.9404     31.5697      9.4631
  1948.0000     30.8754     17.7189     25.6130     31.3198      0.0094
  1948.2500     26.8608     17.5881     25.8140     29.4723   -999.2500
  1948.5000     24.4849     17.5338     25.8253     28.2763   -999.2500
  1948.7500     19.4515     19.7954     24.8301     29.3107   -999.2500
  1949.0000      2.2831    132.9521     23.6149     28.2879   -999.2500
  1949.2500      0.0056    508.0988     22.3857     23.6275   -999.2500
  1949.5000   -999.2500    348.9560     20.7054     19.3711   -999.2500
  1949.7500   -999.2500    347.0319     19.2512     17.1984   -999.2500
  1950.0000   -999.2500    335.8966     17.6018     17.1845   -999.2500
  1950.2500   -999.2500    332.6294     16.7230     17.1380   -999.2500
  1950.5000   -999.2500    327.7460     15.7873     16.8110   -999.2500
  1950.7500   -999.2500    321.2271     14.6601     15.9661   -999.2500
  1951.0000   -999.2500    321.2893     13.4055     14.8045   -999.2500
  1951.2500   -999.2500    318.8814     12.4951     13.8288   -999.2500
  1951.5000   -999.2500    317.9371     11.6595     13.4361   -999.2500
  1951.7500   -999.2500    360.5939     10.7875     12.6503   -999.2500
  1952.0000   -999.2500   3555.3572      9.9773     12.2245   -999.2500
  1952.2500   -999.2500 100000.0000      9.6241     11.3958   -999.2500
  1952.5000   -999.2500 100000.0000     10.3309     10.7954   -999.2500
  1952.7500   -999.2500 100000.0000     62.5112     10.7951   -999.2500
  1953.0000   -999.2500 100000.0000    195.1046     11.2843   -999.2500
  1953.2500   -999.2500 100000.0000   1286.3236     11.2364   -999.2500
  1953.5000   -999.2500 100000.0000   1287.3347     11.1222   -999.2500
  1953.7500   -999.2500 100000.0000   1238.4512     11.7582   -999.2500
  1954.0000   -999.2500 100000.0000   1178.0878     12.3093   -999.2500
  1954.2500   -999.2500 100000.0000   1117.6742     12.1493   -999.2500
  1954.5000   -999.2500 100000.0000   1034.8662     12.1311   -999.2500
  1954.7500   -999.2500 100000.0000    964.6454     12.2592   -999.2500
  1955.0000   -999.2500 100000.0000    894.4109     12.5267   -999.2500
  1955.2500   -999.2500 100000.0000    839.7438     12.4454   -999.2500
  1955.5000   -999.2500 100000.0000    792.3204     12.5454   -999.2500
  1955.7500   -999.2500 100000.0000    735.1504     12.4456   -999.2500
  1956.0000   -999.2500   -999.2500    671.8820     12.5763   -999.2500
  1956.2500   -999.2500   -999.2500    625.7291     12.7108   -999.2500
  1956.5000   -999.2500   -999.2500    583.3834     12.9489   -999.2500
  1956.7500   -999.2500   -999.2500    539.4696     13.3300   -999.2500
  1957.0000   -999.2500   -999.2500    498.8448     13.6654   -999.2500
  1957.2500   -999.2500   -999.2500    481.1948     13.8208   -999.2500
  1957.5000   -999.2500   -999.2500    516.4810     13.6743   -999.2500
  1957.7500   -999.2500   -999.2500   3227.4006     12.0414   -999.2500
  1958.0000   -999.2500   -999.2500  11297.2666      1.4356   -999.2500
  1958.2500   -999.2500   -999.2500 100000.0000      0.0035   -999.2500
  1958.5000   -999.2500   -999.2500 100000.0000   -999.2500   -999.2500
  1958.7500   -999.2500   -999.2500 100000.0000   -999.2500   -999.2500
  1959.0000   -999.2500   -999.2500 100000.0000   -999.2500   -999.2500
  1959.2500   -999.2500   -999.2500 100000.0000   -999.2500   -999.2500
  1959.5000   -999.2500   -999.2500 100000.0000   -999.2500   -999.2500
  1959.7500   -999.2500   -999.2500 100000.0000   -999.2500   -999.2500
  1960.0000   -999.2500   -999.2500 100000.0000   -999.2500   -999.2500
  1960.2500   -999.2500   -999.2500 100000.0000   -999.2500   -999.2500
  1960.5000   -999.2500   -999.2500 100000.0000   -999.2500   -999.2500
