~Version Information
VERS.                      2.0: CWLS Log ASCII Standard - VERSION 2.0
WRAP.                       NO: One line per depth step
~Well Information Block
STRT.FT               858.7000: 
STOP.FT              2478.2000: 
STEP.FT                 0.1000: 
NULL.                -999.2500: 
COMP.          Petrogulf Corporation: COMPANY
WELL.           Torcom 17-33 V: WELL
FLD.           Purgatoire River: FIELD
LOC.           1544' FSL & 1746' FEL: LOCATION
PROV.                 Colorado: PROVINCE
CNTY.               Las Animas: COUNTRY
SRVC.                Patterson: SERVICE COMPANY
DATE.          Wed Dec 03 09:22:08 2003: LOG DATE
UWI.                          : UNIQUE WELL ID
~Curve Information Block
DEPT.FT            0 000 00 00: Depth
DCAL.in                       : CDL Caliper
RHOB.g/cc                     : CDL Bulk Density
RHOC.g/cc                     : CDL Density Correction
DPOR.pu                       : CDL Density Porosity
GR.GAPI                       : Gamma Ray
NPOR.pu                       : Neutron Porosity
~Parameter Information Block
~A  Depth       DCAL        RHOB        RHOC        DPOR         GR         NPOR    
# ...
  1309.9000      8.2576      2.5654      0.0660      5.1262    148.1043     26.9690
  1310.0000      8.2483      2.5526      0.0760      5.9034    150.1529     27.5574
  1310.1000      8.2483      2.5171      0.0978      8.0516    154.1217     27.9226
  1310.2000      8.2483      2.4812     -0.0532     10.2294    155.2380     28.1232
  1310.3000      8.2394      2.4928     -0.0277      9.5298    153.5250     28.0128
  1310.4000      8.2394      2.5385      0.0955      6.7584    149.7840     27.5888
  1310.5000      8.2314      2.5608      0.0581      5.4046    142.7962     27.1156
  1310.6000      8.2314      2.5554      0.0220      5.7358    136.5472     26.6416
  1310.7000      8.2314      2.5523      0.1047      5.9192    134.0004     26.4879
  1310.8000      8.2556      2.5552      0.0435      5.7475    131.2198     26.9380
  1310.9000      8.2556      2.5468      0.1256      6.2526    129.8791     27.3972
  1311.0000      8.2252      2.5145      0.0877      8.2132    136.3135     27.5888
  1311.1000      8.2252      2.4839     -0.0628     10.0650    149.4708     27.8507
  1311.2000      8.2252      2.4920      0.0300      9.5732    162.0883     28.1221
  1311.3000      8.2321      2.5255      0.0459      7.5456    165.9729     27.6325
  1311.4000      8.2321      2.5461      0.0545      6.2992    163.2312     26.1386
  1311.5000      8.2495      2.5416      0.0211      6.5692    162.5873     24.6008
  1311.6000      8.2495      2.5273      0.0606      7.4363    164.8383     23.7566
  1311.7000      8.2495      2.5242      0.0390      7.6258    166.3335     23.3834
  1311.8000      8.2559      2.5360      0.1079      6.9100    164.9389     23.1056
  1311.9000      8.2559      2.5417      0.1037      6.5659    159.8177     22.8371
  1312.0000      8.2685      2.5343      0.0390      7.0115    154.8946     22.5746
  1312.1000      8.2685      2.5248      0.1209      7.5901    154.1009     22.1547
  1312.2000      8.2685      2.5097      0.0986      8.5046    154.6442     21.4258
  1312.3000      8.2704      2.4842      0.1101     10.0485    154.0186     20.5724
  1312.4000      8.2704      2.4607      0.0434     11.4752    154.3972     20.2110
  1312.5000      8.2745      2.4556      0.0814     11.7835    156.8399     20.4089
  1312.6000      8.2745      2.4667      0.1192     11.1066    156.3580     20.2377
  1312.7000      8.2745      2.4838      0.1159     10.0713    151.5403     19.1894
  1312.8000      8.3005      2.5104      0.1230      8.4635    153.0347     17.6268
  1312.9000      8.3005      2.5469      0.2500      6.2502    164.7350     15.9262
  1313.0000      8.3699      2.5762      0.2885      4.4747    175.0143     14.2937
  1313.1000      8.3699      2.5853      0.2563      3.9215    176.1311     13.0611
  1313.2000      8.3699      2.5675      0.2787      4.9980    168.9564     12.2732
  1313.3000      8.4088      2.5181      0.1808      7.9943    155.0077     11.8111
  1313.4000      8.4088      2.4532      0.1135     11.9299    142.6028     11.9620
  1313.5000      8.3219      2.3940      0.1253     15.5168    139.0371     12.8644
  1313.6000      8.3219      2.3346      0.1566     19.1140    138.2728     13.9344
  1313.7000      8.3219      2.2535      0.1498     24.0300    133.7840     15.0243
  1313.8000      8.3425      2.1431      0.0626     30.7231    129.4977     16.5636
  1313.9000      8.3425      2.0242      0.0050     37.9265    127.0629     17.8572
  1314.0000      8.3676      1.9240     -0.0287     43.9979    123.2879     18.1724
  1314.1000      8.3676      1.8418     -0.0155     48.9788    120.4478     18.3922
  1314.2000      8.3676      1.7673     -0.0532     53.4968    120.0443     19.5562
  1314.3000      8.3620      1.7206     -0.1019     56.3269    117.6684     21.5569
  1314.4000      8.3620      1.7317      0.0178     55.6534    113.6925     23.4034
  1314.5000      8.4300      1.8037      0.0977     51.2904    114.0280     24.6916
  1314.6000      8.4300      1.9194      0.1445     44.2799    118.2610     25.8996
  1314.7000      8.4300      2.0293      0.2688     37.6212    122.2254     27.0964
  1314.8000      8.3909      2.0757      0.2684     34.8077    125.3312     28.2759
  1314.9000      8.3909      2.0810      0.0462     34.4840    129.2358     29.2506
  1315.0000      8.3550      2.1144      0.0483     32.4620    131.7007     29.1752
  1315.1000      8.3550      2.1773      0.1376     28.6487    129.4120     27.9063
  1315.2000      8.3550      2.2303      0.1214     25.4341    126.3143     26.5845
  1315.3000      8.3057      2.2816      0.0141     22.3255    128.2411     26.1951
  1315.4000      8.3057      2.3535      0.1168     17.9674    136.4453     26.6008
  1315.5000      8.2877      2.4250      0.1400     13.6382    148.5342     27.1807
  1315.6000      8.2877      2.4713      0.1416     10.8275    159.3212     27.6208
  1315.7000      8.2877      2.4960      0.1738      9.3325    159.5502     27.7650
  1315.8000      8.2785      2.5103      0.1372      8.4682    147.6561     27.5131
  1315.9000      8.2785      2.5155      0.1744      8.1498    135.8098     27.1220
  1316.0000      8.2559      2.5027      0.0902      8.9302    131.0835     26.6606
  1316.1000      8.2559      2.4816      0.0278     10.2050    130.3065     25.9241
  1316.2000      8.2559      2.4860      0.0112      9.9375    134.9170     25.1090
  1316.3000      8.2712      2.5260      0.0706      7.5174    145.5905     24.7727
  1316.4000      8.2712      2.5621      0.1020      5.3289    153.8453     24.9176
  1316.5000      8.2772      2.5514      0.1087      5.9768    156.9422     24.8438
  1316.6000      8.2772      2.5078      0.0379      8.6176    158.6955     24.3495
  1316.7000      8.2772      2.4823      0.0410     10.1616    157.1339     23.8439
  1316.8000      8.2919      2.4906      0.1094      9.6585    153.5778     23.5548
  1316.9000      8.2919      2.5018      0.1128      8.9846    151.1868     23.3070
  1317.0000      8.3007      2.5002     -0.0236      9.0778    146.9317     23.0644
  1317.1000      8.3007      2.4989      0.0802      9.1574    143.7659     22.8197
  1317.2000      8.3007      2.4946      0.0979      9.4192    148.3079     22.5033
  1317.3000      8.2875      2.4874      0.0273      9.8530    153.5300     22.6218
  1317.4000      8.2875      2.4891      0.0743      9.7523    150.0987     23.3015
  1317.5000      8.3170      2.4833      0.1164     10.1038    142.6381     23.9545
  1317.6000      8.3170      2.4558      0.0989     11.7711    139.5082     24.3056
  1317.7000      8.3170      2.4243      0.1199     13.6758    139.4835     24.3437
  1317.8000      8.3062      2.4007      0.0931     15.1061    138.2669     24.2297
  1317.9000      8.3062      2.3785      0.1069     16.4516    135.1569     24.2026
  1318.0000      8.3426      2.3625      0.0406     17.4261    131.4929     24.2180
  1318.1000      8.3426      2.3632      0.1149     17.3829    132.8754     24.1399
  1318.2000      8.3426      2.3744      0.0216     16.7037    141.1030     24.0250
  1318.3000      8.3374      2.4012      0.0665     15.0794    148.9747     24.0006
  1318.4000      8.3374      2.4540      0.1605     11.8803    151.9409     24.1454
  1318.5000      8.3099      2.5125      0.1718      8.3318    153.0293     24.4919
  1318.6000      8.3099      2.5491      0.2599      6.1124    152.7470     24.9127
  1318.7000      8.3099      2.5643      0.2100      5.1913    151.3441     25.1803
  1318.8000      8.3047      2.5726      0.2046      4.6888    152.8662     25.4340
  1318.9000      8.3047      2.5682      0.2341      4.9568    156.6905     25.8548
  1319.0000      8.2672      2.5452      0.1774      6.3520    161.5328     26.2412
  1319.1000      8.2672      2.5267      0.0601      7.4730    168.4130     26.1628
  1319.2000      8.2672      2.5262      0.1395      7.5041    169.5637     25.6842
  1319.3000      8.3000      2.5228      0.0733      7.7086    160.4836     25.4256
  1319.4000      8.3000      2.5055      0.0601      8.7592    151.5895     25.4523
