~Version Information
 VERS.                                  2.0 : CWLS LAS VERSION
 WRAP.                                   NO : WRAPING MODE
 SWARE .                 MController 2.5.0N : SOFTWARE VERSION
~Well Information
 WELL.                        Paradise 13-8 : WELL
 COMP.        Pioneer Natural Resources Inc : COMPANY
 FLD.                      Purgatoire River : FIELD
 LOC.                 NW/SW Sec 8 T32S R66W : LOCATION
 DATE.                           1/21-22/05 : DATE(S) LOGGED
 SRVC.       Blanco Geological Services LLC : SERVICE COMPANY
 STAT.                                   CO : STATE
 CNTY.                           Las Animas : COUNTY
 CTRY.                                  USA : COUNTRY
 API.                       05-071-07946-00 : API NUMBER
 STRT.FT                             855.00 : START DEPTH
 STOP.FT                            3151.00 : STOP DEPTH
 STEP.FT                               1.00 : DEPTH INCREMENT
 NULL.                                -9999 : NULL VALUE
~Curve information
 DEPTH.FT                                   :
 ROP.MIN/FT                                 :
 GAS.UNITS                                  :
~ASCII Log data
# ...
      1055.0         0.37          4.7 
      1056.0         0.33          4.7 
      1057.0         0.27          4.5 
      1058.0         0.33          4.2 
      1059.0         0.30          4.3 
      1060.0         0.33          3.4 
      1061.0         0.33          2.3 
      1062.0         0.32          0.9 
      1063.0         0.33          0.8 
      1064.0         0.33          0.7 
      1065.0         0.33          0.6 
      1066.0         0.33          0.6 
      1067.0         0.33          1.0 
      1068.0         0.30          2.1 
      1069.0         0.37          7.3 
      1070.0         0.33          6.7 
      1071.0         0.33          5.3 
      1072.0         0.38          2.8 
      1073.0         0.40          1.6 
      1074.0         0.40          0.3 
      1075.0         0.37          0.5 
      1076.0         0.37          0.6 
      1077.0         0.37          0.8 
      1078.0         0.30          0.8 
      1079.0         0.37          0.4 
      1080.0         0.37          0.8 
      1081.0         0.35          1.2 
      1082.0         0.30          0.6 
      1083.0         0.23          1.3 
      1084.0         7.43         49.7 
      1085.0         0.80          1.0 
      1086.0         0.57          1.7 
      1087.0         0.52          2.1 
      1088.0         0.60          1.5 
      1089.0         0.60          1.2 
      1090.0         0.67          2.5 
      1091.0         0.70          2.2 
      1092.0         0.78          2.9 
      1093.0         0.67          1.9 
      1094.0         0.80          2.7 
      1095.0         0.80          3.5 
      1096.0         0.80          3.3 
      1097.0         1.05          2.6 
      1098.0         1.13          1.8 
      1099.0         0.80          2.7 
      1100.0         0.88          5.1 
      1101.0         0.93          7.0 
      1102.0         0.83          7.3 
      1103.0         0.80          1.7 
      1104.0         0.88          1.9 
      1105.0         1.03          2.4 
      1106.0         0.50          1.1 
      1107.0         0.50          1.9 
      1108.0         0.43          2.2 
      1109.0         0.37          3.0 
      1110.0         0.42          4.6 
      1111.0         0.43          7.2 
      1112.0         0.40          8.9 
      1113.0         0.40         10.9 
      1114.0         9.42        124.6 
      1115.0         0.53          2.0 
      1116.0         0.37          2.0 
      1117.0         0.33          2.0 
      1118.0         0.37          2.0 
      1119.0         0.40          1.9 
      1120.0         0.37          1.9 
      1121.0         0.48          2.1 
      1122.0         0.47          2.3 
      1123.0         0.53          2.5 
      1124.0         0.30          1.8 
      1125.0         0.30          1.7 
      1126.0         0.33          1.8 
      1127.0         0.30          1.8 
      1128.0         0.33          1.7 
      1129.0         0.30          1.6 
      1130.0         0.35          1.7 
      1131.0         0.43          2.0 
      1132.0         0.33          1.9 
      1133.0         0.30          2.5 
      1134.0         0.30          2.8 
      1135.0         0.23          2.8 
      1136.0         0.23          3.8 
      1137.0         0.27          4.0 
      1138.0         0.27          5.0 
      1139.0         0.33          6.0 
      1140.0         0.30          7.8 
      1141.0         0.35          8.4 
      1142.0         0.30         10.5 
      1143.0         0.30         10.6 
      1144.0         8.87        126.4 
      1145.0         0.72          2.1 
      1146.0         0.53          2.2 
      1147.0         0.80          4.6 
      1148.0         0.70          5.0 
      1149.0         0.70          3.8 
      1150.0         0.78          2.7 
      1151.0         0.80          3.9 
      1152.0         0.83          3.4 
      1153.0         0.70          2.1 
      1154.0         0.65          2.1 
      1155.0         0.53          2.0 
      1156.0         0.50          3.9 
      1157.0         0.30          5.9 
      1158.0         0.30          8.0 
      1159.0         0.37         10.3 
      1160.0         0.30         10.8 
      1161.0         0.37          9.8 
      1162.0         0.37          7.5 
      1163.0         0.28          7.0 
      1164.0         0.27          7.9 
      1165.0         0.27          8.9 
      1166.0         0.27         10.5 
      1167.0         0.27         11.7 
      1168.0         0.33         12.6 
      1169.0         0.37         14.6 
      1170.0         0.37         15.8 
      1171.0         0.50         18.5 
      1172.0         0.33         19.4 
      1173.0         0.35         22.8 
      1174.0         8.27         72.7 
      1175.0         0.60         10.2 
      1176.0         0.53         13.0 
      1177.0         0.37         14.1 
      1178.0         0.35         14.9 
      1179.0         0.40         15.9 
      1180.0         0.40         17.6 
      1181.0         0.40         21.0 
      1182.0         0.40         23.2 
      1183.0         0.40         24.2 
      1184.0         0.33         25.3 
      1185.0         0.37         22.7 
      1186.0         0.30         22.8 
      1187.0         0.32         21.2 
      1188.0         0.27         16.2 
      1189.0         0.30         15.7 
      1190.0         0.27          5.3 
      1191.0         0.30          5.4 
      1192.0         0.27         12.4 
      1193.0         0.23         20.1 
      1194.0         0.27         25.4 
      1195.0         0.30         30.6 
      1196.0         0.27         34.7 
      1197.0         0.33         35.9 
      1198.0         0.32         38.6 
      1199.0         0.37         42.7 
      1200.0         0.37         46.0 
      1201.0         0.33         51.7 
      1202.0         0.37         56.7 
      1203.0         0.23         59.8 
      1204.0         7.83        203.3 
      1205.0         0.50          1.8 
      1206.0         0.52          1.5 
      1207.0         0.47          1.5 
      1208.0         0.43          2.5 
      1209.0         0.40          3.5 
      1210.0         0.37          5.6 
      1211.0         0.40          6.5 
      1212.0         0.40          7.6 
      1213.0         0.48          8.2 
      1214.0         0.53          7.6 
      1215.0         0.50          8.2 
      1216.0         0.53         11.1 
      1217.0         0.47         13.0 
      1218.0         0.43          9.8 
      1219.0         0.33          9.4 
      1220.0         0.40          4.1 
      1221.0         0.38          2.7 
      1222.0         0.33          4.1 
      1223.0         0.27          7.1 
      1224.0         0.30         10.3 
      1225.0         0.27         13.4 
      1226.0         0.30         17.1 
      1227.0         0.27         20.3 
      1228.0         0.27         23.0 
      1229.0         0.27         25.8 
      1230.0         0.23         29.8 
      1231.0         0.27         32.8 
      1232.0         0.35         38.9 
      1233.0         0.23         38.9 
      1234.0         6.80        201.9 
      1235.0         0.50          1.8 
      1236.0         0.40          2.0 
      1237.0         0.47          2.5 
      1238.0         0.43          2.3 
      1239.0         0.50          2.2 
      1240.0         0.47          2.2 
      1241.0         0.58          1.8 
      1242.0         0.53          2.5 
      1243.0         0.47          3.3 
      1244.0         0.40          4.4 
      1245.0         0.40          4.8 
      1246.0         0.50          4.8 
      1247.0         0.43          4.1 
      1248.0         0.48          3.0 
      1249.0         0.50          2.1 
      1250.0         0.53          1.5 
      1251.0         0.40          2.1 
      1252.0         0.33          3.2 
      1253.0         0.37          3.3 
      1254.0         0.40          4.9 
