~Version Information
VERS.                      2.0: CWLS Log ASCII Standard - VERSION 2.0
WRAP.                       NO: One line per depth step
~Well Information Block
STRT.FT               -14.0000: 
STOP.FT              2565.5000: 
STEP.FT                 0.5000: 
NULL.                -999.2500: 
COMP.          Pioneer Natural Resources: COMPANY
WELL.             Carbon 34-21: WELL
FLD.           Purgatorie River: FIELD
LOC.           56' FSL & 2304' FEL: LOCATION
PROV.                 Colorado: PROVINCE
CNTY.               Las Animas: COUNTRY
SRVC.          Patterson Wireline: SERVICE COMPANY
DATE.          Mon Nov 08 08:55:10 2004: LOG DATE
UWI.           05-071-08117-00: UNIQUE WELL ID
~Curve Information Block
DEPT.FT            0 000 00 00: Depth
TT3.usec                      : CBL 3' Travel Time
AMP3.mV                       : CBL 3' Amplitude
GR.GAPI                       : Gamma Ray
CCL.                          : Casing Collar Locator
~Parameter Information Block
~A  Depth       TT3         AMP3         GR         CCL     
# ...
  2197.0000    564.7481      3.1797    133.6553      0.0000
  2197.5000    584.5147      3.2901    132.6343      0.0000
  2198.0000    554.2415      3.3913    129.2770      0.0000
  2198.5000    499.6515      3.4567    126.0934      0.0000
  2199.0000    472.7740      3.5459    128.1719      0.0000
  2199.5000    463.3676      3.6163    126.5216      0.0000
  2200.0000    458.2204      3.6141    121.2384      0.0000
  2200.5000    455.1227      3.5590    122.2919      0.0000
  2201.0000    448.6639      3.4707    123.1494      0.0000
  2201.5000    433.5580      3.4520    117.6020      0.0000
  2202.0000    417.8368      3.6132    109.4308      0.0000
  2202.5000    429.8499      3.8120     98.9762      0.0000
  2203.0000    472.0909      3.9489     85.8741      0.0000
  2203.5000    517.3444      3.9580     82.4539      0.0000
  2204.0000    578.0159      3.7169     86.1529      0.0000
  2204.5000    615.0686      3.4008     85.4922      0.0000
  2205.0000    588.7622      3.1730     79.1139      0.0000
  2205.5000    561.2917      3.0710     70.1924      0.0000
  2206.0000    565.1272      3.0087     64.3606      0.0000
  2206.5000    564.9700      2.8959     55.2869      0.0000
  2207.0000    552.8788      2.8682     43.3989      0.0000
  2207.5000    550.9267      2.9971     36.0009      0.0000
  2208.0000    553.7643      3.1571     37.1125      0.0000
  2208.5000    561.7745      3.2794     46.8765      0.0000
  2209.0000    604.6105      3.2998     65.1015      0.0000
  2209.5000    657.9515      3.1687     94.0348      0.0000
  2210.0000    682.3717      2.9849    128.0942      0.0000
  2210.5000    688.9162      2.8895    149.7036      0.0000
  2211.0000    693.8326      2.9543    148.5445      0.0000
  2211.5000    698.9819      3.0550    134.4025      0.0000
  2212.0000    697.2858      3.1203    121.8585      0.0000
  2212.5000    689.5076      3.2387    120.1601      0.0000
  2213.0000    688.2261      3.3148    127.4941      0.0000
  2213.5000    693.5576      3.1366    136.6905      0.0000
  2214.0000    698.2842      2.8748    136.4972      0.0000
  2214.5000    699.9020      2.7764    129.8320      0.0000
  2215.0000    698.9108      2.7493    125.1439      0.0000
  2215.5000    701.1733      2.7090    119.6452      0.0000
  2216.0000    703.1519      2.6373    117.0601      0.0000
  2216.5000    701.4521      2.5920    115.2564      0.0000
  2217.0000    697.7399      2.5701    109.9237      0.0000
  2217.5000    701.6613      2.4979    107.5921      0.0000
  2218.0000    710.0937      2.4351    107.2421      0.0000
  2218.5000    706.2851      2.3647     99.7474      0.0000
  2219.0000    700.0228      2.1944     88.4979      0.0000
  2219.5000    694.6144      1.9323     84.9396      0.0000
  2220.0000    660.0163      1.7096     86.0975      0.0000
  2220.5000    595.8397      1.7037     78.9523      0.0000
  2221.0000    568.7480      1.8717     63.4012      0.0000
  2221.5000    620.8730      1.9670     55.0214      0.0000
  2222.0000    682.9360      1.9441     55.7236      0.0000
  2222.5000    690.2855      1.9174     57.1688      0.0000
  2223.0000    663.1976      1.8875     58.3166      0.0000
  2223.5000    663.7573      1.8676     62.6308      0.0000
  2224.0000    693.4698      1.9004     70.2693      0.0000
  2224.5000    706.0922      1.9237     75.4592      0.0000
  2225.0000    704.5443      1.8939     72.5393      0.0000
  2225.5000    703.4885      1.8147     67.3160      0.0000
  2226.0000    702.7874      1.7255     65.6654      0.0000
  2226.5000    695.7520      1.6627     67.0069      0.0000
  2227.0000    685.8665      1.6238     67.6612      0.0000
  2227.5000    680.6806      1.5484     67.5123      0.0000
  2228.0000    679.6799      1.4833     64.5924      0.0000
  2228.5000    679.6566      1.4962     63.4177      0.0000
  2229.0000    679.8803      1.6038     62.1212      0.0000
  2229.5000    680.9235      1.7267     59.3111      0.0000
  2230.0000    683.2955      1.8186     58.6135      0.0000
  2230.5000    688.5776      1.7923     56.5604      0.0000
  2231.0000    696.4747      1.7197     50.9329      0.0000
  2231.5000    703.4072      1.8068     46.3917      3.1293
  2232.0000    703.9459      1.8705     43.3496      0.0000
  2232.5000    698.8827      1.9010     38.5798      0.0000
  2233.0000    696.9039      2.0217     37.1680      0.0000
  2233.5000    698.2597      2.1311     43.7905      0.0000
  2234.0000    693.9609      2.0757     52.3791      0.0000
  2234.5000    686.8671      1.9506     57.0316      0.0000
  2235.0000    686.5469      1.8865     58.6781      0.0000
  2235.5000    690.8417      1.7884     61.7616      0.0000
  2236.0000    691.1412      1.6450     65.5832      0.0000
  2236.5000    687.8129      1.5654     67.5555      0.0000
  2237.0000    683.6426      1.5671     69.1747      0.0000
  2237.5000    682.1691      1.5393     70.0510      0.0000
  2238.0000    687.9315      1.4431     71.2931      0.0000
  2238.5000    691.0360      1.4365     70.8571      0.0000
  2239.0000    685.8621      1.5837     68.3226      0.0000
  2239.5000    680.3187      1.7159     68.3247      0.0000
  2240.0000    679.7793      1.7414     77.4247      0.0000
  2240.5000    685.3098      1.8020     94.9285      0.0000
  2241.0000    687.8067      1.9601    113.7864      0.0000
  2241.5000    685.3917      2.1191    124.6415      0.0000
  2242.0000    686.6620      2.2239    124.9423      0.0000
  2242.5000    691.3844      2.2556    118.6250      0.0000
  2243.0000    693.7585      2.2762    117.4125      0.0000
  2243.5000    688.9258      2.3208    119.7939      0.0000
  2244.0000    676.9880      2.3757    117.3961      0.0000
  2244.5000    661.0841      2.4144    110.1696      0.0000
  2245.0000    620.3532      2.4379    103.8435      0.0000
  2245.5000    544.8348      2.3709     99.2687      0.0000
  2246.0000    522.7423      2.2358     91.6435      0.0000
  2246.5000    601.1777      2.1147     87.2881      0.0000
  2247.0000    690.0349      1.9975     94.9436      0.0000
  2247.5000    734.7060      1.9634    111.1114      0.0000
  2248.0000    733.4399      2.0035    121.7887      0.0000
  2248.5000    709.7725      2.1063    124.2738      0.0000
  2249.0000    699.2465      2.3200    132.8229      0.0000
  2249.5000    696.8889      2.4597    145.8861      0.0000
  2250.0000    692.4600      2.3990    151.4046      0.0000
  2250.5000    693.5901      2.3639    151.0771      0.0000
  2251.0000    692.6343      2.3555    147.9041      0.0000
  2251.5000    680.3496      2.3935    139.1336      0.0000
  2252.0000    667.2905      2.5128    129.5057      0.0000
  2252.5000    657.7131      2.4981    121.7932      0.0000
  2253.0000    642.5403      2.3729    116.8731      0.0000
  2253.5000    636.1083      2.2668    119.1065      0.0000
  2254.0000    658.4321      2.2128    127.7856      0.0000
  2254.5000    674.2645      2.1543    132.3585      0.0000
  2255.0000    676.1836      2.0505    130.2845      0.0000
  2255.5000    685.7135      1.9743    126.1903      0.0000
  2256.0000    696.7458      1.9703    122.8446      0.0000
  2256.5000    705.5162      1.9629    119.7426      0.0000
  2257.0000    707.9587      1.9601    121.5650      0.0000
  2257.5000    701.7567      2.0221    123.0935      0.0000
  2258.0000    696.7763      2.0422    117.4833      0.0000
  2258.5000    694.9536      1.9960    111.5835      0.0000
  2259.0000    694.1522      1.9953    112.8397      0.0000
  2259.5000    694.5581      2.0338    122.3384      0.0000
  2260.0000    697.4855      2.1408    129.7456      0.0000
  2260.5000    703.9026      2.2480    128.2691      0.0000
  2261.0000    710.7580      2.2229    128.4064      0.0000
  2261.5000    713.7026      2.2108    132.5574      0.0000
  2262.0000    705.8077      2.2508    133.3857      0.0000
  2262.5000    686.5709      2.2097    128.2359      0.0000
  2263.0000    635.8280      2.1382    114.3187      0.0000
  2263.5000    545.0574      2.0978     99.7285      0.0000
