~Version Information
VERS.                      2.0: CWLS Log ASCII Standard - VERSION 2.0
WRAP.                       NO: One line per depth step
~Well Information Block
STRT.FT               480.0000: 
STOP.FT              1629.0000: 
STEP.FT                 0.2500: 
NULL.                -999.2500: 
COMP.          Pioneer Natural Resources: COMPANY
WELL.          Dude Canyon 22-32 Tr: WELL
FLD.           Purgatoire River: FIELD
LOC.           1741' FNL & 2331' FWL: LOCATION
PROV.                 Colorado: PROVINCE
CNTY.               Las Animas: COUNTRY
SRVC.                Patterson: SERVICE COMPANY
DATE.          Sat Jul 09 01:36:28 2005: LOG DATE
UWI.           05 071 08421 00: UNIQUE WELL ID
~Curve Information Block
DEPT.FT            0 000 00 00: Depth
SN.Ohm-m                      : IEL Short Normal
SP.mV                         : IEL Spontaneous Potential
DIR.Ohm-m                     : IEL Induction Resistivity
GR.GAPI                       : Gamma Ray
~Parameter Information Block
~A  Depth        SN          SP         DIR          GR     
   480.0000   2000.0000   2000.0000      6.9428    150.1219
   480.2500   2000.0000   2000.0000      6.9080    150.1098
   480.5000   2000.0000   2000.0000      6.8667    147.7692
   480.7500   2000.0000   2000.0000      6.8226    145.3868
   481.0000   2000.0000   2000.0000      6.7769    142.2924
   481.2500   2000.0000   2000.0000      6.7304    140.8637
   481.5000   2000.0000   2000.0000      6.6854    139.0130
   481.7500   2000.0000   2000.0000      6.6481    137.7096
   482.0000   2000.0000   2000.0000      6.6267    136.2822
   482.2500   2000.0000   2000.0000      6.6276    136.2146
   482.5000   2000.0000   2000.0000      6.6514    137.3031
   482.7500   2000.0000   2000.0000      6.6912    138.1015
   483.0000   2000.0000   2000.0000      6.7340    138.2589
   483.2500   2000.0000   2000.0000      6.7665    137.5470
   483.5000   2000.0000   2000.0000      6.7808    135.6694
   483.7500   2000.0000   2000.0000      6.7774    133.9487
   484.0000   2000.0000   2000.0000      6.7632    130.1534
   484.2500   2000.0000   2000.0000      6.7459    126.5300
   484.5000   2000.0000   2000.0000      6.7299    119.7243
   484.7500   2000.0000   2000.0000      6.7165    114.7528
   485.0000   2000.0000   2000.0000      6.7064    107.2376
   485.2500   2000.0000   2000.0000      6.7032    102.2145
   485.5000   2000.0000   2000.0000      6.7127     94.4842
   485.7500   2000.0000   2000.0000      6.7404     89.2201
   486.0000   2000.0000   2000.0000      6.7868     81.5121
   486.2500   2000.0000   2000.0000      6.8458     76.7632
   486.5000   2000.0000   2000.0000      6.9063     70.7281
   486.7500   2000.0000   2000.0000      6.9576     67.9206
   487.0000   2000.0000   2000.0000      6.9943     66.5118
   487.2500   2000.0000   2000.0000      7.0178     67.5464
   487.5000   2000.0000   2000.0000      7.0331     70.8204
   487.7500   2000.0000   2000.0000      7.0451     73.0112
   488.0000   2000.0000   2000.0000      7.0561     74.9930
   488.2500   2000.0000   2000.0000      7.0660     75.3818
   488.5000   2000.0000   2000.0000      7.0716     75.1950
   488.7500   2000.0000   2000.0000      7.0669     74.8108
   489.0000   2000.0000   2000.0000      7.0437     73.5164
   489.2500   2000.0000   2000.0000      6.9961     71.7830
   489.5000   2000.0000   2000.0000      6.9266     67.8295
   489.7500   2000.0000   2000.0000      6.8469     64.7751
   490.0000   2000.0000   2000.0000      6.7729     60.5990
   490.2500   2000.0000   2000.0000      6.7176     58.4699
   490.5000   2000.0000   2000.0000      6.6871     56.6043
   490.7500   2000.0000   2000.0000      6.6816     56.3727
   491.0000   2000.0000   2000.0000      6.6983     57.5146
   491.2500   2000.0000   2000.0000      6.7335     58.9732
   491.5000   2000.0000   2000.0000      6.7827     61.3306
   491.7500   2000.0000   2000.0000      6.8384     62.5271
   492.0000   2000.0000   2000.0000      6.8901     63.2652
   492.2500   2000.0000   2000.0000      6.9265     62.9646
   492.5000   2000.0000   2000.0000      6.9406     61.5017
   492.7500   2000.0000   2000.0000      6.9340     60.1685
   493.0000   2000.0000   2000.0000      6.9156     58.3705
   493.2500   2000.0000   2000.0000      6.8967     57.6446
   493.5000   2000.0000   2000.0000      6.8849     57.4055
   493.7500   2000.0000   2000.0000      6.8818     57.6128
   494.0000   2000.0000   2000.0000      6.8842     57.8914
   494.2500   2000.0000   2000.0000      6.8867     57.8515
   494.5000   2000.0000   2000.0000      6.8847     57.7203
   494.7500   2000.0000   2000.0000      6.8772     57.9569
   495.0000   2000.0000   2000.0000      6.8675     59.0871
   495.2500   2000.0000   2000.0000      6.8615     60.1360
   495.5000   2000.0000   2000.0000      6.8625     61.4844
   495.7500   2000.0000   2000.0000      6.8659     62.0177
   496.0000   2000.0000   2000.0000      6.8591     62.4229
   496.2500   2000.0000   2000.0000      6.8290     62.6577
   496.5000   2000.0000   2000.0000      6.7731     63.1408
   496.7500   2000.0000   2000.0000      6.7048     63.5427
   497.0000   2000.0000   2000.0000      6.6480     64.4047
   497.2500   2000.0000   2000.0000      6.6235     65.3026
   497.5000   2000.0000   2000.0000      6.6369     66.9286
   497.7500   2000.0000   2000.0000      6.6743     67.7166
   498.0000   2000.0000   2000.0000      6.7101     67.7891
   498.2500   2000.0000   2000.0000      6.7214     67.2710
   498.5000   2000.0000   2000.0000      6.7020     66.7065
   498.7500   2000.0000   2000.0000      6.6640     66.9710
   499.0000   2000.0000   2000.0000      6.6315     68.2048
   499.2500   2000.0000   2000.0000      6.6339     69.0543
   499.5000   2000.0000   2000.0000      6.7033     69.6100
   499.7500   2000.0000   2000.0000      6.8694     69.5277
   500.0000   2000.0000   2000.0000      7.1466     69.2663
   500.2500   2000.0000   2000.0000      7.5121     69.1269
   500.5000   2000.0000   2000.0000      7.8903     68.6394
   500.7500   2000.0000   2000.0000      8.1720     67.9600
   501.0000   2000.0000   2000.0000      8.2803     66.6393
   501.2500   2000.0000   2000.0000      8.2308     65.8796
   501.5000   2000.0000   2000.0000      8.1173     65.4667
   501.7500   2000.0000   2000.0000      8.0577     65.9230
   502.0000   2000.0000   2000.0000      8.1746     67.7616
   502.2500   2000.0000   2000.0000      8.6415     69.4019
   502.5000   2000.0000   2000.0000      9.8042     71.4049
   502.7500   2000.0000   2000.0000     12.5257     71.9389
   503.0000   2000.0000   2000.0000     19.7087     71.4708
   503.2500   2000.0000   2000.0000     49.8514     70.7104
   503.5000   2000.0000   2000.0000 100000.0000     69.9457
   503.7500   2000.0000   2000.0000 100000.0000     65.5661
   504.0000   2000.0000   2000.0000 100000.0000     67.5677
   504.2500   2000.0000   2000.0000 100000.0000     69.9342
   504.5000   2000.0000   2000.0000 100000.0000     74.8709
   504.7500   2000.0000   2000.0000 100000.0000     73.3179
   505.0000   2000.0000   2000.0000 100000.0000     79.5475
   505.2500   2000.0000   2000.0000 100000.0000     83.4710
   505.5000   2000.0000   2000.0000 100000.0000     88.1617
   505.7500   2000.0000   2000.0000 100000.0000     83.5085
   506.0000   2000.0000   2000.0000 100000.0000     86.1264
   506.2500   2000.0000   2000.0000 100000.0000     87.6463
   506.5000   2000.0000   2000.0000 100000.0000     88.9382
   506.7500   2000.0000   2000.0000     21.2911     88.4619
   507.0000   2000.0000   2000.0000      7.2636     85.0532
   507.2500   2000.0000   2000.0000      4.8043     81.1961
   507.5000   2000.0000   2000.0000      4.1938     74.4618
   507.7500   2000.0000   2000.0000      4.3717     70.4740
   508.0000   2000.0000   2000.0000      5.1731     66.7160
   508.2500   2000.0000   2000.0000      6.7816     65.9192
   508.5000   2000.0000   2000.0000     10.0051     66.9148
   508.7500   2000.0000   2000.0000     18.4729     68.8848
   509.0000   2000.0000   2000.0000     77.3246     74.1336
   509.2500   2000.0000   2000.0000 100000.0000     79.4225
   509.5000   2000.0000   2000.0000 100000.0000     89.5135
   509.7500   2000.0000   2000.0000 100000.0000     96.5193
   510.0000   2000.0000   2000.0000 100000.0000    104.8209
   510.2500   2000.0000   2000.0000 100000.0000    107.8567
   510.5000   2000.0000   2000.0000    229.3801    108.7293
   510.7500   2000.0000   2000.0000     59.2903    107.7669
   511.0000   2000.0000   2000.0000     42.0675    105.9310
   511.2500   2000.0000   2000.0000     37.9198    105.2742
   511.5000   2000.0000   2000.0000     37.6412    105.6269
   511.7500   2000.0000   2000.0000     38.8538    106.4801
   512.0000   2000.0000   2000.0000     40.6309    107.5364
   512.2500   2000.0000   2000.0000     42.6126    107.3753
   512.5000   2000.0000   2000.0000     44.9826    105.3757
   512.7500   2000.0000   2000.0000     48.5568    103.2704
   513.0000   2000.0000   2000.0000     54.7013    100.2978
   513.2500   2000.0000   2000.0000     64.8391     99.1198
