~Version Information
VERS.                      2.0: CWLS Log ASCII Standard - VERSION 2.0
WRAP.                       NO: One line per depth step
~Well Information Block
STRT.FT               521.0000: 
STOP.FT              2732.5000: 
STEP.FT                 0.2500: 
NULL.                -999.2500: 
COMP.          Petrogulf Corporation: COMPANY
WELL.              Silva 6-22V: WELL
FLD.           Purgatorie River: FIELD
LOC.           1936' FNL & 1798' FWL: LOCATION
CNTY.               Las Animas: COUNTY
SRVC.                         : SERVICE COMPANY
DATE.          Tue Nov 09 08:09:38 2004: LOG DATE
UWI.           05 071 08143 00: UNIQUE WELL ID
STAT.                 Colorado: STATE
~Curve Information Block
DEPT.FT            0 000 00 00: Depth
SP.mV                         : DIL Spontaneous Potential
RILD.Ohm-m                    : DIL Deep Resistivity
RILM.Ohm-m                    : DIL Medium Resistivity
RLL3.Ohm-m                    : DIL Shallow Resistivity
GR.GAPI                       : Gamma Ray
~Parameter Information Block
~A  Depth        SP         RILD        RILM        RLL3         GR     
# ...
  1697.0000    -17.4373     24.0052     30.5694     58.5893     86.0439
  1697.2500    -18.9725     24.7511     31.8484     60.3549     81.8969
  1697.5000    -20.5664     25.4777     32.9682     61.2318     77.6702
  1697.7500    -21.9835     26.1683     33.8834     61.4345     76.2732
  1698.0000    -22.9456     26.8049     34.5581     61.1576     75.9860
  1698.2500    -23.2044     27.3705     34.9684     60.4948     76.6893
  1698.5000    -22.6097     27.8507     35.1090     59.4243     78.7531
  1698.7500    -21.1656     28.2355     34.9971     57.8630     80.7861
  1699.0000    -19.0302     28.5184     34.6746     55.7565     84.9567
  1699.2500    -16.4742     28.6953     34.2033     53.1567     88.5142
  1699.5000    -13.8034     28.7636     33.6555     50.2511     94.5858
  1699.7500    -11.2872     28.7234     33.1026     47.3333     98.4742
  1700.0000     -9.1093     28.5775     32.6047     44.7309    102.8157
  1700.2500     -7.3647     28.3345     32.2040     42.7237    104.3908
  1700.5000     -6.0832     28.0113     31.9233     41.4796    105.0677
  1700.7500     -5.2724     27.6340     31.7666     41.0230    104.6510
  1701.0000     -4.9521     27.2347     31.7231     41.2385    102.7454
  1701.2500     -5.1603     26.8483     31.7714     41.9019    100.6147
  1701.5000     -5.9379     26.5070     31.8841     42.7311     96.8065
  1701.7500     -7.2899     26.2354     32.0335     43.4452     94.6192
  1702.0000     -9.1525     26.0468     32.1965     43.8203     93.1014
  1702.2500    -11.3731     25.9425     32.3558     43.7318     93.6743
  1702.5000    -13.7224     25.9116     32.5013     43.1683     96.8352
  1702.7500    -15.9235     25.9334     32.6297     42.2172     99.8568
  1703.0000    -17.7102     25.9801     32.7431     41.0287    103.9513
  1703.2500    -18.8763     26.0218     32.8460     39.7734    105.4829
  1703.5000    -19.3167     26.0314     32.9423     38.6146    105.7383
  1703.7500    -19.0476     25.9880     33.0328     37.6998    105.1610
  1704.0000    -18.2025     25.8794     33.1110     37.1680    104.5173
  1704.2500    -17.0029     25.7027     33.1603     37.1546    104.6165
  1704.5000    -15.7142     25.4611     33.1519     37.7779    105.1282
  1704.7500    -14.5944     25.1606     33.0452     39.1004    105.0091
  1705.0000    -13.8391     24.8067     32.7939     41.0745    103.0394
  1705.2500    -13.5496     24.4019     32.3535     43.4955    100.4223
  1705.5000    -13.7149     23.9457     31.6945     45.9919     95.4230
  1705.7500    -14.2369     23.4350     30.8125     48.0725     92.1384
  1706.0000    -14.9642     22.8672     29.7312     49.2283     88.2183
  1706.2500    -15.7367     22.2425     28.4982     49.0636     86.5234
  1706.5000    -16.4181     21.5652     27.1759     47.4116     85.8738
  1706.7500    -16.9096     20.8453     25.8264     44.3921     87.2757
  1707.0000    -17.1427     20.0960     24.5028     40.3882     92.8625
  1707.2500    -17.0739     19.3336     23.2430     35.9473     98.5236
  1707.5000    -16.6789     18.5754     22.0689     31.6418    107.7855
  1707.7500    -15.9647     17.8379     20.9884     27.9369    113.1232
  1708.0000    -14.9863     17.1364     19.9997     25.1028    118.8036
  1708.2500    -13.8530     16.4841     19.0952     23.1920    121.2325
  1708.5000    -12.7154     15.8917     18.2653     22.0730    123.5583
  1708.7500    -11.7338     15.3675     17.5012     21.5005    124.3290
  1709.0000    -11.0394     14.9173     16.7971     21.1925    123.9145
  1709.2500    -10.7003     14.5437     16.1508     20.8990    122.5228
  1709.5000    -10.7111     14.2472     15.5641     20.4452    119.7199
  1709.7500    -10.9997     14.0254     15.0414     19.7510    118.4686
  1710.0000    -11.4568     13.8738     14.5893     18.8285    119.1676
  1710.2500    -11.9620     13.7866     14.2151     17.7617    121.5469
  1710.5000    -12.4155     13.7568     13.9259     16.6790    126.9184
  1710.7500    -12.7602     13.7780     13.7283     15.7241    130.9154
  1711.0000    -12.9960     13.8442     13.6280     15.0339    137.0981
  1711.2500    -13.1809     13.9517     13.6297     14.7302    141.5279
  1711.5000    -13.4214     14.0989     13.7378     14.9209    148.5915
  1711.7500    -13.8506     14.2871     13.9563     15.7065    153.0804
  1712.0000    -14.5911     14.5202     14.2890     17.1794    158.2645
  1712.2500    -15.7245     14.8041     14.7394     19.4067    160.0108
  1712.5000    -17.2634     15.1459     15.3106     22.3973    158.9770
  1712.7500    -19.1475     15.5524     16.0047     26.0652    155.2824
  1713.0000    -21.2529     16.0285     16.8219     30.2099    144.8438
  1713.2500    -23.4239     16.5753     17.7601     34.5336    135.0702
  1713.5000    -25.5060     17.1878     18.8132     38.6965    118.3458
  1713.7500    -27.3798     17.8538     19.9700     42.3982    107.5496
  1714.0000    -28.9769     18.5518     21.2125     45.4548     94.2874
  1714.2500    -30.2881     19.2506     22.5139     47.8399     87.8737
  1714.5000    -31.3509     19.9105     23.8358     49.6670     81.3125
  1714.7500    -32.2234     20.4856     25.1247     51.1191     78.3923
  1715.0000    -32.9605     20.9292     26.3067     52.3531     75.4277
  1715.2500    -33.5894     21.1994     27.2872     53.4169     74.1861
  1715.5000    -34.0968     21.2676     27.9552     54.2173     73.7257
  1715.7500    -34.4302     21.1240     28.1981     54.5498     74.8432
  1716.0000    -34.5147     20.7802     27.9326     54.1768     79.1978
  1716.2500    -34.2618     20.2668     27.1367     52.9174     83.6609
  1716.5000    -33.6032     19.6273     25.8677     50.7089     91.6698
  1716.7500    -32.4996     18.9088     24.2539     47.6221     97.3275
  1717.0000    -30.9661     18.1550     22.4586     43.8354    105.9362
  1717.2500    -29.0697     17.4012     20.6384     39.5892    111.8973
  1717.5000    -26.9347     16.6719     18.9141     35.1464    121.6088
  1717.7500    -24.7229     15.9823     17.3608     30.7630    128.7191
  1718.0000    -22.6086     15.3401     16.0130     26.6685    140.0999
  1718.2500    -20.7443     14.7478     14.8767     23.0499    147.7030
  1718.5000    -19.2399     14.2054     13.9410     20.0357    157.9216
  1718.7500    -18.1503     13.7121     13.1858     17.6870    163.2925
  1719.0000    -17.4810     13.2674     12.5887     15.9981    168.6782
  1719.2500    -17.2063     12.8721     12.1276     14.9075    170.5081
  1719.5000    -17.2871     12.5287     11.7821     14.3161    170.9331
  1719.7500    -17.6838     12.2407     11.5352     14.1075    170.0753
  1720.0000    -18.3504     12.0129     11.3730     14.1670    168.2671
  1720.2500    -19.2285     11.8506     11.2848     14.3982    167.4884
  1720.5000    -20.2377     11.7590     11.2636     14.7320    167.7023
  1720.7500    -21.2728     11.7431     11.3055     15.1326    168.6619
  1721.0000    -22.2195     11.8072     11.4101     15.5991    170.5299
  1721.2500    -22.9820     11.9547     11.5800     16.1632    171.5378
  1721.5000    -23.5080     12.1880     11.8204     16.8937    171.8268
  1721.7500    -23.7996     12.5083     12.1397     17.9084    170.7191
  1722.0000    -23.9164     12.9148     12.5479     19.3856    166.9299
  1722.2500    -23.9424     13.4043     13.0570     21.5592    163.6559
  1722.5000    -23.9562     13.9708     13.6789     24.6800    159.3777
  1722.7500    -23.9925     14.6048     14.4246     28.9287    157.2079
  1723.0000    -24.0321     15.2935     15.3010     34.2999    153.0895
  1723.2500    -24.0034     16.0221     16.3078     40.5003    148.1388
  1723.5000    -23.8103     16.7742     17.4330     46.9191    136.1908
  1723.7500    -23.3733     17.5340     18.6490     52.7184    125.9466
  1724.0000    -22.6651     18.2870     19.9104     57.0353    110.1601
  1724.2500    -21.7309     19.0205     21.1563     59.2326    101.4802
  1724.5000    -20.6910     19.7222     22.3171     59.0973     94.3581
  1724.7500    -19.7065     20.3803     23.3273     56.8971     94.3284
