~Version Information               
VERS.     2.0     :     CWLS LAS VERSION
WRAP.                         NO     :     WRAPING MODE
~Well Information   
API.                      :            
WELL.               Egan 9-11V     :     WELL
COMP.                    N/A     :     COMPANY
FLD.                    N/A     :     FIELD
LOC.                    N/A     :     LOCATION
CNTY.                    N/A     :     COUNTY
STATE.              N/A     :     STATE
CTRY.                    N/A     :     COUNTRY
DATE.                N/A     :     DATE (LOGGED)
UWI.                    N/A     :     UNIQUE WELL ID
SRVC.                N/A     :     SERVICE COMPANY
STAT.                           :
STRT.FT              612.00     :     START DEPTH
STOP.FT             2500.00     :     STOP DEPTH
STEP.FT                1.00     :     DEPTH INCREMENT
NULL.             -9999           :     NULL VALUE
~Curve information               
 DEPTH.FT                                   :
 ROP.MIN/FT                                 :
 GAS.UNITS                                  :     
C1.PPM          :     
C2.PPM          :
~ASCII Log data               
# ...
1788.00        0.30     0         14.2          -49995
1789.00        0.30     0         14.4          -49995
1790.00        0.26     7         13.8          -49995
1791.00        0.28     3         10.8          -49995
1792.00        0.26     7         10.5          -49995
1793.00        0.80     0         16.6          -49995
1794.00        0.26     7         21.4          -49995
1795.00        0.28     3         29.8          -49995
1796.00        0.36     7         51.3          -49995
1797.00        0.26     7         49.9          -49995
1798.00        0.26     7         45.6          -49995
1799.00        0.26     7         38.4          -49995
1800.00        0.26     7         31.9          -49995
1801.00        0.20     0         30.7          -49995
1802.00        0.26     7         26.4          -49995
1803.00        0.30     0         22.0          -49995
1804.00        0.26     7         16.8          -49995
1805.00        0.23     3         16.7          -49995
1806.00        0.23     3         15.5          -49995
1807.00        0.38     3         16.4          -49995
1808.00        0.23     3         15.9          -49995
1809.00        0.26     7         15.5          -49995
1810.00        0.16     7         15.4          -49995
1811.00        0.20     0         14.6          -49995
1812.00        0.23     3         14.4          -49995
1813.00        0.26     7         14.1          -49995
1814.00        0.23     3         14.3          -49995
1815.00        0.16     7         14.3          -49995
1816.00        0.16     7         13.6          -49995
1817.00        0.23     3         13.8          -49995
1818.00        0.20     0         14.2          -49995
1819.00        0.23     3         14.1          -49995
1820.00        0.26     7         13.7          -49995
1821.00        0.16     7         13.0          -49995
1822.00        0.28     3         15.2          -49995
1823.00        0.83     3         33.3          -49995
1824.00        0.65     0         62.3          -49995
1825.00        0.56     7         61.0          -49995
1826.00        0.53     3         38.1          -49995
1827.00        0.36     7         26.4          -49995
1828.00        0.26     7         20.7          -49995
1829.00        0.23     3         17.8          -49995
1830.00        0.26     7         16.9          -49995
1831.00        0.20     0         14.8          -49995
1832.00        0.33     3         15.0          -49995
1833.00        0.51     7         14.2          -49995
1834.00        0.43     3         14.8          -49995
1835.00        0.23     3         14.6          -49995
1836.00        0.23     3         14.8          -49995
1837.00        0.26     7         13.9          -49995
1838.00        0.26     7         13.1          -49995
1839.00        0.26     7         13.7          -49995
1840.00        0.23     3         12.7          -49995
1841.00        0.20     0         12.8          -49995
1842.00        0.23     3         13.0          -49995
1843.00        0.33     3         13.5          -49995
1844.00        0.20     0         12.6          -49995
1845.00        0.18     3         13.1          -49995
1846.00        0.16     7         13.3          -49995
1847.00        0.30     0         13.3          -49995
1848.00        0.23     3         13.3          -49995
1849.00        0.33     3         13.4          -49995
1850.00        0.26     7         13.6          -49995
1851.00        0.30     0         11.1          -49995
1852.00        0.26     7         12.0          -49995
1853.00        0.70     0         19.2          -49995
1854.00        0.36     7         31.8          -49995
1855.00        0.16     7         36.2          -49995
1856.00        0.26     7         47.6          -49995
1857.00        0.23     3         54.1          -49995
1858.00        0.23     3         54.4          -49995
1859.00        0.20     0         49.5          -49995
1860.00        0.23     3         48.6          -49995
1861.00        0.16     7         38.8          -49995
1862.00        0.20     0         35.2          -49995
1863.00        0.21     7         29.7          -49995
1864.00        0.23     3         26.7          -49995
1865.00        0.30     0         21.4          -49995
1866.00        0.26     7         19.1          -49995
1867.00        0.30     0         16.7          -49995
1868.00        0.26     7         16.7          -49995
1869.00        0.33     3         16.0          -49995
1870.00        0.43     3         15.8          -49995
1871.00        0.33     3         14.7          -49995
1872.00        0.30     0         14.4          -49995
1873.00        0.30     0         14.2          -49995
1874.00        0.31     7         13.3          -49995
1875.00        0.26     7         13.3          -49995
1876.00        0.23     3         13.6          -49995
1877.00        0.36     7         14.1          -49995
1878.00        0.23     3         13.5          -49995
1879.00        0.26     7         13.2          -49995
1880.00        0.23     3         13.6          -49995
1881.00        0.26     7         11.9          -49995
1882.00        0.26     7         13.5          -49995
1883.00        0.60     0         18.2          -49995
1884.00        0.40     0         33.7          -49995
1885.00        0.33     3         46.6          -49995
1886.00        0.26     7         57.3          -49995
1887.00        0.30     0         60.1          -49995
1888.00        0.23     3         57.1          -49995
1889.00        0.25     0         51.7          -49995
1890.00        0.26     7         43.0          -49995
1891.00        0.16     7         36.4          -49995
1892.00        0.16     7         34.3          -49995
1893.00        0.16     7         30.1          -49995
1894.00        0.23     3         29.6          -49995
1895.00        0.20     0         21.6          -49995
1896.00        0.23     3         21.7          -49995
1897.00        0.46     7         18.5          -49995
1898.00        0.40     0         16.3          -49995
1899.00        0.43     3         15.3          -49995
1900.00        0.43     3         15.1          -49995
1901.00        0.41     7         14.5          -49995
1902.00        0.36     7         14.4          -49995
1903.00        0.30     0         13.9          -49995
1904.00        0.30     0         13.4          -49995
1905.00        0.30     0         14.1          -49995
1906.00        0.20     0         14.1          -49995
1907.00        0.16     7         13.4          -49995
1908.00        0.23     3         13.6          -49995
1909.00        0.26     7         14.0          -49995
1910.00        0.23     3         15.7          -49995
1911.00        0.26     7         10.8          -49995
1912.00        0.26     7         11.0          -49995
1913.00        0.80     0         17.2          -49995
1914.00        0.53     3         33.4          -49995
1915.00        0.21     7         41.1          -49995
1916.00        0.23     3         50.5          -49995
1917.00        0.26     7         51.6          -49995
1918.00        0.23     3         45.2          -49995
1919.00        0.26     7         39.6          -49995
1920.00        0.23     3         38.3          -49995
1921.00        0.26     7         32.8          -49995
1922.00        0.23     3         27.9          -49995
1923.00        0.26     7         22.7          -49995
1924.00        0.26     7         17.1          -49995
1925.00        0.23     3         16.2          -49995
1926.00        0.30     0         15.7          -49995
1927.00        0.26     7         16.7          -49995
1928.00        0.28     3         16.3          -49995
1929.00        0.23     3         15.4          -49995
1930.00        0.26     7         14.9          -49995
1931.00        0.23     3         15.1          -49995
1932.00        0.26     7         14.4          -49995
1933.00        0.23     3         13.7          -49995
