~Version Information
VERS.                      2.0: CWLS Log ASCII Standard - VERSION 2.0
WRAP.                       NO: One line per depth step
~Well Information Block
STRT.FT               577.0000: 
STOP.FT              2643.2000: 
STEP.FT                 0.1000: 
NULL.                -999.2500: 
COMP.          Petrogulf Corporation: COMPANY
WELL.           Montoya 12-41V: WELL
FLD.           Purgatorie River: FIELD
LOC.           1081' FNL & 605' FEL: LOCATION
CNTY.               Las Animas: COUNTY
SRVC.                         : SERVICE COMPANY
DATE.          Tue Aug 10 14:17:12 2004: LOG DATE
UWI.           05 071 08094 00: UNIQUE WELL ID
STAT.                 Colorado: STATE
~Curve Information Block
DEPT.FT            0 000 00 00: Depth
DCAL.in                       : CDL Caliper
RHOB.g/cc                     : CDL Bulk Density
RHOC.g/cc                     : CDL Density Correction
DPOR.pu                       : CDL Density Porosity
GR.GAPI                       : Gamma Ray
NPOR.pu                       : Neutron Porosity
~Parameter Information Block
~A  Depth       DCAL        RHOB        RHOC        DPOR         GR         NPOR    
# ...
  2084.2000      7.8360      2.4204      0.0438     13.9170     51.2701     13.7124
  2084.3000      7.8386      2.3983      0.0067     15.2538     52.2761     14.5956
  2084.4000      7.8386      2.3820      0.0228     16.2413     50.3197     15.1589
  2084.5000      7.8187      2.3679      0.0126     17.0979     49.6498     15.0997
  2084.6000      7.8187      2.3615     -0.0632     17.4819     48.2247     14.8353
  2084.7000      7.8187      2.3703      0.0160     16.9523     46.0032     14.7513
  2084.8000      7.8133      2.3811      0.0209     16.2940     44.7527     14.6307
  2084.9000      7.8133      2.3817      0.0355     16.2613     43.7922     14.5568
  2085.0000      7.7940      2.3773      0.0159     16.5261     42.0610     14.9498
  2085.1000      7.7940      2.3799      0.0358     16.3711     42.0042     15.3846
  2085.2000      7.7940      2.3929      0.0451     15.5848     44.7578     14.8448
  2085.3000      7.7888      2.4068      0.0584     14.7374     47.8363     13.6408
  2085.4000      7.7888      2.4133      0.0360     14.3464     50.4420     12.7432
  2085.5000      7.7866      2.4167      0.0413     14.1387     52.9120     12.4772
  2085.6000      7.7866      2.4223      0.0570     13.7984     52.5576     12.9028
  2085.7000      7.7866      2.4288      0.0284     13.4060     47.3501     13.7896
  2085.8000      7.7750      2.4332      0.0504     13.1401     40.2273     14.6735
  2085.9000      7.7750      2.4287      0.0488     13.4096     36.6223     15.2330
  2086.0000      7.7750      2.4141      0.0463     14.2983     37.5570     15.3339
  2086.1000      7.7750      2.4076     -0.0077     14.6928     39.2464     15.0968
  2086.2000      7.7750      2.4203      0.0830     13.9232     40.9397     14.9473
  2086.3000      7.7858      2.4384      0.0071     12.8271     42.2200     15.0972
  2086.4000      7.7858      2.4538      0.0292     11.8917     41.9784     14.8189
  2086.5000      7.7854      2.4636      0.0802     11.2984     43.6199     13.2824
  2086.6000      7.7854      2.4647      0.0202     11.2303     48.9440     11.3709
  2086.7000      7.7854      2.4602      0.0719     11.5038     52.7404     10.4093
  2086.8000      7.7734      2.4508      0.0372     12.0744     51.6017     10.5662
  2086.9000      7.7734      2.4384      0.0289     12.8242     49.4167     11.2329
  2087.0000      7.7514      2.4269      0.0186     13.5238     47.0992     11.7651
  2087.1000      7.7514      2.4204     -0.0177     13.9169     43.5929     11.9509
  2087.2000      7.7514      2.4181      0.0264     14.0572     41.8427     11.8609
  2087.3000      7.7556      2.4210     -0.0127     13.8814     43.2507     11.6567
  2087.4000      7.7556      2.4385      0.0162     12.8157     44.4356     11.5302
  2087.5000      7.7830      2.4641      0.0627     11.2682     44.1842     11.6673
  2087.6000      7.7830      2.4824      0.0163     10.1598     45.0032     12.4566
  2087.7000      7.7830      2.4874      0.0761      9.8549     49.2446     14.0413
  2087.8000      7.7867      2.4758      0.0839     10.5599     56.3907     15.7010
  2087.9000      7.7867      2.4590      0.0452     11.5753     60.8846     16.6645
  2088.0000      7.7812      2.4534      0.0526     11.9146     60.8636     17.2278
  2088.1000      7.7812      2.4566      0.0712     11.7185     62.3137     17.8031
  2088.2000      7.7812      2.4565      0.0748     11.7294     68.5271     18.1761
  2088.3000      7.7543      2.4502      0.0692     12.1102     76.2363     18.3123
  2088.4000      7.7543      2.4495      0.0375     12.1544     80.4451     18.5943
  2088.5000      7.7680      2.4641      0.0420     11.2669     81.3380     18.8290
  2088.6000      7.7680      2.4884      0.0862      9.7929     81.1213     18.2432
  2088.7000      7.7680      2.5075      0.1060      8.6369     79.2482     17.0990
  2088.8000      7.7420      2.5133      0.1212      8.2846     76.4909     16.4991
  2088.9000      7.7420      2.5108      0.0867      8.4334     74.6266     16.5575
  2089.0000      7.7443      2.5072      0.0974      8.6543     72.5181     16.6760
  2089.1000      7.7443      2.4981      0.1106      9.2054     70.0899     16.4938
  2089.2000      7.7443      2.4803      0.1040     10.2841     68.3753     15.8675
  2089.3000      7.7390      2.4645      0.0591     11.2427     65.7249     14.9646
  2089.4000      7.7390      2.4571      0.1033     11.6932     61.6064     14.1645
  2089.5000      7.7383      2.4514      0.0894     12.0381     56.7002     13.9678
  2089.6000      7.7383      2.4487      0.0792     12.2027     52.7735     14.4830
  2089.7000      7.7383      2.4545      0.0957     11.8474     50.0786     15.0133
  2089.8000      7.7387      2.4624      0.1052     11.3706     47.3178     15.1049
  2089.9000      7.7387      2.4598      0.1388     11.5265     43.8220     15.0333
  2090.0000      7.7379      2.4410      0.1034     12.6689     41.4788     14.8795
  2090.1000      7.7379      2.4091      0.0771     14.6006     43.9321     14.7779
  2090.2000      7.7379      2.3750      0.0349     16.6643     49.1611     14.9197
  2090.3000      7.7381      2.3555      0.0133     17.8488     51.0956     14.9837
  2090.4000      7.7381      2.3606      0.0062     17.5420     49.7892     14.6144
  2090.5000      7.7381      2.3848      0.0418     16.0748     48.8263     14.0973
  2090.6000      7.7381      2.4151      0.0472     14.2351     49.4783     13.8773
  2090.7000      7.7381      2.4415      0.0638     12.6388     50.5792     14.1537
  2090.8000      7.7448      2.4530      0.0896     11.9420     48.4824     14.6874
  2090.9000      7.7448      2.4465      0.0419     12.3310     43.3046     14.8789
  2091.0000      7.7815      2.4337      0.0953     13.1062     39.3383     14.6468
  2091.1000      7.7815      2.4256      0.0557     13.5990     38.1280     14.1374
  2091.2000      7.7815      2.4247      0.0962     13.6574     38.0280     13.5661
  2091.3000      7.7843      2.4234      0.0731     13.7358     37.3570     13.5584
  2091.4000      7.7843      2.4175      0.0609     14.0934     35.5258     14.2473
  2091.5000      7.7761      2.4111      0.0596     14.4805     34.1117     15.2081
  2091.6000      7.7761      2.4104      0.0140     14.5196     35.6615     15.8841
  2091.7000      7.7761      2.4198      0.0406     13.9526     38.9046     15.7714
  2091.8000      7.7768      2.4325      0.0697     13.1792     40.2700     15.0483
  2091.9000      7.7768      2.4391      0.0754     12.7824     38.2481     14.2178
  2092.0000      7.7778      2.4383      0.0652     12.8277     33.4181     13.3266
  2092.1000      7.7778      2.4323      0.0667     13.1951     29.8677     12.4257
  2092.2000      7.7778      2.4225      0.0623     13.7887     31.0521     11.8918
  2092.3000      7.7846      2.4170      0.0298     14.1203     34.6840     11.9448
  2092.4000      7.7846      2.4217      0.0544     13.8376     37.5379     12.3254
  2092.5000      7.7773      2.4345      0.0491     13.0602     38.7615     12.3915
  2092.6000      7.7773      2.4523      0.0527     11.9792     37.5589     11.8478
  2092.7000      7.7773      2.4676      0.0647     11.0554     35.1549     11.1063
  2092.8000      7.7821      2.4672      0.1151     11.0766     33.2910     10.5968
  2092.9000      7.7821      2.4510      0.0462     12.0621     32.3455     10.4096
  2093.0000      7.7752      2.4380      0.0442     12.8455     32.1956     10.7637
  2093.1000      7.7752      2.4332      0.0663     13.1371     32.4472     11.8334
  2093.2000      7.7752      2.4269      0.0588     13.5224     32.3845     12.8715
  2093.3000      7.7775      2.4245      0.0355     13.6682     32.4625     12.9923
  2093.4000      7.7775      2.4328      0.0577     13.1620     33.6576     12.5076
  2093.5000      7.7780      2.4415      0.0609     12.6343     36.2417     12.1871
  2093.6000      7.7780      2.4419      0.0506     12.6126     38.0763     11.9998
  2093.7000      7.7780      2.4412      0.0386     12.6570     36.2235     11.6496
