~Version Information
VERS.                      2.0: CWLS Log ASCII Standard - VERSION 2.0
WRAP.                       NO: One line per depth step
~Well Information Block
STRT.FT               250.0000: 
STOP.FT              2600.7500: 
STEP.FT                 0.2500: 
NULL.                -999.2500: 
COMP.          Pioneer Natural Resources: COMPANY
WELL.              Quack 22-24: WELL
FLD.           Purgatoire River: FIELD
LOC.           2492' FNL & 2459' FWL--: LOCATION
PROV.                 Colorado: PROVINCE
CNTY.               Las Animas: COUNTRY
SRVC.                Patterson: SERVICE COMPANY
DATE.          Sun Jun 12 09:02:01 2005: LOG DATE
UWI.            05 071 0840200: UNIQUE WELL ID
~Curve Information Block
DEPT.FT            0 000 00 00: Depth
SN.Ohm-m                      : IEL Short Normal
SP.mV                         : IEL Spontaneous Potential
DIR.Ohm-m                     : IEL Induction Resistivity
GR.GAPI                       : Gamma Ray
~Parameter Information Block
~A  Depth        SN          SP         DIR          GR     
# ...
  1020.5000   2000.0000   1983.0000     20.6394     78.0339
  1020.7500   2000.0000   1983.0000     21.2652     75.8641
  1021.0000   2000.0000   1983.0000     21.6690     76.1534
  1021.2500   2000.0000   1983.0000     21.8940     78.6269
  1021.5000   2000.0000   1983.0000     22.0128     84.8049
  1021.7500   2000.0000   1983.0000     22.0846     89.9129
  1022.0000   2000.0000   1983.0000     22.1250     97.9194
  1022.2500   2000.0000   1983.0000     22.1016    102.6968
  1022.5000   2000.0000   1983.0000     21.9526    107.6184
  1022.7500   2000.0000   1983.0000     21.6200    108.8523
  1023.0000   2000.0000   1983.0000     21.0843    107.5107
  1023.2500   2000.0000   1983.0000     20.3808    104.9051
  1023.5000   2000.0000   1983.0000     19.5898     99.8309
  1023.7500   2000.0000   1983.0000     18.8052     96.7467
  1024.0000   2000.0000   1983.0000     18.1039     94.2763
  1024.2500   2000.0000   1983.0000     17.5282     94.6096
  1024.5000   2000.0000   1983.0000     17.0848     97.9339
  1024.7500   2000.0000   1983.0000     16.7519    101.4494
  1025.0000   2000.0000   1983.0000     16.4909    107.1627
  1025.2500   2000.0000   1983.0000     16.2575    110.2975
  1025.5000   2000.0000   1983.0000     16.1403    112.9845
  1025.7500   2000.0000   1983.0000     15.8516    113.5978
  1026.0000   2000.0000   1983.0000     15.5126    113.8520
  1026.2500   2000.0000   1983.0000     15.1307    114.0477
  1026.5000   2000.0000   1983.0000     14.7264    114.5867
  1026.7500   2000.0000   1983.0000     14.3202    115.3009
  1027.0000   2000.0000   1983.0000     13.9218    117.7242
  1027.2500   2000.0000   1983.0000     13.5253    120.4987
  1027.5000   2000.0000   1983.0000     13.1161    125.3558
  1027.7500   2000.0000   1983.0000     12.6840    127.8867
  1028.0000   2000.0000   1983.0000     12.2321    129.6712
  1028.2500   2000.0000   1983.0000     11.7780    130.1044
  1028.5000   2000.0000   1983.0000     11.3449    131.2225
  1028.7500   2000.0000   1983.0000     10.9535    132.5825
  1029.0000   2000.0000   1983.0000     10.5476    134.8811
  1029.2500   2000.0000   1983.0000     10.2724    136.1571
  1029.5000   2000.0000   1983.0000     10.0546    137.7670
  1029.7500   2000.0000   1983.0000      9.8912    139.1376
  1030.0000   2000.0000   1983.0000      9.7783    142.4555
  1030.2500   2000.0000   1983.0000      9.7113    145.3846
  1030.5000   2000.0000   1983.0000      9.6856    149.2696
  1030.7500   2000.0000   1983.0000      9.6977    150.3064
  1031.0000   2000.0000   1983.0000      9.7446    148.4934
  1031.2500   2000.0000   1983.0000      9.8229    145.4655
  1031.5000   2000.0000   1983.0000      9.9279    139.9824
  1031.7500   2000.0000   1983.0000     10.0540    136.4960
  1032.0000   2000.0000   1983.0000      9.2445    131.6227
  1032.2500   2000.0000   1983.0000      9.3694    128.3574
  1032.5000   2000.0000   1983.0000      9.5030    123.8467
  1032.7500   2000.0000   1983.0000      9.6437    121.9383
  1033.0000   2000.0000   1983.0000      9.7876    121.8312
  1033.2500   2000.0000   1983.0000      9.9257    123.2931
  1033.5000   2000.0000   1983.0000     10.0455    125.7951
  1033.7500   2000.0000   1983.0000     10.1338    126.5176
  1034.0000   2000.0000   1983.0000     10.1814    125.6318
  1034.2500   2000.0000   1983.0000     10.1854    124.2419
  1034.5000   2000.0000   1983.0000     10.1492    122.3559
  1034.7500   2000.0000   1983.0000     10.0817    121.9173
  1035.0000   2000.0000   1983.0000      9.9332    122.9091
  1035.2500   2000.0000   1983.0000      9.8391    124.2737
  1035.5000   2000.0000   1983.0000      9.7469    126.0399
  1035.7500   2000.0000   1983.0000      9.6640    126.5649
  1036.0000   2000.0000   1983.0000      9.5956    126.7457
  1036.2500   2000.0000   1983.0000      9.5450    126.8257
  1036.5000   2000.0000   1983.0000      9.5124    126.5775
  1036.7500   2000.0000   1983.0000      9.4933    125.6413
  1037.0000   2000.0000   1983.0000      9.4784    122.8384
  1037.2500   2000.0000   1983.0000      9.4566    120.5088
  1037.5000   2000.0000   1983.0000      9.4195    117.5968
  1037.7500   2000.0000   1983.0000      9.3646    116.7524
  1038.0000   2000.0000   1983.0000      9.2957    117.9395
  1038.2500   2000.0000   1983.0000      9.2200    120.3353
  1038.5000   2000.0000   1983.0000      9.1875    125.2598
  1038.7500   2000.0000   1983.0000      9.1139    128.6048
  1039.0000   2000.0000   1983.0000      9.0436    132.8749
  1039.2500   2000.0000   1983.0000      8.9761    135.0585
  1039.5000   2000.0000   1983.0000      8.9140    137.0071
  1039.7500   2000.0000   1983.0000      8.8648    137.2157
  1040.0000   2000.0000   1983.0000      8.8398    136.1010
  1040.2500   2000.0000   1983.0000      8.8489    134.8711
  1040.5000   2000.0000   1983.0000      8.8959    132.9474
  1040.7500   2000.0000   1983.0000      8.9755    131.6071
  1041.0000   2000.0000   1983.0000      9.0746    129.1680
  1041.2500   2000.0000   1983.0000      9.1764    127.3116
  1041.5000   2000.0000   1983.0000      9.2650    125.0886
  1041.7500   2000.0000   1983.0000      9.3282    124.6445
  1042.0000   2000.0000   1983.0000      9.3591    125.8174
  1042.2500   2000.0000   1983.0000      9.3564    127.3211
  1042.5000   2000.0000   1983.0000      9.3259    129.3538
  1042.7500   2000.0000   1983.0000      9.2800    129.9797
  1043.0000   2000.0000   1983.0000      9.2332    129.4786
  1043.2500   2000.0000   1983.0000      9.1988    128.3980
  1043.5000   2000.0000   1983.0000      9.1857    126.5097
  1043.7500   2000.0000   1983.0000      9.1996    125.4749
  1044.0000   2000.0000   1983.0000      9.2448    124.2253
  1044.2500   2000.0000   1983.0000      9.3280    123.2959
  1044.5000   2000.0000   1983.0000      9.4601    121.5273
  1044.7500   2000.0000   1983.0000      9.6568    120.3423
  1045.0000   2000.0000   1983.0000      9.9375    119.3101
  1045.2500   2000.0000   1983.0000     10.3217    119.3400
  1045.5000   2000.0000   1983.0000     10.8254    119.8862
  1045.7500   2000.0000   1983.0000     11.4551    119.7636
  1046.0000   2000.0000   1983.0000     12.2017    117.3724
  1046.2500   2000.0000   1983.0000     13.0381    113.8635
  1046.5000   2000.0000   1983.0000     13.9262    106.1272
  1046.7500   2000.0000   1983.0000     14.8351    100.1110
  1047.0000   2000.0000   1983.0000     15.7568     91.2324
  1047.2500   2000.0000   1983.0000     16.7083     85.8160
  1047.5000   2000.0000   1983.0000     17.7149     78.3336
  1047.7500   2000.0000   1983.0000     18.7896     73.6101
  1048.0000   2000.0000   1983.0000     19.9164     67.0124
  1048.2500   2000.0000   1983.0000     21.0492     63.1539
  1048.5000   2000.0000   1983.0000     22.1236     58.4330
  1048.7500   2000.0000   1983.0000     23.0785     69.9419
  1049.0000   2000.0000   1983.0000     23.8769     66.1514
  1049.2500   2000.0000   1983.0000     24.5165     64.0042
  1049.5000   2000.0000   1983.0000     25.0313     61.3428
  1049.7500   2000.0000   1983.0000     25.4872     71.9957
  1050.0000   2000.0000   1983.0000     25.9676     70.1488
  1050.2500   2000.0000   1983.0000     26.5473     69.0893
  1050.5000   2000.0000   1983.0000     27.2620     67.6837
  1050.7500   2000.0000   1983.0000     28.0845     66.9611
  1051.0000   2000.0000   1983.0000     28.9204     65.9843
  1051.2500   2000.0000   1983.0000     29.6302     64.9843
  1051.5000   2000.0000   1983.0000     30.0767     62.4328
  1051.7500   2000.0000   1983.0000     30.1810     60.1797
  1052.0000   2000.0000   1983.0000     29.9636     56.7820
  1052.2500   2000.0000   1983.0000     29.5479     54.9954
  1052.5000   2000.0000   1983.0000     29.1198     53.8530
  1052.7500   2000.0000   1983.0000     28.8674     54.6295
  1053.0000   2000.0000   1983.0000     28.9347     58.4493
  1053.2500   2000.0000   1983.0000     29.4032     62.3200
  1053.5000   2000.0000   1983.0000     30.2862     68.5776
  1053.7500   2000.0000   1983.0000     31.5122     72.2145
