~Version Information
VERS.                      2.0: CWLS Log ASCII Standard - VERSION 2.0
WRAP.                       NO: One line per depth step
~Well Information Block
STRT.FT               545.0000: 
STOP.FT              1920.5000: 
STEP.FT                 0.1000: 
NULL.                -999.2500: 
COMP.          Pioneer Natural Resources: COMPANY
WELL.            Summers 21-19: WELL
FLD.           Purgatoire River: FIELD
LOC.           900' FNL & 1950' FWL: LOCATION
PROV.                 Colorado: PROVINCE
CNTY.               Las Animas: COUNTRY
SRVC.                Patterson: SERVICE COMPANY
DATE.          Mon Oct 17 07:05:22 2005: LOG DATE
UWI.           05 071 08315 00: UNIQUE WELL ID
~Curve Information Block
DEPT.FT            0 000 00 00: Depth
DCAL.in                       : CDL Caliper
RHOB.g/cc                     : CDL Bulk Density
RHOC.g/cc                     : CDL Density Correction
DPOR.pu                       : CDL Density Porosity
GR.GAPI                       : Gamma Ray
NPOR.pu                       : Neutron Porosity
~Parameter Information Block
~A  Depth       DCAL        RHOB        RHOC        DPOR         GR         NPOR    
# ...
   631.4000      8.0633      2.5117      0.0499      8.3846    151.0282     28.4725
   631.5000      8.0772      2.5554      0.0809      5.7349    153.2459     28.7415
   631.6000      8.0772      2.6080      0.1679      2.5463    155.2853     28.6053
   631.7000      8.0772      2.6396      0.1664      0.6293    153.6583     27.7668
   631.8000      8.0965      2.6360      0.1847      0.8459    147.9421     26.5515
   631.9000      8.0965      2.6103      0.2282      2.4049    145.4627     25.8922
   632.0000      8.1181      2.5909      0.1657      3.5834    147.2981     26.1445
   632.1000      8.1181      2.5893      0.1423      3.6789    146.1874     26.8205
   632.2000      8.1181      2.5837      0.0981      4.0174    138.5854     27.3927
   632.3000      8.0818      2.5617      0.0912      5.3512    129.0304     27.7405
   632.4000      8.0818      2.5460     -0.0066      6.3007    124.0217     27.8842
   632.5000      8.0582      2.5582      0.0556      5.5615    125.1475     27.7586
   632.6000      8.0582      2.5892      0.0762      3.6865    126.8130     27.4793
   632.7000      8.0582      2.6202      0.1144      1.8090    123.3966     27.0847
   632.8000      8.0734      2.6391      0.1214      0.6599    117.4964     26.7410
   632.9000      8.0734      2.6387      0.1182      0.6866    114.8167     26.8994
   633.0000      8.0783      2.6250      0.0460      1.5173    113.0353     27.2668
   633.1000      8.0783      2.6137      0.0875      2.1993    109.2344     27.0824
   633.2000      8.0783      2.6007      0.0893      2.9857    106.1216     26.3722
   633.3000      8.0884      2.5721      0.0426      4.7232    104.8119     25.5559
   633.4000      8.0884      2.5348      0.0494      6.9789    103.7466     24.7325
   633.5000      8.0977      2.5069      0.0796      8.6722    100.1129     23.9655
   633.6000      8.0977      2.4926      0.1589      9.5400     94.2703     23.5350
   633.7000      8.0977      2.4828      0.1522     10.1308     89.3174     23.5083
   633.8000      8.0316      2.4766      0.1422     10.5069     84.6905     23.3212
   633.9000      8.0316      2.4858      0.1386      9.9527     79.8745     22.8266
   634.0000      7.9477      2.5265      0.1648      7.4868     76.5340     22.5528
   634.1000      7.9477      2.6023      0.2287      2.8908     77.0656     22.3317
   634.2000      7.9477      2.6879      0.3191     -2.2983     82.4909     21.8339
   634.3000      7.9425      2.7450      0.3440     -5.7587     89.9142     21.6803
   634.4000      7.9425      2.7622      0.3008     -6.7998     94.3968     22.3657
   634.5000      7.9696      2.7572      0.2927     -6.4980     96.5928     23.4547
   634.6000      7.9696      2.7368      0.2716     -5.2611    101.3126     24.0402
   634.7000      7.9696      2.6977      0.2072     -2.8911    107.2972     23.8844
   634.8000      7.9953      2.6535      0.1623     -0.2122    112.2297     23.6257
   634.9000      7.9953      2.6222      0.1106      1.6866    118.6058     23.7801
   635.0000      8.0056      2.6063      0.0947      2.6474    123.0277     24.0754
   635.1000      8.0056      2.5972      0.0846      3.2018    119.9741     24.2815
   635.2000      8.0056      2.5845      0.0602      3.9695    112.3526     24.6737
   635.3000      8.0688      2.5640      0.0847      5.2112    104.2956     24.9565
   635.4000      8.0688      2.5429      0.0345      6.4930     96.4124     24.7545
   635.5000      8.3241      2.5361      0.0110      6.9022     91.3646     24.5158
   635.6000      8.3241      2.5481      0.0411      6.1753     91.3898     24.5288
   635.7000      8.3241      2.5666      0.0510      5.0565     93.9349     24.3752
   635.8000      8.3753      2.5840      0.0452      3.9983     95.3465     23.7592
   635.9000      8.3753      2.6039      0.0823      2.7939     95.2067     23.0595
   636.0000      8.4441      2.6270      0.1363      1.3945     94.5020     22.8634
   636.1000      8.4441      2.6549      0.0972     -0.2969     92.6888     23.0407
   636.2000      8.4441      2.6859      0.1512     -2.1751     88.7693     23.2064
   636.3000      8.5259      2.7037      0.1058     -3.2523     85.7133     23.3841
   636.4000      8.5259      2.7028      0.1457     -3.1994     85.6270     23.5452
   636.5000      8.8931      2.6972      0.1310     -2.8620     85.8925     23.7261
   636.6000      8.8931      2.7008      0.0817     -3.0760     83.5651     24.1120
   636.7000      8.8931      2.7035      0.1190     -3.2407     77.9809     24.4120
   636.8000      9.1255      2.6850      0.0582     -2.1184     74.0894     24.3128
   636.9000      9.1255      2.6533      0.0513     -0.1986     74.5445     24.0082
   637.0000      8.3234      2.6324     -0.0019      1.0668     75.7686     23.8558
   637.1000      8.3234      2.6277      0.0195      1.3530     78.7086     24.0664
   637.2000      8.3234      2.6310     -0.0126      1.1520     85.5775     24.5201
   637.3000      8.1182      2.6400     -0.0139      0.6048     92.2615     24.8631
   637.4000      8.1182      2.6453      0.0438      0.2823     94.6156     24.9021
   637.5000      8.1123      2.6283      0.0328      1.3160     94.0427     24.9227
   637.6000      8.1123      2.5942     -0.0398      3.3829     93.2499     25.1004
   637.7000      8.1123      2.5703     -0.0256      4.8284     96.5541     24.9223
   637.8000      8.1204      2.5703     -0.0447      4.8286    104.9504     24.2966
   637.9000      8.1204      2.5853      0.0034      3.9201    110.7864     23.8405
   638.0000      8.1417      2.5980      0.0421      3.1512    109.6378     23.6886
   638.1000      8.1417      2.5939      0.0503      3.3995    106.6119     23.6139
   638.2000      8.1417      2.5760     -0.0256      4.4844    107.2509     23.7473
   638.3000      8.1789      2.5714     -0.0587      4.7616    112.4794     24.1091
   638.4000      8.1789      2.5879      0.0365      3.7616    119.5520     24.6205
   638.5000      8.1977      2.5940      0.0342      3.3955    123.0110     25.5405
   638.6000      8.1977      2.5717      0.0276      4.7435    121.0774     26.3787
   638.7000      8.1977      2.5333     -0.0105      7.0754    120.3598     26.2995
   638.8000      8.2259      2.5058     -0.0322      8.7417    126.1389     25.7985
   638.9000      8.2259      2.5077     -0.0321      8.6221    132.6619     25.7399
   639.0000      8.2362      2.5207     -0.0064      7.8352    134.8835     25.8831
   639.1000      8.2362      2.5197     -0.0259      7.8947    137.2167     25.6679
   639.2000      8.2362      2.5101     -0.0556      8.4788    139.3877     25.3676
   639.3000      8.3127      2.5095     -0.0375      8.5177    136.3719     25.5227
   639.4000      8.3127      2.5226     -0.0160      7.7224    132.6391     25.8834
   639.5000      8.3595      2.5370      0.0491      6.8488    135.7219     26.2344
   639.6000      8.3595      2.5414      0.0153      6.5808    144.0421     26.9614
   639.7000      8.3595      2.5479     -0.0351      6.1866    151.0950     27.7422
   639.8000      8.4085      2.5653      0.0297      5.1319    153.0088     28.0484
   639.9000      8.4085      2.5830      0.0177      4.0608    148.3965     28.1056
   640.0000      8.4508      2.5973      0.0183      3.1945    139.8373     28.0781
   640.1000      8.4508      2.6051      0.0544      2.7193    137.7640     27.8103
   640.2000      8.4508      2.5947      0.0392      3.3515    147.3729     27.2602
   640.3000      8.4212      2.5669     -0.0063      5.0373    159.5672     26.7399
   640.4000      8.4212      2.5309     -0.0225      7.2186    166.6043     26.6880
   640.5000      8.3916      2.4707     -0.0094     10.8682    168.2103     27.0220
   640.6000      8.3916      2.3664     -0.1006     17.1852    163.0176     27.1524
   640.7000      8.3916      2.2511     -0.1801     24.1737    154.0699     26.7002
   640.8000      8.3375      2.1747     -0.1403     28.8084    150.0815     25.9617
   640.9000      8.3375      2.1372     -0.1181     31.0796    153.6820     25.5134
