~Version Information
VERS.                      2.0: CWLS Log ASCII Standard - VERSION 2.0
WRAP.                       NO: One line per depth step
~Well Information Block
STRT.FT               528.0000: 
STOP.FT              2251.5000: 
STEP.FT                 0.2500: 
NULL.                -999.2500: 
COMP.          Pioneer Natural Resources: COMPANY
WELL.           Parklane 43-34: WELL
FLD.           Purgatorie River: FIELD
LOC.           1704' FSL & 1119' FEL: LOCATION
PROV.                 Colorado: PROVINCE
CNTY.               Las Animas: COUNTRY
SRVC.                         : SERVICE COMPANY
DATE.          Thu Oct 07 01:37:17 2004: LOG DATE
UWI.           05 071 08162 00: UNIQUE WELL ID
~Curve Information Block
DEPT.FT            0 000 00 00: Depth
LTEN.lb                       : Surface Line Tension
SN.Ohm-m                      : IEL Short Normal
SP.mV                         : IEL Spontaneous Potential
DIR.Ohm-m                     : IEL Induction Resistivity
GR.GAPI                       : Gamma Ray
~Parameter Information Block
~A  Depth       LTEN         SN          SP         DIR          GR     
# ...
  2124.0000   1007.6989     19.6013    -33.5919     17.8825     99.3799
  2124.2500   1007.7168     19.8898    -33.5529     17.7246     95.1543
  2124.5000   1007.7906     20.1960    -33.5599     17.5312     87.0325
  2124.7500   1008.1261     20.5100    -33.5977     17.3046     81.4506
  2125.0000   1008.5081     20.8041    -33.6509     17.0527     75.2013
  2125.2500   1008.7900     21.0249    -33.7057     16.7951     73.3348
  2125.5000   1009.0022     21.1082    -33.7508     16.5596     74.0342
  2125.7500   1009.0622     21.0067    -33.7782     16.3726     76.1617
  2126.0000   1008.7757     20.7116    -33.7831     16.2476     80.2278
  2126.2500   1008.2069     20.2546    -33.7636     16.1805     82.8162
  2126.5000   1007.7452     19.6941    -33.7205     16.1553     86.2398
  2126.7500   1007.6647     19.0953    -33.6563     16.1528     88.3836
  2127.0000   1007.8128     18.5184    -33.5752     16.1571     91.3862
  2127.2500   1007.9094     18.0142    -33.4813     16.1539     92.9250
  2127.5000   1008.0456     17.6243    -33.3785     16.1288     93.9602
  2127.7500   1008.6335     17.3795    -33.2687     16.0686     93.7110
  2128.0000   1009.7673     17.2957    -33.1516     15.9673     91.9896
  2128.2500   1010.8532     17.3725    -33.0238     15.8278     89.8537
  2128.5000   1011.1346     17.5942    -32.8795     15.6569     85.0544
  2128.7500   1010.5323     17.9304    -32.7110     15.4584     81.1682
  2129.0000   1009.7600     18.3316    -32.5104     15.2330     75.6774
  2129.2500   1009.6110     18.7252    -32.2711     14.9844     72.8992
  2129.5000   1010.2473     19.0226    -31.9892     14.7228     70.2769
  2129.7500   1011.1437     19.1397    -31.6648     14.4614     69.4503
  2130.0000   1011.6376     19.0228    -31.3025     14.2077     69.8054
  2130.2500   1011.5542     18.6647    -30.9109     13.9573     71.4475
  2130.5000   1011.3374     18.1038    -30.5026     13.6976     76.3133
  2130.7500   1011.5766     17.4068    -30.0929     13.4147     80.9242
  2131.0000   1012.4292     16.6465    -29.6983     13.1012     88.9680
  2131.2500   1013.4886     15.8818    -29.3348     12.7573     94.4130
  2131.5000   1014.1030     15.1491    -29.0164     12.3901    101.4688
  2131.7500   1013.7857     14.4645    -28.7533     12.0119    104.7974
  2132.0000   1012.4703     13.8340    -28.5511     11.6398    107.3369
  2132.2500   1010.5605     13.2643    -28.4097     11.2954    107.7409
  2132.5000   1008.7360     12.7681    -28.3239     11.0018    107.6103
  2132.7500   1007.5589     12.3651    -28.2846     10.7785    107.7028
  2133.0000   1007.1522     12.0774    -28.2801     10.6374    108.7300
  2133.2500   1007.2617     11.9217    -28.2987     10.5808    109.9782
  2133.5000   1007.6240     11.9011    -28.3299     10.6021    112.1718
  2133.7500   1008.1853     12.0020    -28.3663     10.6882    113.5178
  2134.0000   1008.9433     12.1976    -28.4035     10.8217    114.9332
  2134.2500   1009.7455     12.4610    -28.4404     10.9827    115.1408
  2134.5000   1010.3651     12.7785    -28.4778     11.1525    113.5552
  2134.7500   1010.6628     13.1553    -28.5176     11.3198    111.0807
  2135.0000   1010.5911     13.6068    -28.5615     11.4861    106.3418
  2135.2500   1010.1461     14.1385    -28.6107     11.6658    103.6637
  2135.5000   1009.4211     14.7283    -28.6656     11.8793    101.8195
  2135.7500   1008.6771     15.3252    -28.7254     12.1427    102.1287
  2136.0000   1008.2751     15.8667    -28.7882     12.4580    104.1465
  2136.2500   1008.4412     16.3041    -28.8509     12.8084    105.9584
  2136.5000   1009.0472     16.6190    -28.9086     13.1592    108.6077
  2136.7500   1009.7061     16.8255    -28.9549     13.4648    109.9868
  2137.0000   1010.1544     16.9612    -28.9819     13.6811    110.7466
  2137.2500   1010.4532     17.0753    -28.9813     13.7782    109.8259
  2137.5000   1010.7411     17.2131    -28.9455     13.7496    105.7038
  2137.7500   1010.9135     17.3970    -28.8692     13.6129    101.3262
  2138.0000   1010.7118     17.6092    -28.7506     13.4038     93.5767
  2138.2500   1010.1223     17.7900    -28.5923     13.1662     88.5945
  2138.5000   1009.5328     17.8596    -28.4015     12.9413     82.8306
  2138.7500   1009.3777     17.7539    -28.1891     12.7579     80.6169
  2139.0000   1009.7117     17.4539    -27.9690     12.6270     80.0594
  2139.2500   1010.3166     16.9916    -27.7564     12.5436     81.5430
  2139.5000   1011.1383     16.4320    -27.5662     12.4960     86.1137
  2139.7500   1012.2621     15.8491    -27.4113     12.4747     89.9700
  2140.0000   1013.4279     15.3095    -27.3013     12.4743     95.0079
  2140.2500   1014.0221     14.8690    -27.2416     12.4906     96.9666
  2140.5000   1013.7984     14.5732    -27.2323     12.5163     97.8538
  2140.7500   1013.3112     14.4540    -27.2685     12.5428     98.0160
  2141.0000   1013.3647     14.5208    -27.3410     12.5665     99.2712
  2141.2500   1014.1889     14.7576    -27.4376     12.5932    100.8407
  2141.5000   1015.3522     15.1293    -27.5444     12.6378    102.5139
  2141.7500   1016.2840     15.5948    -27.6478     12.7176    101.8976
  2142.0000   1016.6292     16.1161    -27.7359     12.8434     97.8973
  2142.2500   1016.3013     16.6595    -27.7999     13.0158     94.2069
  2142.5000   1015.5801     17.1903    -27.8348     13.2278     89.6042
  2142.7500   1015.0759     17.6714    -27.8396     13.4714     87.9526
  2143.0000   1015.2025     18.0672    -27.8174     13.7427     87.4600
  2143.2500   1015.6619     18.3514    -27.7743     14.0391     88.0336
  2143.5000   1015.7074     18.5147    -27.7184     14.3531     89.6927
  2143.7500   1014.9126     18.5695    -27.6583     14.6667     90.9834
  2144.0000   1013.5406     18.5485    -27.6013     14.9551     92.2919
  2144.2500   1012.2705     18.4975    -27.5521     15.1960     92.3079
  2144.5000   1011.7000     18.4636    -27.5111     15.3802     91.1190
  2144.7500   1011.9745     18.4830    -27.4745     15.5133     89.9343
  2145.0000   1012.7179     18.5754    -27.4347     15.6091     88.0768
  2145.2500   1013.3705     18.7459    -27.3823     15.6803     86.7463
  2145.5000   1013.7072     18.9877    -27.3089     15.7367     84.5188
  2145.7500   1013.9788     19.2823    -27.2112     15.7912     83.1648
  2146.0000   1014.4677     19.5962    -27.0936     15.8640     82.1940
  2146.2500   1014.9929     19.8846    -26.9721     15.9756     82.4947
  2146.5000   1015.0045     20.1061    -26.8744     16.1317     83.9533
  2146.7500   1014.1738     20.2383    -26.8397     16.3092     85.1666
  2147.0000   1012.7926     20.2844    -26.9145     16.4584     86.9518
  2147.2500   1011.5519     20.2612    -27.1466     16.5202     88.1275
  2147.5000   1010.9616     20.1811    -27.5765     16.4493     89.8885
  2147.7500   1010.9878     20.0432    -28.2287     16.2254     90.8333
  2148.0000   1011.2170     19.8385    -29.1042     15.8500     91.1529
  2148.2500   1011.3325     19.5603    -30.1763     15.3403     90.3737
  2148.5000   1011.3791     19.2065    -31.3922     14.7312     88.2502
  2148.7500   1011.5718     18.7746    -32.6802     14.0756     86.9566
  2149.0000   1011.9516     18.2561    -33.9604     13.4356     86.4470
  2149.2500   1012.3117     17.6409    -35.1578     12.8647     87.4446
  2149.5000   1012.4032     16.9291    -36.2133     12.3924     90.8924
  2149.7500   1012.1261     16.1435    -37.0895     12.0201     94.2229
  2150.0000   1011.5300     15.3307    -37.7725     11.7283    100.5147
  2150.2500   1010.7234     14.5511    -38.2682     11.4886    105.6639
  2150.5000   1009.8770     13.8619    -38.5959     11.2756    114.5905
  2150.7500   1009.3173     13.3036    -38.7819     11.0723    120.4654
  2151.0000   1009.4341     12.8949    -38.8543     10.8698    126.8718
  2151.2500   1010.3094     12.6367    -38.8396     10.6636    128.7656
  2151.5000   1011.4964     12.5176    -38.7617     10.4544    128.7193
  2151.7500   1012.3427     12.5168    -38.6409     10.2513    127.6957
