~Version Information
VERS.                      2.0: CWLS Log ASCII Standard - VERSION 2.0
WRAP.                       NO: One line per depth step
~Well Information Block
STRT.FT               -12.5000: 
STOP.FT              1613.0000: 
STEP.FT                 0.2500: 
NULL.                -999.2500: 
COMP.          Pioneer Natural Resources: COMPANY
WELL.          Peregrine 12-20: WELL
FLD.           Purgatorie River: FIELD
LOC.           1722' FNL & 999' FWL--: LOCATION
PROV.                       CO: PROVINCE
CNTY.               Las Animas: COUNTRY
SRVC.          Patterson Wireline: SERVICE COMPANY
DATE.          Fri Jul 22 12:50:00 2005: LOG DATE
UWI.           05 071 08428 00: UNIQUE WELL ID
~Curve Information Block
DEPT.FT            0 000 00 00: Depth
CCL.                          : Casing Collar Locator
TT3.usec                      : CBL 3' Travel Time
AMP3.mV                       : CBL 3' Amplitude
GR.GAPI                       : Gamma Ray
~Parameter Information Block
~A  Depth       CCL         TT3         AMP3         GR     
# ...
  1059.5000      0.0000    779.1878      5.0877    140.5785
  1059.7500      0.0000    768.0390      5.1543    135.9683
  1060.0000      0.0000    753.8730      5.1962    130.1047
  1060.2500      0.0000    733.9672      5.2068    125.4257
  1060.5000      0.0000    709.8567      5.1716    122.6471
  1060.7500      0.0000    691.1378      5.0954    120.8106
  1061.0000      0.0000    689.9235      4.9897    118.2529
  1061.2500      0.0000    708.6963      4.8648    114.2382
  1061.5000      0.0000    736.3392      4.7483    109.6650
  1061.7500      0.0000    758.4261      4.6852    105.8650
  1062.0000      0.0000    769.1573      4.7066    103.0122
  1062.2500     -2.0000    772.2235      4.8020    100.0704
  1062.5000      0.0000    773.2278      4.9181     96.0386
  1062.7500      0.0000    772.7255      4.9998     91.0441
  1063.0000      0.0000    765.7400      5.0484     86.7269
  1063.2500      0.0000    749.3361      5.1231     86.0027
  1063.5000      0.0000    731.3652      5.2558     91.7039
  1063.7500      0.0000    727.4404      5.3903    104.1341
  1064.0000      0.0000    745.4843      5.4511    119.7880
  1064.2500      0.0000    776.2587      5.4535    133.3368
  1064.5000      0.0000    802.0090      5.4927    141.4619
  1064.7500      0.0000    811.8645      5.6316    144.7781
  1065.0000      0.0000    807.4153      5.8406    146.2385
  1065.2500      0.0000    797.4258      6.0417    148.1035
  1065.5000      0.0000    790.3077      6.1805    150.4674
  1065.7500      0.0000    789.7657      6.2505    152.0916
  1066.0000      0.0000    794.2042      6.2687    151.7780
  1066.2500      0.0000    799.2494      6.2411    148.8986
  1066.5000      0.0000    801.8488      6.1556    143.6066
  1066.7500      0.0000    802.2756      6.0023    137.1779
  1067.0000      0.0000    802.0116      5.7927    131.6161
  1067.2500      0.0000    800.7200      5.5567    128.1664
  1067.5000      0.0000    796.8792      5.3310    125.9676
  1067.7500      0.0000    790.8596      5.1470    122.3989
  1068.0000      0.0000    785.6302      5.0164    115.2404
  1068.2500      0.0000    784.1697      4.9276    104.7093
  1068.5000      0.0000    786.9091      4.8672     93.1977
  1068.7500      0.0000    791.6619      4.8438     83.1260
  1069.0000      0.0000    795.6005      4.8712     75.5836
  1069.2500      0.0000    797.2668      4.9268     70.9087
  1069.5000      0.0000    796.8743      4.9512     69.7245
  1069.7500      0.0000    795.0930      4.9056     73.0729
  1070.0000      0.0000    792.1349      4.8154     81.7696
  1070.2500      0.0000    788.1058      4.7423     95.4657
  1070.5000      0.0000    783.7238      4.7188    111.9241
  1070.7500      0.0000    780.4159      4.7281    127.3421
  1071.0000      0.0000    779.5720      4.7457    138.1792
  1071.2500      0.0000    781.5428      4.7736    143.2477
  1071.5000      0.0000    785.5925      4.8250    143.9220
  1071.7500      0.0000    790.9921      4.8903    142.2536
  1072.0000      0.0000    797.4401      4.9328    139.3069
  1072.2500      0.0000    803.9693      4.9209    135.4278
  1072.5000      0.0000    808.4987      4.8622    131.3999
  1072.7500      0.0000    809.5035      4.7994    128.6620
  1073.0000      0.0000    807.6540      4.7666    128.4904
  1073.2500      0.0000    805.1817      4.7538    131.0731
  1073.5000      0.0000    804.1544      4.7269    134.9090
  1073.7500      0.0000    805.7924      4.6717    136.9825
  1074.0000      0.0000    810.4758      4.6010    134.4317
  1074.2500      0.0000    816.7742      4.5247    126.8867
  1074.5000      0.0000    820.6518      4.4448    116.8756
  1074.7500      0.0000    817.5860      4.3731    107.4041
  1075.0000      0.0000    806.8169      4.3212     99.5340
  1075.2500      0.0000    793.1506      4.2705     92.7656
  1075.5000      0.0000    783.5021      4.1823     87.2058
  1075.7500      0.0000    780.9528      4.0379     84.4160
  1076.0000      0.0000    782.1844      3.8500     86.1460
  1076.2500      0.0000    781.0545      3.6378     92.8543
  1076.5000      0.0000    774.3581      3.4130    103.4163
  1076.7500      0.0000    763.3549      3.1899    115.6076
  1077.0000      0.0000    750.7145      2.9854    126.6720
  1077.2500      0.0000    738.3142      2.7972    133.9675
  1077.5000      0.0000    727.9503      2.5920    135.7531
  1077.7500      0.0000    721.8463      2.3351    131.6823
  1078.0000      0.0000    721.2202      2.0360    122.7039
  1078.2500      0.0000    724.6380      1.7518    110.6830
  1078.5000      0.0000    728.2826      1.5375     98.0777
  1078.7500      0.0000    728.4903      1.4008     87.4925
  1079.0000      0.0000    724.6780      1.3142     80.8879
  1079.2500      0.0000    719.4370      1.2575     78.8985
  1079.5000      0.0000    715.6455      1.2319     80.9418
  1079.7500      0.0000    714.6105      1.2460     85.9775
  1080.0000      0.0000    717.4212      1.3081     92.9874
  1080.2500      0.0000    725.9062      1.4279    100.7211
  1080.5000      0.0000    740.0190      1.5986    107.5243
  1080.7500      0.0000    755.0130      1.7769    111.8895
  1081.0000      0.0000    763.2902      1.9078    112.9506
  1081.2500      0.0000    759.6850      1.9797    110.3524
  1081.5000      0.0000    745.0471      2.0314    104.2835
  1081.7500      0.0000    725.5616      2.0924     96.0727
  1082.0000      0.0000    708.8495      2.1412     88.4069
  1082.2500      0.0000    699.7518      2.1440     84.3102
  1082.5000      0.0000    698.5767      2.1168     85.3828
  1082.7500      0.0000    702.2898      2.1195     90.7385
  1083.0000      0.0000    706.9941      2.1844     97.6579
  1083.2500      0.0000    710.2300      2.2777    103.3862
  1083.5000      0.0000    712.5677      2.3556    106.4253
  1083.7500      0.0000    717.3622      2.4401    106.6360
  1084.0000      0.0000    727.9016      2.6053    105.0848
  1084.2500      0.0000    744.0001      2.8902    103.9496
  1084.5000      0.0000    761.5443      3.2519    105.6168
  1084.7500      0.0000    775.4044      3.6131    111.1376
  1085.0000      0.0000    782.6149      3.9311    119.5492
  1085.2500      0.0000    783.3405      4.2079    128.7208
  1085.5000      0.0000    780.3694      4.4526    136.8773
  1085.7500      0.0000    778.3005      4.6614    143.4752
  1086.0000      0.0000    781.5671      4.8338    148.7773
  1086.2500      0.0000    791.2908      4.9844    152.9150
  1086.5000      0.0000    803.9194      5.1285    155.7832
  1086.7500      0.0000    813.9590      5.2685    157.6522
  1087.0000      0.0000    818.3629      5.3977    159.2254
  1087.2500      0.0000    817.9324      5.5094    161.0744
  1087.5000      0.0000    814.9451      5.6010    163.5109
  1087.7500      0.0000    810.3105      5.6837    166.9192
  1088.0000      0.0000    802.7159      5.7792    171.4596
  1088.2500      0.0000    789.7612      5.8951    176.1396
  1088.5000      0.0000    770.5681      6.0048    178.9059
  1088.7500      0.0000    748.5171      6.0744    178.4361
  1089.0000      0.0000    730.9657      6.1137    175.8647
  1089.2500      0.0000    724.6002      6.1787    174.1485
  1089.5000      0.0000    730.7321      6.3104    175.1526
  1089.7500      0.0000    745.7054      6.4917    177.4669
  1090.0000      0.0000    764.9528      6.6797    177.9285
  1090.2500      0.0000    785.2640      6.8608    175.4987
  1090.5000      0.0000    803.9933      7.0448    172.5814
  1090.7500      0.0000    817.9626      7.2137    172.0085
  1091.0000      0.0000    823.7239      7.3098    173.6978
  1091.2500      0.0000    819.0557      7.2852    174.8492
  1091.5000      0.0000    804.9047      7.1413    172.6315
  1091.7500      0.0000    785.9648      6.9138    166.2662
  1092.0000      0.0000    768.5037      6.6374    157.2730
  1092.2500      0.0000    756.9589      6.3307    148.2654
  1092.5000      0.0000    752.4478      5.9964    140.9618
  1092.7500      0.0000    753.9099      5.6369    134.8657
