~Version Information
VERS.                      2.0: CWLS Log ASCII Standard - VERSION 2.0
WRAP.                       NO: One line per depth step
~Well Information Block
STRT.FT               260.0000: 
STOP.FT              1200.5000: 
STEP.FT                 0.2500: 
NULL.                -999.2500: 
COMP.          Evergreen Operating Corporation: COMPANY
WELL.             Justin 32-10: WELL
FLD.           Purgatorie River: FIELD
LOC.           2994' FNL & 1449' FEL: LOCATION
PROV.                 Colorado: PROVINCE
CNTY.               Las Animas: COUNTRY
SRVC.                         : SERVICE COMPANY
DATE.          Sun Aug 29 20:47:20 2004: LOG DATE
UWI.           05 071 08053 00: UNIQUE WELL ID
~Curve Information Block
DEPT.FT            0 000 00 00: Depth
LTEN.lb                       : Surface Line Tension
SN.Ohm-m                      : IEL Short Normal
SP.mV                         : IEL Spontaneous Potential
DIR.Ohm-m                     : IEL Induction Resistivity
GR.GAPI                       : Gamma Ray
~Parameter Information Block
~A  Depth       LTEN         SN          SP         DIR          GR     
# ...
   820.0000    605.5621     49.8093      7.6435     36.8471     51.2593
   820.2500    606.4191     47.8222      7.8124     35.1369     50.6749
   820.5000    607.1747     45.8924      8.0031     33.3376     50.1686
   820.7500    607.6688     43.9465      8.2107     31.4743     50.6305
   821.0000    607.8724     41.9144      8.4282     29.5894     52.9439
   821.2500    607.8197     39.7393      8.6468     27.7422     55.2492
   821.5000    607.5402     37.3923      8.8564     25.9972     58.8358
   821.7500    607.0385     34.8887      9.0457     24.4068     61.0486
   822.0000    606.3132     32.2980      9.2037     22.9990     64.8080
   822.2500    605.3937     29.7363      9.3210     21.7765     68.2969
   822.5000    604.3863     27.3389      9.3906     20.7242     75.3715
   822.7500    603.4644     25.2209      9.4096     19.8171     80.9677
   823.0000    602.7714     23.4454      9.3793     19.0256     90.1707
   823.2500    602.3932     22.0139      9.3056     18.3193     96.8525
   823.5000    602.4390     20.8822      9.1981     17.6704    107.2830
   823.7500    602.9860     19.9907      9.0689     17.0580    113.6445
   824.0000    603.8873     19.2889      8.9311     16.4725    120.6140
   824.2500    604.8047     18.7443      8.7972     15.9179    123.1256
   824.5000    605.4792     18.3352      8.6780     15.4088    123.9675
   824.7500    605.8344     18.0379      8.5816     14.9619    122.9234
   825.0000    605.8643     17.8210      8.5133     14.5856    119.5908
   825.2500    605.5906     17.6484      8.4755     14.2749    116.7408
   825.5000    605.1175     17.4875      8.4683     14.0136    112.8629
   825.7500    604.6380     17.3147      8.4903     13.7803    111.3373
   826.0000    604.3901     17.1107      8.5387     13.5532    111.3459
   826.2500    604.5441     16.8485      8.6105     13.3108    112.7449
   826.5000    605.0471     16.4838      8.7030     13.0325    116.2191
   826.7500    605.6689     15.9577      8.8144     12.7009    119.1309
   827.0000    606.2261     15.2175      8.9441     12.3083    124.1908
   827.2500    606.6255     14.2464      9.0927     11.8604    127.8977
   827.5000    606.7703     13.0874      9.2617     11.3756    133.2224
   827.7500    606.6653     11.8459      9.4529     10.8801    135.8785
   828.0000    606.5251     10.6656      9.6672     10.4012    137.6659
   828.2500    606.5372      9.6885      9.9043      9.9616    137.7366
   828.5000    606.5972      9.0141     10.1616      9.5756    137.8323
   828.7500    606.4604      8.6742     10.4343      9.2483    138.5193
   829.0000    606.0719      8.6313     10.7154      8.9771    139.8410
   829.2500    605.6368      8.7975     10.9965      8.7566    139.9792
   829.5000    605.4183      9.0652     11.2680      8.5807    138.1216
   829.7500    605.5256      9.3377     11.5207      8.4441    135.7177
   830.0000    605.8735      9.5491     11.7460      8.3420    131.5054
   830.2500    606.3085      9.6724     11.9363      8.2700    128.9457
   830.5000    606.7326      9.7148     12.0863      8.2254    126.1712
   830.7500    607.1050      9.7048     12.1930      8.2071    125.2115
   831.0000    607.4103      9.6779     12.2568      8.2152    125.0970
   831.2500    607.6665      9.6639     12.2819      8.2496    125.7241
   831.5000    607.8988      9.6812     12.2764      8.3099    127.1358
   831.7500    608.0603      9.7361     12.2526      8.3948    127.8784
   832.0000    608.0597      9.8258     12.2254      8.5024    127.7408
   832.2500    607.9402      9.9422     12.2105      8.6312    126.5792
   832.5000    607.9604     10.0751     12.2205      8.7800    124.0434
   832.7500    608.3857     10.2140     12.2613      8.9467    122.8803
   833.0000    609.2157     10.3501     12.3288      9.1282    123.6375
   833.2500    610.1768     10.4773     12.4084      9.3192    126.1170
   833.5000    610.9257     10.5930     12.4778      9.5139    131.6293
   833.7500    611.2202     10.6980     12.5120      9.7071    135.1421
   834.0000    611.0113     10.7953     12.4909      9.8965    138.2782
   834.2500    610.5089     10.8889     12.4052     10.0831    138.8233
   834.5000    610.1335     10.9823     12.2589     10.2696    138.4943
   834.7500    610.3519     11.0786     12.0678     10.4567    138.1940
   835.0000    611.4628     11.1816     11.8538     10.6411    137.9600
   835.2500    613.2881     11.2978     11.6388     10.8167    137.8319
   835.5000    614.9637     11.4351     11.4393     10.9794    137.5212
   835.7500    615.3881     11.6003     11.2637     11.1317    137.2338
   836.0000    614.1902     11.7958     11.1141     11.2829    136.4970
   836.2500    612.0889     12.0188     10.9884     11.4464    135.4780
   836.5000    610.1910     12.2630     10.8844     11.6350    132.7592
   836.7500    609.1628     12.5216     10.8020     11.8569    130.4476
   837.0000    609.0364     12.7916     10.7438     12.1134    127.3516
   837.2500    609.4449     13.0740     10.7146     12.3997    125.8415
   837.5000    609.9507     13.3734     10.7197     12.7072    123.8328
   837.7500    610.3094     13.6952     10.7623     13.0266    122.2751
   838.0000    610.4840     14.0416     10.8427     13.3490    119.9473
   838.2500    610.4843     14.4093     10.9571     13.6654    118.9741
   838.5000    610.3088     14.7866     11.0984     13.9661    118.8766
   838.7500    610.0125     15.1552     11.2561     14.2422    119.5644
   839.0000    609.7313     15.4949     11.4178     14.4872    121.1563
   839.2500    609.6391     15.7894     11.5706     14.6984    122.1906
   839.5000    609.8576     16.0316     11.7023     14.8783    122.8398
   839.7500    610.3430     16.2228     11.8022     15.0355    122.2335
   840.0000    610.8885     16.3689     11.8621     15.1855    119.7281
   840.2500    611.2785     16.4767     11.8771     15.3468    117.4935
   840.5000    611.4270     16.5539     11.8459     15.5336    114.6200
   840.7500    611.3984     16.6102     11.7707     15.7499    113.6858
   841.0000    611.3356     16.6588     11.6566     15.9876    114.2050
   841.2500    611.3171     16.7140     11.5110     16.2310    115.6255
   841.5000    611.2706     16.7894     11.3420     16.4629    118.4100
   841.7500    611.0818     16.8962     11.1573     16.6701    120.0495
   842.0000    610.7436     17.0452     10.9641     16.8455    121.4781
   842.2500    610.3342     17.2476     10.7681     16.9893    121.7456
   842.5000    609.9320     17.5126     10.5739     17.1093    121.7019
   842.7500    609.6135     17.8442     10.3854     17.2232    121.7319
   843.0000    609.4575     18.2398     10.2063     17.3614    121.9022
   843.2500    609.5062     18.6938     10.0401     17.5651    121.8505
   843.5000    609.7366     19.2050      9.8897     17.8784    121.2533
   843.7500    610.0406     19.7828      9.7576     18.3345    120.5263
   844.0000    610.2542     20.4470      9.6451     18.9432    118.9600
   844.2500    610.3132     21.2232      9.5523     19.6873    117.6900
   844.5000    610.3482     22.1366      9.4782     20.5274    116.0530
   844.7500    610.5046     23.2074      9.4211     21.4158    115.4282
   845.0000    610.7333     24.4484      9.3794     22.3134    114.5428
   845.2500    610.8817     25.8648      9.3522     23.2028    113.0422
   845.5000    610.9070     27.4507      9.3398     24.0921    108.3683
   845.7500    610.8745     29.1812      9.3442     25.0057    103.9240
   846.0000    610.8205     31.0039      9.3681     25.9699     96.7035
   846.2500    610.7446     32.8367      9.4147     26.9992     92.2394
   846.5000    610.7023     34.5804      9.4871     28.0923     86.7044
   846.7500    610.7968     36.1425      9.5868     29.2338     84.0373
   847.0000    611.0568     37.4638      9.7140     30.3981     81.9783
   847.2500    611.3882     38.5345      9.8665     31.5555     81.8984
   847.5000    611.6863     39.3914     10.0402     32.6782     82.9214
   847.7500    611.9429     40.0998     10.2288     33.7462     83.5904
