~Version Information
VERS.                      2.0: CWLS Log ASCII Standard - VERSION 2.0
WRAP.                       NO: One line per depth step
~Well Information Block
STRT.FT                -8.2500: 
STOP.FT              2239.2500: 
STEP.FT                 0.2500: 
NULL.                -999.2500: 
COMP.          Pioneer Natural Resources: COMPANY
WELL.            Moo Moo 31-36: WELL
FLD.           Purgatorie River: FIELD
LOC.           612' FNL & 2326' FEL--: LOCATION
PROV.                       CO: PROVINCE
CNTY.               Las Animas: COUNTRY
SRVC.          Patterson Wireline: SERVICE COMPANY
DATE.          Thu Jun 23 10:04:07 2005: LOG DATE
UWI.           05 071 08395 00: UNIQUE WELL ID
~Curve Information Block
DEPT.FT            0 000 00 00: Depth
CCL.                          : Casing Collar Locator
TT3.usec                      : CBL 3' Travel Time
AMP3.mV                       : CBL 3' Amplitude
GR.GAPI                       : Gamma Ray
~Parameter Information Block
~A  Depth       CCL         TT3         AMP3         GR     
# ...
  1599.7500      0.0000    754.6960      4.8560    134.9867
  1600.0000      0.0000    756.3375      5.0217    130.9563
  1600.2500      0.0000    760.2635      5.0899    128.9420
  1600.5000      0.0000    763.1274      5.0121    129.3024
  1600.7500      0.0000    764.5009      4.7821    132.0578
  1601.0000      0.0000    766.2804      4.4411    136.2192
  1601.2500      0.0000    769.4193      4.0700    139.9940
  1601.5000      0.0000    771.4916      3.7556    142.1469
  1601.7500      0.0000    767.9419      3.5575    142.9431
  1602.0000      0.0000    756.5415      3.5081    143.6893
  1602.2500      0.0000    740.6841      3.6220    145.5153
  1602.5000      0.0000    727.1548      3.8709    148.3878
  1602.7500      0.0000    719.9936      4.1599    150.8547
  1603.0000      0.0000    717.1655      4.3685    150.8398
  1603.2500      0.0000    713.8137      4.4229    147.2079
  1603.5000      0.0000    708.2230      4.3203    140.7188
  1603.7500      0.0000    703.8182      4.1034    133.2954
  1604.0000      0.0000    705.6712      3.8464    126.5729
  1604.2500      0.0000    715.5830      3.6492    121.3908
  1604.5000      0.0000    729.2520      3.5919    118.1307
  1604.7500      0.0000    737.1588      3.6799    116.7228
  1605.0000      0.0000    730.1885      3.8565    116.1991
  1605.2500      0.0000    707.4397      4.0695    114.9025
  1605.5000      0.0000    678.9902      4.2976    111.6302
  1605.7500      0.0000    659.7186      4.5111    106.6697
  1606.0000      0.0000    659.4913      4.6468    101.7143
  1606.2500      0.0000    677.9605      4.6476     98.7679
  1606.5000      0.0000    706.5321      4.5256     98.7847
  1606.7500      0.0000    734.4162      4.3773    100.9599
  1607.0000      0.0000    754.2598      4.3265    103.2798
  1607.2500      0.0000    764.3950      4.4311    103.9308
  1607.5000      0.0000    767.4315      4.6308    102.2929
  1607.7500      0.0000    767.1457      4.7861     98.7359
  1608.0000      0.0000    766.1241      4.7731     93.9588
  1608.2500      0.0000    765.2901      4.5643     88.8867
  1608.5000      0.0000    764.3992      4.2495     84.7898
  1608.7500      0.0000    762.4484      3.9904     82.6403
  1609.0000      0.0000    757.7574      3.9280     82.1679
  1609.2500      0.0000    748.6304      4.1037     82.1926
  1609.5000      0.0000    735.0715      4.4448     82.1499
  1609.7500      0.0000    720.2239      4.8129     82.7295
  1610.0000      0.0000    708.9845      5.0740     84.7613
  1610.2500      0.0000    703.9536      5.1498     88.1737
  1610.5000      0.0000    702.8672      5.0349     92.3465
  1610.7500      0.0000    700.6601      4.7823     96.7964
  1611.0000      0.0000    694.1806      4.4700    101.0187
  1611.2500      0.0000    685.0967      4.1661    104.0958
  1611.5000      0.0000    678.4136      3.9211    105.0822
  1611.7500      0.0000    678.0957      3.7764    103.9135
  1612.0000      0.0000    684.3972      3.7510    101.6511
  1612.2500      0.0000    695.2960      3.8146     99.5961
  1612.5000      0.0000    708.9576      3.8998     98.1342
  1612.7500      0.0000    724.0227      3.9530     96.6078
  1613.0000     -2.0000    738.9506      3.9681     94.5984
  1613.2500      0.0000    752.0815      3.9841     93.1576
  1613.5000      0.0000    761.4556      4.0598     94.0764
  1613.7500      0.0000    763.5460      4.2245     97.6799
  1614.0000      0.0000    752.8289      4.4383    102.0069
  1614.2500      0.0000    725.2021      4.6208    104.7105
  1614.5000      0.0000    684.9316      4.7359    105.3557
  1614.7500      0.0000    647.9783      4.8263    105.3490
  1615.0000      0.0000    633.5978      4.9474    105.9672
  1615.2500      0.0000    648.0128      5.0878    106.9397
  1615.5000      0.0000    676.6576      5.1699    106.8353
  1615.7500      0.0000    695.8423      5.1197    104.6645
  1616.0000      0.0000    693.8207      4.9329    101.1743
  1616.2500      0.0000    680.0272      4.6911     98.4329
  1616.5000      0.0000    673.5399      4.5181     97.8982
  1616.7500      0.0000    684.0272      4.5010     98.9505
  1617.0000      0.0000    704.7165      4.6316     99.6672
  1617.2500      0.0000    721.2790      4.8114     99.1494
  1617.5000      0.0000    724.6115      4.9138     98.5153
  1617.7500      0.0000    715.9014      4.8568     99.1317
  1618.0000      0.0000    702.7119      4.6469    100.5051
  1618.2500      0.0000    692.0569      4.3794    100.7656
  1618.5000      0.0000    686.7924      4.1911     98.9819
  1618.7500      0.0000    686.5918      4.1786     96.2122
  1619.0000      0.0000    690.1375      4.3316     94.2873
  1619.2500      0.0000    695.7404      4.5423     94.2388
  1619.5000      0.0000    701.1559      4.6922     95.9745
  1619.7500      0.0000    703.8690      4.7399     98.6654
  1620.0000      0.0000    701.1310      4.7327    101.1268
  1620.2500      0.0000    689.5387      4.7462    102.4573
  1620.5000      0.0000    665.9445      4.8137    102.7908
  1620.7500      0.0000    630.7455      4.8950    103.1299
  1621.0000      0.0000    590.8087      4.9050    104.1562
  1621.2500      0.0000    558.1652      4.7867    105.5420
  1621.5000      0.0000    544.5575      4.5758    106.5804
  1621.7500      0.0000    555.5117      4.3935    106.8659
  1622.0000      0.0000    587.2953      4.3628    106.0930
  1622.2500      0.0000    628.6968      4.5145    104.0748
  1622.5000      0.0000    667.6115      4.7591    101.5062
  1622.7500      0.0000    697.8222      4.9424     99.9839
  1623.0000      0.0000    719.9977      4.9481    100.5167
  1623.2500      0.0000    736.9879      4.7783    102.2798
  1623.5000      0.0000    749.5619      4.5499    103.3113
  1623.7500      0.0000    756.6824      4.4042    102.3821
  1624.0000      0.0000    758.0596      4.4073    100.1337
  1624.2500      0.0000    754.8936      4.5254     98.5763
  1624.5000      0.0000    747.6757      4.6731     99.5328
  1624.7500      0.0000    733.6302      4.7688    103.3556
  1625.0000      0.0000    707.7501      4.7646    108.9788
  1625.2500      0.0000    668.3099      4.6677    115.0821
  1625.5000      0.0000    621.4316      4.5422    120.9797
  1625.7500      0.0000    578.4189      4.4625    126.3349
  1626.0000      0.0000    548.1284      4.4485    130.4794
  1626.2500      0.0000    533.4473      4.4555    132.6346
  1626.5000      0.0000    534.6268      4.4199    132.7151
  1626.7500      0.0000    552.1941      4.3033    131.3260
  1627.0000      0.0000    584.3423      4.1142    129.0384
  1627.2500      0.0000    623.5441      3.9161    126.2955
  1627.5000      0.0000    659.0955      3.8021    123.9357
  1627.7500      0.0000    683.7330      3.8245    122.8681
  1628.0000      0.0000    696.9371      3.9416    122.8725
  1628.2500      0.0000    702.5129      4.0598    122.4555
  1628.5000      0.0000    704.5275      4.1364    120.5318
  1628.7500      0.0000    705.3819      4.2144    117.8429
  1629.0000      0.0000    705.9601      4.3444    116.1152
  1629.2500      0.0000    706.3537      4.5048    116.0348
  1629.5000      0.0000    706.3958      4.6267    116.6874
  1629.7500      0.0000    705.9032      4.6833    116.9216
  1630.0000      0.0000    704.4919      4.7141    116.6003
  1630.2500      0.0000    701.1985      4.7536    116.5703
  1630.5000      0.0000    694.5671      4.7753    118.2040
  1630.7500      0.0000    683.8432      4.7419    122.8930
  1631.0000      0.0000    670.8544      4.6820    130.9538
  1631.2500      0.0000    660.7644      4.6661    140.4868
  1631.5000      0.0000    659.9023      4.7130    147.7690
  1631.7500      0.0000    671.4947      4.7634    149.3544
  1632.0000      0.0000    692.9169      4.7552    144.2211
  1632.2500      0.0000    717.0474      4.7051    134.2852
  1632.5000      0.0000    736.3240      4.7019    123.1669
  1632.7500      0.0000    746.2988      4.8208    114.1267
  1633.0000      0.0000    746.7526      5.0399    108.2769
