~Version Information
VERS.                      2.0: CWLS Log ASCII Standard - VERSION 2.0
WRAP.                       NO: One line per depth step
~Well Information Block
STRT.FT               265.0000: 
STOP.FT              1214.0000: 
STEP.FT                 0.2500: 
NULL.                -999.2500: 
COMP.          Pioneer Natural Resources: COMPANY
WELL.          Pacheco 33-27 Tr: WELL
FLD.           Purgatoire River: FIELD
LOC.           2251' FSL & 2342' FEL: LOCATION
PROV.                 Colorado: PROVINCE
CNTY.               Las Animas: COUNTRY
SRVC.                Patterson: SERVICE COMPANY
DATE.          Fri Jun 10 13:29:04 2005: LOG DATE
UWI.           05 071 08384 00: UNIQUE WELL ID
~Curve Information Block
DEPT.FT            0 000 00 00: Depth
SN.Ohm-m                      : IEL Short Normal
SP.mV                         : IEL Spontaneous Potential
DIR.Ohm-m                     : IEL Induction Resistivity
GR.GAPI                       : Gamma Ray
~Parameter Information Block
~A  Depth        SN          SP         DIR          GR     
# ...
   399.0000   2000.0000   2000.0000      9.7849    154.0462
   399.2500   2000.0000   2000.0000      9.9417    152.5085
   399.5000   2000.0000   2000.0000     10.1594    149.5935
   399.7500   2000.0000   2000.0000     10.4414    147.5642
   400.0000   2000.0000   2000.0000     10.7803    145.4272
   400.2500   2000.0000   2000.0000     11.1672    144.7586
   400.5000   2000.0000   2000.0000     11.5989    143.5810
   400.7500   2000.0000   2000.0000     12.0779    141.6165
   401.0000   2000.0000   2000.0000     12.6021    136.4215
   401.2500   2000.0000   2000.0000     13.1534    132.1530
   401.5000   2000.0000   2000.0000     13.6920    126.0172
   401.7500   2000.0000   2000.0000     14.1635    122.3607
   402.0000   2000.0000   2000.0000     14.5171    116.8328
   402.2500   2000.0000   2000.0000     14.7266    112.7301
   402.5000   2000.0000   2000.0000     14.8001    106.7222
   402.7500   2000.0000   2000.0000     14.7702    104.2046
   403.0000   2000.0000   2000.0000     14.6757    105.2318
   403.2500   2000.0000   2000.0000     14.5511    109.7592
   403.5000   2000.0000   2000.0000     14.4284    121.1839
   403.7500   2000.0000   2000.0000     14.3409    130.2548
   404.0000   2000.0000   2000.0000     14.3219    142.9589
   404.2500   2000.0000   2000.0000     14.3977    149.5927
   404.5000   2000.0000   2000.0000     14.5820    156.0996
   404.7500   2000.0000   2000.0000     14.8725    158.2274
   405.0000   2000.0000   2000.0000     15.2482    158.0706
   405.2500   2000.0000   2000.0000     15.6679    155.4183
   405.5000   2000.0000   2000.0000     16.0785    147.1184
   405.7500   2000.0000   2000.0000     16.4388    138.8113
   406.0000   2000.0000   2000.0000     16.7475    123.3133
   406.2500   2000.0000   2000.0000     17.0505    112.1451
   406.5000   2000.0000   2000.0000     17.4182     96.8001
   406.7500   2000.0000   2000.0000     17.9133     88.9065
   407.0000   2000.0000   2000.0000     18.5699     81.4970
   407.2500   2000.0000   2000.0000     19.3901     78.9845
   407.5000   2000.0000   2000.0000     20.3458     76.9184
   407.7500   2000.0000   2000.0000     21.3765     75.6022
   408.0000   2000.0000   2000.0000     22.3870     72.7336
   408.2500   2000.0000   2000.0000     23.2569     70.1515
   408.5000   2000.0000   2000.0000     23.8683     65.6546
   408.7500   2000.0000   2000.0000     24.1371     62.6739
   409.0000   2000.0000   2000.0000     24.0224     59.3431
   409.2500   2000.0000   2000.0000     23.5223     58.6503
   409.5000   2000.0000   2000.0000     22.6744     61.1433
   409.7500   2000.0000   2000.0000     21.5629     65.8167
   410.0000   2000.0000   2000.0000     20.3067     78.0751
   410.2500   2000.0000   2000.0000     19.0225     89.4858
   410.5000   2000.0000   2000.0000     17.7913    109.3742
   410.7500   2000.0000   2000.0000     16.6519    122.7603
   411.0000   2000.0000   2000.0000     15.6155    140.5436
   411.2500   2000.0000   2000.0000     14.6835    150.0354
   411.5000   2000.0000   2000.0000     13.8558    160.3528
   411.7500   2000.0000   2000.0000     13.1304    164.8643
   412.0000   2000.0000   2000.0000     12.4995    168.7240
   412.2500   2000.0000   2000.0000     11.9511    169.5618
   412.5000   2000.0000   2000.0000     11.4742    168.3781
   412.7500   2000.0000   2000.0000     11.0630    166.2574
   413.0000   2000.0000   2000.0000     10.7182    162.1112
   413.2500   2000.0000   2000.0000     10.4438    159.3482
   413.5000   2000.0000   2000.0000     10.2444    155.9129
   413.7500   2000.0000   2000.0000     10.1246    154.2776
   414.0000   2000.0000   2000.0000     10.0880    152.8106
   414.2500   2000.0000   2000.0000     10.1358    152.2204
   414.5000   2000.0000   2000.0000     10.2650    151.1505
   414.7500   2000.0000   2000.0000     10.4682    150.1151
   415.0000   2000.0000   2000.0000     10.7350    148.5644
   415.2500   2000.0000   2000.0000     11.0542    147.8822
   415.5000   2000.0000   2000.0000     11.4164    147.1099
   415.7500   2000.0000   2000.0000     11.8163    146.1961
   416.0000   2000.0000   2000.0000     12.2579    143.6915
   416.2500   2000.0000   2000.0000     12.7561    141.5460
   416.5000   2000.0000   2000.0000     13.3326    138.4674
   416.7500   2000.0000   2000.0000     14.0078    136.6438
   417.0000   2000.0000   2000.0000     14.7927    133.6152
   417.2500   2000.0000   2000.0000     15.6900    130.9908
   417.5000   2000.0000   2000.0000     16.7015    126.2726
   417.7500   2000.0000   2000.0000     17.8348    123.0557
   418.0000   2000.0000   2000.0000     19.1011    118.5072
   418.2500   2000.0000   2000.0000     20.5031    115.3899
   418.5000   2000.0000   2000.0000     22.0144    109.7235
   418.7500   2000.0000   2000.0000     23.5619    104.8927
   419.0000   2000.0000   2000.0000     25.0280     95.9865
   419.2500   2000.0000   2000.0000     26.2828     89.4296
   419.5000   2000.0000   2000.0000     27.2350     80.5294
   419.7500   2000.0000   2000.0000     27.8693     76.6160
   420.0000   2000.0000   2000.0000     28.2516     75.4986
   420.2500   2000.0000   2000.0000     28.4953     77.8669
   420.5000   2000.0000   2000.0000     28.7012     83.9675
   420.7500   2000.0000   2000.0000     28.8970     88.0234
   421.0000   2000.0000   2000.0000     29.0180     92.1815
   421.2500   2000.0000   2000.0000     28.9441     93.5841
   421.5000   2000.0000   2000.0000     28.5694     94.7373
   421.7500   2000.0000   2000.0000     27.8652     95.7692
   422.0000   2000.0000   2000.0000     26.9041     99.0405
   422.2500   2000.0000   2000.0000     25.8297    102.6888
   422.5000   2000.0000   2000.0000     24.7769    109.6364
   422.7500   2000.0000   2000.0000     23.7994    114.2160
   423.0000   2000.0000   2000.0000     22.8651    119.3090
   423.2500   2000.0000   2000.0000     21.9188    121.1768
   423.5000   2000.0000   2000.0000     20.9453    122.3036
   423.7500   2000.0000   2000.0000     19.9683    122.5425
   424.0000   2000.0000   2000.0000     19.0023    122.8415
   424.2500   2000.0000   2000.0000     18.0257    123.2040
   424.5000   2000.0000   2000.0000     17.0064    124.2908
   424.7500   2000.0000   2000.0000     15.9473    125.6250
   425.0000   2000.0000   2000.0000     14.9014    129.1328
   425.2500   2000.0000   2000.0000     13.9431    132.8358
   425.5000   2000.0000   2000.0000     13.1288    140.6385
   425.7500   2000.0000   2000.0000     12.4758    146.9842
   426.0000   2000.0000   2000.0000     11.9644    156.9007
   426.2500   2000.0000   2000.0000     11.5515    162.8312
   426.5000   2000.0000   2000.0000     11.1873    169.1338
   426.7500   2000.0000   2000.0000     10.8317    170.9292
   427.0000   2000.0000   2000.0000     10.4667    169.8972
   427.2500   2000.0000   2000.0000     10.0985    167.4135
   427.5000   2000.0000   2000.0000      9.7498    162.7137
   427.7500   2000.0000   2000.0000      9.4458    159.6726
   428.0000   2000.0000   2000.0000      9.2053    155.8216
   428.2500   2000.0000   2000.0000      9.0383    153.8457
   428.5000   2000.0000   2000.0000      8.9477    151.6946
   428.7500   2000.0000   2000.0000      8.9305    150.4951
   429.0000   2000.0000   2000.0000      8.9790    148.1859
   429.2500   2000.0000   2000.0000      9.0814    145.9979
   429.5000   2000.0000   2000.0000      9.2227    142.3277
   429.7500   2000.0000   2000.0000      9.3858    140.4697
   430.0000   2000.0000   2000.0000      9.5543    139.4336
   430.2500   2000.0000   2000.0000      9.7168    139.5929
   430.5000   2000.0000   2000.0000      9.8722    140.1253
   430.7500   2000.0000   2000.0000     10.0331    140.6688
   431.0000   2000.0000   2000.0000     10.2225    142.7274
   431.2500   2000.0000   2000.0000     10.4652    145.3157
   431.5000   2000.0000   2000.0000     10.7759    150.4362
   431.7500   2000.0000   2000.0000     11.1530    153.8480
   432.0000   2000.0000   2000.0000     11.5799    157.9711
   432.2500   2000.0000   2000.0000     12.0341    160.1035
