~Version Information
 VERS.                                  2.0 : CWLS LAS VERSION
 WRAP.                                   NO : WRAPING MODE
 SWARE .                 MController 2.5.0N : SOFTWARE VERSION
~Well Information
 WELL.                          Cluck 21-25 : WELL
 COMP.    PIONEER NATURAL RESOURCES USA INC : COMPANY
 FLD.                      PURGATOIRE RIVER : FIELD
 LOC.                  NE/NW Sec 25 32S 67W : LOCATION
 DATE.                           6/5-6/2005 : DATE(S) LOGGED
 SRVC.       BLANCO GEOLOGICAL SERVICES LLC : SERVICE COMPANY
 STAT.                                   CO : STATE
 CNTY.                           LAS ANIMAS : COUNTY
 CTRY.                                  USA : COUNTRY
 API.                       05-071-08397-00 : API NUMBER
 STRT.FT                             296.00 : START DEPTH
 STOP.FT                            2730.00 : STOP DEPTH
 STEP.FT                               1.00 : DEPTH INCREMENT
 NULL.                                -9999 : NULL VALUE
~Curve information
 DEPTH.FT                                   :
 ROP.MIN/FT                                 :
 GAS.UNITS                                  :
~ASCII Log data
# ...
      1896.0         0.67        108.0 
      1897.0         0.37        111.1 
      1898.0         0.20        112.4 
      1899.0         0.27        115.6 
      1900.0         0.33        114.8 
      1901.0         0.50        113.4 
      1902.0         0.60         97.0 
      1903.0         1.02         89.1 
      1904.0         0.83         51.6 
      1905.0         0.60         22.5 
      1906.0         1.55         15.8 
      1907.0         0.63          7.1 
      1908.0         0.43          9.7 
      1909.0         0.83         13.7 
      1910.0         1.42         29.5 
      1911.0         1.03         36.7 
      1912.0         1.95         37.0 
      1913.0         1.83         30.1 
      1914.0         1.38         31.9 
      1915.0         1.20         33.4 
      1916.0         1.07         32.4 
      1917.0         0.77         32.1 
      1918.0         0.75         32.6 
      1919.0         0.77         31.7 
      1920.0         0.53         32.3 
      1921.0         8.28         36.6 
      1922.0         0.63         52.8 
      1923.0         0.20         52.8 
      1924.0         0.17         60.7 
      1925.0         0.67         80.7 
      1926.0         0.60        110.8 
      1927.0         0.43        126.9 
      1928.0         0.43        139.2 
      1929.0         0.55        139.7 
      1930.0         0.50        139.8 
      1931.0         1.47        133.6 
      1932.0         1.12        102.2 
      1933.0         0.53         23.3 
      1934.0         0.60         10.9 
      1935.0         0.43          6.1 
      1936.0         0.43          5.3 
      1937.0         0.47          4.7 
      1938.0         0.50          4.8 
      1939.0         0.48          4.7 
      1940.0         0.47          8.1 
      1941.0         0.30         10.0 
      1942.0         0.30         12.0 
      1943.0         0.37         16.1 
      1944.0         0.37         18.8 
      1945.0         0.33         21.1 
      1946.0         0.33         24.7 
      1947.0         0.37         26.8 
      1948.0         0.35         27.6 
      1949.0         0.40         29.0 
      1950.0         0.37         27.9 
      1951.0         7.93         27.4 
      1952.0         0.07         25.3 
      1953.0         0.20         25.3 
      1954.0         0.77         27.0 
      1955.0         1.15         27.7 
      1956.0         0.37         27.7 
      1957.0         1.90         33.1 
      1958.0         0.25         32.6 
      1959.0         0.53         37.5 
      1960.0         0.63         52.2 
      1961.0         0.53         70.6 
      1962.0         0.57         83.4 
      1963.0         0.63         87.4 
      1964.0         0.65         77.2 
      1965.0         1.07         57.6 
      1966.0         0.77         55.5 
      1967.0         0.73         49.3 
      1968.0         1.35         20.2 
      1969.0         0.53          8.1 
      1970.0         0.30          4.6 
      1971.0         0.37          4.9 
      1972.0         0.63          5.0 
      1973.0         0.78         12.7 
      1974.0         0.47         17.5 
      1975.0         0.40         23.8 
      1976.0         0.33         29.1 
      1977.0         0.57         32.2 
      1978.0         0.90         34.0 
      1979.0         0.57         35.0 
      1980.0         7.38         35.8 
      1981.0         1.80         24.4 
      1982.0         0.17         26.3 
      1983.0         0.07         26.3 
      1984.0         1.35         52.1 
      1985.0         1.00         71.6 
      1986.0         0.50         78.5 
      1987.0         0.50         81.9 
      1988.0         0.92         81.6 
      1989.0         0.70         70.5 
      1990.0         0.70         56.8 
      1991.0         0.67         88.5 
      1992.0         0.67         95.5 
      1993.0         0.65         76.5 
      1994.0         0.63         14.2 
      1995.0         0.57          9.2 
      1996.0         0.57          6.9 
      1997.0         0.63          6.1 
      1998.0         0.53          6.1 
      1999.0         0.78          7.3 
      2000.0         0.63         12.3 
      2001.0         0.50         17.9 
      2002.0         0.53         21.4 
      2003.0         0.40         25.7 
      2004.0         0.53         27.0 
      2005.0         0.48         26.4 
      2006.0         0.50         27.4 
      2007.0         0.47         26.7 
      2008.0         0.47         27.2 
      2009.0         0.50         27.9 
      2010.0         0.50         27.4 
      2011.0         7.45         27.9 
      2012.0         2.13         28.7 
      2013.0         1.58         32.5 
      2014.0         1.27         37.0 
      2015.0         0.13         38.6 
      2016.0         0.13         38.6 
      2017.0         0.10         40.1 
      2018.0         0.10         44.3 
      2019.0         1.48         74.8 
      2020.0         1.43         78.6 
      2021.0         1.40         55.7 
      2022.0         1.88         74.7 
      2023.0         1.72         13.3 
      2024.0         1.53          6.6 
      2025.0         1.37         19.2 
      2026.0         1.35         26.3 
      2027.0         1.33         26.1 
      2028.0         1.15         25.1 
      2029.0         1.13         22.6 
      2030.0         1.00         22.7 
      2031.0         0.97         23.3 
      2032.0         1.12         24.5 
      2033.0         0.97         23.2 
      2034.0         0.93         22.3 
      2035.0         0.98         23.3 
      2036.0         1.07         23.4 
      2037.0         1.20         24.0 
      2038.0         1.25         24.0 
      2039.0         1.23         23.9 
      2040.0         1.55         24.0 
      2041.0        22.77         25.7 
      2042.0        11.50         25.6 
      2043.0         3.95         27.4 
      2044.0         0.70         28.4 
      2045.0         1.85         27.2 
      2046.0         0.10         23.1 
      2047.0         0.13         23.1 
      2048.0         0.13         25.1 
      2049.0         0.40         27.2 
      2050.0         1.43         63.4 
      2051.0         0.92         96.8 
      2052.0         1.20        121.0 
      2053.0         0.60        120.1 
      2054.0         0.43        108.6 
      2055.0         0.20         97.1 
      2056.0         0.65         87.0 
      2057.0         0.57         71.5 
      2058.0         0.97         66.7 
      2059.0         0.57         28.4 
      2060.0         0.43          8.6 
      2061.0         0.40          6.7 
      2062.0         0.45          7.1 
      2063.0         0.33          5.1 
      2064.0         0.20          6.1 
      2065.0         0.27          5.8 
      2066.0         0.33          7.1 
      2067.0         0.37          5.7 
      2068.0         0.33          6.9 
      2069.0         0.37         10.0 
      2070.0         0.33         11.8 
      2071.0         5.83         34.2 
      2072.0         3.42         23.8 
      2073.0         1.17         37.2 
      2074.0         0.88         51.5 
      2075.0         1.37         78.5 
      2076.0         1.03         76.1 
      2077.0         1.02         55.3 
      2078.0         0.73         40.4 
      2079.0         0.67         36.8 
      2080.0         0.67         20.9 
      2081.0         1.08          7.8 
      2082.0         0.73          6.5 
      2083.0         0.67          6.3 
      2084.0         0.70          6.2 
      2085.0         0.88          8.6 
      2086.0         0.83         15.2 
      2087.0         0.90         18.2 
      2088.0         0.97         18.5 
      2089.0         0.98         19.1 
      2090.0         1.03         20.2 
      2091.0         0.93         22.7 
      2092.0         0.70         23.8 
      2093.0         0.85         22.0 
      2094.0         1.87         23.2 
      2095.0         0.88         24.9 
