~Version Information
VERS.                      2.0: CWLS Log ASCII Standard - VERSION 2.0
WRAP.                       NO: One line per depth step
~Well Information Block
STRT.FT               530.0000: 
STOP.FT              1825.0000: 
STEP.FT                 0.1000: 
NULL.                -999.2500: 
COMP.          Pioneer Natural Resources: COMPANY
WELL.          Vision 31-11 Tr: WELL
FLD.           Purgatoire River: FIELD
LOC.           742' FNL & 1593' FEL: LOCATION
STAT.                 Colorado: State
CNTY.               Las Animas: COUNTY
CTRY. USA : Country
SECT. 11 : Section
TOWN. 32S : Township
RANG. 66W : Range
SRVC.                Patterson: SERVICE COMPANY
DATE.          Mon Oct 10 07:17:32 2005: LOG DATE
API.           05 071 08305 00: UNIQUE WELL ID
~Curve Information Block
DEPT.FT            0 000 00 00: Depth
DCAL.in                       : CDL Caliper
RHOB.g/cc                     : CDL Bulk Density
RHOC.g/cc                     : CDL Density Correction
DPOR.pu                       : CDL Density Porosity
GR.GAPI                       : Gamma Ray
NPOR.pu                       : Neutron Porosity
~Parameter Information Block
~A  Depth       DCAL        RHOB        RHOC        DPOR         GR         NPOR    
# ...
   952.4000      8.1596      2.5650      0.1672      5.1528    149.8522     28.7282
   952.5000      8.1817      2.5372      0.0450      6.8367    150.1436     28.3743
   952.6000      8.1817      2.5203      0.0666      7.8616    151.4388     27.5999
   952.7000      8.1817      2.5103      0.0232      8.4643    154.1684     26.1495
   952.8000      8.1626      2.5022      0.0007      8.9593    153.4605     24.6668
   952.9000      8.1626      2.4989     -0.0130      9.1602    147.7881     23.7145
   953.0000      8.1540      2.5086      0.0108      8.5714    142.4275     23.2599
   953.1000      8.1540      2.5242      0.0505      7.6223    138.5972     23.2211
   953.2000      8.1540      2.5313      0.0638      7.1956    135.5154     23.2184
   953.3000      8.1620      2.5289      0.1117      7.3402    131.5929     22.9167
   953.4000      8.1620      2.5130      0.1215      8.3017    125.7775     22.6942
   953.5000      8.1638      2.4788      0.1242     10.3752    120.8609     22.8548
   953.6000      8.1638      2.4411      0.0407     12.6593    118.3430     23.0241
   953.7000      8.1638      2.4175      0.0976     14.0929    119.7652     22.7956
   953.8000      8.1606      2.4087      0.0617     14.6239    125.4415     22.3821
   953.9000      8.1606      2.4118      0.0691     14.4359    131.1037     22.2072
   954.0000      8.1380      2.4202      0.1298     13.9264    133.7270     21.9959
   954.1000      8.1380      2.4183      0.0872     14.0428    132.8409     21.3838
   954.2000      8.1380      2.3948      0.0809     15.4677    130.8714     20.5375
   954.3000      8.1733      2.3513      0.0726     18.1000    131.7115     19.6495
   954.4000      8.1733      2.2955      0.1177     21.4850    133.4643     18.9421
   954.5000      8.1908      2.2362      0.0974     25.0776    131.9028     18.7940
   954.6000      8.1908      2.1908      0.1211     27.8276    131.0630     19.1300
   954.7000      8.1908      2.1739      0.1146     28.8528    138.1952     19.5322
   954.8000      8.1746      2.1802      0.1215     28.4750    150.0777     19.9360
   954.9000      8.1746      2.1892      0.1639     27.9301    159.4940     20.5262
   955.0000      8.1462      2.1917      0.1415     27.7755    165.5156     21.4743
   955.1000      8.1462      2.1919      0.1965     27.7663    171.4594     22.3688
   955.2000      8.1462      2.1801      0.2299     28.4775    177.3976     22.6791
   955.3000      8.1225      2.1487      0.2205     30.3805    173.7232     22.8613
   955.4000      8.1225      2.1168      0.0935     32.3137    155.9077     23.4089
   955.5000      8.1515      2.1036      0.1007     33.1172    137.9333     24.1293
   955.6000      8.1515      2.1026      0.0464     33.1772    133.7774     24.6274
   955.7000      8.1515      2.1095     -0.0086     32.7564    140.0707     25.0322
   955.8000      8.1653      2.1429      0.0050     30.7328    145.5449     25.8094
   955.9000      8.1653      2.2150      0.1180     26.3635    144.2221     26.9441
   956.0000      8.1598      2.3081      0.1831     20.7190    138.8239     27.8645
   956.1000      8.1598      2.3899      0.2390     15.7606    133.0773     27.9781
   956.2000      8.1598      2.4373      0.2492     12.8907    127.9495     27.3857
   956.3000      8.1691      2.4512      0.1512     12.0480    121.6332     27.1056
   956.4000      8.1691      2.4536     -0.0073     11.9033    114.2563     27.7458
   956.5000      8.1672      2.4643     -0.0151     11.2563    111.5482     28.7155
   956.6000      8.1672      2.4810      0.0214     10.2420    112.7938     29.2591
   956.7000      8.1672      2.4904      0.0543      9.6730    111.6360     28.9238
   956.8000      8.1315      2.4922      0.0106      9.5647    110.2472     27.8899
   956.9000      8.1315      2.4964      0.0882      9.3063    114.8942     26.9802
   957.0000      8.1168      2.5101     -0.0193      8.4778    123.0883     26.4619
   957.1000      8.1168      2.5301      0.0991      7.2670    127.5859     26.0902
   957.2000      8.1168      2.5425      0.0538      6.5162    126.1783     26.0213
   957.3000      8.1098      2.5539      0.0649      5.8255    122.9126     26.3113
   957.4000      8.1098      2.5785      0.1209      4.3337    120.5132     26.5379
   957.5000      8.1248      2.6053      0.1382      2.7086    118.4708     26.3586
   957.6000      8.1248      2.6146      0.1458      2.1446    118.3424     25.8323
   957.7000      8.1248      2.6049      0.1669      2.7336    119.1770     25.5010
   957.8000      8.1183      2.5908      0.1084      3.5891    117.3831     25.6937
   957.9000      8.1183      2.5781      0.1430      4.3553    115.2945     26.0334
   958.0000      8.0719      2.5630      0.0968      5.2706    118.6121     26.0683
   958.1000      8.0719      2.5496      0.0461      6.0825    125.0681     25.8813
   958.2000      8.0719      2.5362      0.0780      6.8977    126.5354     25.8380
   958.3000      8.0758      2.5192      0.0049      7.9266    124.7335     26.1306
   958.4000      8.0758      2.5136     -0.0092      8.2664    124.9921     26.6247
   958.5000      8.0879      2.5217      0.0363      7.7761    124.2327     26.8307
   958.6000      8.0879      2.5240      0.0571      7.6337    119.8038     26.7597
   958.7000      8.0879      2.5179     -0.0161      8.0085    118.0601     26.7977
   958.8000      8.1435      2.5138      0.0236      8.2517    125.7757     26.7788
   958.9000      8.1435      2.5139      0.0530      8.2474    139.1715     26.6380
   959.0000      8.1465      2.5223      0.0482      7.7392    145.9102     26.6059
   959.1000      8.1465      2.5447      0.0516      6.3847    141.8500     26.9045
   959.2000      8.1465      2.5652      0.0901      5.1395    136.4002     27.6541
   959.3000      8.1221      2.5615      0.0541      5.3617    137.9622     28.4622
   959.4000      8.1221      2.5413      0.0962      6.5887    143.4369     28.8800
   959.5000      8.1158      2.5323      0.0454      7.1308    145.1216     29.0510
   959.6000      8.1158      2.5493      0.0338      6.1018    143.6207     29.0401
   959.7000      8.1158      2.5739      0.0887      4.6101    143.5687     28.7745
   959.8000      8.1284      2.5822      0.0849      4.1100    146.5697     28.4707
   959.9000      8.1284      2.5809      0.0568      4.1882    151.6964     28.2277
   960.0000      8.1241      2.5798      0.0880      4.2524    156.6000     28.1532
   960.1000      8.1241      2.5744      0.0556      4.5819    161.8469     28.2609
   960.2000      8.1241      2.5749      0.0198      4.5517    167.6724     28.5111
   960.3000      8.1459      2.5915      0.0547      3.5472    168.6005     28.8512
   960.4000      8.1459      2.6133      0.0851      2.2243    163.6522     29.2258
   960.5000      8.1695      2.6333      0.0755      1.0146    156.1971     29.7647
   960.6000      8.1695      2.6620      0.0707     -0.7261    147.4565     30.2721
   960.7000      8.1695      2.7069      0.0980     -3.4497    140.9313     30.1322
   960.8000      8.1511      2.7546      0.1013     -6.3392    136.8559     29.4596
   960.9000      8.1511      2.7837      0.1320     -8.1028    135.3179     28.9886
   961.0000      8.1500      2.7936      0.1083     -8.7019    137.4464     29.1073
   961.1000      8.1500      2.7985      0.0870     -9.0015    136.2824     29.6955
   961.2000      8.1500      2.8020      0.0472     -9.2147    128.3330     30.0743
   961.3000      8.1381      2.8066      0.0568     -9.4883    122.9623     29.7297
   961.4000      8.1381      2.8153      0.0289    -10.0187    126.8654     29.0736
   961.5000      8.1221      2.8118      0.0969     -9.8056    134.2157     28.6235
   961.6000      8.1221      2.7866      0.0252     -8.2800    133.3808     28.1326
   961.7000      8.1221      2.7646     -0.0170     -6.9452    121.5541     27.3798
   961.8000      8.1196      2.7526      0.0563     -6.2163    108.8369     26.8079
   961.9000      8.1196      2.7300      0.0143     -4.8488    101.3368     26.7665
