~Version Information
VERS.                      2.0: CWLS Log ASCII Standard - VERSION 2.0
WRAP.                       NO: One line per depth step
~Well Information Block
STRT.FT                -2.0000: 
STOP.FT              1016.0000: 
STEP.FT                 0.2500: 
NULL.                -999.2500: 
COMP.          Evergreen Operating Corp.: COMPANY
WELL.              Sunset 24-3: WELL
FLD.           Purgatorie River: FIELD
LOC.           467' FSL & 2262' FWL--: LOCATION
PROV.                       CO: PROVINCE
CNTY.               Las Animas: COUNTRY
SRVC.                         : SERVICE COMPANY
DATE.          Mon Sep 27 13:40:22 2004: LOG DATE
UWI.           005 071 08158  : UNIQUE WELL ID
~Curve Information Block
DEPT.FT            0 000 00 00: Depth
GR.GAPI                       : Gamma Ray
CCL.                          : Casing Collar Locator
TT3.usec                      : CBL 3' Travel Time
AMP3.mV                       : CBL 3' Amplitude
~Parameter Information Block
~A  Depth        GR         CCL         TT3         AMP3    
# ...
   634.5000     94.9284      0.0000    759.3072      4.0490
   634.7500    102.3843      0.0000    758.7270      4.0027
   635.0000    110.4350      0.0000    757.2659      4.0152
   635.2500    116.9433      0.0000    754.2108      4.0896
   635.5000    120.4296      0.0000    748.9470      4.1984
   635.7500    120.9026      0.0000    741.6974      4.3018
   636.0000    119.3583      0.0000    733.9890      4.3692
   636.2500    116.9695      0.0000    728.1188      4.3852
   636.5000    114.7366      0.0000    725.8701      4.3501
   636.7500    113.5532      0.0000    727.4390      4.2761
   637.0000    114.2989      0.0000    731.1951      4.1786
   637.2500    117.5419      0.0000    734.5096      4.0706
   637.5000    122.8722      0.0000    735.5922      3.9701
   637.7500    128.5833      0.0000    735.0347      3.9059
   638.0000    132.5540      0.0000    735.1661      3.9028
   638.2500    133.9250      0.0000    737.3859      3.9558
   638.5000    133.6573      0.0000    740.2090      4.0219
   638.7500    133.0790      0.0000    740.1580      4.0457
   639.0000    132.2415      0.0000    734.5861      3.9981
   639.2500    130.2761      0.0000    723.8242      3.8940
   639.5000    127.0133      0.0000    711.2247      3.7752
   639.7500    123.6283      0.0000    701.5931      3.6771
   640.0000    121.7688      0.0000    698.9874      3.6115
   640.2500    122.3067      0.0000    704.6087      3.5735
   640.5000    124.7525      0.0000    715.9463      3.5631
   640.7500    127.6093      0.0000    728.3425      3.5987
   641.0000    129.3798      0.0000    738.1707      3.7049
   641.2500    129.4950      0.0000    744.7246      3.8848
   641.5000    128.4395      0.0000    749.2139      4.1021
   641.7500    126.8688      0.0000    752.6703      4.2879
   642.0000    124.5145      0.0000    755.2446      4.3738
   642.2500    120.0757      0.0000    756.8422      4.3353
   642.5000    112.4043      0.0000    757.6310      4.2140
   642.7500    102.0662      0.0000    757.9333      4.0874
   643.0000     91.7632      0.0000    757.9996      4.0157
   643.2500     84.7649      0.0000    757.9710      4.0154
   643.5000     82.4333      0.0000    757.9388      4.0732
   643.7500     83.3075      0.0000    757.9652      4.1660
   644.0000     84.5625      0.0000    758.0619      4.2679
   644.2500     84.1056      0.0000    758.1809      4.3548
   644.5000     81.4533      0.0000    758.2649      4.4096
   644.7500     77.2648      0.0000    758.3009      4.4240
   645.0000     72.4517      0.0000    758.3206      4.3974
   645.2500     67.6038      0.0000    758.3565      4.3378
   645.5000     62.8952      0.0000    758.4070      4.2613
   645.7500     58.3893      0.0000    758.4332      4.1918
   646.0000     54.5241      0.0000    758.3818      4.1593
   646.2500     52.2808      0.0000    758.2184      4.1867
   646.5000     52.7225      0.0000    757.9541      4.2646
   646.7500     56.4161      0.0000    757.6467      4.3462
   647.0000     63.3370      0.0000    757.3633      4.3820
   647.2500     73.0967      0.0000    757.1295      4.3591
   647.5000     84.9480      0.0000    756.8920      4.2999
   647.7500     97.5854      0.0000    756.5024      4.2309
   648.0000    109.2509      0.0000    755.6993      4.1624
   648.2500    118.2570      0.0000    754.2021      4.0962
   648.5000    123.4364      0.0000    752.0651      4.0378
   648.7500    124.2802      0.0000    750.0318      4.0001
   649.0000    121.0588      0.0000    749.2315      3.9968
   649.2500    115.0009      0.0000    750.1949      4.0306
   649.5000    108.1214      0.0000    752.3139      4.0790
   649.7500    102.5907      0.0000    754.4630      4.0939
   650.0000     99.9218      0.0000    756.0461      4.0244
   650.2500    100.3191      0.0000    757.4739      3.8486
   650.5000    102.7445      0.0000    760.2350      3.5898
   650.7500    105.8500      0.0000    766.8351      3.3075
   651.0000    108.8169      0.0000    779.6258      3.0728
   651.2500    111.2565      0.0000    798.2919      2.9363
   651.5000    112.6606      0.0000    818.7319      2.9069
   651.7500    112.4034      0.0000    835.7283      2.9579
   652.0000    110.3964      0.0000    846.2455      3.0566
   652.2500    107.5959      0.0000    849.2045      3.1880
   652.5000    105.7584      2.0000    844.0609      3.3464
   652.7500    106.4412      0.0000    832.2131      3.5208
   653.0000    109.7647      0.0000    818.2070      3.7080
   653.2500    113.8966      0.0000    806.1891      3.9259
   653.5000    115.9854      0.0000    795.2776      4.1791
   653.7500    114.0948      0.0000    781.1854      4.4156
   654.0000    108.4542      0.0000    762.8201      4.5591
   654.2500    100.9083      0.0000    744.8480      4.5833
   654.5000     93.3118      0.0000    733.1761      4.5243
   654.7500     86.4470      0.0000    729.8328      4.4314
   655.0000     80.3098      0.0000    732.5700      4.3352
   655.2500     75.1113      0.0000    737.6915      4.2504
   655.5000     71.5496      0.0000    742.6448      4.1832
   655.7500     69.9684      0.0000    746.8266      4.1313
   656.0000     69.6317      0.0000    750.6122      4.0873
   656.2500     69.2454      0.0000    754.0344      4.0449
   656.5000     68.3840      0.0000    756.5777      3.9996
   656.7500     68.2795      0.0000    757.8445      3.9484
   657.0000     70.7762      0.0000    757.8115      3.8972
   657.2500     76.3454      0.0000    756.5610      3.8690
   657.5000     83.4936      0.0000    754.2325      3.8971
   657.7500     90.2003      0.0000    751.3019      4.0023
   658.0000     95.3428      0.0000    748.4712      4.1731
   658.2500     98.5996      0.0000    746.0221      4.3624
   658.5000     99.7554      0.0000    743.6002      4.5083
   658.7500     98.5785      0.0000    740.9481      4.5681
   659.0000     95.0532      0.0000    738.6993      4.5399
   659.2500     89.4922      0.0000    738.2026      4.4500
   659.5000     82.6130      0.0000    740.4130      4.3284
   659.7500     75.5418      0.0000    744.8691      4.2039
   660.0000     69.5268      0.0000    749.9000      4.1160
   660.2500     65.4087      0.0000    753.9276      4.1121
   660.5000     63.2285      0.0000    756.4248      4.2201
   660.7500     62.4340      0.0000    757.7253      4.4255
   661.0000     62.6493      0.0000    758.3305      4.6726
   661.2500     64.1269      0.0000    758.5505      4.8872
   661.5000     67.3120      0.0000    758.5055      5.0081
   661.7500     72.2400      0.0000    758.1276      5.0102
   662.0000     78.4782      0.0000    757.0629      4.9082
   662.2500     85.2320      0.0000    754.6844      4.7482
   662.5000     91.3458      0.0000    750.5157      4.5938
   662.7500     95.8111      0.0000    744.8889      4.5009
   663.0000     98.7332      0.0000    739.0112      4.4875
   663.2500    101.3344      0.0000    734.0187      4.5220
   663.5000    104.5675      0.0000    730.1104      4.5467
   663.7500    108.0071      0.0000    726.9662      4.5225
   664.0000    110.3200      0.0000    724.7773      4.4587
   664.2500    110.5425      0.0000    724.3591      4.4037
   664.5000    108.8338      0.0000    726.2926      4.4009
   664.7500    106.2932      0.0000    730.2014      4.4444
   665.0000    104.1254      0.0000    734.7747      4.4839
   665.2500    102.8233      0.0000    738.3234      4.4786
   665.5000    102.0970      0.0000    739.4621      4.4411
   665.7500    101.4399      0.0000    737.8341      4.4161
   666.0000    100.5302      0.0000    734.5570      4.4239
   666.2500     99.3277      0.0000    731.5727      4.4364
   666.5000     98.1920      0.0000    730.1228      4.4066
   666.7500     97.7252      0.0000    730.1179      4.3139
   667.0000     98.1330      0.0000    731.1417      4.1799
   667.2500     98.8118      0.0000    733.6381      4.0462
   667.5000     98.8091      0.0000    738.7610      3.9364
   667.7500     97.7108      0.0000    746.9450      3.8300
