~Version Information
VERS.                      2.0: CWLS Log ASCII Standard - VERSION 2.0
WRAP.                       NO: One line per depth step
~Well Information Block
STRT.FT                -7.5000: 
STOP.FT              1716.7500: 
STEP.FT                 0.2500: 
NULL.                -999.2500: 
COMP.          Pioneer Natural Resources: COMPANY
WELL.          Lookout Point 31-23 Tr: WELL
FLD.           Purgatorie River: FIELD
LOC.           541' FNL & 1786' FEL--------: LOCATION
PROV.                       CO: PROVINCE
CNTY.               Las Animas: COUNTRY
SRVC.                         : SERVICE COMPANY
DATE.          Fri Jan 28 08:30:47 2005: LOG DATE
UWI.         005 071 08260 : UNIQUE WELL ID
~Curve Information Block
DEPT.FT            0 000 00 00: Depth
CCL.                          : Casing Collar Locator
TT3.usec                      : CBL 3' Travel Time
AMP3.mV                       : CBL 3' Amplitude
GR.GAPI                       : Gamma Ray
~Parameter Information Block
~A  Depth       CCL         TT3         AMP3         GR     
# ...
   897.0000      0.0000    682.5768      6.1860    126.3386
   897.2500      0.0000    683.0903      6.0140    128.8037
   897.5000      0.0000    669.1660      6.0203    133.0844
   897.7500      0.0000    644.1511      6.1773    138.2625
   898.0000      0.0000    614.5233      6.4074    142.1899
   898.2500      0.0000    589.1467      6.6109    143.3295
   898.5000      0.0000    575.7222      6.7040    141.9484
   898.7500      0.0000    576.7813      6.6699    139.8144
   899.0000      0.0000    589.4349      6.5835    138.9568
   899.2500      0.0000    609.1653      6.5512    140.3022
   899.5000      0.0000    632.5061      6.6090    143.1446
   899.7500      0.0000    656.1423      6.7013    146.0012
   900.0000      0.0000    675.4602      6.7520    147.8785
   900.2500      0.0000    685.0324      6.7275    148.6371
   900.5000      0.0000    680.9004      6.6363    148.4321
   900.7500      0.0000    663.9117      6.4995    147.2348
   901.0000      0.0000    641.7494      6.3282    144.9650
   901.2500      0.0000    626.1519      6.1298    141.9141
   901.5000      0.0000    626.0144      5.9318    138.9467
   901.7500      0.0000    641.7744      5.7711    137.2355
   902.0000      0.0000    665.7850      5.6547    137.4941
   902.2500      0.0000    688.2914      5.5691    139.1577
   902.5000      0.0000    704.0189      5.5262    140.4646
   902.7500      0.0000    714.1581      5.5485    139.7143
   903.0000      0.0000    723.1696      5.6114    136.5915
   903.2500      0.0000    734.1557      5.6543    132.1623
   903.5000      0.0000    746.5264      5.6487    127.6903
   903.7500      0.0000    757.1008      5.6085    123.7142
   904.0000      0.0000    763.0432      5.5394    120.0353
   904.2500      0.0000    763.9899      5.4222    115.9922
   904.5000      0.0000    761.8169      5.2480    110.6395
   904.7500      0.0000    758.5764      5.0420    103.2462
   905.0000      0.0000    754.8727      4.8531     94.2223
   905.2500      0.0000    750.2894      4.7289     85.5411
   905.5000      0.0000    744.6039      4.6878     79.8499
   905.7500      0.0000    737.8346      4.7020     78.9507
   906.0000      0.0000    729.5843      4.7115     82.9126
   906.2500      0.0000    719.1364      4.6706     90.2233
   906.5000      0.0000    705.8325      4.5861     98.7000
   906.7500      0.0000    688.7381      4.5131    106.5104
   907.0000      0.0000    666.6447      4.5129    112.5124
   907.2500      0.0000    639.6568      4.6055    115.9008
   907.5000      0.0000    610.7348      4.7583    116.2975
   907.7500      0.0000    584.6730      4.9277    114.6046
   908.0000      0.0000    565.4107      5.1043    113.1606
   908.2500     -2.0000    554.5471      5.2991    114.2745
   908.5000     -2.0000    551.4762      5.4881    118.4007
   908.7500      0.0000    553.7563      5.6085    123.8707
   909.0000      0.0000    557.6081      5.6320    128.5326
   909.2500      0.0000    559.3187      5.6103    131.4728
   909.5000      0.0000    556.6177      5.6102    133.0733
   909.7500      0.0000    548.7337      5.6389    134.0342
   910.0000      0.0000    535.7273      5.6750    134.8587
   910.2500      0.0000    518.6233      5.7287    135.6370
   910.5000      0.0000    500.2180      5.8145    135.7504
   910.7500      0.0000    486.0646      5.8982    134.2393
   911.0000      0.0000    484.9630      5.9193    130.7407
   911.2500      0.0000    506.2368      5.8536    125.7371
   911.5000      0.0000    552.4308      5.7367    120.0967
   911.7500      0.0000    613.8385      5.6436    114.6915
   912.0000      0.0000    672.9938      5.6532    110.1368
   912.2500      0.0000    716.0998      5.8113    106.6648
   912.5000      0.0000    739.8059      6.0969    104.4835
   912.7500      0.0000    748.4939      6.4212    104.1006
   913.0000      0.0000    747.8176      6.6771    105.7580
   913.2500      0.0000    741.2232      6.8072    108.7417
   913.5000      0.0000    730.3409      6.8191    111.9115
   913.7500      0.0000    716.5591      6.7517    114.9129
   914.0000      0.0000    701.3647      6.6528    118.3727
   914.2500      0.0000    685.5028      6.5713    122.8974
   914.5000      0.0000    668.9243      6.5369    128.1355
   914.7500      0.0000    652.4257      6.5475    132.6611
   915.0000      0.0000    638.6758      6.5948    134.7657
   915.2500      0.0000    630.2461      6.6758    133.7732
   915.5000      0.0000    626.5884      6.7577    130.8200
   915.7500      0.0000    624.0482      6.7676    128.3163
   916.0000      0.0000    619.0488      6.6558    128.5017
   916.2500      0.0000    610.7835      6.4546    131.8999
   916.5000      0.0000    600.9199      6.2563    136.7436
   916.7500      0.0000    591.3341      6.1495    140.3797
   917.0000      0.0000    582.6920      6.1754    141.7850
   917.2500      0.0000    575.1608      6.3121    142.4260
   917.5000      0.0000    569.6090      6.4859    144.3050
   917.7500      0.0000    567.3301      6.6108    147.7059
   918.0000      0.0000    568.8051      6.6305    151.2131
   918.2500      0.0000    573.2311      6.5409    153.3160
   918.5000      0.0000    579.1388      6.3918    153.4160
   918.7500      0.0000    585.2155      6.2688    151.7370
   919.0000      0.0000    591.0285      6.2506    149.0316
   919.2500      0.0000    597.1456      6.3576    146.3656
   919.5000      0.0000    604.1456      6.5252    144.5583
   919.7500      0.0000    611.3070      6.6409    143.4049
   920.0000      0.0000    617.1204      6.6297    141.5975
   920.2500      0.0000    621.8512      6.5047    137.8465
   920.5000      0.0000    628.7321      6.3435    132.3266
   920.7500      0.0000    641.1059      6.2390    126.6959
   921.0000      0.0000    658.4028      6.2595    122.3253
   921.2500      0.0000    676.0998      6.4065    118.8388
   921.5000      0.0000    689.7365      6.5961    115.0246
   921.7500      0.0000    698.3682      6.7095    111.1603
   922.0000      0.0000    704.5281      6.6820    109.6574
   922.2500      0.0000    711.4606      6.5460    112.7472
   922.5000      0.0000    719.9628      6.4005    119.8118
   922.7500      0.0000    727.4821      6.3383    127.8709
   923.0000      0.0000    730.3787      6.3850    134.6526
   923.2500      0.0000    726.6112      6.4878    140.1562
   923.5000      0.0000    716.3474      6.5534    145.2219
   923.7500      0.0000    701.6353      6.5071    149.9261
   924.0000      0.0000    686.5443      6.3464    153.6799
   924.2500      0.0000    675.9144      6.1472    155.8380
   924.5000      0.0000    671.9561      6.0091    155.9095
   924.7500      0.0000    672.1758      5.9921    154.0114
   925.0000      0.0000    671.4340      6.0947    151.3201
   925.2500      0.0000    665.9528      6.2662    149.4716
   925.5000      0.0000    655.3403      6.4301    149.4712
   925.7500      0.0000    641.3594      6.5181    151.3376
   926.0000      0.0000    625.3602      6.5080    154.0595
   926.2500      0.0000    607.7255      6.4414    155.5068
   926.5000      0.0000    589.9722      6.4001    153.5211
   926.7500      0.0000    575.7612      6.4461    148.0557
   927.0000      0.0000    568.4894      6.5763    141.6469
   927.2500      0.0000    568.9486      6.7353    137.2527
   927.5000      0.0000    576.4677      6.8604    136.0064
   927.7500      0.0000    590.8017      6.9096    136.9830
   928.0000      0.0000    611.1536      6.8830    138.3950
   928.2500      0.0000    634.1446      6.8392    138.9863
   928.5000      0.0000    654.6452      6.8656    138.8853
   928.7500      0.0000    669.1218      6.9993    139.3482
   929.0000      0.0000    677.6762      7.1843    141.5211
   929.2500      0.0000    682.6614      7.3251    145.4751
   929.5000      0.0000    685.9480      7.3711    150.3502
   929.7500      0.0000    688.0356      7.3373    155.0307
   930.0000      0.0000    688.9674      7.2592    158.4913
   930.2500      0.0000    688.5086      7.1488    159.8466
