~Version Information
VERS.                      2.0: CWLS Log ASCII Standard - VERSION 2.0
WRAP.                       NO: One line per depth step
~Well Information Block
STRT.FT               520.0000: 
STOP.FT              1105.5000: 
STEP.FT                 0.1000: 
NULL.                -999.2500: 
COMP.          Pioneer Natural Resources: COMPANY
WELL.            Redland 23-24: WELL
FLD.           Purgatoire River: FIELD
LOC.           2356' FSL & 1880' FWL: LOCATION
PROV.                 Colorado: PROVINCE
CNTY.               Las Animas: COUNTRY
SRVC.                Patterson: SERVICE COMPANY
DATE.          Mon Mar 21 07:08:20 2005: LOG DATE
UWI.           05 071 08221 00: UNIQUE WELL ID
~Curve Information Block
DEPT.FT            0 000 00 00: Depth
DCAL.in                       : CDL Caliper
RHOB.g/cc                     : CDL Bulk Density
RHOC.g/cc                     : CDL Density Correction
DPOR.pu                       : CDL Density Porosity
GR.GAPI                       : Gamma Ray
NPOR.pu                       : Neutron Porosity
~Parameter Information Block
~A  Depth       DCAL        RHOB        RHOC        DPOR         GR         NPOR    
# ...
   932.8000      7.8598      2.4004     -0.0044     15.1285     47.9586     16.8589
   932.9000      7.8598      2.4374      0.0534     12.8830     49.6589     17.4168
   933.0000      7.8702      2.4752      0.0554     10.5945     48.8091     18.1279
   933.1000      7.8702      2.4959      0.0911      9.3395     46.7081     18.5296
   933.2000      7.8702      2.4993      0.1330      9.1328     46.9053     18.6856
   933.3000      7.8915      2.4914      0.0898      9.6101     51.2558     18.9799
   933.4000      7.8915      2.4828      0.0607     10.1345     58.9262     19.1629
   933.5000      7.8925      2.4799      0.0595     10.3094     66.3457     18.9108
   933.6000      7.8925      2.4787      0.0942     10.3803     70.6616     18.6149
   933.7000      7.8925      2.4760      0.0480     10.5477     70.4435     18.8053
   933.8000      7.8779      2.4808      0.0438     10.2543     66.0609     19.1438
   933.9000      7.8779      2.4981      0.1094      9.2038     61.9414     19.2472
   934.0000      7.8873      2.5182      0.0339      7.9906     62.6886     19.5949
   934.1000      7.8873      2.5372      0.0465      6.8359     68.4451     20.3162
   934.2000      7.8873      2.5549      0.0410      5.7643     74.5042     20.5846
   934.3000      7.8782      2.5613      0.0726      5.3742     75.6277     20.4909
   934.4000      7.8782      2.5488      0.0696      6.1325     71.9084     20.8625
   934.5000      7.8760      2.5228      0.0304      7.7110     67.1727     20.9883
   934.6000      7.8760      2.4955      0.0160      9.3653     64.2296     20.1063
   934.7000      7.8760      2.4789     -0.0293     10.3686     63.3726     19.2449
   934.8000      7.8778      2.4782     -0.0089     10.4105     61.5433     18.9585
   934.9000      7.8778      2.4869     -0.0459      9.8858     58.0101     18.5599
   935.0000      7.8827      2.4975      0.0257      9.2451     54.5879     17.4761
   935.1000      7.8827      2.5020      0.0577      8.9670     50.1277     16.5360
   935.2000      7.8827      2.4948      0.0496      9.4055     45.0410     16.5292
   935.3000      7.8886      2.4771      0.0802     10.4762     42.0981     16.4753
   935.4000      7.8886      2.4547      0.0369     11.8369     41.6515     15.8369
   935.5000      7.8740      2.4367     -0.0125     12.9273     41.6068     15.3347
   935.6000      7.8740      2.4201     -0.0007     13.9353     40.3631     15.3160
   935.7000      7.8740      2.3976     -0.0295     15.2997     38.0587     15.9854
   935.8000      7.8768      2.3887     -0.0173     15.8362     34.4616     17.1745
   935.9000      7.8768      2.4048      0.0137     14.8602     30.5684     17.8447
   936.0000      7.9016      2.4225      0.0311     13.7899     30.1180     17.2998
   936.1000      7.9016      2.4265     -0.0195     13.5472     34.7265     16.1483
   936.2000      7.9016      2.4258      0.0225     13.5893     39.9775     15.7766
   936.3000      7.9413      2.4213      0.0374     13.8580     41.2279     16.5587
   936.4000      7.9413      2.4062      0.0293     14.7775     41.9916     17.3907
   936.5000      7.9308      2.3919     -0.0575     15.6446     47.0051     17.5248
   936.6000      7.9308      2.3984      0.0100     15.2487     53.2193     17.7264
   936.7000      7.9308      2.4196      0.0675     13.9643     56.4568     18.7524
   936.8000      7.9131      2.4317      0.0387     13.2312     56.8729     20.0162
   936.9000      7.9131      2.4312      0.0384     13.2602     55.9698     20.7252
   937.0000      7.9079      2.4410      0.0250     12.6683     56.8547     20.9497
   937.1000      7.9079      2.4724      0.0801     10.7629     61.2096     21.0359
   937.2000      7.9079      2.5054      0.1120      8.7615     65.3352     21.0382
   937.3000      7.8560      2.5227      0.1143      7.7130     64.9943     20.7410
   937.4000      7.8560      2.5254      0.1007      7.5487     61.5624     20.2026
   937.5000      7.8522      2.5240      0.0606      7.6371     58.9083     19.5874
   937.6000      7.8522      2.5281      0.0709      7.3884     56.3298     18.6834
   937.7000      7.8522      2.5273      0.0580      7.4357     52.0338     17.8276
   937.8000      7.8491      2.5022      0.0469      8.9565     48.8195     17.3972
   937.9000      7.8491      2.4635     -0.0227     11.3050     49.6574     17.2226
   938.0000      7.8644      2.4441      0.0104     12.4764     53.2640     17.5465
   938.1000      7.8644      2.4529     -0.0181     11.9426     57.1895     18.3220
   938.2000      7.8644      2.4622      0.0658     11.3822     59.8906     18.9295
   938.3000      7.8552      2.4524      0.0159     11.9786     60.9939     18.9608
   938.4000      7.8552      2.4416     -0.0046     12.6300     60.6977     18.5824
   938.5000      7.8571      2.4437      0.0206     12.5002     59.0056     18.2496
   938.6000      7.8571      2.4521      0.0236     11.9934     57.6631     17.8176
   938.7000      7.8571      2.4601      0.0525     11.5121     57.5953     16.8963
   938.8000      7.8566      2.4580      0.0395     11.6346     55.6714     16.1773
   938.9000      7.8566      2.4443      0.0313     12.4656     51.1796     16.4314
   939.0000      7.8570      2.4338     -0.0070     13.1009     48.8055     17.1877
   939.1000      7.8570      2.4340      0.0243     13.0899     48.5951     17.9387
   939.2000      7.8570      2.4395      0.0245     12.7577     47.7558     18.8306
   939.3000      7.8663      2.4556      0.0164     11.7835     47.6136     19.8471
   939.4000      7.8663      2.4822      0.0461     10.1725     50.2076     20.8859
   939.5000      7.8614      2.4963      0.0498      9.3136     54.9812     21.4374
   939.6000      7.8614      2.4813      0.0206     10.2261     59.3653     21.2124
   939.7000      7.8614      2.4562     -0.0644     11.7441     63.1401     20.5536
   939.8000      7.8866      2.4494      0.0094     12.1580     67.3195     19.6004
   939.9000      7.8866      2.4623     -0.0143     11.3776     69.1800     18.3396
   940.0000      7.8973      2.4842     -0.0081     10.0478     68.1934     17.3153
   940.1000      7.8973      2.5107      0.0122      8.4421     68.3948     17.2836
   940.2000      7.8973      2.5496     -0.0123      6.0832     70.8106     18.0737
   940.3000      7.8816      2.6006      0.0933      2.9968     72.9289     18.4985
   940.4000      7.8816      2.6316      0.1075      1.1174     71.4339     17.8555
   940.5000      7.8695      2.6264      0.0487      1.4326     67.1787     17.1091
   940.6000      7.8695      2.6114      0.0281      2.3382     64.3814     17.0580
   940.7000      7.8695      2.6034      0.0336      2.8252     63.3364     17.3553
   940.8000      7.8782      2.5952      0.0540      3.3237     61.1065     17.4443
   940.9000      7.8782      2.5865      0.0414      3.8480     57.1823     17.2089
   941.0000      7.8856      2.5844      0.0275      3.9760     53.7247     17.0681
   941.1000      7.8856      2.5806      0.0980      4.2058     51.8142     16.5829
   941.2000      7.8856      2.5647     -0.0010      5.1672     51.8197     14.9118
   941.3000      7.8525      2.5436      0.0294      6.4486     53.6138     13.2258
   941.4000      7.8525      2.5272     -0.0278      7.4402     57.1527     12.8503
   941.5000      7.8244      2.5240      0.0492      7.6393     60.3427     13.5156
   941.6000      7.8244      2.5373      0.0369      6.8307     60.3768     14.8134
   941.7000      7.8244      2.5539      0.0598      5.8228     58.0785     16.2783
   941.8000      7.8342      2.5444      0.1035      6.4000     55.3449     17.1153
   941.9000      7.8342      2.5019      0.0075      8.9729     52.5590     17.2658
   942.0000      7.8306      2.4624     -0.0065     11.3721     50.7132     17.2110
   942.1000      7.8306      2.4566     -0.0014     11.7185     50.3534     17.3525
   942.2000      7.8306      2.4754      0.0560     10.5822     50.3286     17.9844
   942.3000      7.8118      2.4911      0.0276      9.6276     49.8910     18.8794
