~Version Information
VERS.                      2.0: CWLS Log ASCII Standard - VERSION 2.0
WRAP.                       NO: One line per depth step
~Well Information Block
STRT.FT               240.0000: 
STOP.FT              1453.0000: 
STEP.FT                 0.2500: 
NULL.                -999.2500: 
COMP.          Petrogulf Corporation: COMPANY
WELL.          Robinson 15-12R: WELL
FLD.           Purgatorie River: FIELD
LOC.           1752' FNL & 561' FWL: LOCATION
PROV.                 Colorado: PROVINCE
CNTY.               Las Animas: COUNTRY
SRVC.                Patterson: SERVICE COMPANY
DATE.          Tue Sep 13 15:11:42 2005: LOG DATE
UWI.                          : UNIQUE WELL ID
~Curve Information Block
DEPT.FT            0 000 00 00: Depth
SP.mV                         : DIL Spontaneous Potential
RILD.Ohm-m                    : DIL Deep Resistivity
RILM.Ohm-m                    : DIL Medium Resistivity
RLL3.Ohm-m                    : DIL Shallow Resistivity
GR.GAPI                       : Gamma Ray
~Parameter Information Block
~A  Depth        SP         RILD        RILM        RLL3         GR     
   240.0000   2000.0000      7.1197   -999.2500   2000.0000     65.3718
   240.2500   2000.0000      7.1845   -999.2500   2000.0000     67.1059
   240.5000   2000.0000      7.1675   -999.2500   2000.0000     70.9215
   240.7500   2000.0000      7.1281   -999.2500   2000.0000     68.0405
   241.0000   2000.0000      7.1613 100000.0000   2000.0000     76.5101
   241.2500   2000.0000      7.0505 100000.0000   2000.0000     83.7232
   241.5000   2000.0000      7.0112 100000.0000   2000.0000     82.5459
   241.7500   2000.0000      7.0116 100000.0000   2000.0000     74.4946
   242.0000   2000.0000      6.9669 100000.0000   2000.0000     71.5087
   242.2500   2000.0000      7.0137 100000.0000   2000.0000     70.6312
   242.5000   2000.0000      7.0282 100000.0000   2000.0000     69.9470
   242.7500   2000.0000      7.0735 100000.0000   2000.0000     61.4984
   243.0000   2000.0000      7.0511 100000.0000   2000.0000     59.8284
   243.2500   2000.0000      7.0705 100000.0000   2000.0000     56.3521
   243.5000   2000.0000      7.0603 100000.0000   2000.0000     57.7459
   243.7500   2000.0000      7.0370 100000.0000   2000.0000     59.9086
   244.0000   2000.0000      7.0667 100000.0000   2000.0000     57.3273
   244.2500   2000.0000      7.0548 100000.0000   2000.0000     54.3756
   244.5000   2000.0000      7.0134 100000.0000   2000.0000     71.8169
   244.7500   2000.0000      7.0880 100000.0000   2000.0000     75.4377
   245.0000   2000.0000      7.1267 100000.0000   2000.0000     71.8429
   245.2500   2000.0000      7.1926 100000.0000   2000.0000     75.3203
   245.5000   2000.0000      7.2389 100000.0000   2000.0000     77.5682
   245.7500   2000.0000      7.1891 100000.0000   2000.0000     71.9851
   246.0000   2000.0000      7.2540 100000.0000   2000.0000     61.2593
   246.2500   2000.0000      7.2714 100000.0000   2000.0000     71.8013
   246.5000   2000.0000      7.2331 100000.0000   2000.0000     79.0681
   246.7500   2000.0000      7.2941 100000.0000   2000.0000     82.6978
   247.0000   2000.0000      7.0542 100000.0000   2000.0000     65.9860
   247.2500   2000.0000      7.0855 100000.0000   2000.0000     69.0403
   247.5000   2000.0000      6.7541 100000.0000   2000.0000     66.3780
   247.7500   2000.0000      6.5895 100000.0000   2000.0000     68.2206
   248.0000   2000.0000      7.3293 100000.0000   2000.0000     69.9361
   248.2500   2000.0000      9.4567 100000.0000   2000.0000     70.9329
   248.5000   2000.0000     10.8660 100000.0000   2000.0000     65.3264
   248.7500   2000.0000     10.6811 100000.0000   2000.0000     63.4932
   249.0000   2000.0000     10.1253 100000.0000   2000.0000     64.9743
   249.2500   2000.0000      9.7673 100000.0000   2000.0000     64.2956
   249.5000   2000.0000      9.5618 100000.0000   2000.0000     59.7887
   249.7500   2000.0000      9.2290 100000.0000   2000.0000     63.3672
   250.0000   2000.0000      8.7364 100000.0000   2000.0000     60.1887
   250.2500   2000.0000      8.5726 100000.0000   2000.0000     74.1098
   250.5000   2000.0000      9.6944 100000.0000   2000.0000     77.1757
   250.7500   2000.0000     13.6734 100000.0000   2000.0000     71.7723
   251.0000   2000.0000     23.2981 100000.0000   2000.0000     61.5620
   251.2500   2000.0000     29.1705 100000.0000   2000.0000     68.8855
   251.5000   2000.0000     16.3938 100000.0000   2000.0000     68.5160
   251.7500   2000.0000     10.0393 100000.0000   2000.0000     70.7591
   252.0000   2000.0000      8.4612 100000.0000   2000.0000     84.6648
   252.2500   2000.0000      7.8829 100000.0000   2000.0000     85.9622
   252.5000   2000.0000      8.2819 100000.0000   2000.0000     83.1940
   252.7500   2000.0000      8.2011 100000.0000   2000.0000     78.3950
   253.0000   2000.0000      8.2786 100000.0000   2000.0000     74.8921
   253.2500   2000.0000      8.0202 100000.0000   2000.0000     71.2950
   253.5000   2000.0000      7.9093 100000.0000   2000.0000     67.3468
   253.7500   2000.0000     10.4369 100000.0000   2000.0000     74.8197
   254.0000   2000.0000    153.0097 100000.0000   2000.0000     76.4613
   254.2500   2000.0000 100000.0000 100000.0000   2000.0000     81.9063
   254.5000   2000.0000 100000.0000 100000.0000   2000.0000     85.5544
   254.7500   2000.0000      6.5791 100000.0000   2000.0000     93.3362
   255.0000   2000.0000      3.5566 100000.0000   2000.0000     88.4737
   255.2500   2000.0000      3.4841 100000.0000   2000.0000     78.9682
   255.5000   2000.0000      4.7632 100000.0000   2000.0000     85.2756
   255.7500   2000.0000      6.0634 100000.0000   2000.0000     91.9338
   256.0000   2000.0000      7.1773 100000.0000   2000.0000     80.6035
   256.2500   2000.0000      8.6080 100000.0000   2000.0000     75.6498
   256.5000   2000.0000     14.1403 100000.0000   2000.0000     63.1402
   256.7500   2000.0000 100000.0000 100000.0000   2000.0000     60.5768
   257.0000   2000.0000 100000.0000 100000.0000   2000.0000     70.2131
   257.2500   2000.0000      4.7457 100000.0000   2000.0000     58.4134
   257.5000   2000.0000      1.6254 100000.0000   2000.0000     51.6443
   257.7500   2000.0000      1.0872 100000.0000   2000.0000     54.5801
   258.0000   2000.0000      1.6659     11.2013   2000.0000     55.1994
   258.2500   2000.0000      4.0816      2.5202   2000.0000     55.7202
   258.5000   2000.0000      9.9401      3.0995   2000.0000     66.4118
   258.7500   2000.0000     19.3311      6.6458   2000.0000     64.4954
   259.0000   2000.0000     33.9349     32.5878   2000.0000     65.1631
   259.2500   2000.0000     57.5299     17.4076   2000.0000     77.9307
   259.5000   2000.0000    252.2929     11.9483   2000.0000     79.2799
   259.7500   2000.0000 100000.0000     10.1475   2000.0000     77.1319
   260.0000   2000.0000 100000.0000      9.4574   2000.0000     93.2676
   260.2500   2000.0000 100000.0000      9.4381   2000.0000    104.8470
   260.5000   2000.0000 100000.0000     10.3087   2000.0000    100.3295
   260.7500   2000.0000     11.0200     19.6343   2000.0000    109.8345
   261.0000   2000.0000      9.3202 100000.0000   2000.0000    114.1778
   261.2500   2000.0000      9.8655     55.0398   2000.0000    116.2857
   261.5000   2000.0000     10.3442     15.3279   2000.0000    103.2893
   261.7500   2000.0000     10.4848     11.1695   2000.0000    100.5501
   262.0000   2000.0000     10.8521     10.3390   2000.0000     95.7739
   262.2500   2000.0000     11.0266     10.0307   2000.0000     97.1385
   262.5000   2000.0000     11.5375     10.1991   2000.0000    118.2629
   262.7500   2000.0000     12.2125     10.6166   2000.0000    113.3756
   263.0000   2000.0000     14.0608     10.8211   2000.0000     99.3599
   263.2500   2000.0000     16.3498     10.5944   2000.0000     93.2113
   263.5000   2000.0000     14.5675     10.8859   2000.0000     97.0826
   263.7500   2000.0000     13.5194     10.5856   2000.0000    100.8542
   264.0000   2000.0000     13.2596     10.7540   2000.0000    101.8573
   264.2500   2000.0000     13.7101     12.3854   2000.0000    100.2976
   264.5000   2000.0000     14.4588     13.6269   2000.0000     90.8498
   264.7500   2000.0000     15.2550     14.8956   2000.0000     90.5286
   265.0000   2000.0000     16.0542     16.2699   2000.0000     95.7651
   265.2500   2000.0000     16.5141     17.0204   2000.0000     90.6117
   265.5000   2000.0000     17.1703     19.1308   2000.0000     88.1236
   265.7500   2000.0000     17.3770     22.0958   2000.0000     76.9086
   266.0000   2000.0000     18.2549     22.5181   2000.0000     66.0967
   266.2500   2000.0000     18.5732     22.1449   2000.0000     70.4002
   266.5000   2000.0000     18.4931     22.1744   2000.0000     75.5216
   266.7500   2000.0000     18.2451     20.9560   2000.0000     80.6478
   267.0000   2000.0000     18.5728     20.6091   2000.0000     96.1077
   267.2500   2000.0000     18.1896     21.7500   2000.0000     91.9306
   267.5000   2000.0000     18.2675     18.9713   2000.0000     92.5375
   267.7500   2000.0000     17.9433     18.4423   2000.0000     93.7560
