~Version Information
 VERS.                                  2.0 : CWLS LAS VERSION
 WRAP.                                   NO : WRAPING MODE
 SWARE .                 MController 2.5.0J : SOFTWARE VERSION
~Well Information
 WELL.                        Harlee L 34-9 : WELL
 COMP.    Pioneer natural Resources USA Inc : COMPANY
 FLD.                      Purgatoire River : FIELD
 LOC.                 SW/SE Sec 9 T32S R65W : LOCATION
 DATE.                              1/25/05 : DATE(S) LOGGED
 SRVC.       Blanco Geological Services LLC : SERVICE COMPANY
 STAT.                                   CO : STATE
 CNTY.                           Las Animas : COUNTY
 CTRY.                                  USA : COUNTRY
 API.                       05-071-08009-00 : API NUMBER
 STRT.FT                             404.00 : START DEPTH
 STOP.FT                            1773.00 : STOP DEPTH
 STEP.FT                               1.00 : DEPTH INCREMENT
 NULL.                                -9999 : NULL VALUE
~Curve information
 DEPTH.FT                                   :
 ROP.MIN/FT                                 :
 GAS.UNITS                                  :
~ASCII Log data
# ...
      1004.0         0.17          8.2 
      1005.0         0.13          4.5 
      1006.0         0.17          4.7 
      1007.0         0.17          3.4 
      1008.0         0.20          3.0 
      1009.0         0.17          3.4 
      1010.0         0.20          3.8 
      1011.0         0.18          3.6 
      1012.0         0.20          3.2 
      1013.0         0.17          3.1 
      1014.0         0.17          3.1 
      1015.0         0.20          3.1 
      1016.0         0.37          3.6 
      1017.0         0.20          3.4 
      1018.0         0.27          3.1 
      1019.0         0.22          3.1 
      1020.0         0.30          3.7 
      1021.0         0.27          3.1 
      1022.0         0.27          3.6 
      1023.0         0.23          3.1 
      1024.0         0.23          3.5 
      1025.0         0.23          3.1 
      1026.0         0.23          3.7 
      1027.0         0.20          2.7 
      1028.0         0.23          3.7 
      1029.0         0.23          3.5 
      1030.0         0.23          2.9 
      1031.0         0.23          3.6 
      1032.0         0.23          4.0 
      1033.0         0.22          5.5 
      1034.0         0.23          7.9 
      1035.0         0.23         11.5 
      1036.0         0.20         21.3 
      1037.0         0.23         15.6 
      1038.0         0.23         14.6 
      1039.0         0.20         12.5 
      1040.0         0.23          8.4 
      1041.0         0.20          7.3 
      1042.0         0.23          5.1 
      1043.0         0.20          3.5 
      1044.0         0.23          3.3 
      1045.0         0.30          3.5 
      1046.0         0.17          3.5 
      1047.0         0.23          3.4 
      1048.0         0.27          3.5 
      1049.0         0.30          3.8 
      1050.0         0.20          3.2 
      1051.0         0.30          4.0 
      1052.0         0.27          4.2 
      1053.0         0.23          4.8 
      1054.0         0.27          7.5 
      1055.0         0.23          9.1 
      1056.0         0.23         10.3 
      1057.0         0.32         10.7 
      1058.0         0.20         11.1 
      1059.0         0.17         10.7 
      1060.0         0.20          9.8 
      1061.0         0.17          9.3 
      1062.0         0.17          9.0 
      1063.0         0.17          8.8 
      1064.0         0.20         10.1 
      1065.0         0.17         18.5 
      1066.0         0.17         16.4 
      1067.0         0.17         16.4 
      1068.0         0.20         15.8 
      1069.0         0.17         14.6 
      1070.0         0.20         21.8 
      1071.0         0.20         53.1 
      1072.0         0.17         53.1 
      1073.0         0.17        102.7 
      1074.0         0.17        102.7 
      1075.0         0.18        148.9 
      1076.0         0.20        162.9 
      1077.0         0.27        158.9 
      1078.0         0.20        138.8 
      1079.0         0.37        130.8 
      1080.0         0.33         67.5 
      1081.0         0.23         44.7 
      1082.0         0.30         32.8 
      1083.0         0.28         25.7 
      1084.0         0.23         23.0 
      1085.0         0.23         23.2 
      1086.0         0.37         20.7 
      1087.0         0.30         19.3 
      1088.0         0.27         18.3 
      1089.0         0.23         17.7 
      1090.0         0.17         16.5 
      1091.0         0.17         16.5 
      1092.0         0.23         16.2 
      1093.0         0.27         11.2 
      1094.0         0.27          8.9 
      1095.0         0.23          5.4 
      1096.0         0.25          8.0 
      1097.0         0.17          8.9 
      1098.0         0.20         10.4 
      1099.0         0.27         18.7 
      1100.0         0.23         41.9 
      1101.0         0.30         79.4 
      1102.0         0.20        108.0 
      1103.0         0.20        128.4 
      1104.0         0.20        143.3 
      1105.0         0.20        150.4 
      1106.0         0.23        134.5 
      1107.0         0.13        131.2 
      1108.0         0.27        127.6 
      1109.0         0.30         82.8 
      1110.0         0.23         59.0 
      1111.0         0.23         40.6 
      1112.0         0.20         29.4 
      1113.0         0.17         26.9 
      1114.0         0.17         27.1 
      1115.0         0.20         27.9 
      1116.0         0.23         30.5 
      1117.0         0.30         30.6 
      1118.0         0.20         31.8 
      1119.0         0.20         31.6 
      1120.0         0.22         31.3 
      1121.0         0.20         29.5 
      1122.0         0.23         30.4 
      1123.0         0.20         30.4 
      1124.0         0.20         30.3 
      1125.0         0.20         29.6 
      1126.0         0.20         27.0 
      1127.0         0.23         26.3 
      1128.0         0.27         37.7 
      1129.0         0.30         64.5 
      1130.0         0.17         88.8 
      1131.0         0.27        159.5 
      1132.0         0.23        217.5 
      1133.0         0.30        221.4 
      1134.0         0.32        222.8 
      1135.0         0.30        193.9 
      1136.0         0.27        156.6 
      1137.0         0.27        118.8 
      1138.0         0.27         86.8 
      1139.0         0.28         61.7 
      1140.0         0.27         44.7 
      1141.0         0.33         32.7 
      1142.0         0.27         27.1 
      1143.0         0.27         23.2 
      1144.0         0.27         21.1 
      1145.0         0.27         21.0 
      1146.0         0.27         22.6 
      1147.0         0.23         23.4 
      1148.0         0.27         25.4 
      1149.0         0.23         26.3 
      1150.0         0.27         28.4 
      1151.0         0.27         29.2 
      1152.0         0.25         29.7 
      1153.0         0.27         29.2 
      1154.0         0.23         29.1 
      1155.0         0.23         29.1 
      1156.0         0.27         28.7 
      1157.0         0.27         27.3 
      1158.0         0.23         27.5 
      1159.0         0.27         26.3 
      1160.0         0.27         69.3 
      1161.0         0.27        140.1 
      1162.0         0.27        187.5 
      1163.0         0.27        192.2 
      1164.0         0.32        166.1 
      1165.0         0.27         93.0 
      1166.0         0.40         42.6 
      1167.0         0.33         16.0 
      1168.0         0.40         15.6 
      1169.0         0.33          9.2 
      1170.0         0.40          8.3 
      1171.0         0.27          9.3 
      1172.0         0.27         10.4 
      1173.0         0.25         10.8 
      1174.0         0.30         10.8 
      1175.0         0.23         10.6 
      1176.0         0.30          9.3 
      1177.0         0.23          8.0 
      1178.0         0.33          7.1 
      1179.0         0.30          6.3 
      1180.0         0.30          6.5 
      1181.0         0.27          6.3 
      1182.0         0.27          6.4 
      1183.0         0.30          7.3 
      1184.0         0.27          6.7 
      1185.0         0.38          5.9 
      1186.0         0.27          6.2 
      1187.0         0.30          7.0 
      1188.0         0.27          8.3 
      1189.0         0.37          8.7 
      1190.0         0.30          7.7 
      1191.0         0.47         43.6 
      1192.0         0.37         69.1 
      1193.0         0.40         74.2 
      1194.0         0.48         62.0 
      1195.0         0.43         40.5 
      1196.0         0.23         19.7 
      1197.0         0.27         13.2 
      1198.0         0.27          9.8 
      1199.0         0.33          8.8 
      1200.0         0.27         10.6 
      1201.0         0.27         10.9 
      1202.0         0.27          9.4 
      1203.0         0.27          8.7 
