~Version Information
VERS.                      2.0: CWLS Log ASCII Standard - VERSION 2.0
WRAP.                       NO: One line per depth step
~Well Information Block
STRT.FT               390.0000: 
STOP.FT              2768.7000: 
STEP.FT                 0.1000: 
NULL.                -999.2500: 
COMP.          Pioneer Natural Resources: COMPANY
WELL.              Lynch 43-30: WELL
FLD.           Purgatoire River: FIELD
LOC.           1438' FSL & 429' FEL: LOCATION
PROV.                 Colorado: PROVINCE
CNTY.               Las Animas: COUNTRY
SRVC.                Patterson: SERVICE COMPANY
DATE.          Wed Oct 27 08:22:00 2004: LOG DATE
UWI.           05 071 08170 00: UNIQUE WELL ID
~Curve Information Block
DEPT.FT            0 000 00 00: Depth
DCAL.in                       : CDL Caliper
DPOR.pu                       : CDL Density Porosity
NPOR.pu                       : Neutron Porosity
RHOB.g/cc                     : CDL Bulk Density
RHOC.g/cc                     : CDL Density Correction
GR.GAPI                       : Gamma Ray
~Parameter Information Block
~A  Depth       DCAL        DPOR        NPOR        RHOB        RHOC         GR     
# ...
  1494.0000      7.9956      5.6834     16.1423      2.5562      0.0586     90.0165
  1494.1000      7.9956      7.2210     14.7537      2.5309      0.0143     92.9167
  1494.2000      7.9956      8.2897     13.8505      2.5132      0.0331     92.5138
  1494.3000      7.9868      8.1710     14.2234      2.5152     -0.0006     89.5569
  1494.4000      7.9868      7.1062     15.3746      2.5327      0.0389     85.4321
  1494.5000      7.9927      6.3110     16.3625      2.5459      0.0183     79.7480
  1494.6000      7.9927      6.6224     16.6637      2.5407      0.0097     73.5522
  1494.7000      7.9927      7.6489     16.3583      2.5238      0.0069     69.9168
  1494.8000      7.9954      8.7587     15.9123      2.5055      0.0243     69.7088
  1494.9000      7.9954      9.3026     15.6375      2.4965     -0.0282     70.9801
  1495.0000      7.9944      8.5850     15.5922      2.5083     -0.0232     71.9027
  1495.1000      7.9944      7.1796     15.7299      2.5315      0.0140     72.4873
  1495.2000      7.9944      6.5201     15.7932      2.5424     -0.0011     71.8986
  1495.3000      7.9924      6.6159     15.6717      2.5408     -0.0377     70.3479
  1495.4000      7.9924      6.7255     15.5502      2.5390      0.0150     70.1147
  1495.5000      7.9915      7.0785     15.5911      2.5332      0.0224     69.4355
  1495.6000      7.9915      8.0576     15.7531      2.5170      0.0099     65.9186
  1495.7000      7.9915      9.4728     15.6793      2.4937      0.0128     61.5279
  1495.8000      7.9871     11.0833     15.1156      2.4671      0.0064     58.8832
  1495.9000      7.9871     12.4570     14.7813      2.4445      0.0084     58.7001
  1496.0000      7.9893     12.8458     15.4162      2.4380     -0.0387     57.6084
  1496.1000      7.9893     12.4095     16.4035      2.4452      0.0199     53.1324
  1496.2000      7.9893     12.4589     16.9585      2.4444      0.0169     49.5834
  1496.3000      7.9898     13.4361     17.0953      2.4283      0.0105     51.5355
  1496.4000      7.9898     14.5494     16.8117      2.4099     -0.0064     56.3119
  1496.5000      7.9904     15.6579     16.8812      2.3916     -0.0096     58.6167
  1496.6000      7.9904     17.8673     18.4758      2.3552      0.0006     59.0774
  1496.7000      7.9904     22.1435     21.1303      2.2846     -0.0168     59.2331
  1496.8000      7.9880     28.5002     23.7662      2.1797     -0.0450     58.1425
  1496.9000      7.9880     36.2976     26.1170      2.0511     -0.1259     55.3225
  1497.0000      7.9904     44.5075     28.1765      1.9156     -0.1345     51.3758
  1497.1000      7.9904     52.1549     30.1363      1.7894     -0.1578     47.9656
  1497.2000      7.9904     59.2081     32.2319      1.6731     -0.1904     46.7832
  1497.3000      7.9951     66.9665     34.1303      1.5451     -0.1860     48.2891
  1497.4000      7.9951     75.7783     35.3687      1.3997     -0.2154     49.7474
  1497.5000      8.0547     82.8777     36.0977      1.2825     -0.2831     47.8868
  1497.6000      8.0547     85.9161     36.7147      1.2324     -0.1666     44.0754
  1497.7000      8.0547     86.8439     37.3138      1.2171     -0.0073     42.6712
  1497.8000      8.2704     88.4011     37.7170      1.1914      0.0049     44.9112
  1497.9000      8.2704     90.3488     37.9345      1.1592      0.0168     47.3216
  1498.0000      8.7558     91.2900     38.0482      1.1437      0.0024     48.4854
  1498.1000      8.7558     90.7274     37.5890      1.1530      0.0296     47.5420
  1498.2000      8.7558     88.8620     36.5184      1.1838      0.0448     43.8888
  1498.3000      9.3872     85.7116     35.9548      1.2358      0.0710     43.0713
  1498.4000      9.3872     80.7511     36.2067      1.3176      0.0837     48.9722
  1498.5000      9.9119     73.8797     35.9951      1.4310      0.1492     56.7006
  1498.6000      9.9119     65.9211     34.7662      1.5623      0.1637     61.3376
  1498.7000      9.9119     56.9254     33.1105      1.7107      0.1936     64.7803
  1498.8000      9.9590     46.1234     31.2952      1.8890      0.2270     68.5528
  1498.9000      9.9590     34.7158     29.6813      2.0772      0.3528     71.3537
  1499.0000      8.7008     25.5313     29.1958      2.2287      0.3897     76.1994
  1499.1000      8.7008     19.0011     29.5442      2.3365      0.3313     84.7386
  1499.2000      8.7008     13.6670     29.4508      2.4245      0.3235     94.1073
  1499.3000      8.0793      9.9704     28.6165      2.4855      0.3072    102.4018
  1499.4000      8.0793      9.1702     27.8779      2.4987      0.2185    110.0765
  1499.5000      7.9489     10.2261     27.7338      2.4813      0.0834    119.6579
  1499.6000      7.9489     11.1424     27.9068      2.4662      0.0634    130.8781
  1499.7000      7.9489     11.4692     27.7767      2.4608      0.0734    140.0191
  1499.8000      7.9270     11.3168     26.7335      2.4633      0.0101    145.7133
  1499.9000      7.9270     10.5112     24.9598      2.4766      0.0260    147.2803
  1500.0000      7.9086      9.2965     23.5443      2.4966      0.0159    142.1284
  1500.1000      7.9086      7.8639     22.9065      2.5202      0.0323    132.9572
  1500.2000      7.9086      6.5133     22.5175      2.5425      0.0824    127.8552
  1500.3000      7.8928      5.7255     22.0522      2.5555      0.0636    128.1288
  1500.4000      7.8928      4.8997     21.6011      2.5692     -0.0084    128.4346
  1500.5000      7.8756      3.5134     21.1520      2.5920      0.0464    125.8768
  1500.6000      7.8756      2.6067     20.6840      2.6070      0.0715    123.1101
  1500.7000      7.8756      2.4963     20.5201      2.6088      0.0691    122.1746
  1500.8000      7.8788      1.9388     20.8399      2.6180      0.0539    121.9089
  1500.9000      7.8788      0.6178     21.4353      2.6398      0.0670    120.1944
  1501.0000      7.8861     -0.2779     22.0936      2.6546      0.0380    114.7267
  1501.1000      7.8861      0.0672     22.4975      2.6489      0.0454    110.4743
  1501.2000      7.8861      1.0499     22.3411      2.6327     -0.0089    112.9559
  1501.3000      7.9073      0.9378     21.9231      2.6345     -0.0095    116.7763
  1501.4000      7.9073     -0.8741     21.7928      2.6644      0.0481    118.2611
  1501.5000      7.9071     -2.3241     21.8670      2.6883      0.0776    120.5139
  1501.6000      7.9071     -1.6521     21.6687      2.6773      0.0393    122.4551
  1501.7000      7.9071      0.1826     21.3053      2.6470      0.0098    122.9557
  1501.8000      7.9062      1.7526     21.5090      2.6211      0.0226    122.9447
  1501.9000      7.9062      2.9926     22.4336      2.6006     -0.0048    123.0038
  1502.0000      7.9091      4.4121     23.1302      2.5772     -0.0034    124.7786
  1502.1000      7.9091      6.5861     23.1501      2.5413     -0.0045    127.9679
  1502.2000      7.9091      9.3188     23.3974      2.4962     -0.0500    128.7042
  1502.3000      7.9133     11.2739     24.3312      2.4640     -0.0244    128.3532
  1502.4000      7.9133     11.7967     25.4478      2.4554     -0.0317    132.5228
  1502.5000      7.9337     11.4982     26.4608      2.4603     -0.0265    138.9630
  1502.6000      7.9337     10.6244     27.0802      2.4747     -0.0040    141.3279
  1502.7000      7.9337      8.6135     27.4416      2.5079     -0.0104    141.9032
  1502.8000      7.9312      5.5586     27.4470      2.5583      0.0442    141.5434
  1502.9000      7.9312      2.2451     26.8702      2.6130      0.0642    137.0826
  1503.0000      7.9302     -1.0620     26.7320      2.6675      0.1041    131.3262
  1503.1000      7.9302     -3.9718     27.1455      2.7155      0.1279    129.7369
  1503.2000      7.9302     -5.6328     26.9167      2.7429      0.1444    133.7626
  1503.3000      7.9089     -5.7116     26.2276      2.7442      0.2021    137.0886
  1503.4000      7.9089     -5.0690     26.1256      2.7336      0.1281    132.3741
  1503.5000      7.9149     -5.0705     26.8119      2.7337      0.1677    121.5968
