~Version Information
VERS.                      2.0: CWLS Log ASCII Standard - VERSION 2.0
WRAP.                       NO: One line per depth step
~Well Information Block
STRT.FT                -9.5000: 
STOP.FT              2451.0000: 
STEP.FT                 0.2500: 
NULL.                -999.2500: 
COMP.          Petrogulf Corporation: COMPANY
WELL.           Vallejo 19-31V: WELL
FLD.           Purgatorie River: FIELD
LOC.           345' FNL & 2457' FEL: LOCATION
CNTY.               Las Animas: COUNTY
SRVC.                         : SERVICE COMPANY
DATE.          Mon Mar 08 08:24:37 2004: LOG DATE
UWI.           05-071-07919-00: UNIQUE WELL ID
STAT.                 Colorado: STATE
~Curve Information Block
DEPT.FT            0 000 00 00: Depth
MINMK.                        : Surface Line Tension
GR.GAPI                       : Gamma Ray
CCL.                          : Casing Collar Locator
TT3.usec                      : CBL 3' Travel Time
AMP3.mV                       : CBL 3' Amplitude
~Parameter Information Block
~A  Depth      MINMK         GR         CCL         TT3         AMP3    
# ...
   634.5000      0.0000    127.5546      0.0000    275.0254     52.5471
   634.7500      0.0000    126.6927      0.0000    273.6212     54.2367
   635.0000      0.0000    125.6566      0.0000    272.1508     60.4243
   635.2500      0.0000    125.5661      0.0000    271.1744     68.6618
   635.5000      0.0000    127.1320      0.0000    270.8206     75.3435
   635.7500      0.0000    129.7178      0.0000    270.7366     78.9747
   636.0000      0.0000    131.4844      0.0000    270.5940     80.3650
   636.2500      0.0000    130.6034      0.0000    270.3599     80.7674
   636.5000      0.0000    126.6084      0.0000    270.1617     80.8437
   636.7500      0.0000    120.7835      0.0000    270.0892     80.7798
   637.0000      0.0000    115.1792      0.0000    270.1617     80.6101
   637.2500      0.0000    111.0840      0.0000    270.3594     80.3688
   637.5000      0.0000    108.2925      0.0000    270.5883     80.1010
   637.7500      0.0000    105.7100      0.0000    270.6920     79.8423
   638.0000      0.0000    102.5245      0.0000    270.5894     79.6339
   638.2500      0.0000     98.9059      0.0000    270.3669     79.5195
   638.5000      0.0000     95.8866      0.0000    270.1965     79.4938
   638.7500      0.0000     94.6647      0.0000    270.1899     79.4976
   639.0000      0.0000     95.6747      0.0000    270.3310     79.4886
   639.2500      0.0000     97.9997      0.0000    270.4801     79.4649
   639.5000      0.0000     99.8036      0.0000    270.4801     79.4048
   639.7500      0.0000     99.5016      0.0000    270.3309     79.2474
   640.0000      0.0000     96.4858      0.0000    270.1889     78.9589
   640.2500      0.0000     90.9126      0.0000    270.1889     78.5723
   640.5000      0.0000     83.4351      0.0000    270.3309     78.1616
   640.7500      0.0000     75.3414      0.0000    270.4801     77.8028
   641.0000      0.0000     68.2289      0.0000    270.4801     77.5549
   641.2500      0.0000     62.9642      0.0000    270.3309     77.4430
   641.5000      0.0000     59.1730      0.0000    270.1889     77.4434
   641.7500      0.0000     56.0535      0.0000    270.1889     77.5091
   642.0000      0.0000     53.6282      0.0000    270.3310     77.5813
   642.2500      0.0000     53.0356      0.0000    270.4812     77.5914
   642.5000      0.0000     55.5271      0.0000    270.4877     77.4966
   642.7500      0.0000     61.1562      0.0000    270.3669     77.2906
   643.0000      0.0000     68.3778      0.0000    270.2983     76.9957
   643.2500      0.0000     74.8902      0.0000    270.4019     76.6668
   643.5000      0.0000     79.0424      0.0000    270.5970     76.3997
   643.7500      0.0000     80.7754      0.0000    270.6941     76.2805
   644.0000      0.0000     81.4927      0.0000    270.5970     76.2955
   644.2500      0.0000     83.0915      0.0000    270.4019     76.3418
   644.5000      0.0000     86.8390      0.0000    270.2984     76.3290
   644.7500      0.0000     92.5521      0.0000    270.3680     76.2406
   645.0000      0.0000     98.5762      0.0000    270.4964     76.1338
   645.2500      0.0000    102.9176      0.0000    270.5247     76.0973
   645.5000      0.0000    104.4796      0.0000    270.4753     76.1820
   645.7500      0.0000    102.9980      0.0000    270.5037     76.3603
   646.0000      0.0000     98.3697      0.0000    270.6330     76.5472
   646.2500      0.0000     90.9160      0.0000    270.7091     76.6747
   646.5000      0.0000     82.0639      0.0000    270.6330     76.7434
   646.7500      0.0000     74.0978      0.0000    270.5037     76.7723
   647.0000      0.0000     69.2236      0.0000    270.4753     76.7169
   647.2500      0.0000     68.7859      0.0000    270.5246     76.5052
   647.5000      0.0000     72.6058      0.0000    270.4952     76.1670
   647.7500      0.0000     78.6712      0.0000    270.3594     75.8379
   648.0000      0.0000     83.9987      0.0000    270.2549     75.6202
   648.2500      0.0000     86.4786      0.0000    270.2577     75.5142
   648.5000      0.0000     86.1008      0.0000    270.2832     75.4842
   648.7500      1.0000     84.5097      0.0000    270.2577     75.5191
   649.0000      0.0000     83.5357      0.0000    270.2549     75.6240
   649.2500      0.0000     84.0474      0.0000    270.3594     75.7952
   649.5000      0.0000     85.7578      0.0000    270.4951     75.9928
   649.7500      0.0000     87.7245      0.0000    270.5236     76.1474
   650.0000      0.0000     89.0582      0.0000    270.4678     76.2126
   650.2500      0.0000     89.4992      0.0000    270.4687     76.2079
   650.5000      0.0000     89.5467      0.0000    270.5301     76.2103
   650.7500      0.0000     90.0415      0.0000    270.5236     76.2829
   651.0000      0.0000     91.6113      0.0000    270.4329     76.4200
   651.2500      0.0000     94.3619      0.0000    270.3595     76.5833
   651.5000      0.0000     97.7797      0.0000    270.3182     76.7494
   651.7500      0.0000    100.8730      0.0000    270.2652     76.9043
   652.0000      0.0000    102.6770      0.0000    270.2559     77.0462
   652.2500      0.0000    102.7473      0.0000    270.3595     77.2089
   652.5000      0.0000    101.2661      0.0000    270.4951     77.4435
   652.7500      0.0000     99.0137      0.0000    270.5236     77.7617
   653.0000      0.0000     97.1520      0.0000    270.4678     78.1048
   653.2500      0.0000     96.4221      0.0000    270.4687     78.3521
   653.5000      0.0000     96.3175      0.0000    270.5301     78.4142
   653.7500      0.0000     95.5525      0.0000    270.5237     78.3841
   654.0000      0.0000     93.6618      0.0000    270.4338     78.4840
   654.2500      0.0000     91.7610      0.0000    270.3660     78.8014
   654.5000      0.0000     91.5253      0.0000    270.3456     79.1969
   654.7500      0.0000     93.7524      0.0000    270.3310     79.4766
   655.0000      0.0000     97.9457      0.0000    270.3245     79.5899
   655.2500      0.0000    102.6357      0.0000    270.3096     79.6636
   655.5000      0.0000    105.7781      0.0000    270.2567     79.8570
   655.7500      0.0000    105.5298      0.0000    270.2207     80.2003
   656.0000      0.0000    101.5971      0.0000    270.2567     80.5480
   656.2500      0.0000     96.0439      0.0000    270.3096     80.6768
   656.5000      0.0000     92.2710      0.0000    270.3244     80.5300
   656.7500      0.0000     92.5859      0.0000    270.3300     80.3298
   657.0000      0.0000     96.4005      0.0000    270.3380     80.3233
   657.2500      0.0000    100.6829      0.0000    270.3300     80.5133
   657.5000      0.0000    102.3502      0.0000    270.3244     80.7285
   657.7500      0.0000    100.6138      0.0000    270.3096     80.8370
   658.0000      0.0000     97.3008      0.0000    270.2567     80.8287
   658.2500      0.0000     95.0866      0.0000    270.2207     80.7599
   658.5000      0.0000     95.4739      0.0000    270.2567     80.6747
   658.7500      0.0000     98.0713      0.0000    270.3096     80.5814
   659.0000      0.0000    101.1816      0.0000    270.3244     80.4890
   659.2500      0.0000    102.9675      0.0000    270.3300     80.4364
   659.5000      0.0000    102.4672      0.0000    270.3380     80.4736
   659.7500      0.0000     99.7195      0.0000    270.3309     80.6245
   660.0000      0.0000     95.1273      0.0000    270.3309     80.8658
   660.2500      0.0000     89.2122      0.0000    270.3381     81.1535
   660.5000      0.0000     83.0456      0.0000    270.3309     81.4632
   660.7500      0.0000     78.2984      0.0000    270.3309     81.7545
   661.0000      0.0000     76.4170      0.0000    270.3383     81.9539
   661.2500      0.0000     77.9087      0.0000    270.3340     82.0314
   661.5000      0.0000     82.4535      0.0000    270.3579     82.0104
   661.7500      0.0000     89.0970      0.0000    270.4996     81.8863
   662.0000      0.0000     96.0706      0.0000    270.9934     81.5739
   662.2500      0.0000    101.1892      0.0000    272.2158     80.7687
