~Version Information
VERS.                      2.0: CWLS Log ASCII Standard - VERSION 2.0
WRAP.                       NO: One line per depth step
~Well Information Block
STRT.FT                -4.2500: 
STOP.FT              2500.7500: 
STEP.FT                 0.2500: 
NULL.                -999.2500: 
COMP.          Pioneer Natural Resources: COMPANY
WELL.          Cock-a-doodle-doo 44-27: WELL
FLD.           Purgatoire River: FIELD
LOC.           163' FSL & 54' FEL--: LOCATION
PROV.                 Colorado: PROVINCE
CNTY.               Las Animas: COUNTRY
SRVC.                Patterson: SERVICE COMPANY
DATE.          Wed Jul 06 10:56:34 2005: LOG DATE
UWI.                071 08429 : UNIQUE WELL ID
~Curve Information Block
DEPT.FT            0 000 00 00: Depth
CCL.                          : Casing Collar Locator
TT3.usec                      : CBL 3' Travel Time
AMP3.mV                       : CBL 3' Amplitude
GR.GAPI                       : Gamma Ray
~Parameter Information Block
~A  Depth       CCL         TT3         AMP3         GR     
# ...
  2307.2500      0.0000    575.3276      6.1349     93.7925
  2307.5000      0.0000    524.2795      6.3956     92.4665
  2307.7500      0.0000    478.7656      6.6645     93.0049
  2308.0000      0.0000    447.5321      6.8998     95.2785
  2308.2500      0.0000    431.1305      7.0907     97.6057
  2308.5000      0.0000    424.9002      7.2397     98.0079
  2308.7500      0.0000    424.0004      7.3445     95.4316
  2309.0000      0.0000    425.4197      7.4021     90.4254
  2309.2500      0.0000    427.1576      7.4237     85.0256
  2309.5000      0.0000    427.4989      7.4353     81.6823
  2309.7500      0.0000    425.6324      7.4627     81.8176
  2310.0000      0.0000    422.2467      7.5133     85.0153
  2310.2500      0.0000    418.8333      7.5725     89.3904
  2310.5000      0.0000    416.4163      7.6194     92.9377
  2310.7500      0.0000    415.1120      7.6500     94.8058
  2311.0000      0.0000    414.5528      7.6825     95.3386
  2311.2500      0.0000    414.3749      7.7380     95.1239
  2311.5000      0.0000    414.3684      7.8217     94.3652
  2311.7500      0.0000    414.3897      7.9253     93.1893
  2312.0000      0.0000    414.2069      8.0430     92.1668
  2312.2500      0.0000    413.3651      8.1788     92.0986
  2312.5000      0.0000    411.2288      8.3397     93.1697
  2312.7500      0.0000    407.5048      8.5187     94.5364
  2313.0000      0.0000    403.2911      8.6869     94.8781
  2313.2500      0.0000    401.8703      8.8070     93.2387
  2313.5000      0.0000    408.1841      8.8622     89.3894
  2313.7500      0.0000    426.3956      8.8696     83.7256
  2314.0000      0.0000    455.8347      8.8616     77.0127
  2314.2500      0.0000    487.8222      8.8563     70.0107
  2314.5000      0.0000    508.1317      8.8452     63.0719
  2314.7500      0.0000    506.0487      8.8048     56.1575
  2315.0000      0.0000    482.3769      8.7136     49.3621
  2315.2500      0.0000    448.1445      8.5687     43.3569
  2315.5000      0.0000    415.9858      8.3966     39.2374
  2315.7500      0.0000    392.9918      8.2517     37.8750
  2316.0000      0.0000    379.7697      8.1869     39.2942
  2316.2500      0.0000    373.6055      8.2133     42.6994
  2316.5000      0.0000    371.8824      8.2796     47.1233
  2316.7500      0.0000    374.0526      8.2923     51.8165
  2317.0000      0.0000    382.5064      8.1625     55.9108
  2317.2500      0.0000    402.3796      7.8534     58.2274
  2317.5000      0.0000    438.8234      7.4015     58.0212
  2317.7500      0.0000    491.5214      6.8959     55.8008
  2318.0000      0.0000    551.0221      6.4292     52.9280
  2318.2500      0.0000    602.6283      6.0607     50.3955
  2318.5000      0.0000    635.9020      5.8127     48.2624
  2318.7500      0.0000    650.5721      5.6842     46.1784
  2319.0000      0.0000    653.6924      5.6561     44.1807
  2319.2500      0.0000    652.6190      5.6904     42.8704
  2319.5000      0.0000    651.0523      5.7407     42.9774
  2319.7500      0.0000    649.8323      5.7712     44.9435
  2320.0000      0.0000    649.1105      5.7665     48.8179
  2320.2500      0.0000    649.2135      5.7290     54.2639
  2320.5000      0.0000    650.4121      5.6712     60.6848
  2320.7500      0.0000    652.4991      5.6065     67.5388
  2321.0000      0.0000    654.5941      5.5449     74.4850
  2321.2500      0.0000    655.5149      5.4975     81.2173
  2321.5000      0.0000    654.7076      5.4822     87.3657
  2321.7500      0.0000    652.7698      5.5127     92.5267
  2322.0000      0.0000    650.8411      5.5831     96.2559
  2322.2500      0.0000    649.6420      5.6691     98.2814
  2322.5000      0.0000    649.2113      5.7525     98.8678
  2322.7500      0.0000    649.2849      5.8379     98.7209
  2323.0000      0.0000    649.6385      5.9437     98.5020
  2323.2500      0.0000    650.1642      6.0772     98.6741
  2323.5000      0.0000    650.8466      6.2254     99.6778
  2323.7500      0.0000    651.7689      6.3621    101.6815
  2324.0000      0.0000    652.8978      6.4621    104.0222
  2324.2500      0.0000    653.3165      6.5105    105.3409
  2324.5000      0.0000    649.9091      6.5107    104.5941
  2324.7500      0.0000    636.7531      6.4835    101.8530
  2325.0000      0.0000    607.4365      6.4549     98.0994
  2325.2500      0.0000    560.5215      6.4447     94.5184
  2325.5000      0.0000    503.5480      6.4667     92.1122
  2325.7500      0.0000    449.9512      6.5329     91.6629
  2326.0000      0.0000    410.5022      6.6541     93.3817
  2326.2500      0.0000    387.6216      6.8390     96.2811
  2326.5000      0.0000    377.0818      7.0956     98.3792
  2326.7500      0.0000    373.2285      7.4234     98.1588
  2327.0000      0.0000    372.5029      7.8008     95.9158
  2327.2500      0.0000    374.3503      8.1865     93.5233
  2327.5000      0.0000    381.0337      8.5395     92.8523
  2327.7500      0.0000    396.4852      8.8341     94.2399
  2328.0000      0.0000    422.5699      9.0555     96.0372
  2328.2500      0.0000    453.7553      9.1885     95.6226
  2328.5000      0.0000    476.5298      9.2174     91.4740
  2328.7500      0.0000    478.2052      9.1400     84.5084
  2329.0000      0.0000    457.9858      8.9782     77.1364
  2329.2500      0.0000    428.1014      8.7685     71.2384
  2329.5000      0.0000    405.0518      8.5336     67.5121
  2329.7500      0.0000    401.5897      8.2597     66.3336
  2330.0000      0.0000    423.6258      7.9124     68.1041
  2330.2500      0.0000    468.0599      7.4876     72.4061
  2330.5000      0.0000    522.0869      7.0434     77.5609
  2330.7500      0.0000    568.5018      6.6741     81.7309
  2331.0000      0.0000    594.5483      6.4504     84.3297
  2331.2500      0.0000    596.4041      6.3823     85.9005
  2331.5000      0.0000    577.5744      6.4276     86.8538
  2331.7500      0.0000    545.4431      6.5307     86.9569
  2332.0000      0.0000    508.6851      6.6584     86.0427
  2332.2500      0.0000    476.2454      6.8054     84.4491
  2332.5000      0.0000    457.1159      6.9733     82.3909
  2332.7500      0.0000    457.6478      7.1486     79.4516
  2333.0000      0.0000    475.7248      7.3020     75.0950
  2333.2500      0.0000    498.3507      7.4075     69.3482
  2333.5000      0.0000    509.8652      7.4659     62.8092
  2333.7500      0.0000    505.9104      7.5114     56.2527
  2334.0000      0.0000    498.0823      7.5940     50.3437
  2334.2500      0.0000    502.3276      7.7495     45.5972
  2334.5000      0.0000    523.4334      7.9833     42.4776
  2334.7500      0.0000    552.0427      8.2822     41.3226
  2335.0000      0.0000    574.6953      8.6411     41.9408
  2335.2500      0.0000    583.6202      9.0740     43.3701
  2335.5000      0.0000    577.4830      9.6005     44.4867
  2335.7500      0.0000    556.5691     10.2238     44.9976
  2336.0000      0.0000    520.7330     10.9263     45.4541
  2336.2500      0.0000    472.8175     11.6862     46.1622
  2336.5000      0.0000    421.6700     12.4910     46.6056
  2336.7500      0.0000    378.6269     13.3269     46.2332
  2337.0000      0.0000    350.5980     14.1496     45.3642
  2337.2500      0.0000    337.6951     14.8659     44.8577
  2337.5000      0.0000    337.1991     15.3467     45.0260
  2337.7500      0.0000    347.9200     15.4818     45.2619
  2338.0000      0.0000    369.9577     15.2562     44.7747
  2338.2500      0.0000    400.5495     14.7715     43.3907
  2338.5000      0.0000    431.1098     14.1664     41.6215
  2338.7500      0.0000    449.5945     13.5420     40.1385
  2339.0000      0.0000    447.4239     12.9976     39.1636
  2339.2500      0.0000    425.6111     12.6609     38.3226
  2339.5000      0.0000    394.4509     12.6000     37.2652
  2339.7500      2.0000    366.3725     12.7423     36.3300
  2340.0000      0.0000    348.4710     12.9522     36.2906
  2340.2500     -2.0000    340.9642     13.1741     37.5225
  2340.5000      2.0000    340.3490     13.5109     39.6652
