~Version Information
VERS.                      2.0: CWLS Log ASCII Standard - VERSION 2.0
WRAP.                       NO: One line per depth step
~Well Information Block
STRT.FT                 5.5000: 
STOP.FT              1635.7500: 
STEP.FT                 0.2500: 
NULL.                -999.2500: 
COMP.          Pioneer Natural Resources: COMPANY
WELL.                Mead 11-9: WELL
FLD.           Purgatoire River: FIELD
LOC.           1127' FNL & 668' FWL: LOCATION
PROV.                 Colorado: PROVINCE
CNTY.               Las Animas: COUNTRY
SRVC.                Patterson: SERVICE COMPANY
DATE.          Wed Mar 02 13:48:38 2005: LOG DATE
UWI.           05 071 08160 00: UNIQUE WELL ID
~Curve Information Block
DEPT.FT            0 000 00 00: Depth
CCL.                          : Casing Collar Locator
TT3.usec                      : CBL 3' Travel Time
AMP3.mV                       : CBL 3' Amplitude
GR.GAPI                       : Gamma Ray
~Parameter Information Block
~A  Depth       CCL         TT3         AMP3         GR     
# ...
  1513.0000      0.0000    428.7026      6.8532     60.2604
  1513.2500      0.0000    430.9779      6.8222     62.5363
  1513.5000      0.0000    428.9253      6.7909     66.2123
  1513.7500      0.0000    424.2831      6.7686     70.2002
  1514.0000      0.0000    420.7007      6.7536     73.0342
  1514.2500      0.0000    421.8727      6.7371     73.7112
  1514.5000      0.0000    430.5976      6.7116     72.2006
  1514.7500      0.0000    449.2429      6.6781     69.1074
  1515.0000      0.0000    479.9015      6.6478     65.0964
  1515.2500      0.0000    522.2953      6.6380     60.8644
  1515.5000      0.0000    571.1261      6.6516     57.3405
  1515.7500      0.0000    617.5110      6.6454     55.3545
  1516.0000      0.0000    655.0162      6.5318     55.0325
  1516.2500      0.0000    683.8151      6.2559     55.8247
  1516.5000      0.0000    707.7968      5.8889     57.0157
  1516.7500      0.0000    727.5472      5.6067     57.9324
  1517.0000      0.0000    736.8143      5.5464     58.0768
  1517.2500      0.0000    728.3489      5.6964     57.5902
  1517.5000     -2.8317    706.8214      5.9316     57.3726
  1517.7500     -3.0000    693.6581      6.1192     58.2332
  1518.0000      2.6843    711.1659      6.1897     59.8830
  1518.2500      0.0000    759.4326      6.1545     61.0874
  1518.5000      0.0000    814.1168      6.0856     61.0046
  1518.7500      0.0000    848.6503      6.0600     60.3607
  1519.0000      0.0000    854.1807      6.1027     61.2797
  1519.2500      0.0000    838.2504      6.1953     66.0298
  1519.5000      0.0000    811.9634      6.3210     75.7754
  1519.7500      0.0000    782.7061      6.4712     90.0247
  1520.0000      0.0000    755.0563      6.6214    106.8242
  1520.2500      0.0000    732.7121      6.7322    123.5502
  1520.5000      0.0000    717.7807      6.7789    137.6849
  1520.7500      0.0000    709.7150      6.7688    147.1016
  1521.0000      0.0000    706.1518      6.7297    150.4894
  1521.2500      0.0000    704.5521      6.6901    148.4895
  1521.5000      0.0000    702.8586      6.6679    144.1766
  1521.7500      0.0000    698.8937      6.6672    141.2273
  1522.0000      0.0000    689.8250      6.6832    141.3456
  1522.2500      0.0000    673.2470      6.7100    144.3107
  1522.5000      0.0000    649.9828      6.7463    150.3263
  1522.7500      0.0000    626.0803      6.7939    160.8132
  1523.0000      0.0000    610.8038      6.8535    176.0948
  1523.2500      0.0000    611.0975      6.9226    192.9875
  1523.5000      0.0000    626.8854      6.9994    205.5148
  1523.7500      0.0000    651.1293      7.0860    208.2605
  1524.0000      0.0000    674.5800      7.1849    199.3493
  1524.2500      0.0000    691.2537      7.2856    181.1835
  1524.5000      0.0000    700.3484      7.3608    159.0284
  1524.7500      0.0000    704.2178      7.3823    138.2759
  1525.0000      0.0000    705.5038      7.3438    121.9727
  1525.2500      0.0000    705.8177      7.2647    110.5581
  1525.5000      0.0000    705.8509      7.1726    103.5686
  1525.7500      0.0000    705.8207      7.0869    100.7962
  1526.0000      0.0000    705.7533      7.0152    101.7049
  1526.2500      0.0000    705.6265      6.9581    104.7523
  1526.5000      0.0000    705.4391      6.9131    108.4434
  1526.7500      0.0000    705.2339      6.8774    113.4783
  1527.0000      0.0000    705.0679      6.8499    123.4657
  1527.2500      0.0000    704.9893      6.8307    142.6901
  1527.5000      0.0000    705.0494      6.8168    172.2251
  1527.7500      0.0000    705.4114      6.7984    207.7545
  1528.0000      0.0000    706.6285      6.7627    241.3652
  1528.2500      0.0000    709.9971      6.7024    265.8631
  1528.5000      0.0000    717.3171      6.6199    277.8797
  1528.7500      0.0000    729.0823      6.5268    277.7304
  1529.0000      0.0000    741.7144      6.4423    267.4785
  1529.2500      0.0000    747.4080      6.3892    249.7594
  1529.5000      0.0000    739.2589      6.3844    227.8360
  1529.7500      0.0000    717.5178      6.4315    205.3618
  1530.0000      0.0000    688.7761      6.5224    185.1555
  1530.2500      0.0000    657.7619      6.6438    168.2782
  1530.5000      0.0000    622.1972      6.7804    154.4492
  1530.7500      0.0000    578.1241      6.9086    143.0370
  1531.0000      0.0000    528.6803      6.9935    133.6310
  1531.2500      0.0000    484.3593      7.0046    126.3716
  1531.5000      0.0000    454.7209      6.9423    122.1793
  1531.7500      0.0000    442.1881      6.8484    122.2663
  1532.0000      0.0000    443.7041      6.7817    126.8071
  1532.2500      0.0000    456.5269      6.7783    133.8694
  1532.5000      0.0000    481.7633      6.8328    139.7935
  1532.7500      0.0000    521.8077      6.9132    140.8644
  1533.0000      0.0000    573.3002      6.9888    135.1349
  1533.2500      0.0000    624.1365      7.0459    123.6130
  1533.5000      0.0000    660.8826      7.0864    110.3393
  1533.7500      0.0000    679.4487      7.1162    100.9270
  1534.0000      0.0000    686.3181      7.1359    100.2060
  1534.2500      0.0000    690.1306      7.1410    110.5608
  1534.5000      0.0000    694.6581      7.1283    131.4499
  1534.7500      0.0000    699.1996      7.1013    159.0453
  1535.0000      0.0000    702.3407      7.0664    185.8437
  1535.2500      0.0000    703.7842      7.0283    202.3696
  1535.5000      0.0000    703.8127      6.9891    202.0643
  1535.7500      0.0000    702.3506      6.9519    185.9275
  1536.0000      0.0000    698.8002      6.9210    161.7295
  1536.2500      0.0000    692.8082      6.8988    138.0391
  1536.5000      0.0000    685.3169      6.8829    119.2325
  1536.7500      0.0000    678.7766      6.8657    105.5646
  1537.0000      0.0000    675.8715      6.8384     96.0385
  1537.2500      0.0000    677.6582      6.7977     90.1718
  1537.5000      0.0000    682.5735      6.7500     87.8392
  1537.7500      0.0000    686.9550      6.7086     88.6043
  1538.0000      0.0000    686.7426      6.6862     91.4891
  1538.2500      0.0000    679.5527      6.6865     95.0994
  1538.5000      0.0000    666.3365      6.7045     97.9387
  1538.7500      0.0000    651.3733      6.7316     99.0581
  1539.0000      0.0000    639.5178      6.7631     98.8268
  1539.2500      0.0000    632.6271      6.7976     98.7657
  1539.5000      0.0000    629.5693      6.8344     99.9988
  1539.7500      0.0000    629.9807      6.8715    101.9507
  1540.0000      0.0000    636.0276      6.9066    102.9513
  1540.2500      0.0000    649.1171      6.9366    101.9732
  1540.5000      0.0000    666.4630      6.9591     99.4786
  1540.7500      0.0000    682.5644      6.9743     96.7984
  1541.0000      0.0000    693.5228      6.9854     94.9796
  1541.2500      0.0000    699.2078      6.9961     94.1410
  1541.5000      0.0000    702.0648      7.0094     93.8295
  1541.7500      0.0000    704.7462      7.0255     93.9646
  1542.0000      0.0000    708.7811      7.0397     95.1953
  1542.2500      0.0000    714.9664      7.0448     97.9923
  1542.5000      0.0000    724.0895      7.0397    101.5034
  1542.7500      0.0000    735.7946      7.0305    103.9101
  1543.0000      0.0000    746.6536      7.0198    104.3895
  1543.2500      0.0000    751.2419      7.0039    104.3903
  1543.5000      0.0000    746.5183      6.9795    106.2612
  1543.7500      0.0000    734.7115      6.9485    110.6504
  1544.0000      0.0000    721.3760      6.9149    115.7586
  1544.2500      0.0000    711.0630      6.8821    119.1293
  1544.5000      0.0000    705.0646      6.8551    119.7520
  1544.7500      0.0000    702.3126      6.8391    118.3945
  1545.0000      0.0000    701.3139      6.8357    116.3602
  1545.2500      0.0000    701.2496      6.8393    114.4692
  1545.5000      0.0000    702.1466      6.8396    113.2187
  1545.7500      0.0000    704.6653      6.8295    113.1305
  1546.0000      0.0000    709.7327      6.8104    114.3721
  1546.2500      0.0000    718.0378      6.7896    116.3677
