~Version Information
VERS.                      2.0: CWLS Log ASCII Standard - VERSION 2.0
WRAP.                       NO: One line per depth step
~Well Information Block
STRT.FT               483.0000: 
STOP.FT              1701.5000: 
STEP.FT                 0.1000: 
NULL.                -999.2500: 
COMP.          Pioneer Natural Resources: COMPANY
WELL.            Mad Dog 42-31: WELL
FLD.           Purgatorie River: FIELD
LOC.           2064' FNL & 479' FEL: LOCATION
PROV.                 Colorado: PROVINCE
CNTY.               Las Animas: COUNTRY
SRVC.                         : SERVICE COMPANY
DATE.          Sun Oct 10 04:38:02 2004: LOG DATE
UWI.           05 071 08195 00: UNIQUE WELL ID
~Curve Information Block
DEPT.FT            0 000 00 00: Depth
LTEN.lb                       : Surface Line Tension
DCAL.in                       : CDL Caliper
RHOB.g/cc                     : CDL Bulk Density
RHOC.g/cc                     : CDL Density Correction
DPOR.pu                       : CDL Density Porosity
GR.GAPI                       : Gamma Ray
NPOR.pu                       : Neutron Porosity
~Parameter Information Block
~A  Depth       LTEN        DCAL        RHOB        RHOC        DPOR         GR         NPOR    
# ...
  1608.6000   1146.3416      7.8270      2.6049      0.1812      2.7323     95.7834     21.7362
  1608.7000   1146.3416      7.8270      2.5655      0.0490      5.1209     95.4830     21.9690
  1608.8000   1177.6885      7.8241      2.5252      0.0344      7.5630     99.3112     22.6313
  1608.9000   1177.6885      7.8241      2.5085     -0.0067      8.5742    106.5947     23.2741
  1609.0000   1125.6594      7.7878      2.5089      0.0627      8.5524    110.4622     23.5039
  1609.1000   1125.6594      7.7878      2.5154      0.0492      8.1562    107.6156     23.4943
  1609.2000   1125.6594      7.7878      2.5281      0.0718      7.3901    101.2440     23.4678
  1609.3000   1164.6462      7.7829      2.5507      0.0948      6.0164     99.1743     23.3277
  1609.4000   1164.6462      7.7829      2.5833      0.0928      4.0452    103.3352     23.0616
  1609.5000   1145.7411      7.7881      2.6126      0.1274      2.2691    107.7389     22.7300
  1609.6000   1145.7411      7.7881      2.6159      0.1260      2.0696    110.6087     22.5590
  1609.7000   1145.7411      7.7881      2.5961      0.0548      3.2653    114.8214     22.7220
  1609.8000   1152.8442      7.7990      2.5798      0.0950      4.2532    120.7512     22.9908
  1609.9000   1152.8442      7.7990      2.5817      0.0562      4.1399    126.9680     23.2793
  1610.0000   1098.5242      7.7990      2.5998      0.0585      3.0425    131.2409     24.0817
  1610.1000   1098.5242      7.7990      2.6131      0.1186      2.2368    130.3434     25.3108
  1610.2000   1098.5242      7.7990      2.6079      0.0560      2.5517    126.6993     25.8811
  1610.3000   1182.0410      7.7954      2.6064      0.0361      2.6427    125.7449     25.5648
  1610.4000   1182.0410      7.7954      2.6202      0.0843      1.8075    125.6269     25.1860
  1610.5000   1101.7777      7.7971      2.6267      0.0689      1.4095    124.2825     24.8629
  1610.6000   1101.7777      7.7971      2.6124      0.0856      2.2784    124.2706     24.2356
  1610.7000   1101.7777      7.7971      2.5895      0.0461      3.6660    124.6929     23.5115
  1610.8000   1140.7740      7.7913      2.5753      0.0388      4.5253    123.4881     23.0903
  1610.9000   1140.7740      7.7913      2.5687      0.0440      4.9271    125.0951     23.0081
  1611.0000   1116.5583      7.7799      2.5619      0.0346      5.3412    133.5674     23.1387
  1611.1000   1116.5583      7.7799      2.5578      0.0668      5.5908    145.5520     23.4405
  1611.2000   1116.5583      7.7799      2.5589      0.0104      5.5190    148.7115     23.5082
  1611.3000   1118.1761      7.7783      2.5637      0.0266      5.2279    137.2626     23.0335
  1611.4000   1118.1761      7.7783      2.5696      0.0406      4.8704    122.1276     22.8342
  1611.5000   1129.3251      7.8116      2.5692      0.0501      4.8973    114.7013     23.3809
  1611.6000   1129.3251      7.8116      2.5573      0.0359      5.6201    115.4762     23.9516
  1611.7000   1129.3251      7.8116      2.5457     -0.0038      6.3192    118.4883     24.1920
  1611.8000   1154.2174      7.8178      2.5467      0.0456      6.2616    119.4773     24.3922
  1611.9000   1154.2174      7.8178      2.5515      0.0714      5.9696    118.0294     24.6144
  1612.0000   1116.6503      7.8129      2.5436      0.0652      6.4512    116.1084     24.6629
  1612.1000   1116.6503      7.8129      2.5234     -0.0025      7.6726    112.8327     24.5176
  1612.2000   1116.6503      7.8129      2.5045     -0.0325      8.8201    104.8747     24.2302
  1612.3000   1167.2028      7.8168      2.4940      0.0113      9.4525     96.8440     23.7741
  1612.4000   1167.2028      7.8168      2.4968     -0.0011      9.2851     96.0990     23.3273
  1612.5000   1101.6021      7.8190      2.5050      0.0424      8.7880    101.5194     22.8689
  1612.6000   1101.6021      7.8190      2.5009      0.0019      9.0343    108.6358     22.2681
  1612.7000   1101.6021      7.8190      2.4943     -0.0094      9.4364    113.0766     22.2260
  1612.8000   1124.7043      7.8141      2.5068      0.0370      8.6791    112.3937     23.3163
  1612.9000   1124.7043      7.8141      2.5325      0.0680      7.1201    110.2834     24.7286
  1613.0000   1147.4084      7.8134      2.5484      0.1080      6.1568    112.8660     25.3770
  1613.1000   1147.4084      7.8134      2.5485      0.0605      6.1533    121.1856     25.5414
  1613.2000   1147.4084      7.8134      2.5442      0.0731      6.4108    129.6404     25.9426
  1613.3000   1131.6720      7.8139      2.5383      0.0455      6.7669    134.0470     26.3480
  1613.4000   1131.6720      7.8139      2.5334      0.0141      7.0696    136.0500     26.3722
  1613.5000   1134.0273      7.8139      2.5415      0.0337      6.5782    136.4592     26.0942
  1613.6000   1134.0273      7.8139      2.5642      0.1003      5.2005    134.4685     25.6340
  1613.7000   1134.0273      7.8139      2.5857      0.1097      3.8962    132.2195     25.1186
  1613.8000   1126.1487      7.8171      2.5915      0.0672      3.5479    128.2609     24.6431
  1613.9000   1126.1487      7.8171      2.5804      0.0686      4.2184    118.9318     24.5327
  1614.0000   1132.1208      7.8171      2.5610      0.0537      5.3912    110.1859     24.8399
  1614.1000   1132.1208      7.8171      2.5513      0.0136      5.9840    107.4013     24.9882
  1614.2000   1132.1208      7.8171      2.5677      0.0499      4.9887    106.8883     24.5961
  1614.3000   1132.2089      7.8212      2.6082      0.0997      2.5357    107.3110     23.8382
  1614.4000   1132.2089      7.8212      2.6481      0.1626      0.1125    110.8829     23.0964
  1614.5000   1132.4625      7.8155      2.6603      0.1243     -0.6272    115.3094     22.5325
  1614.6000   1132.4625      7.8155      2.6469      0.0947      0.1891    120.1611     22.1625
  1614.7000   1132.4625      7.8155      2.6322      0.1405      1.0810    130.7337     21.8801
  1614.8000   1125.2805      7.7760      2.6272      0.0691      1.3843    140.3600     21.5408
  1614.9000   1125.2805      7.7760      2.6225      0.1023      1.6670    137.5724     21.2681
  1615.0000   1138.2847      7.7708      2.6037      0.1109      2.8090    129.5633     21.3671
  1615.1000   1138.2847      7.7708      2.5769      0.0094      4.4273    128.7380     21.9835
  1615.2000   1138.2847      7.7708      2.5622      0.0222      5.3234    137.2947     22.6073
  1615.3000   1125.2969      7.7717      2.5602      0.0479      5.4412    144.9887     22.8491
  1615.4000   1125.2969      7.7717      2.5632      0.0397      5.2625    144.8184     23.1225
  1615.5000   1159.1301      7.7772      2.5699      0.0501      4.8555    141.0862     23.6302
  1615.6000   1159.1301      7.7772      2.5758      0.0263      4.4961    133.5556     24.1249
  1615.7000   1159.1301      7.7772      2.5736      0.0356      4.6279    124.5674     24.5246
  1615.8000   1117.7354      7.8179      2.5697      0.0018      4.8666    124.7940     24.9193
  1615.9000   1117.7354      7.8179      2.5783      0.0365      4.3473    133.7683     25.3882
  1616.0000   1133.1277      7.8063      2.5896      0.0867      3.6584    135.7427     25.3618
  1616.1000   1133.1277      7.8063      2.5897      0.0315      3.6522    124.8137     24.1492
  1616.2000   1133.1277      7.8063      2.5859      0.0628      3.8826    114.5920     22.5421
  1616.3000   1129.2827      7.8055      2.5871      0.0477      3.8092    115.2646     22.1112
  1616.4000   1129.2827      7.8055      2.5923      0.0980      3.4964    122.3987     22.8810
  1616.5000   1118.1324      7.8048      2.5933      0.0703      3.4379    124.9359     23.3455
  1616.6000   1118.1324      7.8048      2.5848      0.0719      3.9501    118.8678     23.0238
  1616.7000   1118.1324      7.8048      2.5714      0.0222      4.7662    113.0962     22.9057
  1616.8000   1133.6708      7.8094      2.5627      0.0285      5.2907    113.4009     23.4624
  1616.9000   1133.6708      7.8094      2.5581      0.0575      5.5673    116.7028     24.1247
