~Version Information
VERS.                      2.0: CWLS Log ASCII Standard - VERSION 2.0
WRAP.                       NO: One line per depth step
~Well Information Block
STRT.FT               930.0000: 
STOP.FT              2783.2000: 
STEP.FT                 0.1000: 
NULL.                -999.2500: 
COMP.          Pioneer Natural Resources: COMPANY
WELL.           Desoto 13-7TR: WELL
FLD.           Purgatoire River: FIELD
LOC.           1404' FSL & 1115' FWL: LOCATION
PROV.                 Colorado: PROVINCE
CNTY.               Las Animas: COUNTRY
SRVC.                Patterson: SERVICE COMPANY
DATE.          Fri Jan 14 14:42:18 2005: LOG DATE
UWI.           05 071 08216 00: UNIQUE WELL ID
~Curve Information Block
DEPT.FT            0 000 00 00: Depth
DCAL.in                       : CDL Caliper
RHOB.g/cc                     : CDL Bulk Density
RHOC.g/cc                     : CDL Density Correction
DPOR.pu                       : CDL Density Porosity
NPOR.pu                       : Neutron Porosity
GR.GAPI                       : Gamma Ray
~Parameter Information Block
~A  Depth       DCAL        RHOB        RHOC        DPOR        NPOR         GR     
# ...
  1419.6000      8.1128      2.6041      0.0843      2.7800     31.1063    107.5639
  1419.7000      8.1128      2.6160      0.0758      2.0591     30.8741    119.6134
  1419.8000      8.1101      2.6187      0.0888      1.8981     30.9438    127.5911
  1419.9000      8.1101      2.6102      0.0866      2.4131     31.1407    126.8202
  1420.0000      8.1015      2.5904      0.0752      3.6091     30.3180    124.6095
  1420.1000      8.1015      2.5735      0.0484      4.6360     29.5531    129.3643
  1420.2000      8.1015      2.5715      0.0583      4.7577     30.0346    137.8387
  1420.3000      8.0950      2.5783      0.0884      4.3445     30.8207    143.8480
  1420.4000      8.0950      2.5807      0.0598      4.2023     30.7558    143.1401
  1420.5000      8.0942      2.5758      0.0449      4.4989     30.0545    137.2312
  1420.6000      8.0942      2.5735      0.0011      4.6351     29.0505    133.2916
  1420.7000      8.0942      2.5751      0.0609      4.5414     28.2099    133.2580
  1420.8000      8.0943      2.5666      0.0412      5.0528     27.6963    133.0097
  1420.9000      8.0943      2.5506      0.0159      6.0216     27.2735    130.5000
  1421.0000      8.0990      2.5398      0.0516      6.6794     27.1961    125.0321
  1421.1000      8.0990      2.5338      0.0348      7.0422     27.7915    120.0150
  1421.2000      8.0990      2.5367      0.0458      6.8679     28.9381    119.4737
  1421.3000      8.1014      2.5541      0.0437      5.8139     29.5158    122.1021
  1421.4000      8.1014      2.5751      0.0793      4.5381     28.7526    125.0581
  1421.5000      8.0947      2.5879      0.0441      3.7659     27.8293    123.8545
  1421.6000      8.0947      2.5914      0.0769      3.5520     27.2996    117.7016
  1421.7000      8.0947      2.5906      0.0058      3.6025     26.7673    108.5257
  1421.8000      8.0864      2.5908      0.0629      3.5858     26.6481     95.1232
  1421.9000      8.0864      2.5903      0.0632      3.6204     27.1447     80.3277
  1422.0000      8.0832      2.5943      0.0386      3.3762     27.0027     73.1180
  1422.1000      8.0832      2.6131      0.0431      2.2386     25.7363     78.1203
  1422.2000      8.0832      2.6363      0.0473      0.8333     25.1022     91.6627
  1422.3000      8.0860      2.6458      0.0326      0.2574     25.5704    106.0444
  1422.4000      8.0860      2.6406      0.0784      0.5708     26.4031    114.4844
  1422.5000      8.0914      2.6268      0.0382      1.4072     26.5642    114.4132
  1422.6000      8.0914      2.6165     -0.0131      2.0324     26.1037    108.0160
  1422.7000      8.0914      2.6165      0.0218      2.0319     25.5705    102.4250
  1422.8000      8.0944      2.6114      0.0323      2.3416     25.4441    102.7933
  1422.9000      8.0944      2.5974      0.0062      3.1856     25.9523    106.0397
  1423.0000      8.0969      2.5888      0.0340      3.7078     27.2872    107.5862
  1423.1000      8.0969      2.5881      0.0343      3.7534     28.9562    109.9423
  1423.2000      8.0969      2.5906      0.0567      3.6012     29.5600    114.4321
  1423.3000      8.0974      2.5986      0.0174      3.1138     28.3104    117.9628
  1423.4000      8.0974      2.6101      0.0470      2.4176     26.5044    119.1329
  1423.5000      8.1016      2.6076      0.0714      2.5681     25.7035    118.7490
  1423.6000      8.1016      2.5906      0.0279      3.5997     26.1197    117.6500
  1423.7000      8.1016      2.5792      0.0249      4.2914     26.9532    117.3115
  1423.8000      8.1062      2.5788     -0.0012      4.3148     25.9028    119.9224
  1423.9000      8.1062      2.5790      0.0167      4.3036     24.3865    122.3159
  1424.0000      8.1076      2.5711      0.0011      4.7832     24.0961    119.3258
  1424.1000      8.1076      2.5594      0.0145      5.4894     25.0808    115.6076
  1424.2000      8.1076      2.5529      0.0315      5.8855     26.9578    113.9566
  1424.3000      8.1083      2.5432      0.0336      6.4723     27.7966    107.9830
  1424.4000      8.1083      2.5251     -0.0457      7.5688     27.1671     96.8298
  1424.5000      8.1083      2.5228     -0.0305      7.7081     26.4663     88.0001
  1424.6000      8.1083      2.5491      0.0387      6.1155     26.7532     84.2789
  1424.7000      8.1083      2.5824      0.0398      4.0943     28.1909     84.5571
  1424.8000      8.1069      2.5977      0.0861      3.1700     29.6614     88.9519
  1424.9000      8.1069      2.5867      0.0027      3.8335     29.9113     97.8307
  1425.0000      8.1045      2.5639      0.0250      5.2175     29.4350    109.2876
  1425.1000      8.1045      2.5446      0.0222      6.3851     29.3239    116.5323
  1425.2000      8.1045      2.5317      0.0179      7.1682     29.4373    118.7763
  1425.3000      8.1024      2.5258      0.0363      7.5280     28.6564    123.8402
  1425.4000      8.1024      2.5241      0.0520      7.6283     27.4678    131.2364
  1425.5000      8.1029      2.5222      0.0446      7.7481     26.8499    132.8957
  1425.6000      8.1029      2.5236      0.0118      7.6588     26.4994    131.5596
  1425.7000      8.1029      2.5344      0.0480      7.0083     26.5431    135.4562
  1425.8000      8.1048      2.5506      0.0336      6.0241     27.7911    143.5985
  1425.9000      8.1048      2.5569      0.0727      5.6406     29.7663    148.0867
  1426.0000      8.1051      2.5439      0.0356      6.4328     31.2851    145.0076
  1426.1000      8.1051      2.5352     -0.0133      6.9567     32.6666    141.5959
  1426.2000      8.1051      2.5546      0.0568      5.7806     34.4504    147.3046
  1426.3000      8.1042      2.5832      0.0807      4.0489     36.5977    158.4318
  1426.4000      8.1042      2.5966      0.0586      3.2335     37.6388    161.2296
  1426.5000      8.1041      2.5917      0.0817      3.5305     35.5879    153.8027
  1426.6000      8.1041      2.5703      0.0546      4.8280     32.0870    147.6841
  1426.7000      8.1041      2.5445      0.0420      6.3924     30.6469    149.5336
  1426.8000      8.1040      2.5357     -0.0031      6.9300     31.6772    152.4839
  1426.9000      8.1040      2.5494      0.0651      6.0966     33.3834    149.0369
  1427.0000      8.1012      2.5664      0.0530      5.0693     33.1840    140.8199
  1427.1000      8.1012      2.5654      0.0366      5.1273     30.5877    136.4487
  1427.2000      8.1012      2.5454      0.0351      6.3392     28.0512    140.6057
  1427.3000      8.0984      2.5266      0.0013      7.4762     26.9978    146.9875
  1427.4000      8.0984      2.5266      0.0092      7.4776     27.3818    149.5583
  1427.5000      8.1010      2.5376      0.0376      6.8149     28.9310    147.8280
  1427.6000      8.1010      2.5439      0.0196      6.4323     29.7150    143.7111
  1427.7000      8.1010      2.5492      0.0088      6.1077     28.4863    140.3579
  1427.8000      8.1044      2.5597      0.0536      5.4703     27.0974    138.4505
  1427.9000      8.1044      2.5693      0.0233      4.8909     26.6815    135.8536
  1428.0000      8.1055      2.5765     -0.0032      4.4574     27.0535    132.6956
  1428.1000      8.1055      2.5808      0.0531      4.1920     27.8897    128.3154
  1428.2000      8.1055      2.5744      0.0191      4.5810     29.0823    124.4882
  1428.3000      8.1047      2.5633      0.0016      5.2522     29.7112    124.3575
  1428.4000      8.1047      2.5679     -0.0074      4.9780     28.5253    124.4265
  1428.5000      8.1018      2.5924      0.0456      3.4921     26.2784    120.2252
  1428.6000      8.1018      2.6166      0.0820      2.0263     24.8538    110.6218
  1428.7000      8.1018      2.6204      0.0753      1.7913     24.3129     98.4160
  1428.8000      8.0985      2.6032      0.0513      2.8368     24.1616     89.1137
  1428.9000      8.0985      2.5825      0.0176      4.0909     24.2837     85.0485
  1429.0000      8.0960      2.5776      0.0141      4.3887     24.6167     84.3212
  1429.1000      8.0960      2.5831      0.0647      4.0547     24.9372     85.1014
