~Version Information
VERS.                      2.0: CWLS Log ASCII Standard - VERSION 2.0
WRAP.                       NO: One line per depth step
~Well Information Block
STRT.FT                -3.7500: 
STOP.FT               930.7500: 
STEP.FT                 0.2500: 
NULL.                -999.2500: 
COMP.          Pioneer Natural Resources: COMPANY
WELL.                Pug 33-19: WELL
FLD.           Purgatorie River: FIELD
LOC.           1381' FSL & 2140' FEL--: LOCATION
PROV.                       CO: PROVINCE
CNTY.               Las Animas: COUNTRY
SRVC.                         : SERVICE COMPANY
DATE.          Mon Dec 20 15:44:45 2004: LOG DATE
UWI.                          : UNIQUE WELL ID
~Curve Information Block
DEPT.FT            0 000 00 00: Depth
GR.GAPI                       : Gamma Ray
CCL.                          : Casing Collar Locator
TT3.usec                      : CBL 3' Travel Time
AMP3.mV                       : CBL 3' Amplitude
~Parameter Information Block
~A  Depth        GR         CCL         TT3         AMP3    
# ...
   130.2500     99.6210      0.0000    809.4994      7.4595
   130.5000     96.6720      0.0000    804.5399      7.4058
   130.7500     93.7087      0.0000    801.6365      7.3438
   131.0000     90.1309      0.0000    802.1115      7.3732
   131.2500     86.3798      0.0000    802.1201      7.6038
   131.5000     83.4026      0.0000    796.5390      8.0545
   131.7500     82.0469      0.0000    784.3828      8.5963
   132.0000     82.7184      0.0000    769.1426      9.0372
   132.2500     85.1340      0.0000    754.9675      9.2729
   132.5000     88.1867      0.0000    744.0106      9.3334
   132.7500     90.4144      0.0000    736.5834      9.3101
   133.0000     91.0420      0.0000    732.1662      9.2775
   133.2500     90.4400      0.0000    729.9501      9.2692
   133.5000     89.2150      0.0000    729.1062      9.2863
   133.7500     87.0002      0.0000    729.1201      9.3120
   134.0000     82.7318      0.0000    730.0432      9.3304
   134.2500     76.4262      0.0000    732.4725      9.3421
   134.5000     70.1594      0.0000    737.0598      9.3625
   134.7500     66.4996      0.0000    743.6900      9.4062
   135.0000     66.0837      0.0000    750.9631      9.4736
   135.2500     67.2790      0.0000    756.6868      9.5544
   135.5000     68.0033      0.0000    759.1074      9.6353
   135.7500     67.4081      0.0000    757.9565      9.7025
   136.0000     66.1915      0.0000    754.7501      9.7471
   136.2500     65.8749      0.0000    752.1202      9.7687
   136.5000     67.4178      0.0000    752.2031      9.7706
   136.7500     69.9444      0.0000    755.1481      9.7543
   137.0000     71.0726      0.0000    759.2845      9.7257
   137.2500     68.9803      0.0000    762.7687      9.7018
   137.5000     64.0901      0.0000    764.8611      9.6978
   137.7500     58.6239      0.0000    765.8291      9.7101
   138.0000     54.8047      0.0000    766.2075      9.7182
   138.2500     53.5913      0.0000    766.3493      9.7068
   138.5000     54.5597      0.0000    766.4037      9.6812
   138.7500     56.4448      0.0000    766.4250      9.6572
   139.0000     57.9072      0.0000    766.4390      9.6415
   139.2500     58.1536      0.0000    766.4586      9.6285
   139.5000     57.0610      0.0000    766.4937      9.6203
   139.7500     54.9779      0.0000    766.5681      9.6396
   140.0000     52.5474      0.0000    766.7213      9.7171
   140.2500     50.4080      0.0000    766.9859      9.8628
   140.5000     48.8674      0.0000    767.3614     10.0494
   140.7500     48.2303      0.0000    767.8061     10.2189
   141.0000     49.3730      0.0000    768.2493     10.3115
   141.2500     53.1538      0.0000    768.6163     10.3013
   141.5000     59.0393      0.0000    768.8553     10.2132
   141.7500     65.0729      0.0000    768.9547     10.0995
   142.0000     69.5610      0.0000    768.9399     10.0001
   142.2500     72.4510      0.0000    768.8585      9.9233
   142.5000     74.9804      0.0000    768.7598      9.8577
   142.7500     78.3378      0.0000    768.6757      9.7937
   143.0000     82.7264      0.0000    768.6068      9.7336
   143.2500     87.4116      0.0000    768.5326      9.6849
   143.5000     91.4062      0.0000    768.4470      9.6450
   143.7500     94.0434      0.0000    768.3824      9.5974
   144.0000     95.0380      0.0000    768.3834      9.5303
   144.2500     94.4025      0.0000    768.4525      9.4556
   144.5000     92.7217      0.0000    768.5363      9.3982
   144.7500     91.3619      0.0000    768.5714      9.3663
   145.0000     91.7173      0.0000    768.5328      9.3423
   145.2500     93.9457      0.0000    768.4316      9.3064
   145.5000     96.8482      0.0000    768.2791      9.2579
   145.7500     99.1551      0.0000    768.0807      9.2096
   146.0000    100.5052      0.0000    767.8621      9.1700
   146.2500    101.0521      0.0000    767.6818      9.1363
   146.5000    100.7594      0.0000    767.5997      9.0995
   146.7500     99.5496      0.0000    767.6339      9.0529
   147.0000     97.6991      0.0000    767.7480      8.9943
   147.2500     95.5888      0.0000    767.8809      8.9275
   147.5000     93.2998      0.0000    767.9899      8.8671
   147.7500     90.7864      0.0000    768.0723      8.8407
   148.0000     88.3020      0.0000    768.1406      8.8737
   148.2500     86.4196      0.0000    768.1801      8.9650
   148.5000     85.5782      0.0000    768.1123      9.0794
   148.7500     85.5181      0.0000    767.7836      9.1693
   149.0000     85.0960      0.0000    766.9656      9.2057
   149.2500     82.8577      0.0000    765.4459      9.1942
   149.5000     78.1660      0.0000    763.3212      9.1644
   149.7500     72.0188      0.0000    761.2999      9.1439
   150.0000     66.6862      0.0000    760.4428      9.1436
   150.2500     64.2796      0.0000    761.2710      9.1613
   150.5000     65.5770      0.0000    763.2159      9.1920
   150.7500     70.1829      0.0000    765.1577      9.2295
   151.0000     77.3034      0.0000    766.3687      9.2636
   151.2500     85.7615      0.0000    766.8101      9.2809
   151.5000     93.7255      0.0000    766.7831      9.2682
   151.7500     99.5646      0.0000    766.5673      9.2178
   152.0000    103.0512      0.0000    766.3236      9.1379
   152.2500    105.0570      0.0000    766.1326      9.0552
   152.5000    106.2908      0.0000    766.0226      9.0017
   152.7500    106.8357      0.0000    765.9869      8.9920
   153.0000    106.6036      0.0000    766.0082      9.0183
   153.2500    105.8413      0.0000    766.0788      9.0632
   153.5000    105.1981      0.0000    766.1888      9.1101
   153.7500    105.2096      0.0000    766.3087      9.1451
   154.0000    105.7668      0.0000    766.4033      9.1579
   154.2500    106.4718      0.0000    766.4662      9.1458
   154.5000    107.4563      0.0000    766.5258      9.1138
   154.7500    109.3998      0.0000    766.6080      9.0701
   155.0000    112.6458      0.0000    766.6951      9.0243
   155.2500    116.4980      0.0000    766.7301      8.9856
   155.5000    119.4280      0.0000    766.6649      8.9603
   155.7500    119.9959      0.0000    766.4984      8.9517
   156.0000    117.6984      0.0000    766.2637      8.9646
   156.2500    113.1686      0.0000    765.9891      9.0045
   156.5000    107.8389      0.0000    765.6138      9.0689
   156.7500    103.3504      0.0000    764.8619      9.1433
   157.0000    100.7113      0.0000    763.1371      9.2098
   157.2500     99.5464      0.0000    759.7740      9.2533
   157.5000     98.3336      0.0000    754.8956      9.2619
   157.7500     95.6735      0.0000    750.2000      9.2328
   158.0000     91.4944      0.0000    748.2385      9.1819
   158.2500     87.0897      0.0000    750.1530      9.1397
   158.5000     83.9870      0.0000    754.2913      9.1297
   158.7500     82.7072      0.0000    757.3940      9.1512
   159.0000     82.6528      0.0000    756.9261      9.1899
   159.2500     83.2171      0.0000    752.5841      9.2436
   159.5000     84.6792      0.0000    746.6447      9.3308
   159.7500     87.6589      0.0000    742.9215      9.4661
   160.0000     91.8578      0.0000    744.1519      9.6338
   160.2500     95.8712      0.0000    749.8174      9.7918
   160.5000     98.4219      0.0000    756.8776      9.9081
   160.7500     99.4414      0.0000    762.5272      9.9863
   161.0000     99.7214      0.0000    765.8483     10.0507
   161.2500     99.9263      0.0000    767.3076     10.1099
   161.5000    100.3761      0.0000    767.4679     10.1464
   161.7500    101.2738      0.0000    766.1702     10.1416
   162.0000    102.4397      0.0000    762.3625     10.1034
   162.2500    102.8935      0.0000    754.6374     10.0630
   162.5000    101.3508      0.0000    742.6412     10.0478
   162.7500     97.4727      0.0000    728.6020     10.0583
   163.0000     92.4400      0.0000    717.2115     10.0660
   163.2500     88.0351      0.0000    712.8982     10.0335
   163.5000     85.2604      0.0000    716.4745      9.9425
