~Version Information
VERS.                      2.0: CWLS Log ASCII Standard - VERSION 2.0
WRAP.                       NO: One line per depth step
~Well Information Block
STRT.FT               430.0000: 
STOP.FT              2417.0000: 
STEP.FT                 0.2500: 
NULL.                -999.2500: 
COMP.          Evergreen Operating Corporation: COMPANY
WELL.          McCullough 34-32: WELL
FLD.           Purgatorie River: FIELD
LOC.           261' FSL & 2098' FEL: LOCATION
PROV.                 Colorado: PROVINCE
CNTY.               Las Animas: COUNTRY
SRVC.                Patterson: SERVICE COMPANY
DATE.          Sun May 16 02:33:07 2004: LOG DATE
UWI.           05 071 07953 00: UNIQUE WELL ID
~Curve Information Block
DEPT.FT            0 000 00 00: Depth
SN.Ohm-m                      : IEL Short Normal
SP.mV                         : IEL Spontaneous Potential
DIR.Ohm-m                     : IEL Induction Resistivity
GR.GAPI                       : Gamma Ray
~Parameter Information Block
~A  Depth        SN          SP         DIR          GR     
# ...
  1334.5000     56.3033    110.1803     32.1796     92.3417
  1334.7500     66.6049    109.7448     33.8265     84.6221
  1335.0000     78.8878    109.3614     35.4939     73.6807
  1335.2500     91.5921    109.0134     37.0633     67.6937
  1335.5000    102.7340    108.6887     38.3152     61.0951
  1335.7500    110.7367    108.3782     38.9602     57.6794
  1336.0000    114.7635    108.0791     38.7551     52.6728
  1336.2500    114.6929    107.8037     37.6427     49.3015
  1336.5000    110.9043    107.5870     35.7943     45.4612
  1336.7500    103.8753    107.4856     33.5158     44.6154
  1337.0000     93.9235    107.5599     31.1116     46.4799
  1337.2500     81.5298    107.8388     28.8047     49.6109
  1337.5000     67.9402    108.2911     26.7236     56.9964
  1337.7500     55.0681    108.8312     24.9200     64.0788
  1338.0000     44.5047    109.3568     23.3907     78.5436
  1338.2500     36.7531    109.7864     22.0973     90.2666
  1338.5000     31.4051    110.0774     20.9840    108.1085
  1338.7500     27.7449    110.2241     19.9972    118.0020
  1339.0000     25.1661    110.2517     19.1002    127.5320
  1339.2500     23.3022    110.2050     18.2788    130.5204
  1339.5000     21.9722    110.1330     17.5363    132.0959
  1339.7500     21.0663    110.0742     16.8848    132.4498
  1340.0000     20.4768    110.0507     16.3353    132.6662
  1340.2500     20.1252    110.0685     15.8924    132.3124
  1340.5000     20.0131    110.1181     15.5482    130.5046
  1340.7500     20.1253    110.1733     15.2805    128.6732
  1341.0000     20.3215    110.1947     15.0560    126.3517
  1341.2500     20.4231    110.1402     14.8402    125.9527
  1341.5000     20.3170    109.9794     14.6104    127.4706
  1341.7500     19.9879    109.7062     14.3642    129.2658
  1342.0000     19.5315    109.3477     14.1187    131.4121
  1342.2500     19.0866    108.9618     13.8981    131.8104
  1342.5000     18.7425    108.6174     13.7183    131.1040
  1342.7500     18.5133    108.3593     13.5735    130.5576
  1343.0000     18.3468    108.1829     13.4380    130.8369
  1343.2500     18.1569    108.0436     13.2803    131.7193
  1343.5000     17.8945    107.8913     13.0813    132.7238
  1343.7500     17.5910    107.6989     12.8410    132.2462
  1344.0000     17.3149    107.4680     12.5712    129.1352
  1344.2500     17.1045    107.2192     12.2859    125.8889
  1344.5000     16.9546    106.9819     12.0002    121.0421
  1344.7500     16.8476    106.7898     11.7351    118.8424
  1345.0000     16.7783    106.6714     11.5185    117.6854
  1345.2500     16.7495    106.6326     11.3792    118.0545
  1345.5000     16.7653    106.6452     11.3373    119.8531
  1345.7500     16.8288    106.6603     11.3986    121.9896
  1346.0000     16.9395    106.6434     11.5526    126.8352
  1346.2500     17.1005    106.5975     11.7771    130.7721
  1346.5000     17.3232    106.5529     12.0438    136.0796
  1346.7500     17.6219    106.5462     12.3232    138.1238
  1347.0000     18.0057    106.6086     12.5853    137.4367
  1347.2500     18.4984    106.7643     12.7975    133.7398
  1347.5000     19.2150    107.0301     12.9291    122.4357
  1347.7500     20.3853    107.4140     12.9649    111.3004
  1348.0000     22.1910    107.9141     12.9180     91.9424
  1348.2500     24.4520    108.5200     12.8288     79.9765
  1348.5000     26.3889    109.2209     12.7505     67.9608
  1348.7500     26.9509    110.0142     12.7331     65.3889
  1349.0000     25.7847    110.9011     12.8139     69.6818
  1349.2500     23.6794    111.8655     13.0139     76.8874
  1349.5000     21.7790    112.8544     13.3337     91.4592
  1349.7500     20.6853    113.7839     13.7480    101.9610
  1350.0000     20.3705    114.5759     14.1995    116.3520
  1350.2500     20.5033    115.1975     14.6065    123.9752
  1350.5000     20.7528    115.6720     14.8901    131.1344
  1350.7500     20.9758    116.0550     15.0167    132.4483
  1351.0000     21.2464    116.3992     15.0178    128.9640
  1351.2500     21.8301    116.7358     14.9641    123.7284
  1351.5000     23.1881    117.0797     14.9198    113.8757
  1351.7500     25.9369    117.4401     14.9140    107.1086
  1352.0000     30.6293    117.8224     14.9463     96.9973
  1352.2500     37.1439    118.2224     15.0066     89.8659
  1352.5000     43.9982    118.6277     15.0890     78.3885
  1352.7500     48.7368    119.0315     15.1918     70.9298
  1353.0000     49.5098    119.4416     15.3097     62.3961
  1353.2500     46.1830    119.8685     15.4269     59.8831
  1353.5000     40.1063    120.3037     15.5141     62.0112
  1353.7500     33.2208    120.7164     15.5292     66.9253
  1354.0000     27.1478    121.0761     15.4286     77.4017
  1354.2500     22.6401    121.3750     15.1899     85.0129
  1354.5000     19.6945    121.6232     14.8311     95.5144
  1354.7500     18.0398    121.8322     14.4072    101.3546
  1355.0000     17.3999    122.0085     13.9827    108.0651
  1355.2500     17.4464    122.1572     13.6055    111.1531
  1355.5000     17.8035    122.2841     13.2982    114.0438
  1355.7500     18.2150    122.3925     13.0640    115.4097
  1356.0000     18.6093    122.4807     12.8980    117.9220
  1356.2500     18.9866    122.5426     12.7944    120.1656
  1356.5000     19.3559    122.5699     12.7478    123.3583
  1356.7500     19.7179    122.5546     12.7501    124.4542
  1357.0000     20.0289    122.4965     12.7860    124.0061
  1357.2500     20.2316    122.4109     12.8312    122.8149
  1357.5000     20.3077    122.3278     12.8557    120.9105
  1357.7500     20.2617    122.2762     12.8299    119.9837
  1358.0000     20.0673    122.2649     12.7295    119.4901
  1358.2500     19.6376    122.2797     12.5379    119.9804
  1358.5000     18.8328    122.2983     12.2473    121.8894
  1358.7500     17.5283    122.3042     11.8611    123.3805
  1359.0000     15.7591    122.2903     11.3969    124.6381
  1359.2500     13.7881    122.2616     10.8872    124.5045
  1359.5000     11.9994    122.2365     10.3717    123.5470
  1359.7500     10.7427    122.2402      9.8883    123.1422
  1360.0000     10.2016    122.2877      9.4640    123.4853
  1360.2500     10.3267    122.3714      9.1110    123.9945
  1360.5000     10.8925    122.4655      8.8252    123.9667
  1360.7500     11.5927    122.5406      8.5882    122.9893
  1361.0000     12.0877    122.5782      8.3729    120.5634
  1361.2500     12.1184    122.5785      8.1561    119.2072
  1361.5000     11.6862    122.5609      7.9293    119.1774
  1361.7500     11.0406    122.5535      7.7015    120.7356
  1362.0000     10.4565    122.5757      7.4890    124.0696
  1362.2500     10.0898    122.6281      7.3044    125.6987
  1362.5000     10.0000    122.6924      7.1520    126.2751
  1362.7500     10.2050    122.7355      7.0311    125.9392
  1363.0000     10.6811    122.7194      6.9403    125.7676
  1363.2500     11.3077    122.6184      6.8801    126.0665
  1363.5000     11.8460    122.4357      6.8518    126.4274
  1363.7500     12.0792    122.2045      6.8558    126.3158
  1364.0000     11.9987    121.9728      6.8910    125.9522
  1364.2500     11.7589    121.7853      6.9547    125.8882
  1364.5000     11.4818    121.6715      7.0428    126.0025
  1364.7500     11.2176    121.6457      7.1502    125.9252
  1365.0000     11.0066    121.7174      7.2704    125.4617
  1365.2500     10.8477    121.8924      7.3969    125.2662
  1365.5000     10.6482    122.1486      7.5247    125.6658
  1365.7500     10.2918    122.4105      7.6518    126.1277
  1366.0000      9.7431    122.5711      7.7790    125.9279
  1366.2500      9.0783    122.5608      7.9095    124.8176
  1366.5000      8.4959    122.3980      8.0482    122.4118
  1366.7500      8.3012    122.1652      8.2034    121.2339
  1367.0000      8.7627    121.9432      8.3856    121.2782
  1367.2500      9.9218    121.7644      8.6041    122.4935
  1367.5000     11.5297    121.6134      8.8601    124.7772
  1367.7500     13.1606    121.4583      9.1422    125.5588
