~Version Information
 VERS.                                  2.0 : CWLS LAS VERSION
 WRAP.                                   NO : WRAPING MODE
 SWARE .                 MController 2.5.0E : SOFTWARE VERSION
~Well Information
 WELL.                                  N/A : WELL
 COMP.                                  N/A : COMPANY
 FLD.                                   N/A : FIELD
 LOC.                                   N/A : LOCATION
 DATE.                                  N/A : DATE(S) LOGGED
 SRVC.                                  N/A : SERVICE COMPANY
 STAT.                                  N/A : STATE
 CNTY.                                  N/A : COUNTY
 CTRY.                                  N/A : COUNTRY
 API.                                   N/A : API NUMBER
 STRT.FT                             838.00 : START DEPTH
 STOP.FT                            2499.00 : STOP DEPTH
 STEP.FT                               1.00 : DEPTH INCREMENT
 NULL.                                -9999 : NULL VALUE
~Curve information
 DEPTH.FT                                   :
 ROP.MIN/FT                                 :
 GAS.UNITS                                  :
~ASCII Log data
      838.00    -9999.000          7.9 
      839.00        0.267          7.9 
      840.00        0.333          7.8 
      841.00        0.267          7.8 
      842.00        0.267          8.1 
      843.00        0.267          8.0 
      844.00        0.267          8.1 
      845.00        0.283          8.1 
      846.00        0.267         21.5 
      847.00        0.267         23.4 
      848.00        0.267         11.6 
      849.00        0.267          6.8 
      850.00        0.267          6.8 
      851.00        0.267          6.5 
      852.00        0.300          7.1 
      853.00        0.167          7.3 
      854.00        0.133          7.3 
      855.00        0.133          7.6 
      856.00        0.167          7.7 
      857.00        0.133          7.7 
      858.00        0.167          7.5 
      859.00        0.167          7.5 
      860.00        0.133          7.6 
      861.00        0.150          7.6 
      862.00        0.133          7.5 
      863.00        0.167          7.5 
      864.00        0.167          7.7 
      865.00        2.600          8.5 
      866.00        0.350          8.5 
      867.00        0.300          8.5 
      868.00        0.367          8.4 
      869.00        0.300          8.3 
      870.00        0.333          8.5 
      871.00        0.167          8.3 
      872.00        0.100          8.5 
      873.00        0.167          8.5 
      874.00        0.167          8.8 
      875.00        0.200          8.3 
      876.00        0.133          8.3 
      877.00        0.167          8.5 
      878.00        0.167          8.4 
      879.00        0.133          8.5 
      880.00        0.133          8.5 
      881.00        0.167          8.6 
      882.00        0.167          8.6 
      883.00        0.183          8.8 
      884.00        0.167          8.5 
      885.00        0.167          8.5 
      886.00        0.167          8.5 
      887.00        0.167          8.4 
      888.00        0.167          8.4 
      889.00        0.167          8.4 
      890.00        0.167          8.4 
      891.00        0.167          8.6 
      892.00        0.167          8.9 
      893.00        0.100          8.9 
      894.00        0.267          9.1 
      895.00        0.267          8.6 
      896.00        1.783          9.6 
      897.00        0.233          9.0 
      898.00        0.233          9.1 
      899.00        0.233          9.0 
      900.00        0.167          9.1 
      901.00        0.167          9.1 
      902.00        0.167          8.8 
      903.00        0.167          9.2 
      904.00        0.167          9.3 
      905.00        0.200          9.2 
      906.00        0.233          9.7 
      907.00        0.233          9.7 
      908.00        0.167          9.7 
      909.00        0.200          9.6 
      910.00        0.183          9.6 
      911.00        0.167          9.8 
      912.00        0.167          9.8 
      913.00        0.133          9.6 
      914.00        0.133          9.6 
      915.00        0.167        -11.7 
      916.00        0.133        -11.7 
      917.00        0.167         -1.2 
      918.00        0.133          2.0 
      919.00        0.167          1.7 
      920.00        0.133          1.7 
      921.00        0.200          1.4 
      922.00        0.133          1.4 
      923.00        0.167          2.0 
      924.00        0.133          2.0 
      925.00        0.267          2.1 
      926.00        1.483          2.1 
      927.00        0.300          2.2 
      928.00        0.267          2.3 
      929.00        0.233          2.5 
      930.00        0.200          2.6 
      931.00        0.200          2.7 
      932.00        0.200          2.8 
      933.00        0.167          2.5 
      934.00        0.200          2.6 
      935.00        0.167          2.7 
      936.00        0.167          2.6 
      937.00        0.133          2.7 
      938.00        0.167          3.1 
      939.00        0.167          2.9 
      940.00        0.250          3.1 
      941.00        0.233          3.0 
      942.00        0.200          3.2 
      943.00        0.167          3.3 
      944.00        0.200          3.4 
      945.00        0.167          3.4 
      946.00        0.167          3.2 
      947.00        0.167          3.2 
      948.00        0.167          2.9 
      949.00        0.133          2.9 
      950.00        0.167          2.9 
      951.00        0.133          2.8 
      952.00        0.167          2.8 
      953.00        0.167          3.0 
      954.00        0.133          3.0 
      955.00        0.167          3.1 
      956.00        1.983          3.0 
      957.00        0.333          2.8 
      958.00        0.333          3.1 
      959.00        0.267          2.8 
      960.00        0.167          2.8 
      961.00        0.167          2.8 
      962.00        0.200          3.1 
      963.00        0.167          2.9 
      964.00        0.133          2.5 
      965.00        0.167          2.6 
      966.00        0.183          2.5 
      967.00        0.100          3.1 
      968.00        0.100          3.0 
      969.00        0.133          2.7 
      970.00        0.100          3.2 
      971.00        0.100          3.2 
      972.00        0.167          3.5 
      973.00        0.167          3.5 
      974.00        0.167          3.3 
      975.00        0.167          3.3 
      976.00        0.167          3.5 
      977.00        0.167          3.7 
      978.00        0.133          3.7 
      979.00        0.167          3.4 
      980.00        0.200          3.3 
      981.00        0.133          3.3 
      982.00        0.133          3.3 
      983.00        0.100          3.6 
      984.00        0.133          3.6 
      985.00        0.133          3.3 
      986.00        2.017          3.7 
      987.00        0.200          3.4 
      988.00        0.300          3.3 
      989.00        0.233          3.1 
      990.00        0.167          3.1 
      991.00        0.200          3.2 
      992.00        0.167          3.4 
      993.00        0.233          3.9 
      994.00        0.167          3.9 
      995.00        0.133          3.7 
      996.00        0.117          4.3 
      997.00        0.133          4.3 
      998.00        0.100          4.4 
      999.00        0.133          4.4 
     1000.00        0.133          4.5 
     1001.00        0.133          4.5 
     1002.00        0.100          3.8 
     1003.00        0.133          3.8 
     1004.00        0.167          4.0 
     1005.00        0.133          4.0 
     1006.00        0.167          4.2 
     1007.00        0.167          4.2 
     1008.00        0.167          4.2 
     1009.00        0.167          4.3 
     1010.00        0.233          4.0 
     1011.00        0.200          3.7 
     1012.00        0.200          3.7 
     1013.00        0.200          3.4 
     1014.00        0.167          3.6 
     1015.00        0.167          3.7 
     1016.00        1.783          4.1 
     1017.00        0.367          4.4 
     1018.00        0.400          5.5 
     1019.00        0.333          6.4 
     1020.00        0.200          5.9 
     1021.00        0.200          5.2 
     1022.00        0.167          5.2 
     1023.00        0.167          5.2 
     1024.00        0.183          4.4 
     1025.00        0.133          4.3 
     1026.00        0.133          3.7 
     1027.00        0.100          3.8 
     1028.00        0.100          3.8 
     1029.00        0.100          3.9 
     1030.00        0.100          3.9 
     1031.00        0.100          4.1 
     1032.00        0.167          4.0 
     1033.00        0.167          4.3 
     1034.00        0.167          4.3 
     1035.00        0.133          4.3 
     1036.00        0.167          4.3 
     1037.00        0.167          4.7 
