~Version Information
 VERS.                                  2.0 : CWLS LAS VERSION
 WRAP.                                   NO : WRAPING MODE
 SWARE .                 MController 2.5.0J : SOFTWARE VERSION
~Well Information
 WELL.                       Ei-Ei-Oh 31-24 : WELL
 COMP.    Pioneer Natural Resources USA Inc : COMPANY
 FLD.                      Purgatoire River : FIELD
 LOC.                NW/NE Sec 24 T32S R67W : LOCATION
 DATE.                         6/12-13/2005 : DATE(S) LOGGED
 SRVC.       Blanco Geological Services LLC : SERVICE COMPANY
 STAT.                                   CO : STATE
 CNTY.                           Las Animas : COUNTY
 CTRY.                                  USA : COUNTRY
 API.                       05-071-08403-00 : API NUMBER
 STRT.FT                             436.00 : START DEPTH
 STOP.FT                            2853.00 : STOP DEPTH
 STEP.FT                               1.00 : DEPTH INCREMENT
 NULL.                                -9999 : NULL VALUE
~Curve information
 DEPTH.FT                                   :
 ROP.MIN/FT                                 :
 GAS.UNITS                                  :
~ASCII Log data
# ...
       636.0         0.17         46.3 
       637.0         0.20         40.6 
       638.0         0.20         34.7 
       639.0         0.17         28.9 
       640.0         0.20         23.2 
       641.0         0.17         17.8 
       642.0         0.17         14.3 
       643.0         0.17         10.9 
       644.0         0.17          9.1 
       645.0         0.20          6.3 
       646.0         0.17          4.3 
       647.0         0.17          4.2 
       648.0         0.20          2.9 
       649.0         0.17          2.3 
       650.0         0.17          2.2 
       651.0         0.20          1.8 
       652.0         0.18          1.3 
       653.0         0.13          1.2 
       654.0         0.20          1.4 
       655.0         0.27          1.0 
       656.0         1.67          1.4 
       657.0         0.30          2.6 
       658.0         0.30          6.3 
       659.0         0.23         16.9 
       660.0         0.25         27.7 
       661.0         0.20         36.8 
       662.0         0.20         42.4 
       663.0         0.20         45.3 
       664.0         0.23         47.6 
       665.0         0.17         46.4 
       666.0         0.20         42.3 
       667.0         0.13         36.8 
       668.0         0.17         33.5 
       669.0         0.17         27.9 
       670.0         0.17         23.1 
       671.0         0.17         18.6 
       672.0         0.20         14.7 
       673.0         0.17         11.4 
       674.0         0.17          8.7 
       675.0         0.20          7.8 
       676.0         0.17          4.9 
       677.0         0.20          3.4 
       678.0         0.22          2.9 
       679.0         0.17          1.6 
       680.0         0.17          1.0 
       681.0         0.17          0.9 
       682.0         0.17          0.3 
       683.0         0.20          0.8 
       684.0         0.17          0.8 
       685.0         0.37          1.0 
       686.0         1.63          1.2 
       687.0         0.32          1.6 
       688.0         0.40         14.4 
       689.0         0.17         25.8 
       690.0         0.20         35.3 
       691.0         0.20         44.6 
       692.0         0.20         49.8 
       693.0         0.17         51.2 
       694.0         0.23         51.2 
       695.0         0.23         49.3 
       696.0         0.20         43.3 
       697.0         0.17         36.3 
       698.0         0.20         29.8 
       699.0         0.23         22.3 
       700.0         0.20         15.5 
       701.0         0.22         10.9 
       702.0         0.20          8.5 
       703.0         0.23          5.4 
       704.0         0.17          3.5 
       705.0         0.20          2.9 
       706.0         0.20          2.4 
       707.0         0.20          1.1 
       708.0         0.20          0.2 
       709.0         0.17          1.1 
       710.0         0.17          0.3 
       711.0         0.17          0.0 
       712.0         0.17          0.7 
       713.0         0.20          0.6 
       714.0         0.20          0.7 
       715.0         0.17          0.1 
       716.0         1.98          0.5 
       717.0         0.23          1.5 
       718.0         0.27          1.8 
       719.0         0.20          2.3 
       720.0         0.20          6.1 
       721.0         0.20          9.9 
       722.0         0.20         15.6 
       723.0         0.23         23.2 
       724.0         0.23         26.4 
       725.0         0.22         29.0 
       726.0         0.27         31.1 
       727.0         0.23         32.1 
       728.0         0.30         31.6 
       729.0         0.23         28.8 
       730.0         0.20         26.1 
       731.0         0.23         21.3 
       732.0         0.20         16.9 
       733.0         0.23         15.1 
       734.0         0.23         10.9 
       735.0         0.20          8.2 
       736.0         0.13          6.6 
       737.0         0.17          6.0 
       738.0         0.13          5.6 
       739.0         0.13          4.8 
       740.0         0.17          4.1 
       741.0         0.22          3.5 
       742.0         0.17          3.4 
       743.0         0.17          3.4 
       744.0         0.13          3.0 
       745.0         0.17          2.7 
       746.0         2.33          2.5 
       747.0         0.17          1.0 
       748.0         0.35          1.1 
       749.0         0.27          2.7 
       750.0         0.23          4.4 
       751.0         0.20          9.1 
       752.0         0.23         16.0 
       753.0         0.23         21.0 
       754.0         0.17         24.6 
       755.0         0.17         26.7 
       756.0         0.17         29.6 
       757.0         0.20         31.8 
       758.0         0.17         30.6 
       759.0         0.17         29.7 
       760.0         0.20         29.0 
       761.0         0.20         27.2 
       762.0         0.17         24.5 
       763.0         0.18         20.2 
       764.0         0.17         17.7 
       765.0         0.20         14.9 
       766.0         0.17         12.3 
       767.0         0.20         10.3 
       768.0         0.17          9.2 
       769.0         0.17          8.2 
       770.0         0.17          7.0 
       771.0         0.17          6.2 
       772.0         0.20          4.6 
       773.0         0.17          3.6 
       774.0         0.20          3.3 
       775.0         0.20          2.1 
       776.0         2.22          1.6 
       777.0         0.33          0.6 
       778.0         0.23          0.3 
       779.0         0.23          0.3 
       780.0         0.23          0.1 
       781.0         0.20          3.5 
       782.0         0.20          5.1 
       783.0         0.20          8.5 
       784.0         0.17         10.4 
       785.0         0.17         12.0 
       786.0         0.18         14.2 
       787.0         0.13         15.8 
       788.0         0.17         17.1 
       789.0         0.17         18.3 
       790.0         0.17         18.3 
       791.0         0.17         18.0 
       792.0         0.17         19.0 
       793.0         0.17         20.3 
       794.0         0.13         20.6 
       795.0         0.17         20.4 
       796.0         0.20         19.8 
       797.0         0.17         17.6 
       798.0         0.17         15.5 
       799.0         0.17         15.1 
       800.0         0.20         14.7 
       801.0         0.17         13.1 
       802.0         0.17         11.8 
       803.0         0.20         10.6 
       804.0         0.20          9.5 
       805.0         0.52          8.9 
       806.0         2.33          6.1 
       807.0         0.37          2.3 
       808.0         0.25          2.0 
       809.0         0.23          2.1 
       810.0         0.23          2.9 
       811.0         0.17          2.1 
       812.0         0.20          2.4 
       813.0         0.17          2.2 
       814.0         0.17          1.9 
       815.0         0.17          1.9 
       816.0         0.17          2.3 
       817.0         0.17          1.8 
       818.0         0.17          1.8 
       819.0         0.17          1.6 
       820.0         0.17          1.4 
       821.0         0.17          1.9 
       822.0         0.17          2.4 
       823.0         0.13          2.2 
       824.0         0.17          2.3 
       825.0         0.17          1.9 
       826.0         0.13          1.8 
       827.0         0.18          1.5 
       828.0         0.13          7.0 
       829.0         0.17         19.0 
       830.0         0.13         23.9 
       831.0         0.17         26.7 
       832.0         0.17         25.3 
       833.0         0.17         24.4 
       834.0         0.17         22.4 
       835.0         0.47         19.9 
