~Version Information
VERS.                      2.0: CWLS Log ASCII Standard - VERSION 2.0
WRAP.                       NO: One line per depth step
~Well Information Block
STRT.FT               -11.2500: 
STOP.FT              1934.7500: 
STEP.FT                 0.2500: 
NULL.                -999.2500: 
COMP.          Pioneer Natural Resources: COMPANY
WELL.          Commander 43-26 Tr: WELL
FLD.           Purgatorie River: FIELD
LOC.           2439' FSL  & 446' FEL--------: LOCATION
PROV.                       CO: PROVINCE
CNTY.               Las Animas: COUNTRY
SRVC.          Patterson Wireline: SERVICE COMPANY
DATE.          Tue Apr 26 09:07:23 2005: LOG DATE
UWI.           05 071 08341 00: UNIQUE WELL ID
~Curve Information Block
DEPT.FT            0 000 00 00: Depth
CCL.                          : Casing Collar Locator
TT3.usec                      : CBL 3' Travel Time
AMP3.mV                       : CBL 3' Amplitude
GR.GAPI                       : Gamma Ray
~Parameter Information Block
~A  Depth       CCL         TT3         AMP3         GR     
   -11.2500   -999.2500   -999.2500   -999.2500     63.4884
   -11.0000   -999.2500   -999.2500   -999.2500     65.9977
   -10.7500   -999.2500   -999.2500   -999.2500     67.7921
   -10.5000   -999.2500   -999.2500   -999.2500     68.6345
   -10.2500   -999.2500   -999.2500   -999.2500     68.9171
   -10.0000   -999.2500   -999.2500   -999.2500     68.6593
    -9.7500   -999.2500   -999.2500   -999.2500     67.4854
    -9.5000   -999.2500   -999.2500   -999.2500     65.5938
    -9.2500   -999.2500   -999.2500   -999.2500     64.1541
    -9.0000   -999.2500   -999.2500   -999.2500     64.4101
    -8.7500   -999.2500   -999.2500   -999.2500     66.4267
    -8.5000   -999.2500   -999.2500   -999.2500     68.9227
    -8.2500   -999.2500   -999.2500   -999.2500     70.4558
    -8.0000   -999.2500   -999.2500   -999.2500     70.6240
    -7.7500   -999.2500   -999.2500   -999.2500     69.9952
    -7.5000   -999.2500   -999.2500   -999.2500     69.3100
    -7.2500   -999.2500   -999.2500   -999.2500     69.2150
    -7.0000   -999.2500   -999.2500   -999.2500     70.4318
    -6.7500   -999.2500   -999.2500   -999.2500     73.3895
    -6.5000   -999.2500   1167.0000      0.7001     77.4328
    -6.2500   -999.2500   1167.0000      0.7139     80.8167
    -6.0000   -999.2500   1167.0000      0.7320     81.8209
    -5.7500   -999.2500   1167.0000      0.7422     79.8680
    -5.5000   -999.2500   1167.0000      0.7393     75.6577
    -5.2500   -999.2500   1167.0000      0.7243     70.5131
    -5.0000   -999.2500   1167.0000      0.7003     65.6351
    -4.7500   -999.2500   1167.0000      0.6706     61.5646
    -4.5000   -999.2500   1167.0000      0.6410     57.9455
    -4.2500   -999.2500   1167.0000      0.6199     53.8567
    -4.0000   -999.2500   1167.0000      0.6143     48.6148
    -3.7500   -999.2500   1167.0000      0.6224     42.3202
    -3.5000   -999.2500   1167.0000      0.6325     35.7670
    -3.2500   -999.2500   1167.0000      0.6320     30.0024
    -3.0000   -999.2500   1167.0000      0.6187     25.8934
    -2.7500   -999.2500   1167.0000      0.6023     23.9159
    -2.5000   -999.2500   1167.0000      0.5958     24.0855
    -2.2500   -999.2500   1167.0000      0.6059     25.8003
    -2.0000   -999.2500   1167.0000      0.6308     27.8201
    -1.7500   -999.2500   1167.0000      0.6637     28.8820
    -1.5000   -999.2500   1167.0000      0.6971     28.7269
    -1.2500   -999.2500   1167.0000      0.7237     28.5031
    -1.0000      0.0000   1167.0000      0.7382     29.8808
    -0.7500      0.0000   1167.0000      0.7402     33.5944
    -0.5000      0.0000   1167.0000      0.7366     38.8590
    -0.2500      0.0000   1167.0000      0.7374     44.1931
     0.0000      0.0000   1167.0000      0.7462     48.7091
     0.2500      0.0000   1167.0000      0.7468     56.8991
     0.5000     -2.0000   1167.0000      0.7237     62.0451
     0.7500      2.0000   1167.0000      0.6964     68.1175
     1.0000     -2.0000   1167.0000      0.6790     74.8851
     1.2500     -2.0000   1167.0000      0.6747     81.8300
     1.5000      0.0000   1167.0000      0.6758     87.4746
     1.7500      0.0000   1167.0000      0.6717     89.3527
     2.0000     -2.0000   1167.0000      0.6594     85.6258
     2.2500      2.0000   1167.0000      0.6471     77.1334
     2.5000      2.0000   1167.0000      0.6456     67.6973
     2.7500      0.0000   1167.0000      0.6581     61.9986
     3.0000      0.0000   1167.0000      0.6791     62.5123
     3.2500      0.0000   1167.0000      0.7022     67.8189
     3.5000      0.0000   1167.0000      0.7238     73.5991
     3.7500      0.0000   1167.0000      0.7399     75.5925
     4.0000      0.0000   1167.0000      0.7433     72.4090
     4.2500      0.0000   1166.9753      0.7297     66.1614
     4.5000      0.0000   1166.7817      0.7074     60.4222
     4.7500      0.0000   1165.7512      0.7059     57.3658
     5.0000      0.0000   1161.4347      0.8049     56.6877
     5.2500      0.0000   1147.1860      1.2169     56.8064
     5.5000      0.0000   1110.0714      2.4143     56.5293
     5.7500      0.0000   1033.6931      5.1334     55.6637
     6.0000      0.0000    909.4116      9.9979     54.6904
     6.2500      0.0000    749.4442     16.8290     54.2267
     6.5000      0.0000    586.5837     24.3268     54.6227
     6.7500      0.0000    455.5067     30.7194     55.8661
     7.0000      0.0000    372.1863     34.8950     57.9407
     7.2500     -2.0000    330.4111     36.8987     61.2433
     7.5000      0.0000    313.9178     37.4805     66.2215
     7.7500      0.0000    308.7992     37.3805     72.4069
     8.0000      0.0000    307.5500     36.9923     78.2198
     8.2500      0.0000    307.3102     36.4263     82.0524
     8.5000      0.0000    307.2887     35.6961     83.3471
     8.7500      0.0000    307.3252     34.8336     82.5338
     9.0000      0.0000    307.3900     33.9126     80.2637
     9.2500      0.0000    307.4772     33.0247     76.9838
     9.5000      0.0000    307.5776     32.2467     73.1005
     9.7500     -2.0000    307.6858     31.6026     69.3398
    10.0000      0.0000    307.8047     31.0351     66.6816
    10.2500      0.0000    307.9445     30.4265     65.5821
    10.5000      0.0000    308.1134     29.6831     65.2886
    10.7500      0.0000    308.3100     28.8163     64.3735
    11.0000      0.0000    308.5225     27.9397     62.1068
    11.2500      0.0000    308.7354     27.1764     59.0670
    11.5000      0.0000    308.9364     26.5696     56.3957
    11.7500      0.0000    309.1235     26.0690     54.7387
    12.0000      0.0000    309.3104     25.5859     53.9344
    12.2500      0.0000    309.5196     25.0574     53.5007
    12.5000      0.0000    309.8199     24.4782     53.2780
    12.7500      0.0000    310.4287     23.8869     53.6624
    13.0000      0.0000    312.3698     23.3272     55.2777
    13.2500      0.0000    319.0098     22.8111     58.1080
    13.5000      0.0000    337.8697     22.2918     60.7294
    13.7500      0.0000    379.6502     21.6485     61.1338
    14.0000      0.0000    450.6915     20.7333     58.9494
    14.2500      0.0000    543.7747     19.5166     56.1830
    14.5000      0.0000    641.5073     18.2025     55.1124
    14.7500      0.0000    733.6357     17.1159     56.1067
    15.0000      0.0000    824.3827     16.4311     58.0001
    15.2500      0.0000    916.5772     16.0701     59.7919
    15.5000      0.0000    997.7952     15.8569     61.2547
    15.7500      0.0000   1051.3632     15.6845     62.3403
    16.0000      0.0000   1073.8687     15.5327     62.6961
    16.2500     -2.0000   1073.9915     15.4219     61.8417
    16.5000     -2.0000   1060.0852     15.3882     59.7536
    16.7500      0.0000   1035.3281     15.4930     57.3627
    17.0000      0.0000   1000.3430     15.8317     56.3351
    17.2500      0.0000    955.1638     16.4888     58.0260
    17.5000      0.0000    900.9758     17.4319     62.3661
    17.7500      0.0000    839.7572     18.4768     67.6835
    18.0000     -2.0000    768.2087     19.4260     71.6824
    18.2500      0.0000    678.0548     20.2080     72.8126
    18.5000      0.0000    570.7813     20.8374     70.9420
    18.7500      0.0000    466.0044     21.3139     67.0171
    19.0000      0.0000    386.8365     21.6257     62.3826
    19.2500      0.0000    341.1722     21.7940     58.3852
    19.5000      0.0000    321.0082     21.8618     56.0642
    19.7500      0.0000    314.1445     21.8631     55.7267
    20.0000      0.0000    312.3235     21.8182     56.7641
    20.2500      0.0000    311.9173     21.7442     57.9936
    20.5000      0.0000    311.8146     21.6648     58.2758
    20.7500      0.0000    311.7609     21.6145     57.0171
    21.0000      0.0000    311.6972     21.6269     54.4199
    21.2500      0.0000    311.6250     21.7142     51.4490
    21.5000      0.0000    311.5426     21.8656     49.3905
    21.7500      0.0000    311.4451     22.0641     49.2047
    22.0000      0.0000    311.3284     22.2977     51.1551
