~Version Information
VERS.                      2.0: CWLS Log ASCII Standard - VERSION 2.0
WRAP.                       NO: One line per depth step
~Well Information Block
STRT.FT                -8.5000: 
STOP.FT              2286.0000: 
STEP.FT                 0.2500: 
NULL.                -999.2500: 
COMP.          Pioneer Natural Resources: COMPANY
WELL.             Culver 14-12: WELL
FLD.           Purgatorie River: FIELD
LOC.           913' FSL & 1140' FWL--: LOCATION
PROV.                       CO: PROVINCE
CNTY.               Las Animas: COUNTRY
SRVC.          Patterson Wireline: SERVICE COMPANY
DATE.          Wed Jun 15 13:05:36 2005: LOG DATE
UWI.           05 071 08386 00: UNIQUE WELL ID
~Curve Information Block
DEPT.FT            0 000 00 00: Depth
CCL.                          : Casing Collar Locator
TT3.usec                      : CBL 3' Travel Time
AMP3.mV                       : CBL 3' Amplitude
GR.GAPI                       : Gamma Ray
~Parameter Information Block
~A  Depth       CCL         TT3         AMP3         GR     
# ...
   594.5000      0.0000    784.9473      3.7072    127.7991
   594.7500      0.0000    767.5729      3.7414    127.4895
   595.0000      0.0000    750.3331      3.7403    127.3438
   595.2500      0.0000    736.4990      3.7066    126.8038
   595.5000      0.0000    730.3011      3.6671    125.4569
   595.7500      0.0000    735.1826      3.6508    123.6495
   596.0000      0.0000    750.0206      3.6612    122.1964
   596.2500      0.0000    768.4487      3.6764    121.2554
   596.5000      0.0000    783.1651      3.6745    119.6931
   596.7500      0.0000    790.5216      3.6492    116.0177
   597.0000      0.0000    791.1721      3.6058    110.0734
   597.2500      0.0000    787.7433      3.5617    103.4983
   597.5000      0.0000    782.6333      3.5489     98.2962
   597.7500      0.0000    777.3834      3.5946     95.1837
   598.0000      0.0000    772.9648      3.6889     93.5400
   598.2500      0.0000    769.9200      3.7819     92.5313
   598.5000      0.0000    768.2286      3.8216     91.8197
   598.7500      0.0000    767.3323      3.7955     91.4302
   599.0000      0.0000    766.3190      3.7351     91.4484
   599.2500      0.0000    764.1204      3.6839     91.7610
   599.5000      0.0000    759.9838      3.6626     91.6933
   599.7500      0.0000    754.3463      3.6556     90.1774
   600.0000      0.0000    749.2916      3.6272     86.8978
   600.2500      0.0000    747.4899      3.5556     83.0620
   600.5000      0.0000    750.1285      3.4547     80.3080
   600.7500      0.0000    755.9141      3.3612     79.0275
   601.0000      0.0000    762.5053      3.3028     78.3726
   601.2500      0.0000    769.0598      3.2803     77.5385
   601.5000      0.0000    777.0449      3.2778     76.3806
   601.7500      0.0000    787.8470      3.2855     75.1434
   602.0000      0.0000    799.4700      3.3097     74.2894
   602.2500      0.0000    806.9053      3.3647     74.4276
   602.5000      0.0000    807.1185      3.4511     75.9493
   602.7500      0.0000    803.0391      3.5434     78.6645
   603.0000      0.0000    801.3452      3.6004     81.7985
   603.2500      0.0000    806.9164      3.5921     84.2381
   603.5000      0.0000    820.3192      3.5187     85.0500
   603.7500      0.0000    839.0912      3.4080     84.2331
   604.0000      0.0000    859.2755      3.2962     82.7510
   604.2500      0.0000    876.2453      3.2098     81.3246
   604.5000      0.0000    886.2851      3.1584     79.5145
   604.7500      0.0000    888.5049      3.1396     76.6349
   605.0000      0.0000    885.1243      3.1486     73.2063
   605.2500      0.0000    879.6964      3.1809     70.5714
   605.5000      0.0000    874.9427      3.2238     69.2104
   605.7500      0.0000    871.8517      3.2530     68.3384
   606.0000      0.0000    870.1791      3.2467     67.1427
   606.2500      0.0000    869.3467      3.2091     65.6314
   606.5000      0.0000    868.9468      3.1681     64.3203
   606.7500      0.0000    868.7957      3.1478     63.8101
   607.0000      0.0000    868.8234      3.1498     64.6492
   607.2500      0.0000    868.9800      3.1669     66.8379
   607.5000      0.0000    869.1893      3.2044     69.2307
   607.7500      0.0000    869.3442      3.2716     69.9914
   608.0000      0.0000    869.2546      3.3565     68.0530
   608.2500      0.0000    868.4352      3.4234     64.1317
   608.5000      0.0000    865.7093      3.4404     60.2834
   608.7500      0.0000    859.0074      3.4060     58.5291
   609.0000      0.0000    846.0662      3.3449     59.7061
   609.2500      0.0000    826.1677      3.2805     63.1244
   609.5000      0.0000    801.5653      3.2201     67.0272
   609.7500      0.0000    776.8445      3.1743     69.6901
   610.0000      0.0000    756.4569      3.1747     70.5016
   610.2500      0.0000    742.5923      3.2483     70.1641
   610.5000      0.0000    734.8943      3.3722     69.8911
   610.7500      0.0000    731.7083      3.4812     70.3768
   611.0000      0.0000    731.7274      3.5306     71.2985
   611.2500      0.0000    735.1032      3.5320     71.6312
   611.5000      0.0000    743.3988      3.5223     70.6639
   611.7500      0.0000    757.8954      3.5185     68.9028
   612.0000      0.0000    777.1749      3.5168     67.6949
   612.2500      0.0000    796.8315      3.5152     67.7587
   612.5000      0.0000    812.6747      3.5135     68.3935
   612.7500      0.0000    823.6434      3.4998     68.3987
   613.0000      0.0000    830.6343      3.4578     67.4737
   613.2500      0.0000    834.2346      3.3893     66.3499
   613.5000      0.0000    835.6064      3.3214     65.7245
   613.7500      0.0000    837.6879      3.2842     65.6180
   614.0000      0.0000    842.6160      3.2857     65.9383
   614.2500      0.0000    848.5041      3.3157     67.3026
   614.5000      0.0000    850.6064      3.3701     70.7922
   614.7500      0.0000    845.7905      3.4545     76.8485
   615.0000      0.0000    835.7302      3.5577     84.5773
   615.2500      0.0000    826.1445      3.6379     92.2220
   615.5000      0.0000    822.2569      3.6510     98.4305
   615.7500      0.0000    823.7387      3.5865    103.2712
   616.0000      0.0000    824.1414      3.4781    108.0772
   616.2500      0.0000    816.0811      3.3838    114.1783
   616.5000      0.0000    797.4297      3.3504    121.6545
   616.7500      0.0000    772.7629      3.3818    129.1311
   617.0000      0.0000    749.5223      3.4379    134.5720
   617.2500      0.0000    733.2020      3.4650    136.4838
   617.5000      0.0000    725.3448      3.4321    135.1060
   617.7500      0.0000    724.3099      3.3542    132.6664
   618.0000      0.0000    727.1656      3.2834    131.8216
   618.2500      0.0000    731.7359      3.2714    133.3809
   618.5000      0.0000    738.1008      3.3279    135.8466
   618.7500      0.0000    748.6089      3.4133    137.4100
   619.0000      0.0000    765.9314      3.4733    137.9669
   619.2500      0.0000    790.0323      3.4814    138.7433
   619.5000      0.0000    816.5327      3.4473    140.3586
   619.7500      0.0000    838.6011      3.3881    142.1276
   620.0000      0.0000    850.8937      3.3003    143.2208
   620.2500      0.0000    851.9651      3.1706    143.5308
   620.5000      0.0000    844.2500      3.0132    143.1803
   620.7500      0.0000    832.8785      2.8845    142.1243
   621.0000      0.0000    823.4358      2.8478    140.6332
   621.2500      0.0000    819.2082      2.9175    139.2613
   621.5000      0.0000    820.5702      3.0461    137.8339
   621.7500      0.0000    826.3149      3.1742    135.1852
   622.0000      0.0000    833.9535      3.2737    130.4907
   622.2500      0.0000    840.1072      3.3367    124.3450
   622.5000      0.0000    843.4567      3.3514    118.1931
   622.7500     -2.0000    845.9485      3.3168    113.2487
   623.0000      0.0000    848.7503      3.2619    110.2137
   623.2500      0.0000    849.2825      3.2336    109.4506
   623.5000      0.0000    844.5146      3.2665    111.0208
   623.7500      0.0000    834.5129      3.3635    114.5591
   624.0000      0.0000    820.5811      3.4872    119.1562
   624.2500      0.0000    802.9269      3.5750    123.5918
   624.5000      0.0000    782.5661      3.5892    126.9971
   624.7500      0.0000    763.1538      3.5488    129.1973
   625.0000      0.0000    748.6730      3.4955    130.3017
   625.2500      0.0000    740.2895      3.4423    130.4395
   625.5000      0.0000    736.4231      3.3797    130.2001
   625.7500      0.0000    734.8759      3.3158    130.8102
   626.0000      0.0000    734.2310      3.2824    133.3090
   626.2500      0.0000    733.8814      3.3076    137.4808
   626.5000      0.0000    733.6331      3.3942    141.7278
   626.7500      0.0000    733.4565      3.5163    144.1541
   627.0000      0.0000    733.3932      3.6224    144.0879
   627.2500      0.0000    733.4899      3.6567    142.6651
   627.5000      0.0000    733.7520      3.6038    141.8945
   627.7500      0.0000    734.1559      3.5155    143.1135
