~Version Information
VERS.                      2.0: CWLS Log ASCII Standard - VERSION 2.0
WRAP.                       NO: One line per depth step
~Well Information Block
STRT.FT                15.0000: 
STOP.FT              2620.5000: 
STEP.FT                 0.2500: 
NULL.                -999.2500: 
COMP.          Pioneer Natural Resources: COMPANY
WELL.               Zink 44-10: WELL
FLD.           Purgatoire River: FIELD
LOC.           548' FSL & 473' FEL: LOCATION
PROV.                 Colorado: PROVINCE
CNTY.               Las Animas: COUNTRY
SRVC.                Patterson: SERVICE COMPANY
DATE.          Tue Jun 21 13:36:23 2005: LOG DATE
UWI.           05 071 08380 00: UNIQUE WELL ID
~Curve Information Block
DEPT.FT            0 000 00 00: Depth
GR.GAPI                       : Gamma Ray
CCL.                          : Casing Collar Locator
TT3.usec                      : CBL 3' Travel Time
AMP3.mV                       : CBL 3' Amplitude
~Parameter Information Block
~A  Depth        GR         CCL         TT3         AMP3    
# ...
   182.5000     88.4427      0.0000    756.4960     13.8425
   182.7500     82.5058      0.0000    748.8981     13.9291
   183.0000     77.0985      0.0000    733.2482     14.0186
   183.2500     73.5212      0.0000    709.2791     14.0920
   183.5000     71.5264      0.0000    682.6810     14.1377
   183.7500     69.9831      0.0000    660.6774     14.1512
   184.0000     68.1839      0.0000    641.5953     14.1408
   184.2500     66.2431      0.0000    612.6132     14.1295
   184.5000     64.3906      0.0000    563.1077     14.1452
   184.7500     62.3354      0.0000    498.4659     14.2065
   185.0000     59.6484      0.0000    436.5606     14.3169
   185.2500     56.6607      0.0000    392.1924     14.4663
   185.5000     54.6086      0.0000    368.0214     14.6378
   185.7500     54.7343      0.0000    358.4317     14.8102
   186.0000     57.2487      0.0000    357.7820     14.9598
   186.2500     61.0881      0.0000    364.9887     15.0611
   186.5000     64.6154      0.0000    382.9121     15.0838
   186.7500     66.5683      0.0000    413.8157     14.9754
   187.0000     66.5044      0.0000    454.2917     14.6412
   187.2500     64.8261      0.0000    494.8690     13.9634
   187.5000     62.6676      0.0000    525.9185     12.8953
   187.7500     61.2660      0.0000    544.7403     11.5587
   188.0000     60.8980      0.0000    559.0810     10.2135
   188.2500     60.6702      0.0000    584.9777      9.0983
   188.5000     59.6693      0.0000    636.7128      8.3098
   188.7500     57.9985      0.0000    713.6513      7.8189
   189.0000     56.4976      0.0000    797.7178      7.5442
   189.2500     55.8072      0.0000    866.3232      7.3975
   189.5000     55.9572      0.0000    906.5928      7.3082
   189.7500     56.5925      2.5000    917.0121      7.2483
   190.0000     57.2526      2.5000    900.8434      7.2595
   190.2500     57.5194      0.0000    862.6693      7.4663
   190.5000     57.3304      0.0000    809.1368      8.0408
   190.7500     57.2991      0.0000    748.8265      9.0906
   191.0000     58.4088      0.0000    690.4138     10.5406
   191.2500     61.1615      0.0000    641.4885     12.1301
   191.5000     65.0795      0.0000    609.1746     13.5395
   191.7500     69.0868      0.0000    601.2104     14.5417
   192.0000     72.4346      0.0000    622.6058     15.0827
   192.2500     75.3655      0.0000    667.5482     15.2720
   192.5000     78.7756      0.0000    717.5197     15.3056
   192.7500     83.1540      0.0000    750.6681     15.3693
   193.0000     88.1203      0.0000    751.4160     15.5691
   193.2500     92.8631      0.0000    713.1168     15.9110
   193.5000     96.5126      0.0000    639.8754     16.3252
   193.7500     98.1874      0.0000    548.9497     16.7160
   194.0000     97.4578      0.0000    464.8670     17.0140
   194.2500     94.9502      0.0000    405.3008     17.2084
   194.5000     92.0701      0.0000    372.6739     17.3412
   194.7500     89.9035      0.0000    358.5722     17.4697
   195.0000     88.4834      0.0000    352.9948     17.6288
   195.2500     87.0356      0.0000    349.3030     17.8204
   195.5000     84.7301      0.0000    344.3680     18.0265
   195.7500     81.2932      0.0000    337.5690     18.2212
   196.0000     77.2095      0.0000    330.1474     18.3738
   196.2500     73.3463      0.0000    324.2787     18.4515
   196.5000     70.2496      0.0000    321.7601     18.4278
   196.7500     67.9554      0.0000    322.9047     18.2967
   197.0000     66.4301      0.0000    326.1967     18.0861
   197.2500     65.6600      0.0000    328.9324     17.8541
   197.5000     65.2564      0.0000    328.8710     17.6623
   197.7500     64.6264      0.0000    325.8087     17.5434
   198.0000     63.7892      0.0000    321.4522     17.4929
   198.2500     63.4131      0.0000    317.7376     17.4855
   198.5000     63.8155      0.0000    315.4877     17.4942
   198.7500     64.3912      0.0000    314.4747     17.4952
   199.0000     64.2123      0.0000    314.1640     17.4670
   199.2500     62.8730      0.0000    314.2081     17.3951
   199.5000     60.7716      0.0000    314.5453     17.2791
   199.7500     58.8637      0.0000    315.3602     17.1357
   200.0000     58.0422      0.0000    316.9268     16.9933
   200.2500     58.4330      0.0000    319.2380     16.8802
   200.5000     59.3592      0.0000    321.7073     16.8168
   200.7500     60.1202      0.0000    323.5988     16.8122
   201.0000     60.5398      0.0000    325.0733     16.8579
   201.2500     60.6248      0.0000    327.4452     16.9260
   201.5000     60.1563      0.0000    331.8651     16.9855
   201.7500     59.0178      0.0000    337.8865     17.0262
   202.0000     57.6536      0.0000    343.7434     17.0628
   202.2500     56.7677      0.0000    347.9058     17.1174
   202.5000     56.6378      0.0000    350.0563     17.2038
   202.7500     56.9885      0.0000    350.7891     17.3247
   203.0000     57.4954      0.0000    350.8449     17.4707
   203.2500     58.1387      0.0000    350.6985     17.6219
   203.5000     58.9332      0.0000    350.5450     17.7558
   203.7500     59.4524      0.0000    350.4240     17.8600
   204.0000     58.9298      0.0000    350.2799     17.9359
   204.2500     57.1828      0.0000    349.9176     17.9922
   204.5000     55.4293      0.0000    348.8722     18.0421
   204.7500     55.6376      0.0000    346.3800     18.0996
   205.0000     58.6514      0.0000    341.7385     18.1720
   205.2500     63.2817      0.0000    335.0739     18.2471
   205.5000     67.5377      0.0000    327.8493     18.2927
   205.7500     70.3856      0.0000    322.3803     18.2718
   206.0000     72.1092      0.0000    320.6203     18.1681
   206.2500     73.4141      0.0000    323.1978     17.9976
   206.5000     74.5527      0.0000    329.1899     17.7999
   206.7500     75.1671      0.0000    336.5446     17.6160
   207.0000     74.8249      0.0000    343.0499     17.4749
   207.2500     73.7441      0.0000    347.4119     17.3901
   207.5000     72.8020      0.0000    349.6320     17.3610
   207.7500     72.5872      0.0000    350.4855     17.3737
   208.0000     72.7199      0.0000    350.7439     17.4069
   208.2500     72.5430      0.0000    350.7203     17.4429
   208.5000     72.0658      0.0000    350.1383     17.4737
   208.7500     71.6211      0.0000    348.2547     17.4963
   209.0000     71.0365      0.0000    344.4133     17.5053
   209.2500     69.9503      0.0000    339.0041     17.4892
   209.5000     68.6350      0.0000    333.9780     17.4316
   209.7500     67.7405      0.0000    331.9064     17.3183
   210.0000     67.3632      0.0000    334.0180     17.1471
   210.2500     67.0280      0.0000    339.1521     16.9309
   210.5000     66.5299      0.0000    344.7777     16.6928
   210.7500     66.1824      0.0000    348.9313     16.4596
   211.0000     66.1473      0.0000    351.1561     16.2583
   211.2500     66.0731      0.0000    352.0251     16.1090
   211.5000     65.6784      0.0000    352.2624     16.0151
   211.7500     65.3454      0.0000    352.3088     15.9613
   212.0000     65.8021      0.0000    352.3344     15.9251
   212.2500     67.3950      0.0000    352.3758     15.8908
   212.5000     69.9030      0.0000    352.4279     15.8535
   212.7500     73.0002      0.0000    352.4876     15.8148
   213.0000     76.7077      0.0000    352.5991     15.7792
   213.2500     81.2349      0.0000    352.9288     15.7573
   213.5000     86.3157      0.0000    354.1628     15.7658
   213.7500     90.9170      0.0000    358.5762     15.8186
   214.0000     93.9298      0.0000    371.7348     15.9140
   214.2500     95.1176      0.0000    402.8623     16.0291
   214.5000     95.0564      0.0000    460.3187     16.1295
   214.7500     94.2942      0.0000    542.1531     16.1877
   215.0000     93.1186      0.0000    630.1958     16.1957
   215.2500     91.9641      0.0000    696.5612     16.1639
   215.5000     91.2428      0.0000    718.4662     16.1113
   215.7500     90.7444      0.0000    688.8657     16.0578
