~Version Information
VERS.                      2.0: CWLS Log ASCII Standard - VERSION 2.0
WRAP.                       NO: One line per depth step
~Well Information Block
STRT.FT               520.0000: 
STOP.FT              2183.5000: 
STEP.FT                 0.1000: 
NULL.                -999.2500: 
COMP.          Pioneer Natural Resources: COMPANY
WELL.             Enzo 43-8 Tr: WELL
FLD.           Purgatoire River: FIELD
LOC.           2303' FSL & 604' FEL: LOCATION
PROV.                 Colorado: PROVINCE
CNTY.               Las Animas: COUNTRY
SRVC.                Patterson: SERVICE COMPANY
DATE.          Sun Oct 31 15:10:54 2004: LOG DATE
UWI.           05 071 08213 00: UNIQUE WELL ID
~Curve Information Block
DEPT.FT            0 000 00 00: Depth
DCAL.in                       : CDL Caliper
RHOB.g/cc                     : CDL Bulk Density
RHOC.g/cc                     : CDL Density Correction
DPOR.pu                       : CDL Density Porosity
NPOR.pu                       : Neutron Porosity
GR.GAPI                       : Gamma Ray
~Parameter Information Block
~A  Depth       DCAL        RHOB        RHOC        DPOR        NPOR         GR     
   520.0000      8.0618      2.2661     -0.1796     23.2678     35.2517     61.7751
   520.1000      8.0618      2.2606     -0.1307     23.5995     35.2984     59.8240
   520.2000      8.0618      2.2649     -0.1964     23.3389     35.3411     55.6742
   520.3000      8.0623      2.2682     -0.1094     23.1376     35.4195     52.1078
   520.4000      8.0623      2.2470     -0.1194     24.4255     35.1697     52.7228
   520.5000      8.0655      2.1980     -0.1848     27.3969     34.6232     56.7549
   520.6000      8.0655      2.1579     -0.2210     29.8271     34.2876     58.7415
   520.7000      8.0655      2.1528     -0.1806     30.1307     34.2247     58.3049
   520.8000      8.0727      2.1643     -0.1598     29.4384     34.3926     58.0700
   520.9000      8.0727      2.1696     -0.1271     29.1131     35.0051     57.2009
   521.0000      8.0830      2.1749     -0.1106     28.7941     35.7583     54.9164
   521.1000      8.0830      2.1885     -0.0907     27.9717     36.0723     51.8679
   521.2000      8.0830      2.1941     -0.0401     27.6324     35.7715     50.8615
   521.3000      8.0879      2.1778     -0.0999     28.6182     35.0862     53.0239
   521.4000      8.0879      2.1536     -0.1400     30.0826     34.6156     54.3961
   521.5000      8.0892      2.1327     -0.1377     31.3497     34.6660     52.9697
   521.6000      8.0892      2.1062     -0.1388     32.9567     34.8867     51.5234
   521.7000      8.0892      2.0727     -0.1590     34.9878     34.9315     51.3597
   521.8000      8.0896      2.0401     -0.0803     36.9647     34.8176     51.5157
   521.9000      8.0896      2.0092     -0.1336     38.8337     34.8830     52.2666
   522.0000      8.0896      1.9862     -0.1164     40.2306     35.2848     55.5960
   522.1000      8.0896      1.9841     -0.1353     40.3554     35.7349     60.0096
   522.2000      8.0896      2.0065     -0.0341     39.0005     36.0020     60.7271
   522.3000      8.0904      2.0355     -0.0008     37.2420     36.0485     59.1324
   522.4000      8.0904      2.0567     -0.0341     35.9594     35.9073     62.1475
   522.5000      8.0942      2.0704      0.0172     35.1293     35.7907     69.4284
   522.6000      8.0942      2.0764      0.0091     34.7652     35.8198     72.9321
   522.7000      8.0942      2.0854     -0.0234     34.2207     35.9142     70.1881
   522.8000      8.1019      2.1120     -0.0098     32.6074     36.1628     66.8261
   522.9000      8.1019      2.1553      0.0051     29.9812     36.5356     66.5177
   523.0000      8.1115      2.2109     -0.0148     26.6144     36.6720     66.2318
   523.1000      8.1115      2.2691      0.0771     23.0864     36.3752     65.4404
   523.2000      8.1115      2.3125      0.0612     20.4553     35.7906     66.4150
   523.3000      8.1203      2.3415     -0.0070     18.6948     35.3255     68.0492
   523.4000      8.1203      2.3647      0.0204     17.2905     35.2510     70.1447
   523.5000      8.1254      2.3770      0.0015     16.5461     35.3900     73.1559
   523.6000      8.1254      2.3803     -0.0756     16.3451     35.3363     74.4081
   523.7000      8.1254      2.3808     -0.0326     16.3124     34.8610     71.6084
   523.8000      8.1227      2.3728     -0.1027     16.7977     34.0241     66.2607
   523.9000      8.1227      2.3593     -0.1043     17.6200     33.2502     60.9353
   524.0000      8.1166      2.3471     -0.0900     18.3586     32.9858     54.9216
   524.1000      8.1166      2.3286     -0.1390     19.4787     33.0378     49.3086
   524.2000      8.1166      2.3009     -0.1681     21.1587     32.9840     47.4087
   524.3000      8.1154      2.2810     -0.1655     22.3650     32.8619     48.1433
   524.4000      8.1154      2.2844     -0.1525     22.1605     32.8789     49.0082
   524.5000      8.1172      2.3115     -0.1602     20.5166     33.0774     50.2843
   524.6000      8.1172      2.3504     -0.1171     18.1587     33.3443     51.9351
   524.7000      8.1172      2.3785     -0.0448     16.4549     33.6318     54.6629
   524.8000      8.1155      2.3944     -0.1257     15.4933     33.9358     58.8410
   524.9000      8.1155      2.4182     -0.0558     14.0458     34.1618     61.3238
   525.0000      8.1123      2.4413     -0.0417     12.6480     34.3185     60.3202
   525.1000      8.1123      2.4401     -0.0989     12.7218     34.6401     58.9383
   525.2000      8.1123      2.4149     -0.1008     14.2485     35.1298     61.0058
   525.3000      8.1132      2.3772     -0.1367     16.5340     35.5448     64.1538
   525.4000      8.1132      2.3406     -0.1796     18.7515     35.7430     63.8876
   525.5000      8.1174      2.3287     -0.2108     19.4741     35.8420     63.2534
   525.6000      8.1174      2.3542     -0.1462     17.9286     36.0829     67.7982
   525.7000      8.1174      2.3918     -0.1112     15.6501     36.4385     76.5818
   525.8000      8.1222      2.4101     -0.1264     14.5413     36.7452     82.1693
   525.9000      8.1222      2.4139     -0.1636     14.3066     36.7761     78.4467
   526.0000      8.1257      2.4179     -0.1244     14.0696     36.5045     69.1563
   526.1000      8.1257      2.4194     -0.1199     13.9735     36.4659     62.6505
   526.2000      8.1257      2.4124     -0.1097     14.3988     36.7921     61.3504
   526.3000      8.1277      2.3950     -0.1666     15.4569     37.0491     63.4986
   526.4000      8.1277      2.3722     -0.2095     16.8362     37.2429     68.4571
   526.5000      8.1293      2.3483     -0.1897     18.2858     37.4259     73.1250
   526.6000      8.1293      2.3186     -0.1671     20.0831     37.4930     73.6422
   526.7000      8.1293      2.2807     -0.1688     22.3817     37.7262     71.6181
   526.8000      8.1306      2.2415     -0.2193     24.7583     38.2495     71.3244
   526.9000      8.1306      2.2104     -0.1977     26.6433     38.6077     76.3171
   527.0000      8.1310      2.1865     -0.1838     28.0888     38.6697     85.1387
   527.1000      8.1310      2.1623     -0.1839     29.5557     38.8575     91.6510
   527.2000      8.1310      2.1432     -0.1720     30.7144     39.3002     93.6275
   527.3000      8.1322      2.1421     -0.1212     30.7814     39.6133     94.7512
   527.4000      8.1322      2.1567     -0.0768     29.8957     39.6253     97.6557
   527.5000      8.1352      2.1710     -0.0185     29.0315     39.6139     98.5461
   527.6000      8.1352      2.1767     -0.0532     28.6851     39.5560     95.1449
   527.7000      8.1352      2.1770     -0.0182     28.6647     39.1869     92.1283
   527.8000      8.1372      2.1736     -0.0552     28.8754     38.6357     90.1192
   527.9000      8.1372      2.1679     -0.0333     29.2198     38.1988     87.0889
   528.0000      8.1389      2.1579     -0.0433     29.8242     38.1268     86.1962
   528.1000      8.1389      2.1387     -0.0320     30.9909     38.3095     88.3750
   528.2000      8.1389      2.1200     -0.1006     32.1205     38.2432     91.8030
   528.3000      8.1410      2.1139     -0.0586     32.4911     37.6233     96.9607
   528.4000      8.1410      2.1058     -0.0281     32.9813     36.7360    100.8118
   528.5000      8.1420      2.0809     -0.0785     34.4900     35.9217     97.5485
   528.6000      8.1420      2.0505     -0.0906     36.3306     35.2669     87.2980
   528.7000      8.1420      2.0257     -0.1050     37.8385     34.8308     77.0277
   528.8000      8.1421      2.0030     -0.0678     39.2135     34.6749     71.4587
   528.9000      8.1421      1.9782     -0.0691     40.7153     34.8651     67.3456
   529.0000      8.1431      1.9541     -0.1025     42.1758     35.2402     61.4994
   529.1000      8.1431      1.9346     -0.0881     43.3586     35.3586     57.1497
   529.2000      8.1431      1.9133     -0.0441     44.6488     35.0754     56.6491
   529.3000      8.1440      1.8869     -0.0510     46.2472     34.7132     56.4411
   529.4000      8.1440      1.8650     -0.0561     47.5732     34.4820     54.2646
   529.5000      8.1469      1.8516     -0.0407     48.3908     34.4484     52.6525
