~Version Information
VERS.                      2.0: CWLS Log ASCII Standard - VERSION 2.0
WRAP.                       NO: One line per depth step
~Well Information Block
STRT.FT               259.0000: 
STOP.FT              2379.0000: 
STEP.FT                 0.2500: 
NULL.                -999.2500: 
COMP.          Pioneer Natural Resources: COMPANY
WELL.          Foothills 12-36: WELL
FLD.           Purgatoire River: FIELD
LOC.           2450' FNL & 201' FWL: LOCATION
PROV.                 Colorado: PROVINCE
CNTY.               Las Animas: COUNTRY
SRVC.                Patterson: SERVICE COMPANY
DATE.          Thu Apr 21 09:19:57 2005: LOG DATE
UWI.           05 071 08339 00: UNIQUE WELL ID
~Curve Information Block
DEPT.FT            0 000 00 00: Depth
DCAL.in                       : CDL Caliper
RHOB.g/cc                     : CDL Bulk Density
RHOC.g/cc                     : CDL Density Correction
DPOR.pu                       : CDL Density Porosity
GR.GAPI                       : Gamma Ray
NPOR.pu                       : Neutron Porosity
~Parameter Information Block
~A  Depth       DCAL        RHOB        RHOC        DPOR         GR         NPOR    
# ...
   547.0000      8.0935      2.5549      0.0751      5.7638    111.5202     22.4031
   547.2500      8.0925      2.5304      0.0664      7.2496    105.8584     24.7378
   547.5000      8.0907      2.6614      0.1169     -0.6897    100.3151     27.3592
   547.7500      8.0892      2.7117      0.1237     -3.7396    102.7727     27.0239
   548.0000      8.0888      2.6406      0.0751      0.5692    112.3822     24.7966
   548.2500      8.0880      2.5904      0.0546      3.6101    114.4852     25.0013
   548.5000      8.0852      2.5278      0.1011      7.4089    120.5271     23.5318
   548.7500      8.0798      2.5018      0.0525      8.9844    128.4481     24.1510
   549.0000      8.0716      2.4802      0.0787     10.2937    134.0206     24.7479
   549.2500      8.0645      2.4906      0.0963      9.6580    137.0325     25.5090
   549.5000      8.0597      2.5193      0.0977      7.9187    138.0263     24.7065
   549.7500      8.0547      2.5119      0.0807      8.3712    134.9952     25.6274
   550.0000      8.0515      2.4604      0.0853     11.4883    123.9494     26.7034
   550.2500      8.0472      2.4200      0.0886     13.9388    101.9409     25.4275
   550.5000      8.0408      2.5411      0.1916      6.6005     74.0501     24.4530
   550.7500      8.0375      2.6158      0.1991      2.0715     66.9391     24.1609
   551.0000      8.0377      2.7467      0.2445     -5.8633     53.7944     24.1638
   551.2500      8.0408      2.7497      0.2256     -6.0405     49.3731     23.6533
   551.5000      8.0453      2.7080      0.1493     -3.5148     57.5879     20.2770
   551.7500      8.0493      2.6245      0.0612      1.5474     61.2638     19.8604
   552.0000      8.0524      2.5856      0.0353      3.9022     63.4944     19.5106
   552.2500      8.0574      2.5317      0.0388      7.1691     52.0059     18.6300
   552.5000      8.0633      2.4856      0.1102      9.9626     50.1645     19.7032
   552.7500      8.0645      2.4818      0.0657     10.1921     55.1767     18.5748
   553.0000      8.0576      2.5298      0.1197      7.2878     57.2254     19.8592
   553.2500      8.0517      2.6065      0.1329      2.6350     51.9155     21.1476
   553.5000      8.0532      2.6777      0.1564     -1.6782     57.2669     20.4662
   553.7500      8.0616      2.6727      0.1097     -1.3738     53.5095     19.8421
   554.0000      8.0720      2.5739      0.0176      4.6140     64.3864     19.7629
   554.2500      8.0783      2.5580      0.0232      5.5764     59.9088     20.2495
   554.5000      8.0787      2.5892      0.0569      3.6872     54.2357     20.6545
   554.7500      8.0729      2.5800      0.0836      4.2430     61.1882     21.0700
   555.0000      8.0631      2.5057      0.0753      8.7473     61.5113     19.0754
   555.2500      8.0482      2.4865      0.0288      9.9073     58.8956     18.0248
   555.5000      8.0300      2.5074      0.1014      8.6446     65.9975     18.5872
   555.7500      8.0189      2.4976      0.1307      9.2381     71.0468     17.8217
   556.0000      8.0232      2.5334      0.1687      7.0664     70.9877     18.0507
   556.2500      8.0431      2.5493      0.1344      6.1051     64.5196     18.4629
   556.5000      8.0682      2.5830      0.1742      4.0580     64.3603     20.0442
   556.7500      8.0856      2.5720      0.0827      4.7246     60.1606     20.3066
   557.0000      8.0936      2.5561      0.1036      5.6914     62.1661     19.6732
   557.2500      8.0961      2.5738      0.1131      4.6156     55.7423     19.4069
   557.5000      8.0967      2.5234      0.0835      7.6739     44.1104     18.4460
   557.7500      8.1019      2.5370      0.0469      6.8482     49.9658     19.0692
   558.0000      8.1123      2.5534      0.0588      5.8516     67.9470     20.0240
   558.2500      8.1226      2.5863      0.0796      3.8587     64.7624     20.2605
   558.5000      8.1349      2.5920      0.0983      3.5169     54.7694     19.6973
   558.7500      8.1523      2.5596      0.0513      5.4800     48.9616     22.4181
   559.0000      8.1701      2.6130      0.0571      2.2434     58.2519     22.6583
   559.2500      8.1822      2.6910      0.1316     -2.4873     61.9962     22.4853
   559.5000      8.1900      2.6662      0.0155     -0.9800     53.3526     21.1211
   559.7500      8.1980      2.6290      0.0524      1.2736     51.6329     20.8637
   560.0000      8.2043      2.6497      0.0922      0.0187     54.4598     18.0783
   560.2500      8.2069      2.6143      0.0821      2.1628     51.9287     17.3894
   560.5000      8.2075      2.5328      0.0663      7.1054     53.9362     17.7920
   560.7500      8.2074      2.5452      0.1187      6.3506     59.7742     18.3421
   561.0000      8.2077      2.5335      0.1068      7.0619     54.7377     18.7739
   561.2500      8.2103      2.5396      0.1180      6.6903     55.9682     19.6171
   561.5000      8.2127      2.5464      0.0834      6.2773     53.2512     17.7724
   561.7500      8.2099      2.5613      0.1047      5.3760     52.0713     17.5617
   562.0000      8.2060      2.5052      0.0385      8.7732     52.7276     16.5340
   562.2500      8.2030      2.5272      0.0937      7.4449     55.6937     17.2029
   562.5000      8.1990      2.5156      0.0736      8.1443     59.6300     18.2574
   562.7500      8.1939      2.5366      0.0758      6.8727     58.8496     18.8543
   563.0000      8.1885      2.5745      0.0808      4.5730     55.6787     20.4050
   563.2500      8.1814      2.5826      0.0839      4.0841     59.9526     21.9169
   563.5000      8.1729      2.6033      0.0787      2.8326     63.9964     22.0070
   563.7500      8.1663      2.5989      0.0671      3.0955     65.2948     20.3871
   564.0000      8.1624      2.5992      0.0734      3.0800     62.7417     21.6980
   564.2500      8.1619      2.6099      0.0661      2.4303     60.3037     24.6305
   564.5000      8.1671      2.6885      0.0772     -2.3336     75.1347     24.0660
   564.7500      8.1796      2.7112      0.0930     -3.7093     89.5129     22.1088
   565.0000      8.1996      2.5346     -0.0211      6.9938    108.9396     19.4302
   565.2500      8.2230      2.4957      0.0062      9.3489    105.9679     19.4320
   565.5000      8.2383      2.3758      0.0184     16.6159    130.1337     21.1506
   565.7500      8.2452      2.3404      0.0665     18.7649    143.2218     21.0710
   566.0000      8.2564      2.3262      0.1314     19.6243    116.7646     19.9210
   566.2500      8.2708      2.2919      0.1093     21.7046    106.1725     17.2265
   566.5000      8.2789      2.1366      0.1043     31.1176    109.7291     14.3970
   566.7500      8.2842      1.8615      0.0092     47.7880     89.0420     13.6460
   567.0000      8.2886      1.5351     -0.0983     67.5701     55.3821     13.9142
   567.2500      8.2920      1.4264     -0.0385     74.1577     46.3159     13.3588
   567.5000      8.2942      1.3350      0.0719     79.6992     40.4877     12.8926
   567.7500      8.2952      1.3133      0.0288     81.0148     43.0529     12.9583
   568.0000      8.3080      1.2965     -0.0139     82.0292     60.0669     14.6506
   568.2500      8.3376      1.3848      0.0372     76.6799     67.4540     16.5413
   568.5000      8.3597      1.5878      0.1072     64.3781     88.2304     18.3617
   568.7500      8.3632      1.6950      0.1458     57.8798     99.1488     19.6096
   569.0000      8.3608      1.8823      0.1974     46.5248    120.0613     21.2058
   569.2500      8.3586      1.9870      0.0862     40.1800    123.7716     23.1832
   569.5000      8.3564      2.1739      0.1715     28.8572    121.7354     23.5790
   569.7500      8.3548      2.2796      0.1688     22.4462    129.3361     24.2637
   570.0000      8.3542      2.3648      0.0853     17.2872    135.5499     25.8427
   570.2500      8.3539      2.3809      0.0962     16.3069    145.1402     23.7520
   570.5000      8.3535      2.3272      0.0812     19.5639    120.0340     21.7495
   570.7500      8.3533      2.2927      0.1007     21.6528    122.2572     20.7921
