~Version Information
VERS.                      2.0: CWLS Log ASCII Standard - VERSION 2.0
WRAP.                       NO: One line per depth step
~Well Information Block
STRT.FT               906.0000: 
STOP.FT              1960.5000: 
STEP.FT                 0.2500: 
NULL.                -999.2500: 
COMP.          Petrogulf Corporation: COMPANY
WELL.            Torcom 17-33R: WELL
FLD.           Purgatorie River: FIELD
LOC.           1483' FSL & 1804' FEL: LOCATION
PROV.                 Colorado: PROVINCE
CNTY.               Las Animas: COUNTRY
SRVC.                Patterson: SERVICE COMPANY
DATE.          Thu Aug 18 08:33:01 2005: LOG DATE
UWI.                071 08069 : UNIQUE WELL ID
~Curve Information Block
DEPT.FT            0 000 00 00: Depth
SP.mV                         : DIL Spontaneous Potential
RILD.Ohm-m                    : DIL Deep Resistivity
RILM.Ohm-m                    : DIL Medium Resistivity
RLL3.Ohm-m                    : DIL Shallow Resistivity
GR.GAPI                       : Gamma Ray
~Parameter Information Block
~A  Depth        SP         RILD        RILM        RLL3         GR     
# ...
   962.0000    -34.3883     44.4111     44.3680     48.7769     72.8016
   962.2500    -32.9470     46.9396     48.3798     47.0658     72.0264
   962.5000    -31.5731     49.3904     50.9956     48.8244     76.8882
   962.7500    -30.4630     55.2340     54.6515     53.8807     78.0998
   963.0000    -29.6408     56.1772     57.3817     63.6541     67.6281
   963.2500    -28.3230     58.1536     64.6533     81.2657     68.3571
   963.5000    -26.1882     64.1950     68.1229     90.3615     67.9059
   963.7500    -24.1774     68.4233     70.9836     85.9455     68.8361
   964.0000    -22.3467     68.7604     79.2432     76.2793     69.3510
   964.2500    -20.5633     72.1241     78.5342     83.2724     61.8732
   964.5000    -18.5656     81.5202     87.2499    107.2667     59.3953
   964.7500    -16.5541     84.3338     91.5618    137.0041     58.2904
   965.0000    -14.5984     88.7863     93.9925    132.7074     59.9254
   965.2500    -11.7869     98.2615     98.3164    107.2999     62.3582
   965.5000     -9.6226     91.7848     97.1359     83.3699     67.5790
   965.7500     -6.9649    101.2779    105.7157     79.3486     57.5898
   966.0000     -4.2500    101.4984    110.7553     91.7279     59.1849
   966.2500     -2.1372     99.4428    110.5994    108.2936     62.0756
   966.5000     -1.0665    104.3420    119.1004    123.9751     66.0520
   966.7500      0.6140    100.9838    117.9654    130.9978     61.0272
   967.0000      2.1736     89.0185    116.1517    121.4275     58.9964
   967.2500      3.4465     85.2674    117.9917    105.7630     61.6604
   967.5000      6.6116     79.0698    112.7922    105.5779     62.8882
   967.7500      9.7008     79.3594    105.1376    117.7618     69.4235
   968.0000     12.5034     70.2347    104.1022    117.3816     76.7201
   968.2500     15.6689     62.3246     91.7599     88.8445     79.6084
   968.5000     18.9185     55.4903     86.3304     71.4002     71.4127
   968.7500     21.3742     47.7384     75.3370     75.9387     74.2116
   969.0000     23.9548     43.8047     65.7982     82.9632     87.8676
   969.2500     27.4751     37.2443     52.2588     84.4415     99.5121
   969.5000     29.8850     34.9134     42.4833     71.1869    110.3055
   969.7500     33.0207     32.5363     35.0949     45.0051    118.5165
   970.0000     36.7647     29.4441     29.9116     27.5222    122.7677
   970.2500     39.4733     27.5647     27.3739     23.8986    120.3355
   970.5000     41.1401     26.4063     24.9842     23.0717    130.9916
   970.7500     42.1659     25.4880     23.5478     20.9079    122.7018
   971.0000     43.0243     25.0109     22.3185     21.0003    125.0861
   971.2500     43.6876     23.9890     21.1097     23.8323    135.0532
   971.5000     44.5930     23.5019     20.3377     20.5091    140.4198
   971.7500     45.5319     22.9817     19.6682     19.3175    140.9138
   972.0000     45.7066     23.1477     19.6270     20.9777    122.9981
   972.2500     45.4006     22.8950     19.9282     21.5247    117.3984
   972.5000     45.4161     22.5067     20.3876     22.1315    115.8502
   972.7500     46.0966     23.1651     21.3196     24.1307    116.6128
   973.0000     46.3084     23.1848     22.9114     26.4960    105.1913
   973.2500     44.7990     23.9918     24.2542     30.4919    100.6066
   973.5000     42.9278     25.1874     25.6643     33.0277     97.6374
   973.7500     41.4287     25.9505     27.0847     34.6182    100.8784
   974.0000     40.2198     27.1898     28.3558     39.9615    100.3136
   974.2500     37.0355     28.9791     29.6204     43.6160     90.2244
   974.5000     33.8602     30.0946     31.6813     41.3443     88.2959
   974.7500     30.8978     31.9663     33.0813     38.8908     90.3571
   975.0000     27.8944     35.0476     35.0911     38.5951     83.2396
   975.2500     23.7168     36.6067     37.4270     43.4358     80.8661
   975.5000     19.7718     36.6723     37.6323     47.3596     85.4672
   975.7500     15.6524     38.6490     39.5986     46.7257     81.7938
   976.0000     11.9972     40.6126     40.7631     43.1769     89.1720
   976.2500      8.7162     41.1600     42.2093     41.5429     87.6056
   976.5000      5.8957     43.0771     42.3320     40.8023     91.4956
   976.7500      2.9264     44.3316     42.6242     40.9092     96.5538
   977.0000     -0.3770     45.4184     45.1474     41.5876     92.9244
   977.2500     -4.5005     46.6233     43.1896     40.0927     86.1820
   977.5000     -8.6069     46.3303     44.3808     38.8542     75.2354
   977.7500    -11.9650     45.8149     46.2769     40.7387     72.9496
   978.0000    -14.8645     46.8551     43.9431     43.7764     67.9074
   978.2500    -16.9552     50.4999     45.4389     44.4300     69.2947
   978.5000    -19.2217     50.8337     44.6895     44.9614     71.1161
   978.7500    -20.3433     51.1844     46.2833     44.3995     64.7223
   979.0000    -21.1632     53.0214     46.8033     46.5868     67.3504
   979.2500    -21.3888     50.9645     48.7433     51.3322     63.4964
   979.5000    -22.8494     52.5024     51.8351     56.7581     69.4829
   979.7500    -25.3840     52.4047     51.2527     61.5696     71.5540
   980.0000    -26.3225     57.1674     49.8340     64.0802     69.5778
   980.2500    -26.8750     59.6595     51.7617     60.5541     70.8432
   980.5000    -26.0551     59.3558     51.8024     56.7049     65.3565
   980.7500    -25.2770     61.5554     53.2010     54.3261     68.1340
   981.0000    -25.7241     58.4079     53.5429     52.6327     70.3886
   981.2500    -24.9701     59.7963     54.7837     51.3991     69.7955
   981.5000    -24.0901     61.7833     57.0981     52.0982     68.1034
   981.7500    -22.5501     62.7131     57.6119     53.4503     72.1257
   982.0000    -20.3263     59.2221     56.0847     54.5379     69.5989
   982.2500    -18.5738     62.6091     58.7689     57.0340     68.7031
   982.5000    -16.1459     59.6146     57.6548     57.2194     65.5222
   982.7500    -12.2077     59.9395     57.9737     56.9259     65.8370
   983.0000     -7.7124     57.8439     57.5215     58.6027     64.4088
   983.2500     -3.8482     57.0855     58.2427     58.4360     61.0581
   983.5000     -1.3365     55.5233     55.6423     58.1582     63.4900
   983.7500      1.3739     56.4106     55.3105     58.3866     67.5485
   984.0000      7.1698     57.8385     58.6063     61.6947     74.6596
   984.2500     13.3797     58.8257     56.7461     58.6352     81.9102
   984.5000     19.7082     60.6348     58.8864     58.5668     70.5303
   984.7500     24.0164     59.3547     60.7950     56.9861     70.0072
   985.0000     30.7676     60.6734     59.9405     59.1990     71.1356
   985.2500     36.6432     69.6992     60.9534     60.4749     70.7282
   985.5000     40.0903     69.7663     61.1837     61.0881     65.8234
   985.7500     39.3224     72.8876     66.7528     66.0135     62.6146
   986.0000     40.4910     79.0979     70.0867     76.3909     60.7633
   986.2500     44.0597     80.5138     72.6257     84.8437     63.7439
   986.5000     49.4498     83.4164     77.1021     86.0052     62.9496
   986.7500     50.2202     83.5117     82.5213     81.5212     62.5345
   987.0000     52.9652     94.2133     89.4803     75.0487     55.2911
   987.2500     58.5644     89.5439     93.3415     79.2037     50.4646
   987.5000     56.0876     98.7979     94.4009     96.9592     47.0624
   987.7500     59.7985    105.4446    101.3686    109.5202     48.3215
   988.0000     61.8605    100.6695    107.8764    109.1982     57.1679
   988.2500     65.1023    101.7820    111.1096    105.9866     58.3569
   988.5000     64.7350    100.9360    114.2440    104.7249     55.7552
   988.7500     69.6991    101.6505    120.8166     95.8127     50.9153
   989.0000     72.8438    103.5265    117.5710     90.9350     53.7562
   989.2500     73.9452    104.7805    117.8964     85.3581     58.7879
   989.5000     74.1788    114.1049    126.0321     86.5395     62.2709
   989.7500     76.7514     97.6095    131.6189     93.2422     57.7910
