~Version Information
VERS.                      2.0: CWLS Log ASCII Standard - VERSION 2.0
WRAP.                       NO: One line per depth step
~Well Information Block
STRT.FT               520.0000: 
STOP.FT              2183.5000: 
STEP.FT                 0.1000: 
NULL.                -999.2500: 
COMP.          Pioneer Natural Resources: COMPANY
WELL.             Enzo 43-8 Tr: WELL
FLD.           Purgatoire River: FIELD
LOC.           2303' FSL & 604' FEL: LOCATION
PROV.                 Colorado: PROVINCE
CNTY.               Las Animas: COUNTRY
SRVC.                Patterson: SERVICE COMPANY
DATE.          Sun Oct 31 15:10:54 2004: LOG DATE
UWI.           05 071 08213 00: UNIQUE WELL ID
~Curve Information Block
DEPT.FT            0 000 00 00: Depth
DCAL.in                       : CDL Caliper
RHOB.g/cc                     : CDL Bulk Density
RHOC.g/cc                     : CDL Density Correction
DPOR.pu                       : CDL Density Porosity
NPOR.pu                       : Neutron Porosity
GR.GAPI                       : Gamma Ray
~Parameter Information Block
~A  Depth       DCAL        RHOB        RHOC        DPOR        NPOR         GR     
# ...
  1604.8000      8.0820      2.5900      0.0772      3.6365     25.3134    131.9175
  1604.9000      8.0820      2.5981      0.0961      3.1459     25.5767    135.2295
  1605.0000      8.0828      2.5823      0.0425      4.1015     25.6977    137.9895
  1605.1000      8.0828      2.5495      0.0449      6.0916     25.7251    137.8723
  1605.2000      8.0828      2.5203      0.0108      7.8635     25.7753    136.6008
  1605.3000      8.0830      2.5075      0.0024      8.6390     25.9676    136.9675
  1605.4000      8.0830      2.5077      0.0213      8.6243     26.3129    137.4517
  1605.5000      8.0836      2.5113      0.0306      8.4072     26.5073    136.0540
  1605.6000      8.0836      2.5150      0.0022      8.1805     26.3827    135.3638
  1605.7000      8.0836      2.5161      0.0266      8.1124     25.9968    136.9231
  1605.8000      8.0849      2.5153      0.0452      8.1622     25.3827    135.3938
  1605.9000      8.0849      2.5161      0.0702      8.1178     24.9175    129.0331
  1606.0000      8.0909      2.5111      0.0690      8.4162     24.7792    124.9656
  1606.1000      8.0909      2.4972      0.0365      9.2626     24.5748    126.9323
  1606.2000      8.0909      2.4845      0.0413     10.0307     24.2862    129.8371
  1606.3000      8.1011      2.4731      0.0855     10.7225     24.2344    128.7890
  1606.4000      8.1011      2.4572      0.0368     11.6864     24.2443    125.1446
  1606.5000      8.1091      2.4418      0.0073     12.6193     23.9984    121.4179
  1606.6000      8.1091      2.4245      0.0046     13.6683     23.8291    120.2952
  1606.7000      8.1091      2.3957      0.0169     15.4143     24.0254    121.4563
  1606.8000      8.1156      2.3538     -0.0366     17.9511     23.9411    121.1514
  1606.9000      8.1156      2.3019     -0.0268     21.0948     23.1633    120.7773
  1607.0000      8.1202      2.2367     -0.0687     25.0483     22.0933    125.0428
  1607.1000      8.1202      2.1436     -0.0366     30.6938     20.9550    132.7256
  1607.2000      8.1202      2.0127     -0.0715     38.6220     19.7001    138.0015
  1607.3000      8.1167      1.8727     -0.1435     47.1097     18.4277    136.6124
  1607.4000      8.1167      1.7795     -0.1935     52.7552     17.4370    128.5468
  1607.5000      8.1084      1.7548     -0.1030     54.2528     16.6468    118.2994
  1607.6000      8.1084      1.7731     -0.0531     53.1453     15.6653    111.3288
  1607.7000      8.1084      1.8158     -0.0391     50.5558     14.5702    109.0761
  1607.8000      8.1143      1.8808      0.1386     46.6154     13.6213    106.9463
  1607.9000      8.1143      1.9503      0.3018     42.4046     12.9655    104.1885
  1608.0000      8.1535      2.0003      0.3928     39.3784     12.8322    107.2422
  1608.1000      8.1535      2.0286      0.4100     37.6604     13.1086    115.4522
  1608.2000      8.1535      2.0517      0.3420     36.2586     13.2700    121.4672
  1608.3000      8.2167      2.0796      0.1973     34.5698     13.2661    123.8336
  1608.4000      8.2167      2.1024      0.1047     33.1897     13.4784    124.3279
  1608.5000      8.3126      2.0955      0.0953     33.6079     13.9690    121.1599
  1608.6000      8.3126      2.0417      0.1327     36.8668     14.5038    115.0083
  1608.7000      8.3126      1.9726      0.0726     41.0553     14.9320    109.7750
  1608.8000      8.4734      1.9585      0.1605     41.9107     15.2974    106.6712
  1608.9000      8.4734      2.0170      0.2880     38.3650     15.6902    106.6460
  1609.0000      8.6579      2.0979      0.3643     33.4636     16.0832    112.1183
  1609.1000      8.6579      2.1667      0.3706     29.2892     16.4392    122.9178
  1609.2000      8.6579      2.2293      0.3690     25.4984     16.9950    131.8374
  1609.3000      8.7069      2.2904      0.3694     21.7915     17.8702    131.3089
  1609.4000      8.7069      2.3403      0.4203     18.7690     18.5664    125.9656
  1609.5000      8.5522      2.3608      0.4680     17.5258     18.6962    123.8132
  1609.6000      8.5522      2.3391      0.4219     18.8395     18.5310    122.6980
  1609.7000      8.5522      2.2855      0.2727     22.0895     18.2618    116.6304
  1609.8000      8.3295      2.2331      0.1222     25.2647     17.6643    109.2602
  1609.9000      8.3295      2.2115      0.1145     26.5767     16.8157    107.6165
  1610.0000      8.2090      2.2115      0.2390     26.5736     16.2407    110.1319
  1610.1000      8.2090      2.2061      0.1482     26.9041     16.2722    112.7817
  1610.2000      8.2090      2.2030      0.0304     27.0905     16.6151    114.0717
  1610.3000      8.1782      2.2228      0.1022     25.8933     16.5981    114.6635
  1610.4000      8.1782      2.2644      0.0974     23.3727     16.2336    114.2562
  1610.5000      8.1711      2.3265      0.1671     19.6046     16.0834    111.9284
  1610.6000      8.1711      2.3979      0.2675     15.2791     16.3729    109.4898
  1610.7000      8.1711      2.4467      0.3094     12.3190     16.9621    109.8623
  1610.8000      8.1555      2.4631      0.2218     11.3297     17.5841    112.4737
  1610.9000      8.1555      2.4696      0.2234     10.9342     18.1195    115.0007
  1611.0000      8.1177      2.4835      0.1831     10.0891     18.4236    118.0676
  1611.1000      8.1177      2.5017      0.1716      8.9885     18.4791    122.0853
  1611.2000      8.1177      2.5111      0.1328      8.4194     18.7252    125.0454
  1611.3000      8.0903      2.5056      0.1142      8.7487     19.2613    123.8193
  1611.4000      8.0903      2.4972      0.0538      9.2618     19.6555    117.0708
  1611.5000      8.0845      2.5008      0.0547      9.0434     19.9100    108.6795
  1611.6000      8.0845      2.5120      0.0615      8.3649     20.2708    105.4198
  1611.7000      8.0845      2.5187      0.0609      7.9604     20.7432    108.0144
  1611.8000      8.0846      2.5149      0.0710      8.1900     21.4060    114.3222
  1611.9000      8.0846      2.4994      0.0340      9.1299     22.0825    123.1959
  1612.0000      8.0877      2.4826      0.0071     10.1434     22.2125    129.4537
  1612.1000      8.0877      2.4777     -0.0011     10.4447     21.7811    129.3281
  1612.2000      8.0877      2.4805      0.0348     10.2705     21.5023    126.2235
  1612.3000      8.0988      2.4752      0.0180     10.5910     21.6425    124.1170
  1612.4000      8.0988      2.4602     -0.0136     11.5010     21.7691    120.9855
  1612.5000      8.1152      2.4576     -0.0168     11.6578     21.6441    115.9007
  1612.6000      8.1152      2.4880      0.0055      9.8172     21.2015    114.1509
  1612.7000      8.1152      2.5387      0.0782      6.7473     20.6115    117.8589
  1612.8000      8.1363      2.5685      0.1075      4.9380     20.3462    124.2998
  1612.9000      8.1363      2.5548      0.0954      5.7676     20.5872    130.8025
  1613.0000      8.1700      2.5192      0.0392      7.9270     20.9607    132.8028
  1613.1000      8.1700      2.4972      0.0295      9.2586     21.0783    131.6567
  1613.2000      8.1700      2.5013      0.0207      9.0104     20.9177    134.4267
  1613.3000      8.2140      2.5252      0.0335      7.5637     20.4374    139.2574
  1613.4000      8.2140      2.5560      0.0762      5.6954     19.7415    138.6067
  1613.5000      8.2374      2.5764      0.0886      4.4632     19.3620    132.9272
  1613.6000      8.2374      2.5836      0.0549      4.0254     19.6443    127.3489
  1613.7000      8.2374      2.5887      0.0911      3.7131     20.3927    123.0871
  1613.8000      8.2248      2.5916      0.0677      3.5379     21.0414    121.6758
  1613.9000      8.2248      2.5873      0.0742      3.8006     21.3264    121.6076
  1614.0000      8.1844      2.5750      0.0893      4.5475     21.4956    119.2046
  1614.1000      8.1844      2.5582      0.0624      5.5656     21.7599    117.3771
  1614.2000      8.1844      2.5501      0.0037      6.0516     22.2374    117.8403
  1614.3000      8.1304      2.5565      0.0566      5.6675     22.8894    117.7641
