~Version Information
VERS.                      2.0: CWLS Log ASCII Standard - VERSION 2.0
WRAP.                       NO: One line per depth step
~Well Information Block
STRT.FT                -3.5000: 
STOP.FT              1841.0000: 
STEP.FT                 0.2500: 
NULL.                -999.2500: 
COMP.          Pioneer Natural Resources: COMPANY
WELL.          Corkscrew 33-12 Tr: WELL
FLD.           Purgatorie River: FIELD
LOC.           1870' FSL  & 1706' FEL--------: LOCATION
PROV.                       CO: PROVINCE
CNTY.               Las Animas: COUNTRY
SRVC.          Patterson Wireline: SERVICE COMPANY
DATE.          Mon Apr 04 10:07:45 2005: LOG DATE
UWI.           05 071 08295 00: UNIQUE WELL ID
~Curve Information Block
DEPT.FT            0 000 00 00: Depth
CCL.                          : Casing Collar Locator
TT3.usec                      : CBL 3' Travel Time
AMP3.mV                       : CBL 3' Amplitude
GR.GAPI                       : Gamma Ray
~Parameter Information Block
~A  Depth       CCL         TT3         AMP3         GR     
# ...
  1805.5000      0.0000    765.5718      6.1661     99.9692
  1805.7500      0.0000    762.4924      6.0670    111.1989
  1806.0000      0.0000    764.5937      5.9389    119.5765
  1806.2500      0.0000    770.2822      5.8228    124.4536
  1806.5000      0.0000    773.0944      5.7366    126.3433
  1806.7500      0.0000    765.7795      5.6850    127.0847
  1807.0000      0.0000    746.7379      5.6683    128.8736
  1807.2500      0.0000    723.3334      5.6703    132.9209
  1807.5000      0.0000    707.2994      5.6538    138.7498
  1807.7500      0.0000    704.7019      5.5901    144.4636
  1808.0000      0.0000    711.0737      5.4910    147.7811
  1808.2500      0.0000    717.6588      5.4000    147.0668
  1808.5000      0.0000    720.7147      5.3524    141.8392
  1808.7500      0.0000    722.9468      5.3504    133.1080
  1809.0000      2.0000    727.6613      5.3700    123.5515
  1809.2500      2.0000    734.1458      5.3835    116.5877
  1809.5000      0.0000    738.8416      5.3752    114.4445
  1809.7500      0.0000    739.5619      5.3459    117.0883
  1810.0000      0.0000    737.4749      5.3054    123.0735
  1810.2500      0.0000    734.9788      5.2626    130.9219
  1810.5000      0.0000    732.5681      5.2266    139.2451
  1810.7500      0.0000    728.7628      5.2186    146.0698
  1811.0000      0.0000    722.7939      5.2672    149.0379
  1811.2500      0.0000    715.9349      5.3800    146.8709
  1811.5000      0.0000    709.5760      5.5294    140.7681
  1811.7500      0.0000    703.2470      5.6748    134.0870
  1812.0000      0.0000    695.8063      5.7932    130.0815
  1812.2500      0.0000    687.7303      5.8883    129.6149
  1812.5000      0.0000    681.0416      5.9703    131.0098
  1812.7500      0.0000    677.5648      6.0306    131.9246
  1813.0000      0.0000    678.4185      6.0436    131.4098
  1813.2500      0.0000    684.9603      6.0017    130.6067
  1813.5000      0.0000    698.8476      5.9355    131.5282
  1813.7500      0.0000    720.0258      5.8986    134.6796
  1814.0000      0.0000    744.6036      5.9292    138.0163
  1814.2500      0.0000    765.9279      6.0230    138.9534
  1814.5000      0.0000    778.9825      6.1294    137.3292
  1814.7500      0.0000    783.9259      6.1842    135.6678
  1815.0000      0.0000    784.7173      6.1626    136.5040
  1815.2500      0.0000    784.3622      6.1049    139.9900
  1815.5000      0.0000    782.3982      6.0782    144.0046
  1815.7500      0.0000    777.1201      6.1090    146.1976
  1816.0000      0.0000    768.8679      6.1593    146.0561
  1816.2500      0.0000    760.3010      6.1690    145.1993
  1816.5000      0.0000    753.9683      6.1139    145.5206
  1816.7500      0.0000    749.8784      6.0200    147.0814
  1817.0000      0.0000    745.4168      5.9354    148.0088
  1817.2500      0.0000    738.4491      5.8905    146.3219
  1817.5000      0.0000    730.6077      5.8816    141.6253
  1817.7500      0.0000    726.2605      5.8889    135.0788
  1818.0000      0.0000    728.1576      5.8999    128.2337
  1818.2500      0.0000    735.5524      5.9096    122.5150
  1818.5000      0.0000    746.4412      5.9087    119.5439
  1818.7500      0.0000    759.4404      5.8939    120.6939
  1819.0000      0.0000    772.7039      5.8779    125.5383
  1819.2500      0.0000    783.2425      5.8746    131.2502
  1819.5000      0.0000    789.1133      5.8828    134.5715
  1819.7500      0.0000    791.3502      5.8916    134.5780
  1820.0000      0.0000    792.3033      5.8945    132.9003
  1820.2500      0.0000    792.1967      5.8926    131.1646
  1820.5000      0.0000    788.0812      5.8888    129.0955
  1820.7500      0.0000    776.6401      5.8848    125.5808
  1821.0000      0.0000    758.3208      5.8790    120.8490
  1821.2500      0.0000    738.8844      5.8716    116.8095
  1821.5000      0.0000    726.3879      5.8772    115.4130
  1821.7500      0.0000    725.7253      5.9138    117.1343
  1822.0000      0.0000    735.3113      5.9755    120.9786
  1822.2500      0.0000    748.4576      6.0334    125.3860
  1822.5000      0.0000    758.1021      6.0597    128.8935
  1822.7500      0.0000    760.7259      6.0428    130.6078
  1823.0000      0.0000    756.2803      5.9940    130.8084
  1823.2500      0.0000    745.6915      5.9409    130.9597
  1823.5000      0.0000    729.9838      5.9064    132.4934
  1823.7500      0.0000    711.5347      5.8932    135.4108
  1824.0000      0.0000    694.3218      5.8838    138.2627
  1824.2500      0.0000    681.8763      5.8485    139.2679
  1824.5000      0.0000    675.4717      5.7795    137.2931
  1824.7500      0.0000    674.5599      5.7283    132.3360
  1825.0000      0.0000    678.1055      5.7609    125.7232
  1825.2500      0.0000    684.8857      5.8624    119.5545
  1825.5000      0.0000    693.0320      5.9407    115.3136
  1825.7500      0.0000    700.2135      5.9497    112.9986
  1826.0000      0.0000    704.6885      5.9467    111.7838
  1826.2500      0.0000    706.1880      5.9878    111.1031
  1826.5000      0.0000    706.3710      6.0263    110.7645
  1826.7500      0.0000    708.8649      5.9795    110.0361
  1827.0000      0.0000    717.8516      5.8692    106.5545
  1827.2500      0.0000    734.4905      5.8203     96.6872
  1827.5000      0.0000    754.0544      5.9045     78.4598
  1827.7500      0.0000    768.3141      6.0404     54.6312
  1828.0000      0.0000    772.2643      6.0915     31.6562
  1828.2500      0.0000    768.0921      6.0371     14.9528
  1828.5000      0.0000    761.8679      5.9893      5.6794
  1828.7500      0.0000    757.2189      6.0376      1.7184
  1829.0000      0.0000    753.1571      6.1298      0.4115
  1829.2500      0.0000    747.0779      6.1432      0.0770
  1829.5000      0.0000    738.2959      6.0456      0.0104
  1829.7500      0.0000    728.4966      5.9404      0.0000
  1830.0000      0.0000    719.7488      5.9476   -999.2500
  1830.2500      0.0000    712.9762      6.0658   -999.2500
  1830.5000      0.0000    708.5694      6.1652   -999.2500
  1830.7500      0.0000    707.7252      6.1168   -999.2500
  1831.0000      0.0000    711.7972      5.9298   -999.2500
  1831.2500      0.0000    719.3098      5.7571   -999.2500
  1831.5000      0.0000    723.8594      5.7542   -999.2500
  1831.7500      0.0000    716.0703      5.9196   -999.2500
  1832.0000      0.0000    686.9414      6.0660   -999.2500
  1832.2500      0.0000    628.3366      5.9510   -999.2500
  1832.5000      0.0000    534.1360      5.4608   -999.2500
  1832.7500      0.0000    408.0104      4.6986   -999.2500
  1833.0000      0.0000    270.4486      3.9059   -999.2500
  1833.2500      0.0000    150.9819      3.2925   -999.2500
  1833.5000      0.0000     69.4037      2.9263   -999.2500
  1833.7500      0.0000     25.8485      2.7552   -999.2500
  1834.0000      0.0000      7.7108      2.6922   -999.2500
  1834.2500      0.0000      1.8258      2.6739   -999.2500
  1834.5000      0.0000      0.3379      2.6697   -999.2500
  1834.7500      0.0000      0.0449      2.6690   -999.2500
  1835.0000      0.0000   -999.2500   -999.2500   -999.2500
  1835.2500      0.0000   -999.2500   -999.2500   -999.2500
  1835.5000      0.0000   -999.2500   -999.2500   -999.2500
  1835.7500      0.0000   -999.2500   -999.2500   -999.2500
  1836.0000      0.0000   -999.2500   -999.2500   -999.2500
  1836.2500      0.0000   -999.2500   -999.2500   -999.2500
  1836.5000      0.0000   -999.2500   -999.2500   -999.2500
  1836.7500      0.0000   -999.2500   -999.2500   -999.2500
  1837.0000      0.0000   -999.2500   -999.2500   -999.2500
  1837.2500      0.0000   -999.2500   -999.2500   -999.2500
  1837.5000      0.0000   -999.2500   -999.2500   -999.2500
  1837.7500      0.0000   -999.2500   -999.2500   -999.2500
  1838.0000      0.0000   -999.2500   -999.2500   -999.2500
  1838.2500      0.0000   -999.2500   -999.2500   -999.2500
  1838.5000      0.0000   -999.2500   -999.2500   -999.2500
  1838.7500      0.0000   -999.2500   -999.2500   -999.2500
