~Version Information
 VERS.                                  2.0 : CWLS LAS VERSION
 WRAP.                                   NO : WRAPING MODE
 SWARE .                 MController 2.5.0J : SOFTWARE VERSION
~Well Information
 WELL.                         Schedler9-23R: WELL
 COMP.                             Petrogulf: COMPANY
 FLD.                      Purgatoire River : FIELD
 LOC.                 NE/SW Sec.9 T33s R67w : LOCATION
 DATE.                              10/31/04: DATE(S) LOGGED
 SRVC.                    Blanco Geological : SERVICE COMPANY
 STAT.                                   CO : STATE
 CNTY.                           Las Animas : COUNTY
 CTRY.                                  USA: COUNTRY
 API.                           05-071-08040: API NUMBER
 STRT.FT                             713.00 : START DEPTH
 STOP.FT                            2080.00 : STOP DEPTH
 STEP.FT                               1.00 : DEPTH INCREMENT
 NULL.                                -9999 : NULL VALUE
~Curve information
 DEPTH.FT                                   :
 ROP.MIN/FT                                 :
 GAS.UNITS                                  :
~ASCII Log data
# ...
       913.0         0.13         18.5 
       914.0         0.20         18.9 
       915.0         0.17         17.3 
       916.0         0.20         19.4 
       917.0         0.17         19.4 
       918.0         0.20         25.7 
       919.0         0.20         30.8 
       920.0         0.20         30.3 
       921.0         0.25         32.9 
       922.0         0.33         31.7 
       923.0         0.27         29.1 
       924.0         0.27         28.5 
       925.0         0.27         25.4 
       926.0         0.27         23.9 
       927.0         0.23         22.5 
       928.0         0.28         21.1 
       929.0         0.27         18.6 
       930.0         0.17         18.0 
       931.0         0.17         17.2 
       932.0         0.17         15.8 
       933.0         0.20         15.8 
       934.0         0.20         15.6 
       935.0         0.17         15.6 
       936.0         0.17         15.6 
       937.0         0.20         15.9 
       938.0         0.20         16.3 
       939.0         0.20         15.8 
       940.0         0.17         16.2 
       941.0         0.20         16.2 
       942.0         0.17         16.2 
       943.0         0.20         16.8 
       944.0         0.17         16.8 
       945.0         0.25         13.1 
       946.0         0.17         13.1 
       947.0         0.13         14.2 
       948.0         0.20         16.9 
       949.0         0.20         16.9 
       950.0         0.17         19.8 
       951.0         0.13         21.7 
       952.0         0.27         30.4 
       953.0         0.13         30.4 
       954.0         0.13         35.3 
       955.0         0.30         37.5 
       956.0         0.27         38.7 
       957.0         0.27         36.0 
       958.0         0.30         32.7 
       959.0         0.23         28.9 
       960.0         0.27         27.4 
       961.0         0.27         24.1 
       962.0         0.23         21.2 
       963.0         0.17         20.2 
       964.0         0.23         17.4 
       965.0         0.17         17.0 
       966.0         0.20         16.3 
       967.0         0.20         16.2 
       968.0         0.20         15.8 
       969.0         0.22         15.0 
       970.0         0.23         15.7 
       971.0         0.17         14.7 
       972.0         0.30         14.7 
       973.0         0.30         14.6 
       974.0         0.23         15.2 
       975.0         0.20         14.3 
       976.0         0.23         15.0 
       977.0         0.17         13.4 
       978.0         0.20         13.7 
       979.0         0.20         13.3 
       980.0         0.27         12.5 
       981.0         0.27         12.7 
       982.0         0.27         13.3 
       983.0         0.25         14.7 
       984.0         0.30         17.6 
       985.0         0.33         19.1 
       986.0         0.17         22.2 
       987.0         0.13         23.2 
       988.0         0.13         23.2 
       989.0         0.10         24.4 
       990.0         0.13         24.9 
       991.0         0.27         26.4 
       992.0         0.23         20.8 
       993.0         0.23         26.4 
       994.0         0.22         24.4 
       995.0         0.23         23.9 
       996.0         0.20         25.1 
       997.0         0.23          7.3 
       998.0         0.17         26.1 
       999.0         0.20         25.6 
      1000.0         0.20         25.5 
      1001.0         0.17         25.3 
      1002.0         0.17         25.6 
      1003.0         0.23         26.2 
      1004.0         0.20         23.9 
      1005.0         0.23         14.7 
      1006.0         0.27         14.5 
      1007.0         0.20         13.7 
      1008.0         0.20         15.0 
      1009.0         0.20         16.5 
      1010.0         0.18         18.4 
      1011.0         0.20         22.1 
      1012.0         0.20         24.8 
      1013.0         0.20         29.4 
      1014.0         0.13         29.4 
      1015.0         0.17         30.3 
      1016.0         0.20         29.8 
      1017.0         0.27         27.5 
      1018.0         0.23         26.2 
      1019.0         0.23         24.2 
      1020.0         0.23         23.5 
      1021.0         0.37         20.3 
      1022.0         0.37         17.2 
      1023.0         0.37         15.3 
      1024.0         0.23         15.0 
      1025.0         0.27         14.9 
      1026.0         0.20         14.2 
      1027.0         0.20         14.0 
      1028.0         0.20         14.0 
      1029.0         0.28         13.5 
      1030.0         0.20         13.7 
      1031.0         0.17         13.9 
      1032.0         0.17         14.5 
      1033.0         0.17         14.7 
      1034.0         0.17         10.7 
      1035.0         0.17         11.4 
      1036.0         0.17         11.4 
      1037.0         0.20         13.1 
      1038.0         0.17         14.7 
      1039.0         0.13         17.3 
      1040.0         0.17         18.5 
      1041.0         0.17         20.6 
      1042.0         0.23         26.2 
      1043.0         0.20         27.9 
      1044.0         0.17         29.5 
      1045.0         0.23         28.9 
      1046.0         0.28         27.3 
      1047.0         0.27         26.3 
      1048.0         0.23         23.0 
      1049.0         0.23         22.9 
      1050.0         0.18         21.5 
      1051.0         0.17         19.7 
      1052.0         0.20         17.2 
      1053.0         0.20         17.5 
      1054.0         0.20         16.8 
      1055.0         0.17         16.0 
      1056.0         0.20         16.1 
      1057.0         0.17         16.1 
      1058.0         0.23         16.2 
      1059.0         0.33         15.7 
      1060.0         0.30         15.0 
      1061.0         0.23         14.9 
      1062.0         0.23         14.8 
      1063.0         0.27         13.8 
      1064.0         0.27         13.8 
      1065.0         0.28         13.2 
      1066.0         0.43         14.6 
      1067.0         0.27         12.8 
      1068.0         0.27         11.7 
      1069.0         0.27         11.2 
      1070.0         0.20         11.1 
      1071.0         0.23         11.0 
      1072.0         0.27         12.7 
      1073.0         0.17         15.5 
      1074.0         0.27         17.6 
      1075.0         0.37         22.5 
      1076.0         0.30         24.0 
      1077.0         0.33         25.3 
      1078.0         0.33         24.4 
      1079.0         0.23         22.2 
      1080.0         0.20         20.1 
      1081.0         0.23         19.6 
      1082.0         0.27         18.4 
      1083.0         0.23         17.6 
      1084.0         0.23         16.9 
      1085.0         0.33         16.6 
      1086.0         0.25         15.1 
      1087.0         0.30         14.5 
      1088.0         0.23         14.1 
      1089.0         0.23         14.1 
      1090.0         0.27         14.0 
      1091.0         0.20         13.7 
      1092.0         0.23         14.0 
      1093.0         0.20         13.9 
      1094.0         0.27         13.4 
      1095.0         0.30         12.9 
      1096.0         0.23         12.7 
      1097.0         0.27         12.3 
      1098.0         0.30         28.4 
      1099.0         0.25         18.4 
      1100.0         0.23         24.9 
      1101.0         0.33         27.2 
      1102.0         0.27         31.5 
      1103.0         0.27         35.2 
      1104.0         0.17         43.2 
      1105.0         0.30         47.1 
      1106.0         0.37         48.6 
      1107.0         0.30         48.0 
      1108.0         0.23         45.2 
      1109.0         0.27         44.0 
      1110.0         0.27         41.1 
      1111.0         0.23         38.7 
      1112.0         0.27         36.5 
