~Version Information
VERS.                      2.0: CWLS Log ASCII Standard - VERSION 2.0
WRAP.                       NO: One line per depth step
~Well Information Block
STRT.FT                -8.5000: 
STOP.FT              1968.0000: 
STEP.FT                 0.2500: 
NULL.                -999.2500: 
COMP.          Pioneer Natural Resources: COMPANY
WELL.           Firehawk 34-26: WELL
FLD.           Purgatorie River: FIELD
LOC.           1196' FSL & 1595' FEL--: LOCATION
STAT.                       CO: State
CNTY.               Las Animas: COUNTY
CTRY. USA : Country
SECT. 26 : Section
TOWN. 32S : Township
RANG. 66W : Range 
SRVC.          Patterson Wireline: SERVICE COMPANY
DATE.          Tue Oct 25 14:45:07 2005: LOG DATE
API.           05 071 08389 00: UNIQUE WELL ID
~Curve Information Block
DEPT.FT            0 000 00 00: Depth
CCL.                          : Casing Collar Locator
TT3.usec                      : CBL 3' Travel Time
AMP3.mV                       : CBL 3' Amplitude
GR.GAPI                       : Gamma Ray
~Parameter Information Block
~A  Depth       CCL         TT3         AMP3         GR     
# ...
  1298.0000      0.0000    635.2770      5.2004     89.8131
  1298.2500      0.0000    618.2469      5.4173     93.1857
  1298.5000      0.0000    605.2545      5.5603     96.5006
  1298.7500      0.0000    592.7381      5.6195     99.5103
  1299.0000      0.0000    575.8765      5.6203    101.2054
  1299.2500      0.0000    554.5414      5.5837    100.7721
  1299.5000      0.0000    533.4142      5.5192     98.1522
  1299.7500      0.0000    517.4826      5.4378     93.6872
  1300.0000      0.0000    508.3398      5.3548     87.9647
  1300.2500      0.0000    504.4078      5.2834     82.2249
  1300.5000      0.0000    503.2421      5.2291     78.0452
  1300.7500      0.0000    503.1010      5.1909     76.0060
  1301.0000      0.0000    503.1430      5.1621     75.0271
  1301.2500      0.0000    503.0882      5.1318     73.6044
  1301.5000      0.0000    502.9497      5.0897     71.4982
  1301.7500      0.0000    502.8120      5.0309     69.7043
  1302.0000      0.0000    502.6929      4.9584     69.0979
  1302.2500      0.0000    502.5082      4.8807     69.7941
  1302.5000      0.0000    502.1709      4.8066     71.5793
  1302.7500      0.0000    501.6940      4.7409     74.1535
  1303.0000      0.0000    501.1824      4.6850     76.9145
  1303.2500      0.0000    500.7455      4.6408     79.0337
  1303.5000      0.0000    500.4439      4.6131     79.9124
  1303.7500      0.0000    500.3060      4.6074     79.5111
  1304.0000      0.0000    500.3573      4.6259     78.2803
  1304.2500      0.0000    500.6154      4.6644     76.7585
  1304.5000      0.0000    501.0609      4.7135     75.0243
  1304.7500      0.0000    501.6272      4.7637     72.5685
  1305.0000      0.0000    502.2235      4.8128     68.9604
  1305.2500      0.0000    502.7653      4.8657     64.6828
  1305.5000      0.0000    503.1861      4.9251     61.1701
  1305.7500      0.0000    503.4427      4.9828     60.0702
  1306.0000      0.0000    503.5347      5.0249     62.2625
  1306.2500      0.0000    503.5219      5.0464     67.0929
  1306.5000      0.0000    503.4985      5.0594     72.4844
  1306.7500      0.0000    503.5355      5.0851     76.1344
  1307.0000      0.0000    503.6717      5.1348     76.8757
  1307.2500      0.0000    503.9712      5.1982     75.0014
  1307.5000      0.0000    504.7535      5.2512     71.5892
  1307.7500      0.0000    506.9830      5.2777     67.8642
  1308.0000      0.0000    512.6522      5.2826     65.0201
  1308.2500      0.0000    524.1552      5.2837     63.9699
  1308.5000      0.0000    541.7617      5.2941     64.7687
  1308.7500      0.0000    561.1641      5.3140     66.3789
  1309.0000      0.0000    576.0029      5.3365     67.4306
  1309.2500      0.0000    585.4105      5.3558     67.5317
  1309.5000      0.0000    597.2760      5.3707     67.7385
  1309.7500      0.0000    620.4391      5.3824     69.4475
  1310.0000      0.0000    654.0323      5.3883     72.7511
  1310.2500      0.0000    686.9421      5.3782     76.0744
  1310.5000      0.0000    707.2261      5.3392     77.4190
  1310.7500      0.0000    710.4457      5.2676     75.8792
  1311.0000      0.0000    700.1524      5.1758     72.2833
  1311.2500      0.0000    682.6236      5.0855     68.6468
  1311.5000      0.0000    661.2561      5.0160     66.7185
  1311.7500      0.0000    635.1165      4.9759     66.7139
  1312.0000      0.0000    602.8895      4.9632     67.5671
  1312.2500      0.0000    567.6281      4.9693     68.4223
  1312.5000      0.0000    536.2278      4.9844     69.5021
  1312.7500      0.0000    514.1738      4.9986     71.3873
  1313.0000      0.0000    502.0250      5.0023     73.9840
  1313.2500      0.0000    496.7315      4.9907     76.6811
  1313.5000      0.0000    494.8502      4.9687     79.1310
  1313.7500      0.0000    494.2556      4.9462     81.2875
  1314.0000      0.0000    494.0856      4.9268     83.0107
  1314.2500      0.0000    494.1260      4.9034     84.2070
  1314.5000      0.0000    494.3702      4.8671     85.0099
  1314.7500      0.0000    494.8225      4.8197     85.2974
  1315.0000      0.0000    495.4586      4.7775     84.4009
  1315.2500      0.0000    496.2321      4.7633     81.8671
  1315.5000      0.0000    497.1367      4.7931     78.4475
  1315.7500      0.0000    498.3282      4.8684     75.8530
  1316.0000      0.0000    500.3798      4.9772     75.2968
  1316.2500      0.0000    504.6296      5.0996     76.3429
  1316.5000      0.0000    513.3579      5.2108     77.2997
  1316.7500      0.0000    529.2842      5.2854     76.7331
  1317.0000      0.0000    553.8406      5.3078     74.5314
  1317.2500      0.0000    584.7021      5.2819     71.7888
  1317.5000      0.0000    614.5502      5.2301     69.9627
  1317.7500      0.0000    633.2661      5.1799     70.0010
  1318.0000      0.0000    633.3041      5.1482     71.9490
  1318.2500      0.0000    615.0867      5.1357     75.0996
  1318.5000      0.0000    587.8438      5.1329     78.2076
  1318.7500      0.0000    563.4807      5.1303     79.7223
  1319.0000      0.0000    547.8342      5.1247     78.4442
  1319.2500      0.0000    538.2046      5.1201     74.2363
  1319.5000      0.0000    529.3829      5.1231     68.1356
  1319.7500      0.0000    520.1012      5.1371     62.0081
  1320.0000      0.0000    513.0972      5.1579     57.9064
  1320.2500      0.0000    511.4980      5.1769     56.9231
  1320.5000      0.0000    516.7570      5.1940     58.3948
  1320.7500      0.0000    528.0621      5.2236     60.7761
  1321.0000      0.0000    541.3832      5.2784     63.2660
  1321.2500      0.0000    550.0278      5.3449     65.9269
  1321.5000      0.0000    548.8009      5.3838     68.4141
  1321.7500      0.0000    538.3975      5.3589     69.6610
  1322.0000      0.0000    524.5964      5.2642     69.0251
  1322.2500      0.0000    513.1772      5.1243     67.1216
  1322.5000      0.0000    506.4421      4.9760     65.3097
  1322.7500      0.0000    504.0086      4.8490     64.5333
  1323.0000      0.0000    505.3612      4.7569     64.6094
  1323.2500      0.0000    511.2999      4.6949     64.5219
  1323.5000      0.0000    523.8728      4.6457     63.4500
  1323.7500      0.0000    545.4207      4.5922     61.4846
  1324.0000      0.0000    576.7846      4.5331     59.4533
  1324.2500      0.0000    615.0609      4.4900     58.3330
  1324.5000      0.0000    652.9368      4.4931     58.8297
  1324.7500      0.0000    681.5942      4.5558     61.0637
  1325.0000      0.0000    695.4286      4.6601     64.3628
  1325.2500      0.0000    694.7452      4.7685     67.6300
  1325.5000      0.0000    685.2845      4.8512     70.2228
  1325.7500      0.0000    675.6369      4.9022     72.6008
  1326.0000      0.0000    672.9893      4.9291     76.3124
  1326.2500      0.0000    678.8746      4.9357     83.4279
  1326.5000      0.0000    688.9865      4.9174     95.5066
  1326.7500      0.0000    697.7984      4.8683    112.4540
  1327.0000      0.0000    702.9084      4.7872    132.1951
  1327.2500      0.0000    705.1517      4.6850    151.5013
  1327.5000      0.0000    706.1620      4.5880    167.2813
  1327.7500      0.0000    706.5079      4.5256    177.6008
  1328.0000      0.0000    705.4156      4.5085    182.2246
  1328.2500      0.0000    701.7150      4.5213    182.4274
  1328.5000      0.0000    695.0244      4.5363    180.2216
  1328.7500      0.0000    685.8644      4.5307    177.5708
  1329.0000      0.0000    674.4001      4.4964    175.7019
  1329.2500      0.0000    659.4339      4.4449    174.5290
  1329.5000      0.0000    639.4357      4.3997    172.8646
  1329.7500      0.0000    615.4481      4.3776    169.7881
  1330.0000      0.0000    592.5319      4.3775    165.8828
  1330.2500      0.0000    576.2950      4.3887    162.8032
  1330.5000      0.0000    567.0580      4.4046    161.5737
  1330.7500      0.0000    559.1469      4.4264    161.4934
  1331.0000      0.0000    547.2900      4.4586    160.8530
  1331.2500      0.0000    532.3895      4.5052    158.8193
