~Version Information
 VERS.                                  2.0 : CWLS LAS VERSION
 WRAP.                                   NO : WRAPING MODE
 SWARE .                 MController 2.5.0N : SOFTWARE VERSION
~Well Information
 WELL.                   Casablanca 11-28TR : WELL
 COMP.    Pioneer Natural Resources USA Inc : COMPANY
 FLD.                      Purgatoire River : FIELD
 LOC.                NW/NW Sec 28 T32S R67W : LOCATION
 DATE.                         3/05-06/2005 : DATE(S) LOGGED
 SRVC.       Blanco Geological Services LLC : SERVICE COMPANY
 STAT.                                   CO : STATE
 CNTY.                           Las Animas : COUNTY
 CTRY.                                  USA : COUNTRY
 API.                       05-071-08314-00 : API NUMBER
 STRT.FT                             818.00 : START DEPTH
 STOP.FT                            2250.00 : STOP DEPTH
 STEP.FT                               1.00 : DEPTH INCREMENT
 NULL.                                -9999 : NULL VALUE
~Curve information
 DEPTH.FT                                   :
 ROP.MIN/FT                                 :
 GAS.UNITS                                  :
~ASCII Log data
# ...
      1788.0         0.58          4.4 
      1789.0         0.53          4.4 
      1790.0         0.65          4.4 
      1791.0         2.18          4.5 
      1792.0         1.88         50.9 
      1793.0         1.32         46.5 
      1794.0         0.80         45.0 
      1795.0         0.72         42.8 
      1796.0         0.65         36.3 
      1797.0         0.58         39.4 
      1798.0         0.47         38.7 
      1799.0         0.33         32.0 
      1800.0         0.33         30.0 
      1801.0         0.33         28.3 
      1802.0         0.40         27.0 
      1803.0         0.60         27.4 
      1804.0         0.53         27.6 
      1805.0         0.53         26.9 
      1806.0         0.42         28.4 
      1807.0         0.42         29.0 
      1808.0         0.38         28.5 
      1809.0         0.38         28.3 
      1810.0         0.37         30.1 
      1811.0         0.42         41.4 
      1812.0         0.40         49.5 
      1813.0         0.37         49.5 
      1814.0         0.40         42.7 
      1815.0         0.37         33.8 
      1816.0         1.90         37.6 
      1817.0         1.25         42.5 
      1818.0         1.85         63.5 
      1819.0        14.60         38.5 
      1820.0        19.20         40.8 
      1821.0         0.33         26.9 
      1822.0         2.22         38.7 
      1823.0         1.30         40.3 
      1824.0         0.63         44.5 
      1825.0         0.60         28.2 
      1826.0         0.60         32.5 
      1827.0         0.58         31.2 
      1828.0         0.47         29.8 
      1829.0         0.53         28.5 
      1830.0         0.93         34.7 
      1831.0         0.65         32.8 
      1832.0         0.63         34.9 
      1833.0         0.58         33.1 
      1834.0         0.65         35.9 
      1835.0         0.57         34.0 
      1836.0         0.63         38.6 
      1837.0         0.82         44.5 
      1838.0         0.35         30.0 
      1839.0         0.37         26.0 
      1840.0         0.68         26.1 
      1841.0         1.32         26.1 
      1842.0         1.27         28.3 
      1843.0         0.77         28.7 
      1844.0         0.73         26.7 
      1845.0         0.97         26.2 
      1846.0         1.25         32.6 
      1847.0         1.23         34.2 
      1848.0         1.15         32.3 
      1849.0         0.97         62.6 
      1850.0         0.75         28.7 
      1851.0         0.68         29.4 
      1852.0         1.18         34.9 
      1853.0         1.08         37.2 
      1854.0         0.80         37.1 
      1855.0         0.80         36.7 
      1856.0         0.68         35.2 
      1857.0         0.65         37.7 
      1858.0         0.63         41.4 
      1859.0         0.53         43.2 
      1860.0         0.55         42.4 
      1861.0         0.58         42.0 
      1862.0         0.52         48.0 
      1863.0         0.42         49.3 
      1864.0         0.38         48.6 
      1865.0         0.38         44.8 
      1866.0         1.33         41.8 
      1867.0         1.50         29.6 
      1868.0         1.42         39.4 
      1869.0         2.10         39.3 
      1870.0         0.82         32.4 
      1871.0         0.23         31.4 
      1872.0         0.23         32.4 
      1873.0         1.12         34.2 
      1874.0         1.55         35.1 
      1875.0         0.55         50.5 
      1876.0         0.50         47.4 
      1877.0         0.50         29.1 
      1878.0         0.52         30.5 
      1879.0         0.58         31.8 
      1880.0         1.33         32.3 
      1881.0         0.93         27.1 
      1882.0         0.35         47.8 
      1883.0         0.23         48.1 
      1884.0         0.27         42.5 
      1885.0         0.90         36.1 
      1886.0         1.03         26.1 
      1887.0         0.80         43.2 
      1888.0         1.10         36.5 
      1889.0         0.93         43.1 
      1890.0         1.47         33.0 
      1891.0         2.07         33.5 
      1892.0         0.80         35.4 
      1893.0         0.83         35.5 
      1894.0         0.80         34.8 
      1895.0         0.73         24.6 
      1896.0         0.62         28.4 
      1897.0         0.68         25.2 
      1898.0         0.80         29.6 
      1899.0         0.68         30.1 
      1900.0         0.67         26.8 
      1901.0         0.63         34.1 
      1902.0         0.63         41.8 
      1903.0         0.47         42.5 
      1904.0         0.42         37.3 
      1905.0         1.37         48.0 
      1906.0         1.20         52.2 
      1907.0         1.02         55.0 
      1908.0         1.57         35.8 
      1909.0         1.17         36.6 
      1910.0         1.37         36.0 
      1911.0         1.38         34.6 
      1912.0         1.30         33.9 
      1913.0         1.28         37.5 
      1914.0         0.42         28.9 
      1915.0         0.43         28.3 
      1916.0         0.42         55.5 
      1917.0         0.43         34.3 
      1918.0         0.47         33.8 
      1919.0         0.40         55.4 
      1920.0         0.47         30.5 
      1921.0         0.42         30.1 
      1922.0         1.10         36.8 
      1923.0         1.18         36.6 
      1924.0         1.10         30.8 
      1925.0         1.17         46.9 
      1926.0         1.22         44.0 
      1927.0         1.30         35.9 
      1928.0         1.45         28.7 
      1929.0         0.87         29.6 
      1930.0         1.10         35.3 
      1931.0         0.42         35.9 
      1932.0         0.28         32.8 
      1933.0         1.77         41.0 
      1934.0         1.05         39.5 
      1935.0         1.07         36.6 
      1936.0         1.05         40.7 
      1937.0         2.13         36.8 
      1938.0         0.50         35.5 
      1939.0         0.55         34.9 
      1940.0         0.53         35.6 
      1941.0         0.57         36.2 
      1942.0         0.53         35.3 
      1943.0         0.50         36.5 
      1944.0         0.57         36.6 
      1945.0         0.42         36.8 
      1946.0         0.38         42.8 
      1947.0         0.38         45.8 
      1948.0         0.37         42.8 
      1949.0         0.40         34.8 
      1950.0         0.37         28.3 
      1951.0         1.35         27.3 
      1952.0         2.23         52.7 
      1953.0         2.38         31.3 
      1954.0         2.48         26.1 
      1955.0         1.87         32.2 
      1956.0         2.05         31.5 
      1957.0         0.43         33.0 
      1958.0         0.40         33.4 
      1959.0         0.43         25.0 
      1960.0         0.77         29.3 
      1961.0         1.15         34.2 
      1962.0         0.90         27.7 
      1963.0         0.53         30.0 
      1964.0         0.40         32.2 
      1965.0         0.40         29.6 
      1966.0         0.40         29.6 
      1967.0         0.42         29.9 
      1968.0         1.40         31.3 
      1969.0         0.80         30.1 
      1970.0         0.77         29.8 
      1971.0         0.77         26.9 
      1972.0         0.72         28.7 
      1973.0         0.77         29.3 
      1974.0         0.75         24.8 
      1975.0         0.47         26.0 
      1976.0         0.30         27.3 
      1977.0         0.30         27.4 
      1978.0         0.30         27.1 
      1979.0         1.00         25.1 
      1980.0         1.13         39.5 
      1981.0         0.60         23.7 
      1982.0         0.43         23.1 
      1983.0         0.45         27.8 
      1984.0         0.43         28.2 
      1985.0         0.70         26.4 
      1986.0         2.18         44.7 
      1987.0         1.02         25.7 
