~Version Information
VERS.                      2.0: CWLS Log ASCII Standard - VERSION 2.0
WRAP.                       NO: One line per depth step
~Well Information Block
STRT.FT               620.0000: 
STOP.FT              2660.0000: 
STEP.FT                 0.1000: 
NULL.                -999.2500: 
COMP.          Evergreen Operating Corporation: COMPANY
WELL.             Carbon 34-21: WELL
FLD.           Purgatoire River: FIELD
LOC.           56' FSL & 2304' FEL: LOCATION
PROV.                 Colorado: PROVINCE
CNTY.               Las Animas: COUNTRY
SRVC.                Patterson: SERVICE COMPANY
DATE.          Mon Sep 13 14:13:15 2004: LOG DATE
UWI.           05 071 08117 00: UNIQUE WELL ID
~Curve Information Block
DEPT.FT            0 000 00 00: Depth
DCAL.in                       : CDL Caliper
DPOR.pu                       : CDL Density Porosity
NPOR.pu                       : Neutron Porosity
RHOB.g/cc                     : CDL Bulk Density
RHOC.g/cc                     : CDL Density Correction
GR.GAPI                       : Gamma Ray
~Parameter Information Block
~A  Depth       DCAL        DPOR        NPOR        RHOB        RHOC         GR     
# ...
  1436.0000      8.0303      9.8448     22.4080      2.4876      0.0064    119.6457
  1436.1000      8.0303     11.0807     23.2595      2.4672     -0.0232    114.3493
  1436.2000      8.0303      9.8866     24.2210      2.4869     -0.0096    111.6663
  1436.3000      8.0294      7.6747     24.8007      2.5234      0.0491    108.3257
  1436.4000      8.0294      5.9450     25.1550      2.5519      0.0270    104.4780
  1436.5000      8.0295      4.5683     26.0512      2.5746      0.0647    104.3183
  1436.6000      8.0295      3.7969     27.2434      2.5874      0.0805    107.0342
  1436.7000      8.0295      4.3806     27.6906      2.5777      0.0949    109.2719
  1436.8000      8.0291      5.9655     27.0967      2.5516      0.0564    113.8879
  1436.9000      8.0291      7.1297     26.0999      2.5324      0.0153    121.0081
  1437.0000      8.0264      6.7631     25.5277      2.5384      0.0257    122.6073
  1437.1000      8.0264      5.1191     25.4155      2.5655      0.0611    120.1456
  1437.2000      8.0264      3.4387     25.4267      2.5933      0.0533    120.8578
  1437.3000      8.0247      3.0114     25.7753      2.6003      0.1217    124.2006
  1437.4000      8.0247      3.7961     26.4202      2.5874      0.0824    124.0613
  1437.5000      8.0263      4.2849     26.6188      2.5793      0.0639    118.4433
  1437.6000      8.0263      4.0469     25.8982      2.5832      0.0735    111.2191
  1437.7000      8.0263      3.8865     24.6698      2.5859      0.0679    108.6741
  1437.8000      8.0292      3.8845     23.6445      2.5859      0.1235    114.5995
  1437.9000      8.0292      3.8190     23.0912      2.5870      0.0949    119.7991
  1438.0000      8.0344      3.6680     23.0002      2.5895      0.0936    119.0505
  1438.1000      8.0344      3.3309     22.8957      2.5950      0.0714    122.6340
  1438.2000      8.0344      2.7528     22.2626      2.6046      0.0936    126.6971
  1438.3000      8.0382      2.5515     21.3017      2.6079      0.1170    123.0076
  1438.4000      8.0382      3.0873     20.4056      2.5991      0.0773    125.8721
  1438.5000      8.0316      3.5233     19.5804      2.5919      0.0995    144.3574
  1438.6000      8.0316      3.4843     18.7001      2.5925      0.0841    157.8357
  1438.7000      8.0316      3.4373     17.9693      2.5933      0.0773    149.8965
  1438.8000      8.0247      3.8879     17.3975      2.5858      0.1136    133.9716
  1438.9000      8.0247      4.9892     16.7316      2.5677      0.0387    122.1970
  1439.0000      8.0244      6.0953     16.3365      2.5494      0.0153    111.2971
  1439.1000      8.0244      6.4523     16.7080      2.5435      0.0304    101.9268
  1439.2000      8.0244      5.8394     17.5433      2.5536      0.0280     97.4645
  1439.3000      8.0258      4.5580     18.2104      2.5748      0.0614     94.8655
  1439.4000      8.0258      3.1535     18.2346      2.5980      0.0601     92.6999
  1439.5000      8.0249      2.1719     17.5121      2.6142      0.0670     93.6408
  1439.6000      8.0249      1.8061     16.5216      2.6202      0.0269     96.7834
  1439.7000      8.0249      1.2703     15.9346      2.6290      0.0298     98.6923
  1439.8000      8.0231      0.0355     16.0950      2.6494      0.0649     98.1074
  1439.9000      8.0231     -1.3772     16.8417      2.6727      0.0662     99.9600
  1440.0000      8.0222     -2.0897     17.6584      2.6845      0.0669    108.4991
  1440.1000      8.0222     -0.9410     18.3731      2.6655      0.1011    115.4164
  1440.2000      8.0222      1.7307     18.9236      2.6214     -0.0461    111.7498
  1440.3000      8.0215      3.5627     19.0978      2.5912     -0.0428    103.9320
  1440.4000      8.0215      4.1642     19.5261      2.5813      0.0254    101.6073
  1440.5000      8.0206      5.2251     20.8681      2.5638      0.0371    104.7418
  1440.6000      8.0206      6.7720     22.5083      2.5383     -0.0311    109.2845
  1440.7000      8.0206      7.7353     23.4129      2.5224     -0.0219    110.9602
  1440.8000      8.0208      7.9866     23.4127      2.5182      0.0281    112.1876
  1440.9000      8.0208      7.8368     22.8038      2.5207      0.0097    118.6069
  1441.0000      8.0223      7.9777     22.1080      2.5184      0.0630    126.9779
  1441.1000      8.0223      8.7764     22.2263      2.5052      0.0197    129.7287
  1441.2000      8.0223      8.8753     23.5875      2.5036      0.0150    125.9969
  1441.3000      8.0234      7.7883     25.4557      2.5215      0.0922    122.1602
  1441.4000      8.0234      7.2627     26.4117      2.5302      0.0788    122.1756
  1441.5000      8.0236      8.1083     25.8905      2.5162      0.0501    126.9770
  1441.6000      8.0236      9.7563     24.9260      2.4890      0.0744    134.4377
  1441.7000      8.0236     11.8263     24.5705      2.4549      0.0444    139.0141
  1441.8000      8.0236     13.5269     24.5746      2.4268     -0.0066    139.6283
  1441.9000      8.0236     14.2184     24.6224      2.4154      0.0255    140.3232
  1442.0000      8.0217     14.4359     25.1750      2.4118     -0.0092    141.5025
  1442.1000      8.0217     14.8513     26.1736      2.4050     -0.0131    144.8896
  1442.2000      8.0217     15.5982     26.6511      2.3926     -0.0320    155.8300
  1442.3000      8.0162     16.4436     26.0317      2.3787     -0.0292    168.8839
  1442.4000      8.0162     16.9825     24.6674      2.3698     -0.0142    170.4195
  1442.5000      8.0084     16.5260     23.5644      2.3773     -0.0618    160.7411
  1442.6000      8.0084     14.4725     23.3999      2.4112      0.0154    148.7760
  1442.7000      8.0084     11.1549     23.5681      2.4659      0.0064    136.0867
  1442.8000      8.0050      7.4093     23.2910      2.5277      0.0558    123.6014
  1442.9000      8.0050      4.0020     22.7864      2.5840      0.1028    115.4550
  1443.0000      8.0048      1.7776     22.4856      2.6207      0.1608    113.0279
  1443.1000      8.0048      1.5062     22.2338      2.6251      0.1513    116.9754
  1443.2000      8.0048      2.9569     21.8547      2.6012      0.0980    125.1864
  1443.3000      8.0028      4.9030     21.6777      2.5691      0.1056    127.3766
  1443.4000      8.0028      6.1453     22.1310      2.5486      0.0720    119.0496
  1443.5000      8.0077      6.3821     23.1476      2.5447      0.0751    113.1705
  1443.6000      8.0077      5.8377     23.9730      2.5537     -0.0065    119.5898
  1443.7000      8.0077      4.8343     23.9249      2.5702      0.0490    128.8720
  1443.8000      8.0253      4.3501     23.3714      2.5782      0.0660    128.9526
  1443.9000      8.0253      4.2530     22.7625      2.5798      0.0121    120.6957
  1444.0000      8.0461      3.3189     21.9015      2.5952      0.0952    111.9296
  1444.1000      8.0461      1.9861     21.0279      2.6172      0.0851    107.6827
  1444.2000      8.0461      1.5886     20.6088      2.6238      0.1480    110.4454
  1444.3000      8.0607      2.4522     20.5447      2.6095      0.0866    122.9131
  1444.4000      8.0607      3.6519     20.3263      2.5897      0.0769    135.5671
  1444.5000      8.0697      4.1983     19.4818      2.5807      0.0658    133.2295
  1444.6000      8.0697      3.8924     18.1844      2.5858      0.0799    121.1858
  1444.7000      8.0697      3.2726     17.1096      2.5960      0.1025    118.1064
  1444.8000      8.0776      2.8275     16.7891      2.6033      0.0634    123.8395
  1444.9000      8.0776      2.4326     17.2388      2.6099      0.0844    123.9006
  1445.0000      8.0880      2.4492     17.9275      2.6096      0.0742    118.5263
  1445.1000      8.0880      3.2507     18.3386      2.5964      0.0305    114.3346
  1445.2000      8.0880      3.8181     18.6595      2.5870      0.0304    108.8509
  1445.3000      8.1029      3.3002     19.0872      2.5955      0.0522     98.5572
  1445.4000      8.1029      2.6753     19.3455      2.6059      0.0915     86.7896
  1445.5000      8.1181      2.9879     19.5695      2.6007      0.0368     81.7272
