~Version Information
VERS.                      2.0: CWLS Log ASCII Standard - VERSION 2.0
WRAP.                       NO: One line per depth step
~Well Information Block
STRT.FT                -8.0000: 
STOP.FT              1357.5000: 
STEP.FT                 0.2500: 
NULL.                -999.2500: 
COMP.          Pioneer Natural Resources: COMPANY
WELL.          Lorencito 6-3-34-66: WELL
FLD.           Purgatorie River: FIELD
LOC.           2545' FNL & 1914' FWL: LOCATION
STAT.                       CO: State
CNTY.               Las Animas: COUNTY
CTRY. USA : Country
SECT. 3 : Section
TOWN. 34S : Township
RANG. 66W : Range
SRVC.          Patterson Wireline: SERVICE COMPANY
DATE.          Tue Sep 27 11:36:13 2005: LOG DATE
API.           05 071 08369 00: UNIQUE WELL ID
~Curve Information Block
DEPT.FT            0 000 00 00: Depth
CCL.                          : Casing Collar Locator
TT3.usec                      : CBL 3' Travel Time
AMP3.mV                       : CBL 3' Amplitude
GR.GAPI                       : Gamma Ray
~Parameter Information Block
~A  Depth       CCL         TT3         AMP3         GR     
# ...
    92.5000      0.0000    514.2246     13.2374     75.1889
    92.7500      0.0000    524.5446     13.3028     76.0534
    93.0000      0.0000    535.2000     13.3624     76.4173
    93.2500      0.0000    544.3303     13.3792     76.5314
    93.5000      0.0000    555.9737     13.3166     76.6856
    93.7500      0.0000    575.1456     13.1479     77.3344
    94.0000      0.0000    604.8306     12.8460     78.7308
    94.2500      0.0000    644.0875     12.3814     80.6539
    94.5000      0.0000    685.3455     11.7739     82.6187
    94.7500      0.0000    718.9293     11.1370     84.1706
    95.0000      0.0000    743.4449     10.6191     85.0001
    95.2500      0.0000    764.2975     10.2888     85.0542
    95.5000      0.0000    779.4097     10.1077     84.5329
    95.7500      2.0000    776.9633     10.0091     83.6428
    96.0000      0.0000    752.5146      9.9838     82.4853
    96.2500      0.0000    718.5434     10.1096     81.3182
    96.5000      0.0000    689.1968     10.5066     80.7506
    96.7500      0.0000    662.9634     11.2230     81.4039
    97.0000      0.0000    630.1964     12.1150     83.2564
    97.2500      0.0000    594.0898     12.8784     85.5143
    97.5000      0.0000    574.2847     13.2642     87.3287
    97.7500      0.0000    587.8483     13.2625     88.4354
    98.0000      0.0000    631.3250     13.0558     88.9533
    98.2500      0.0000    684.2667     12.8297     88.9994
    98.5000      0.0000    727.4319     12.6620     88.8171
    98.7500      0.0000    754.5588     12.5465     88.8674
    99.0000      0.0000    769.4731     12.4589     89.2655
    99.2500      0.0000    777.8038     12.3857     89.3356
    99.5000      0.0000    782.5683     12.3202     88.1755
    99.7500      0.0000    784.5229     12.2555     85.5509
   100.0000      0.0000    784.0310     12.1858     81.9524
   100.2500      0.0000    782.1643     12.1098     77.8939
   100.5000      0.0000    780.2680     12.0304     73.5699
   100.7500      0.0000    779.0322     11.9538     69.4397
   101.0000      0.0000    778.3593     11.8879     66.7554
   101.2500      0.0000    777.9091     11.8398     66.8462
   101.5000      0.0000    777.4901     11.8128     69.5875
   101.7500      0.0000    776.9904     11.8054     72.8748
   102.0000      0.0000    776.1337     11.8123     74.1756
   102.2500      0.0000    774.4949     11.8286     72.8139
   102.5000      0.0000    771.9153     11.8530     70.5202
   102.7500      0.0000    768.6932     11.8858     69.6335
   103.0000      0.0000    764.6524     11.9220     71.0788
   103.2500      0.0000    757.2701     11.9496     74.1911
   103.5000      0.0000    741.4615     11.9572     77.8367
   103.7500      0.0000    713.2722     11.9435     81.0755
   104.0000      0.0000    675.3890     11.9190     83.1978
   104.2500      0.0000    638.7552     11.8976     84.0937
   104.5000      0.0000    617.3282     11.8856     84.6780
   104.7500      0.0000    619.5912     11.8806     86.1520
   105.0000      0.0000    643.2260     11.8788     88.5565
   105.2500      0.0000    676.7516     11.8793     90.6403
   105.5000      0.0000    706.8665     11.8828     91.1817
   105.7500      0.0000    725.7790     11.8869     89.8737
   106.0000      0.0000    733.3011     11.8871     87.1870
   106.2500      0.0000    733.8389     11.8810     84.2687
   106.5000      0.0000    732.1871     11.8706     82.7924
   106.7500      0.0000    731.2700     11.8616     83.8067
   107.0000      0.0000    732.1149     11.8617     86.4463
   107.2500      0.0000    734.4590     11.8773     88.4055
   107.5000      0.0000    737.1529     11.9114     87.9338
   107.7500      0.0000    738.8352     11.9645     85.0851
   108.0000      0.0000    739.2719     12.0380     81.0483
   108.2500      0.0000    740.1173     12.1332     76.8031
   108.5000      0.0000    743.9481     12.2439     72.7419
   108.7500      0.0000    752.5225     12.3530     69.2701
   109.0000      0.0000    766.0113     12.4403     67.1258
   109.2500      0.0000    783.3228     12.4955     66.6839
   109.5000      0.0000    802.2319     12.5225     67.2155
   109.7500      0.0000    819.0397     12.5333     67.5031
   110.0000      0.0000    829.2055     12.5397     67.2785
   110.2500      0.0000    829.6302     12.5478     67.5594
   110.5000      0.0000    820.8939     12.5582     69.4048
   110.7500      0.0000    807.2391     12.5666     72.7508
   111.0000      0.0000    794.0211     12.5666     76.6576
   111.2500      0.0000    784.6993     12.5523     80.3263
   111.5000      0.0000    779.7706     12.5218     83.4745
   111.7500      0.0000    777.9124     12.4786     85.8296
   112.0000      0.0000    777.6522     12.4299     86.7782
   112.2500      0.0000    778.1705     12.3856     85.8283
   112.5000      0.0000    779.1397     12.3578     83.3145
   112.7500      0.0000    780.0910     12.3607     80.4469
   113.0000      0.0000    780.0316     12.4036     78.6391
   113.2500      0.0000    778.0603     12.4801     78.7398
   113.5000      0.0000    774.6168     12.5676     80.7856
   113.7500      0.0000    771.5604     12.6423     84.4207
   114.0000      0.0000    770.4282     12.6940     89.2417
   114.2500      0.0000    770.8748     12.7257     94.2958
   114.5000      0.0000    771.2283     12.7430     97.6602
   114.7500      0.0000    770.3495     12.7478     97.6389
   115.0000      0.0000    768.6889     12.7386     94.5947
   115.2500      0.0000    767.6115     12.7127     90.8855
   115.5000      0.0000    767.7694     12.6671     88.6986
   115.7500      0.0000    768.3098     12.6009     88.3285
   116.0000      0.0000    767.8927     12.5202     88.4781
   116.2500      0.0000    766.2477     12.4398     87.6456
   116.5000      0.0000    764.3442     12.3779     85.1205
   116.7500      0.0000    763.3362     12.3441     81.0704
   117.0000      0.0000    763.9963     12.3349     76.0317
   117.2500      0.0000    767.0781     12.3393     70.3875
   117.5000      0.0000    773.2259     12.3498     64.3381
   117.7500      0.0000    781.9401     12.3671     58.3839
   118.0000      0.0000    790.7544     12.3946     53.6536
   118.2500      0.0000    795.8253     12.4312     51.4308
   118.5000      0.0000    794.0368     12.4723     52.1350
   118.7500      0.0000    785.5271     12.5158     54.8436
   119.0000      0.0000    774.3434     12.5651     58.0242
   119.2500      0.0000    765.5369     12.6225     60.7258
   119.5000      0.0000    760.7144     12.6802     62.8353
   119.7500      0.0000    757.0840     12.7220     64.3259
   120.0000      0.0000    751.4124     12.7356     64.8247
   120.2500      0.0000    743.7854     12.7232     64.1132
   120.5000      0.0000    736.7772     12.6972     62.5682
   120.7500      0.0000    732.2728     12.6702     60.8837
   121.0000      0.0000    730.1814     12.6503     59.6171
   121.2500      0.0000    729.4346     12.6428     58.9297
   121.5000      0.0000    729.1411     12.6493     58.4290
   121.7500      0.0000    728.9214     12.6652     57.3338
   122.0000      0.0000    728.7213     12.6789     55.0900
   122.2500      0.0000    728.5867     12.6763     51.9454
   122.5000      0.0000    728.5333     12.6481     48.9145
   122.7500      0.0000    728.5361     12.5982     47.0271
   123.0000      0.0000    728.5552     12.5457     46.4264
   123.2500      0.0000    728.5599     12.5141     46.2617
   123.5000      0.0000    728.5311     12.5141     45.5461
   123.7500      0.0000    728.4619     12.5394     44.1726
   124.0000      0.0000    728.3630     12.5798     43.1916
   124.2500      0.0000    728.2776     12.6299     43.9643
   124.5000      0.0000    728.2964     12.6811     46.8014
   124.7500      0.0000    728.6667     12.7091     50.4900
   125.0000      0.0000    730.0051     12.6787     53.3844
   125.2500      0.0000    733.4920     12.5719     54.9133
   125.5000      0.0000    740.4124     12.4138     55.8435
   125.7500      0.0000    750.4844     12.2648     57.1020
