~Version Information
 VERS.                                  2.0 : CWLS LAS VERSION
 WRAP.                                   NO : WRAPING MODE
 SWARE .                 MController 2.5.0J : SOFTWARE VERSION
~Well Information
 WELL.                      Robinson 15-12V : WELL
 COMP.                Petrogulf Corporation : COMPANY
 FLD.                      Purgatoire River : FIELD
 LOC.                SW/NW Sec 15 T33S R67W : LOCATION
 DATE.                             09/10/05 : DATE(S) LOGGED
 SRVC.       BLANCO Geological Services LLC : SERVICE COMPANY
 STAT.                                   CO : STATE
 CNTY.                           Las Animas : COUNTY
 CTRY.                                  USA : COUNTRY
 API.                       05-071-08308-00 : API NUMBER
 STRT.FT                              52.00 : START DEPTH
 STOP.FT                            2041.00 : STOP DEPTH
 STEP.FT                               1.00 : DEPTH INCREMENT
 NULL.                                -9999 : NULL VALUE
~Curve information
 DEPTH.FT                                   :
 ROP.MIN/FT                                 :
 GAS.UNITS                                  :
~ASCII Log data
# ...
       852.0         0.17       1017.4 
       853.0         0.20       1017.0 
       854.0         0.27       1012.6 
       855.0         0.27        990.1 
       856.0         0.20        960.9 
       857.0         0.20        942.5 
       858.0         0.20        926.3 
       859.0         0.20        914.2 
       860.0         0.20        906.0 
       861.0         0.20        895.8 
       862.0         0.17        889.1 
       863.0         0.20        884.4 
       864.0         0.28        880.3 
       865.0         0.20        874.5 
       866.0         0.17        870.7 
       867.0         0.20        869.1 
       868.0         1.73       1725.1 
       869.0         0.47       1733.7 
       870.0         0.30       1418.5 
       871.0         0.35       1209.1 
       872.0         0.30       1058.0 
       873.0         0.33        982.5 
       874.0         0.20        928.2 
       875.0         0.20        910.7 
       876.0         0.23        899.9 
       877.0         0.27        888.8 
       878.0         0.23        881.2 
       879.0         0.27        872.0 
       880.0         0.23        866.0 
       881.0         0.23        860.3 
       882.0         0.27        863.1 
       883.0         0.23        879.3 
       884.0         0.22        881.8 
       885.0         0.20        882.5 
       886.0         0.23        876.8 
       887.0         0.23        865.0 
       888.0         0.17        853.9 
       889.0         0.20        846.6 
       890.0         0.13        844.4 
       891.0         0.17        843.4 
       892.0         0.17        838.7 
       893.0         0.10        838.0 
       894.0         0.13        843.8 
       895.0         0.17        845.7 
       896.0         0.23        845.3 
       897.0         0.23        820.6 
       898.0         0.30        785.7 
       899.0         0.23        766.6 
       900.0         1.65       1672.8 
       901.0         0.20       1431.5 
       902.0         0.17       1290.3 
       903.0         0.13       1235.1 
       904.0         0.17       1194.8 
       905.0         0.13       1145.9 
       906.0         0.10       1109.4 
       907.0         0.10       1080.2 
       908.0         0.13       1058.0 
       909.0         0.20       1032.0 
       910.0         0.17       1011.0 
       911.0         0.13        993.9 
       912.0         0.10        978.6 
       913.0         0.13        965.0 
       914.0         0.15        950.4 
       915.0         0.10        936.1 
       916.0         0.10        924.7 
       917.0         0.27        917.1 
       918.0         0.20        898.0 
       919.0         0.17        893.6 
       920.0         0.17        889.1 
       921.0         0.17        879.6 
       922.0         0.17        873.0 
       923.0         0.17        865.7 
       924.0         0.17        859.3 
       925.0         0.10        857.4 
       926.0         0.17        855.5 
       927.0         0.20        853.6 
       928.0         0.23        851.7 
       929.0         0.30        844.4 
       930.0         1.78       1754.3 
       931.0         0.40       1596.9 
       932.0         0.33       1236.4 
       933.0         0.30       1138.9 
       934.0         0.27       1075.8 
       935.0         0.22       1025.9 
       936.0         0.23       1002.1 
       937.0         0.17        979.0 
       938.0         0.17        956.7 
       939.0         0.17        935.8 
       940.0         0.20        920.6 
       941.0         0.17        902.5 
       942.0         0.17        893.9 
       943.0         0.17        885.7 
       944.0         0.17        878.7 
       945.0         0.13        868.2 
       946.0         0.13        862.5 
       947.0         0.13        855.8 
       948.0         0.13        847.9 
       949.0         0.20        843.8 
       950.0         0.17        847.6 
       951.0         0.20        858.0 
       952.0         0.22        862.8 
       953.0         0.13        863.8 
       954.0         0.17        865.3 
       955.0         0.13        863.1 
       956.0         0.13        864.1 
       957.0         0.13        862.5 
       958.0         0.13        855.8 
       959.0         0.13        847.2 
       960.0         2.22       1630.5 
       961.0         0.23       1345.9 
       962.0         0.37       1193.8 
       963.0         0.43       1126.2 
       964.0         0.33       1061.5 
       965.0         0.30       1023.7 
       966.0         0.27        989.4 
       967.0         0.23        957.7 
       968.0         0.27        938.3 
       969.0         0.20        918.3 
       970.0         0.25        908.2 
       971.0         0.17        893.0 
       972.0         0.17        885.7 
       973.0         0.17        876.8 
       974.0         0.20        872.3 
       975.0         0.13        867.6 
       976.0         0.10        866.3 
       977.0         0.10        866.3 
       978.0         0.17        862.8 
       979.0         0.20        858.4 
       980.0         0.20        866.9 
       981.0         0.17        871.1 
       982.0         0.20        872.0 
       983.0         0.17        869.1 
       984.0         0.13        864.7 
       985.0         0.13        860.9 
       986.0         0.17        856.8 
       987.0         0.37        851.4 
       988.0         0.38        839.6 
       989.0         0.33        838.7 
       990.0         2.67       2325.0 
       991.0         0.28       1967.9 
       992.0         0.30       1592.1 
       993.0         0.30       1311.6 
       994.0         0.30       1128.8 
       995.0         0.40       1032.9 
       996.0         0.30        980.9 
       997.0         0.27        952.3 
       998.0         0.27        924.7 
       999.0         0.23        898.7 
      1000.0         0.17        888.2 
      1001.0         0.27        880.6 
      1002.0         0.23        868.8 
      1003.0         0.38        869.1 
      1004.0         0.33        857.1 
      1005.0         0.20        853.6 
      1006.0         0.20        850.4 
      1007.0         0.20        852.3 
      1008.0         0.20        851.4 
      1009.0         0.17        848.5 
      1010.0         0.20        846.9 
      1011.0         0.20        844.4 
      1012.0         0.13        844.1 
      1013.0         0.10        842.8 
      1014.0         0.10        842.8 
      1015.0         0.23        842.2 
      1016.0         0.20        839.3 
      1017.0         0.30        843.4 
      1018.0         0.28        848.5 
      1019.0         0.27        852.3 
      1020.0         2.10       1130.0 
      1021.0         0.50       1383.0 
      1022.0         0.28       1359.5 
      1023.0         0.40       1226.5 
      1024.0         0.33       1132.6 
      1025.0         0.23       1067.8 
      1026.0         0.23       1023.1 
      1027.0         0.23        991.7 
      1028.0         0.27        973.2 
      1029.0         0.27        952.0 
      1030.0         0.20        928.2 
      1031.0         0.17        911.0 
      1032.0         0.33        900.6 
      1033.0         0.33        882.2 
      1034.0         0.20        871.4 
      1035.0         0.18        862.8 
      1036.0         0.17        857.7 
      1037.0         0.20        854.5 
      1038.0         0.20        854.9 
      1039.0         0.20        857.7 
      1040.0         0.20        858.7 
      1041.0         0.17        859.3 
      1042.0         0.20        855.2 
      1043.0         0.17        852.6 
      1044.0         0.27        852.3 
      1045.0         0.23        852.0 
      1046.0         0.20        851.1 
      1047.0         0.17        852.0 
      1048.0         0.27        849.5 
      1049.0         0.30        845.7 
      1050.0         2.18       1197.3 
      1051.0         0.27       1175.7 
