~Version Information
VERS.                      2.0: CWLS Log ASCII Standard - VERSION 2.0
WRAP.                       NO: One line per depth step
~Well Information Block
STRT.FT               765.4000: 
STOP.FT              2581.2000: 
STEP.FT                 0.1000: 
NULL.                -999.2500: 
COMP.          Petrogulf Corporation: COMPANY
WELL.            Montoya 7-12V: WELL
FLD.           Purgatorie River: FIELD
LOC.           728' FWL & 1764' FNL: LOCATION
CNTY.               Las Animas: COUNTY
SRVC.                         : SERVICE COMPANY
DATE.          Fri Feb 20 09:23:58 2004: LOG DATE
UWI.           05-071-07887-00: UNIQUE WELL ID
STAT.                 Colorado: STATE
~Curve Information Block
DEPT.FT            0 000 00 00: Depth
DCAL.in                       : CDL Caliper
RHOB.g/cc                     : CDL Bulk Density
RHOC.g/cc                     : CDL Density Correction
DPOR.pu                       : CDL Density Porosity
GR.GAPI                       : Gamma Ray
NPOR.pu                       : Neutron Porosity
~Parameter Information Block
~A  Depth       DCAL        RHOB        RHOC        DPOR         GR         NPOR    
# ...
  1130.2000      8.1675      2.5629      0.0560      5.2776     63.0230     19.3013
  1130.3000      8.1849      2.5452     -0.0061      6.3541     60.9560     18.6323
  1130.4000      8.1849      2.5256     -0.0080      7.5410     55.8177     18.1019
  1130.5000      8.1784      2.5124      0.0020      8.3371     52.3910     18.6150
  1130.6000      8.1784      2.5062     -0.0196      8.7138     51.9788     19.7404
  1130.7000      8.1784      2.5018      0.0632      8.9829     54.2794     20.3543
  1130.8000      8.1610      2.5077     -0.0208      8.6254     57.0170     20.3240
  1130.9000      8.1610      2.5414      0.0336      6.5826     56.4066     20.4380
  1131.0000      8.1721      2.5959      0.0094      3.2764     52.6788     21.0865
  1131.1000      8.1721      2.6560      0.0518     -0.3634     48.4776     21.9460
  1131.2000      8.1721      2.7231      0.0523     -4.4290     47.4672     22.8924
  1131.3000      8.1715      2.8015      0.0615     -9.1794     52.9297     24.2860
  1131.4000      8.1715      2.8767      0.1196    -13.7381     64.8695     26.0776
  1131.5000      8.1672      2.9262      0.0932    -16.7418     76.5495     27.6203
  1131.6000      8.1672      2.9504      0.1213    -18.2088     80.5030     28.6226
  1131.7000      8.1672      2.9572      0.0784    -18.6210     80.1511     29.5247
  1131.8000      8.1721      2.9293      0.1253    -16.9280     83.1742     30.3592
  1131.9000      8.1721      2.8535     -0.0513    -12.3342     89.3595     30.8104
  1132.0000      8.1881      2.7642     -0.1320     -6.9186     89.8245     31.0210
  1132.1000      8.1881      2.6984     -0.1696     -2.9340     84.8136     31.2457
  1132.2000      8.1881      2.6625     -0.2054     -0.7553     84.4859     31.2744
  1132.3000      8.2635      2.6406     -0.0394      0.5691     88.3212     30.7091
  1132.4000      8.2635      2.6017      0.0057      2.9275     90.4986     29.7445
  1132.5000      8.3282      2.5442     -0.0472      6.4101     89.0119     28.9134
  1132.6000      8.3282      2.4976      0.0136      9.2354     82.5792     28.2490
  1132.7000      8.3282      2.4685      0.0193     11.0028     74.3456     27.5300
  1132.8000      8.2893      2.4475     -0.0238     12.2735     65.1768     26.6860
  1132.9000      8.2893      2.4355     -0.0196     12.9982     51.9755     25.9090
  1133.0000      8.2433      2.4347     -0.0027     13.0475     41.4762     25.2450
  1133.1000      8.2433      2.4432      0.0192     12.5358     43.3344     24.5642
  1133.2000      8.2433      2.4590      0.0550     11.5784     52.1278     24.0184
  1133.3000      8.2147      2.4732      0.0629     10.7126     56.5323     23.6430
  1133.4000      8.2147      2.4730      0.0311     10.7254     56.9356     23.2177
  1133.5000      8.2359      2.4639      0.0441     11.2783     54.4762     23.0505
  1133.6000      8.2359      2.4716     -0.0219     10.8108     46.9808     23.5767
  1133.7000      8.2359      2.5037      0.0567      8.8643     40.7052     24.3324
  1133.8000      8.2557      2.5328      0.0780      7.1007     43.2609     24.7325
  1133.9000      8.2557      2.5311      0.0655      7.2063     52.0913     24.9085
  1134.0000      8.2235      2.5000      0.0790      9.0907     59.6182     24.5405
  1134.1000      8.2235      2.4704      0.0204     10.8844     62.9437     23.2413
  1134.2000      8.2235      2.4701      0.0282     10.9053     64.1512     21.4473
  1134.3000      8.1979      2.4938      0.0672      9.4672     61.5973     19.9019
  1134.4000      8.1979      2.5121      0.1099      8.3604     52.4097     19.1428
  1134.5000      8.1947      2.5026      0.0560      8.9346     45.3212     19.1061
  1134.6000      8.1947      2.4749     -0.0098     10.6133     47.7814     19.3467
  1134.7000      8.1947      2.4549      0.0288     11.8212     53.6693     19.5314
  1134.8000      8.1988      2.4580      0.0534     11.6343     55.5103     19.5414
  1134.9000      8.1988      2.4846      0.0414     10.0218     56.4305     19.2805
  1135.0000      8.2035      2.5174      0.0461      8.0339     59.3606     18.4468
  1135.1000      8.2035      2.5180      0.0477      8.0007     58.0591     17.2470
  1135.2000      8.2035      2.4709     -0.0019     10.8550     52.6705     16.4888
  1135.3000      8.2017      2.4246     -0.0883     13.6603     50.5041     16.5687
  1135.4000      8.2017      2.4344     -0.0566     13.0684     52.5352     17.5620
  1135.5000      8.2035      2.4869      0.0747      9.8875     53.5869     19.2495
  1135.6000      8.2035      2.5251      0.1291      7.5726     48.9959     20.5412
  1135.7000      8.2035      2.5238      0.0736      7.6484     42.4623     20.3595
  1135.8000      8.2066      2.4982      0.0222      9.1978     39.0038     19.2069
  1135.9000      8.2066      2.4635      0.0520     11.3052     40.2892     18.3766
  1136.0000      8.2079      2.4310      0.0028     13.2755     44.0793     18.1602
  1136.1000      8.2079      2.4189     -0.0017     14.0071     45.2485     18.2541
  1136.2000      8.2079      2.4391     -0.0178     12.7844     43.3392     18.7252
  1136.3000      8.2079      2.4799      0.0396     10.3107     39.9010     19.1350
  1136.4000      8.2079      2.5159      0.0585      8.1298     37.2442     18.7165
  1136.5000      8.2075      2.5309      0.0775      7.2203     37.7893     18.1594
  1136.6000      8.2075      2.5190      0.0581      7.9364     41.6571     18.6541
  1136.7000      8.2075      2.4916     -0.0076      9.6019     48.4665     20.0237
  1136.8000      8.2105      2.4691     -0.0050     10.9643     54.9926     21.2237
  1136.9000      8.2105      2.4579     -0.0166     11.6446     56.5791     21.7221
  1137.0000      8.2076      2.4595     -0.0012     11.5440     56.9099     21.7176
  1137.1000      8.2076      2.4663      0.0313     11.1304     63.1745     21.8458
  1137.2000      8.2076      2.4597      0.0480     11.5325     70.9059     22.2600
  1137.3000      8.2097      2.4481     -0.0531     12.2333     71.6687     22.2022
  1137.4000      8.2097      2.4618     -0.0029     11.4053     63.3416     21.1478
  1137.5000      8.2155      2.4953      0.0215      9.3730     51.1184     19.5721
  1137.6000      8.2155      2.5178      0.0040      8.0100     45.2948     18.3023
  1137.7000      8.2155      2.5152      0.0850      8.1679     48.2748     17.6027
  1137.8000      8.2165      2.4949      0.0115      9.4011     51.8823     17.0940
  1137.9000      8.2165      2.4789      0.0156     10.3695     49.3843     16.5185
  1138.0000      8.2190      2.4835      0.0378     10.0921     45.9135     16.0321
  1138.1000      8.2190      2.4999      0.0988      9.0953     46.0019     15.2928
  1138.2000      8.2190      2.5075      0.0471      8.6376     42.1234     14.1802
  1138.3000      8.2244      2.5080      0.0265      8.6079     33.7701     13.4612
  1138.4000      8.2244      2.5146      0.0570      8.2034     31.0586     13.6169
  1138.5000      8.2223      2.5191      0.0633      7.9362     36.0338     14.2640
  1138.6000      8.2223      2.5074      0.0403      8.6431     42.3049     14.6935
  1138.7000      8.2223      2.4857      0.0085      9.9583     45.3978     14.7937
  1138.8000      8.2208      2.4656     -0.0081     11.1778     44.8267     15.2647
  1138.9000      8.2208      2.4447      0.0651     12.4426     42.0887     16.3980
  1139.0000      8.2188      2.4262     -0.0350     13.5628     38.1919     17.5222
  1139.1000      8.2188      2.4261     -0.0261     13.5723     37.4882     18.1234
  1139.2000      8.2188      2.4383      0.0632     12.8309     43.6393     18.1628
  1139.3000      8.2189      2.4426      0.0250     12.5685     47.4181     17.9891
  1139.4000      8.2189      2.4430     -0.0256     12.5471     41.6147     18.1177
  1139.5000      8.2218      2.4506      0.0226     12.0829     35.7672     18.4807
  1139.6000      8.2218      2.4561      0.0477     11.7497     37.7495     18.4467
  1139.7000      8.2218      2.4528     -0.0110     11.9499     42.2767     17.7533
