~Version Information
VERS.                      2.0: CWLS Log ASCII Standard - VERSION 2.0
WRAP.                       NO: One line per depth step
~Well Information Block
STRT.FT               750.0000: 
STOP.FT              2433.0000: 
STEP.FT                 0.2500: 
NULL.                -999.2500: 
COMP.          Petrogulf Corporation: COMPANY
WELL.           McDaniel 9-34V: WELL
FLD.           Purgatorie River: FIELD
LOC.           620' FSL & 1800' FEL: LOCATION
PROV.                 Colorado: PROVINCE
CNTY.               Las Animas: COUNTRY
SRVC.                Patterson: SERVICE COMPANY
DATE.          Tue Sep 27 19:56:11 2005: LOG DATE
UWI.                          : UNIQUE WELL ID
~Curve Information Block
DEPT.FT            0 000 00 00: Depth
SP.mV                         : DIL Spontaneous Potential
RILD.Ohm-m                    : DIL Deep Resistivity
RILM.Ohm-m                    : DIL Medium Resistivity
RLL3.Ohm-m                    : DIL Shallow Resistivity
GR.GAPI                       : Gamma Ray
~Parameter Information Block
~A  Depth        SP         RILD        RILM        RLL3         GR     
# ...
  2290.0000    142.0804     18.9467     19.2292     19.3152     56.7958
  2290.2500    142.0365     18.8736     19.1874     19.6084     57.0559
  2290.5000    142.0504     18.8020     19.1387     19.9637     56.3540
  2290.7500    142.1060     18.7376     19.0765     20.1901     55.2604
  2291.0000    142.1785     18.6893     18.9981     20.1426     53.2151
  2291.2500    142.2397     18.6655     18.9068     19.8137     52.0338
  2291.5000    142.2630     18.6697     18.8118     19.3347     51.3206
  2291.7500    142.2303     18.6989     18.7257     18.8819     51.6744
  2292.0000    142.1370     18.7455     18.6614     18.5740     52.8687
  2292.2500    141.9947     18.8002     18.6291     18.4566     53.7152
  2292.5000    141.8301     18.8549     18.6344     18.5569     55.1300
  2292.7500    141.6806     18.9044     18.6773     18.8998     56.5093
  2293.0000    141.5874     18.9453     18.7535     19.4443     59.3091
  2293.2500    141.5871     18.9755     18.8552     20.0306     61.1046
  2293.5000    141.7060     18.9935     18.9735     20.4408     62.3358
  2293.7500    141.9559     19.0011     19.0998     20.5386     61.8634
  2294.0000    142.3335     19.0048     19.2270     20.3570     60.0891
  2294.2500    142.8224     19.0135     19.3497     20.0541     59.0783
  2294.5000    143.3967     19.0344     19.4642     19.7953     58.4398
  2294.7500    144.0245     19.0689     19.5676     19.6710     58.1599
  2295.0000    144.6709     19.1119     19.6578     19.6932     56.9347
  2295.2500    145.2998     19.1543     19.7326     19.8243     55.5454
  2295.5000    145.8755     19.1870     19.7901     19.9892     53.5042
  2295.7500    146.3655     19.2030     19.8284     20.0902     52.6836
  2296.0000    146.7439     19.1984     19.8464     20.0648     52.3995
  2296.2500    146.9963     19.1716     19.8435     19.9519     52.5847
  2296.5000    147.1245     19.1231     19.8201     19.8764     53.0087
  2296.7500    147.1495     19.0544     19.7768     19.9391     53.3674
  2297.0000    147.1116     18.9686     19.7149     20.1209     54.2584
  2297.2500    147.0655     18.8696     19.6355     20.2994     55.1435
  2297.5000    147.0717     18.7631     19.5397     20.3494     56.5132
  2297.7500    147.1846     18.6562     19.4293     20.2206     57.0308
  2298.0000    147.4416     18.5564     19.3067     19.9436     56.7733
  2298.2500    147.8534     18.4691     19.1753     19.5996     56.0519
  2298.5000    148.4026     18.3944     19.0392     19.2871     54.8863
  2298.7500    149.0466     18.3265     18.9026     19.0837     54.4679
  2299.0000    149.7289     18.2557     18.7696     19.0167     54.4730
  2299.2500    150.3918     18.1740     18.6430     19.0648     54.4732
  2299.5000    150.9895     18.0791     18.5246     19.1859     53.5993
  2299.7500    151.4962     17.9762     18.4156     19.3415     52.5124
  2300.0000    151.9085     17.8747     18.3171     19.5009     51.4298
  2300.2500    152.2418     17.7843     18.2311     19.6354     51.6948
  2300.5000    152.5242     17.7120     18.1605     19.7133     53.1037
  2300.7500    152.7883     17.6620     18.1096     19.7046     53.9164
  2301.0000    153.0661     17.6372     18.0827     19.5977     54.3268
  2301.2500    153.3859     17.6391     18.0836     19.4138     54.3957
  2301.5000    153.7705     17.6673     18.1148     19.2030     54.8242
  2301.7500    154.2366     17.7179     18.1769     19.0189     55.1146
  2302.0000    154.7936     17.7827     18.2681     18.8937     54.5720
  2302.2500    155.4412     17.8495     18.3843     18.8380     53.4328
  2302.5000    156.1685     17.9064     18.5191     18.8708     51.7701
  2302.7500    156.9527     17.9451     18.6640     19.0405     51.5899
  2303.0000    157.7609     17.9625     18.8083     19.3888     52.9472
  2303.2500    158.5533     17.9582     18.9397     19.8736     54.2390
  2303.5000    159.2875     17.9317     19.0444     20.3384     55.4838
  2303.7500    159.9239     17.8813     19.1078     20.6035     55.6382
  2304.0000    160.4318     17.8049     19.1146     20.6238     55.1538
  2304.2500    160.7937     17.7033     19.0510     20.5611     54.6070
  2304.5000    161.0096     17.5817     18.9066     20.6763     53.9960
  2304.7500    161.0988     17.4489     18.6785     21.1047     54.1403
  2305.0000    161.0993     17.3153     18.3744     21.6846     55.6508
  2305.2500    161.0647     17.1878     18.0135     21.9856     57.5435
  2305.5000    161.0573     17.0668     17.6242     21.5666     61.5712
  2305.7500    161.1394     16.9467     17.2373     20.3212     64.9410
  2306.0000    161.3629     16.8194     16.8798     18.6603     70.6221
  2306.2500    161.7605     16.6786     16.5689     17.3355     74.4156
  2306.5000    162.3379     16.5208     16.3102     16.9564     79.1810
  2306.7500    163.0727     16.3462     16.0993     17.5437     81.1032
  2307.0000    163.9163     16.1601     15.9263     18.5227     81.1305
  2307.2500    164.8012     15.9759     15.7822     19.1876     79.1983
  2307.5000    165.6521     15.8172     15.6632     19.1960     74.8763
  2307.7500    166.3977     15.7119     15.5746     18.6550     72.4338
  2308.0000    166.9820     15.6838     15.5289     17.8467     70.8347
  2308.2500    167.3734     15.7427     15.5433     16.9846     70.9405
  2308.5000    167.5694     15.8811     15.6336     16.2258     71.9526
  2308.7500    167.5963     16.0768     15.8101     15.8017     73.1856
  2309.0000    167.5035     16.3014     16.0734     16.0005     76.5509
  2309.2500    167.3541     16.5293     16.4120     16.9655     79.6565
  2309.5000    167.2125     16.7450     16.8026     18.5354     83.4125
  2309.7500    167.1326     16.9454     17.2134     20.3029     83.5764
  2310.0000    167.1485     17.1388     17.6103     21.8172     78.9228
  2310.2500    167.2717     17.3399     17.9649     22.7481     73.3122
  2310.5000    167.4928     17.5635     18.2616     22.9576     64.2573
  2310.7500    167.7898     17.8172     18.4999     22.5154     59.6577
  2311.0000    168.1374     18.0975     18.6917     21.6749     56.5733
  2311.2500    168.5163     18.3890     18.8553     20.7840     56.8391
  2311.5000    168.9177     18.6682     19.0079     20.1421     58.9766
  2311.7500    169.3434     18.9094     19.1614     19.8751     60.4336
  2312.0000    169.7995     19.0907     19.3195     19.9158     61.5161
  2312.2500    170.2883     19.1994     19.4774     20.1145     61.4378
  2312.5000    170.8005     19.2332     19.6241     20.3997     60.6947
  2312.7500    171.3111     19.1998     19.7435     20.8415     60.0694
  2313.0000    171.7808     19.1146     19.8187     21.5435     58.7026
  2313.2500    172.1632     18.9971     19.8351     22.4622     57.0714
  2313.5000    172.4149     18.8662     19.7851     23.3314     53.2104
  2313.7500    172.5068     18.7349     19.6708     23.7654     50.0808
  2314.0000    172.4335     18.6073     19.5045     23.4540     46.0275
  2314.2500    172.2190     18.4773     19.3058     22.3322     44.6911
  2314.5000    171.9179     18.3294     19.0950     20.6598     45.6882
  2314.7500    171.6102     18.1408     18.8852     18.9600     48.2500
  2315.0000    171.3909     17.8850     18.6749     17.7844     53.7253
  2315.2500    171.3549     17.5367     18.4450     17.4221     57.4713
  2315.5000    171.5793     17.0811     18.1606     17.7956     61.6103
  2315.7500    172.1077     16.5229     17.7797     18.6296     62.7075
  2316.0000    172.9403     15.8920     17.2681     19.6748     61.7257
  2316.2500    174.0332     15.2374     16.6146     20.7455     59.9994
  2316.5000    175.3072     14.6124     15.8398     21.6001     57.4208
  2316.7500    176.6627     14.0586     14.9925     21.8772     56.2157
  2317.0000    177.9981     13.5975     14.1359     21.2129     55.2483
  2317.2500    179.2241     13.2322     13.3306     19.4830     55.4245
  2317.5000    180.2737     12.9537     12.6239     16.9820     58.2842
  2317.7500    181.1056     12.7480     12.0451     14.3483     62.5819
