~Version Information
VERS.                      2.0: CWLS Log ASCII Standard - VERSION 2.0
WRAP.                       NO: One line per depth step
~Well Information Block
STRT.FT               890.0000: 
STOP.FT              1589.0000: 
STEP.FT                 0.2500: 
NULL.                -999.2500: 
COMP.          Evergreen Operating Corporation: COMPANY
WELL.            Tomahawk 44-9: WELL
FLD.           Purgatorie River: FIELD
LOC.           434' FSL & 491' FEL: LOCATION
PROV.                 Colorado: PROVINCE
CNTY.               Las Animas: COUNTRY
SRVC.                         : SERVICE COMPANY
DATE.          Sat Sep 11 23:05:26 2004: LOG DATE
UWI.           05 071 08133 00: UNIQUE WELL ID
~Curve Information Block
DEPT.FT            0 000 00 00: Depth
LTEN.lb                       : Surface Line Tension
SN.Ohm-m                      : IEL Short Normal
SP.mV                         : IEL Spontaneous Potential
DIR.Ohm-m                     : IEL Induction Resistivity
GR.GAPI                       : Gamma Ray
~Parameter Information Block
~A  Depth       LTEN         SN          SP         DIR          GR     
# ...
  1478.0000    835.8763     28.0047     11.5133     29.4699     87.3465
  1478.2500    837.7684     27.5159     13.0836     28.8919     89.3080
  1478.5000    841.2048     26.8885     14.4665     28.1448     91.8001
  1478.7500    843.9179     26.1901     15.5228     27.2107     92.8425
  1479.0000    844.0407     25.4774     16.1657     26.1833     93.5615
  1479.2500    841.8920     24.7857     16.3841     25.2129     93.9266
  1479.5000    839.4039     24.1283     16.2478     24.4014     94.9709
  1479.7500    838.1509     23.5023     15.8838     23.7471     95.8144
  1480.0000    838.5010     22.8967     15.4403     23.1584     96.0094
  1480.2500    840.2248     22.3029     15.0463     22.5166     94.7497
  1480.5000    842.9056     21.7210     14.7814     21.7521     90.9410
  1480.7500    845.6614     21.1642     14.6667     20.8917     87.9510
  1481.0000    847.3580     20.6561     14.6692     20.0452     84.2960
  1481.2500    847.4811     20.2231     14.7255     19.3420     82.7873
  1481.5000    846.3510     19.8820     14.7662     18.8683     81.6586
  1481.7500    844.4165     19.6304     14.7336     18.6394     81.2825
  1482.0000    841.8690     19.4457     14.6024     18.6102     80.6088
  1482.2500    838.9623     19.2974     14.3799     18.7082     79.8211
  1482.5000    836.0858     19.1649     14.0933     18.8693     78.3806
  1482.7500    833.4742     19.0478     13.7752     19.0554     77.9162
  1483.0000    831.4249     18.9631     13.4414     19.2519     79.1891
  1483.2500    830.7604     18.9302     13.0755     19.4543     81.3891
  1483.5000    832.2532     18.9571     12.6363     19.6604     85.1751
  1483.7500    835.4102     19.0356     12.0720     19.8699     86.7417
  1484.0000    838.5532     19.1467     11.3518     20.0889     86.4755
  1484.2500    840.4166     19.2753     10.4904     20.3305     84.9768
  1484.5000    841.1666     19.4190      9.5626     20.6056     82.7142
  1484.7500    841.5949     19.5852      8.6862     20.8980     82.0854
  1485.0000    841.8517     19.7746      7.9830     21.1368     82.2956
  1485.2500    841.4417     19.9671      7.5418     21.2056     82.4433
  1485.5000    840.0916     20.1229      7.3735     21.0090     81.8355
  1485.7500    838.1190     20.1997      7.4078     20.5503     81.0678
  1486.0000    836.1780     20.1699      7.5057     19.9354     80.2379
  1486.2500    835.1126     20.0251      7.5069     19.3041     80.2162
  1486.5000    835.7521     19.7686      7.2731     18.7685     81.0180
  1486.7500    838.1827     19.4098      6.7340     18.3998     82.0627
  1487.0000    841.3094     18.9665      5.9053     18.2319     84.5982
  1487.2500    843.7194     18.4679      4.8823     18.2576     87.1882
  1487.5000    844.9788     17.9552      3.8112     18.4197     92.5629
  1487.7500    845.6399     17.4793      2.8465     18.6195     96.6621
  1488.0000    845.9786     17.1017      2.1128     18.7552    101.6839
  1488.2500    845.1711     16.8964      1.6770     18.7785    103.1425
  1488.5000    842.0360     16.9418      1.5420     18.7317    102.0464
  1488.7500    836.4792     17.2956      1.6585     18.7314     99.8762
  1489.0000    830.0319     17.9617      1.9493     18.9126     96.1683
  1489.2500    825.0577     18.8726      2.3359     19.3730     93.9920
  1489.5000    823.4222     19.9066      2.7610     20.1396     91.4407
  1489.7500    825.4595     20.9332      3.1936     21.1539     90.1542
  1490.0000    829.7584     21.8580      3.6317     22.2814     88.5980
  1490.2500    834.1121     22.6375      4.0840     23.3571     87.6533
  1490.5000    837.0611     23.2665      4.5630     24.2544     86.1756
  1490.7500    838.5416     23.7552      5.0785     24.9270     85.0819
  1491.0000    839.0444     24.1164      5.6283     25.3823     83.2783
  1491.2500    838.6527     24.3651      6.2090     25.6329     82.0819
  1491.5000    837.3495     24.5235      6.8218     25.6860     80.7265
  1491.7500    835.8795     24.6202      7.4742     25.5742     80.5240
  1492.0000    835.4974     24.6807      8.1795     25.3823     82.0882
  1492.2500    836.6568     24.7158      8.9387     25.2333     84.5810
  1492.5000    838.5547     24.7215      9.7340     25.2425     89.6727
  1492.7500    840.2211     24.6953     10.5151     25.4660     92.8693
  1493.0000    841.4545     24.6556     11.2072     25.8705     95.5945
  1493.2500    842.3943     24.6452     11.7252     26.3373     95.7122
  1493.5000    842.8932     24.7128     11.9959     26.7014     94.1814
  1493.7500    842.8159     24.8883     11.9869     26.8181     92.8960
  1494.0000    842.5287     25.1695     11.7086     26.6273     91.7512
  1494.2500    842.6047     25.5251     11.2186     26.1790     91.7192
  1494.5000    843.1846     25.9052     10.6020     25.6024     92.3620
  1494.7500    843.8339     26.2537      9.9604     25.0576     92.8162
  1495.0000    843.8225     26.5203      9.3859     24.6963     92.8969
  1495.2500    842.3796     26.6677      8.9456     24.6293     92.3866
  1495.5000    838.9910     26.6758      8.6701     24.8759     91.0029
  1495.7500    833.9272     26.5422      8.5430     25.3035     90.0384
  1496.0000    828.5883     26.2814      8.5087     25.6220     89.0737
  1496.2500    824.9825     25.9179      8.4861     25.5297     88.8294
  1496.5000    824.2948     25.4754      8.3914     24.9531     88.9971
  1496.7500    825.8065     24.9698      8.1607     24.1125     89.4502
  1497.0000    827.7009     24.4127      7.7644     23.3179     90.4241
  1497.2500    829.0201     23.8204      7.2057     22.7461     90.9272
  1497.5000    830.2010     23.2187      6.5193     22.3929     91.0750
  1497.7500    831.7020     22.6370      5.7530     22.1550     91.0304
  1498.0000    833.0403     22.0983      4.9736     21.9359     91.5927
  1498.2500    833.4866     21.6139      4.2509     21.6997     92.4363
  1498.5000    833.1008     21.1857      3.6631     21.4559     93.3334
  1498.7500    832.7676     20.8118      3.2766     21.2188     92.9762
  1499.0000    833.5263     20.4913      3.1356     20.9878     90.9702
  1499.2500    835.8989     20.2249      3.2464     20.7521     89.3478
  1499.5000    839.4711     20.0116      3.5685     20.5032     87.7863
  1499.7500    843.0533     19.8440      4.0233     20.2475     87.6065
  1500.0000    845.4791     19.7064      4.5121     20.0095     88.2393
  1500.2500    846.1385     19.5792      4.9395     19.8269     88.8431
  1500.5000    844.7457     19.4478      5.2315     19.7345     89.5587
  1500.7500    841.2864     19.3084      5.3427     19.7437     89.9019
  1501.0000    836.7540     19.1672      5.2596     19.8335     90.3266
  1501.2500    833.4593     19.0371      4.9891     19.9594     90.4659
  1501.5000    833.5941     18.9330      4.5590     20.0814     90.2900
  1501.7500    837.1329     18.8686      4.0118     20.1912     90.1072
  1502.0000    841.6616     18.8509      3.3968     20.3110     90.3913
  1502.2500    844.5446     18.8755      2.7711     20.4624     91.0199
  1502.5000    844.9534     18.9286      2.1882     20.6299     91.8355
  1502.7500    843.8233     18.9961      1.6916     20.7536     91.8210
  1503.0000    842.5467     19.0739      1.3029     20.7641     91.1353
  1503.2500    842.0096     19.1705      1.0200     20.6382     90.6963
  1503.5000    842.2969     19.3002      0.8124     20.4297     90.2665
  1503.7500    842.7507     19.4698      0.6261     20.2495     89.7660
  1504.0000    842.5521     19.6698      0.3951     20.2101     88.2174
  1504.2500    841.7305     19.8778      0.0551     20.3802     86.8859
  1504.5000    841.5521     20.0734     -0.4405     20.7694     85.4382
  1504.7500    843.4775     20.2495     -1.1033     21.3340     85.2977
  1505.0000    847.4744     20.4116     -1.9025     21.9858     86.1969
  1505.2500    851.6414     20.5665     -2.7587     22.6018     86.9832
  1505.5000    853.7922     20.7140     -3.5600     23.0423     87.6565
  1505.7500    853.1861     20.8466     -4.1743     23.1930     87.8844
