~Version Information
 VERS.                                  2.0 : CWLS LAS VERSION
 WRAP.                                   NO : WRAPING MODE
 SWARE .                 MController 2.5.0J : SOFTWARE VERSION
~Well Information
 WELL.                          Silva 1-43R : WELL
 COMP.                Petrogulf Corporation : COMPANY
 FLD.                       Purgatory River : FIELD
 LOC.                  NE/SE sec1 T33S R68W : LOCATION
 DATE.                    6/16/06 - 6/17/06 : DATE(S) LOGGED
 SRVC.      Blanco Geological Services, LLC : SERVICE COMPANY
 STAT.                             Colorado : STATE
 CNTY.                           Las Animas : COUNTY
 CTRY.                                  USA : COUNTRY
 API.                       05-071-08372-00 : API NUMBER
 STRT.FT                              12.00 : START DEPTH
 STOP.FT                            2210.00 : STOP DEPTH
 STEP.FT                               1.00 : DEPTH INCREMENT
 NULL.                                -9999 : NULL VALUE
~Curve information
 DEPTH.FT                                   :
 ROP.MIN/FT                                 :
 GAS.UNITS                                  :
~ASCII Log data
# ...
      1012.0         0.50         21.3 
      1013.0         0.43         11.5 
      1014.0         0.27          8.0 
      1015.0         0.20          7.4 
      1016.0         1.25         14.7 
      1017.0         0.33         17.2 
      1018.0         0.43        106.8 
      1019.0         0.33        418.8 
      1020.0         0.30        404.8 
      1021.0         0.17        338.2 
      1022.0         0.20        265.7 
      1023.0         0.30        181.0 
      1024.0         0.33        124.0 
      1025.0         0.30         82.6 
      1026.0         0.27         55.5 
      1027.0         0.28         49.0 
      1028.0         0.27         44.8 
      1029.0         0.23         41.5 
      1030.0         0.27         38.2 
      1031.0         0.23         34.9 
      1032.0         0.23         33.1 
      1033.0         0.33         32.2 
      1034.0         0.43         33.0 
      1035.0         0.40         31.3 
      1036.0         0.17         33.2 
      1037.0         0.23         38.0 
      1038.0         0.27         44.7 
      1039.0         0.32         48.6 
      1040.0         0.20         41.5 
      1041.0         0.30         34.2 
      1042.0         0.30         34.4 
      1043.0         0.27         31.7 
      1044.0         0.43         29.3 
      1045.0         0.30         25.0 
      1046.0         0.97          7.6 
      1047.0         0.30          9.8 
      1048.0         0.42         31.3 
      1049.0         0.30        124.5 
      1050.0         0.30        263.3 
      1051.0         0.30        253.3 
      1052.0         0.30        139.5 
      1053.0         0.37         80.5 
      1054.0         0.43         59.6 
      1055.0         0.43         52.5 
      1056.0         0.40         53.4 
      1057.0         0.48         52.7 
      1058.0         0.53         51.3 
      1059.0         0.47         51.0 
      1060.0         0.27         53.0 
      1061.0         0.23         53.9 
      1062.0         0.20         53.6 
      1063.0         0.17         53.5 
      1064.0         0.10         53.9 
      1065.0         0.13         54.7 
      1066.0         0.07         54.9 
      1067.0         0.20         49.8 
      1068.0         0.23         38.5 
      1069.0         0.20         27.3 
      1070.0         0.17         20.6 
      1071.0         0.25         24.2 
      1072.0         0.30         28.2 
      1073.0         0.17         30.3 
      1074.0         0.37         25.6 
      1075.0         0.27         17.3 
      1076.0         1.20          9.0 
      1077.0         0.40         26.7 
      1078.0         0.30        113.0 
      1079.0         0.35        251.1 
      1080.0         0.47        180.2 
      1081.0         0.43         77.3 
      1082.0         0.43         67.9 
      1083.0         0.33         70.5 
      1084.0         0.40         64.2 
      1085.0         0.37         56.6 
      1086.0         0.37         48.9 
      1087.0         0.23         49.2 
      1088.0         0.32         51.6 
      1089.0         0.37         49.4 
      1090.0         0.27         45.2 
      1091.0         0.30         37.1 
      1092.0         0.27         41.3 
      1093.0         0.27         39.8 
      1094.0         0.20         38.9 
      1095.0         0.17         37.7 
      1096.0         0.23         35.9 
      1097.0         0.27         36.9 
      1098.0         0.27         31.2 
      1099.0         0.37         25.4 
      1100.0         0.28         30.9 
      1101.0         0.20         32.3 
      1102.0         0.10         31.5 
      1103.0         0.20         29.3 
      1104.0         0.23         34.7 
      1105.0         0.20         31.6 
      1106.0         0.83          9.7 
      1107.0         0.33         11.1 
      1108.0         0.40         30.2 
      1109.0         0.13         41.9 
      1110.0         0.27        104.8 
      1111.0         0.33        255.5 
      1112.0         0.38        282.0 
      1113.0         0.37        161.4 
      1114.0         0.30         85.4 
      1115.0         0.37         65.3 
      1116.0         0.30         61.7 
      1117.0         0.30         54.8 
      1118.0         0.30         49.6 
      1119.0         0.30         44.0 
      1120.0         0.30         35.6 
      1121.0         0.30         33.9 
      1122.0         0.18         34.7 
      1123.0         0.20         34.7 
      1124.0         0.17         34.8 
      1125.0         0.17         34.5 
      1126.0         0.17         33.5 
      1127.0         0.10         31.5 
      1128.0         0.13         27.8 
      1129.0         0.20         21.4 
      1130.0         0.23         15.5 
      1131.0         0.27         15.5 
      1132.0         0.27         19.3 
      1133.0         0.23         25.9 
      1134.0         0.30         29.9 
      1135.0         0.30         20.7 
      1136.0         0.82          9.0 
      1137.0         0.27          9.9 
      1138.0         0.27         17.6 
      1139.0         0.10         23.2 
      1140.0         0.17         37.2 
      1141.0         0.40         75.9 
      1142.0         0.27        143.0 
      1143.0         0.23        248.8 
      1144.0         0.30        288.3 
      1145.0         0.30        258.0 
      1146.0         0.30        219.1 
      1147.0         0.30        164.8 
      1148.0         0.28        114.1 
      1149.0         0.27         81.8 
      1150.0         0.23         70.2 
      1151.0         0.27         63.5 
      1152.0         0.27         55.5 
      1153.0         0.23         49.9 
      1154.0         0.27         45.4 
      1155.0         0.27         41.6 
      1156.0         0.27         39.5 
      1157.0         0.27         37.7 
      1158.0         0.27         35.5 
      1159.0         0.20         34.9 
      1160.0         0.43         29.6 
      1161.0         0.65         30.1 
      1162.0         0.37         25.7 
      1163.0         0.30         28.5 
      1164.0         0.30         20.2 
      1165.0         0.47         28.6 
      1166.0         1.88         14.7 
      1167.0         0.33         18.7 
      1168.0         0.47         54.2 
      1169.0         0.47        184.5 
      1170.0         0.33        289.8 
      1171.0         0.37        242.4 
      1172.0         0.33        203.3 
      1173.0         0.43        151.7 
      1174.0         0.35        112.7 
      1175.0         0.30         88.0 
      1176.0         0.43         65.5 
      1177.0         0.40         55.8 
      1178.0         0.33         47.4 
      1179.0         0.30         43.9 
      1180.0         0.30         46.9 
      1181.0         0.30         48.3 
      1182.0         0.27         45.0 
      1183.0         0.27         41.3 
      1184.0         0.22         39.3 
      1185.0         0.67         36.4 
      1186.0         0.30         30.4 
      1187.0         0.23         28.3 
      1188.0         0.23         29.9 
      1189.0         0.20         27.7 
      1190.0         0.20         24.8 
      1191.0         0.27         26.5 
      1192.0         0.23         24.7 
      1193.0         0.23         22.1 
      1194.0         0.33         20.3 
      1195.0         0.30         13.7 
      1196.0         1.38         13.8 
      1197.0         0.33         29.5 
      1198.0         0.43         66.0 
      1199.0         0.30        175.0 
      1200.0         0.23        243.9 
      1201.0         0.27        246.5 
      1202.0         0.27        228.0 
      1203.0         0.28        200.7 
      1204.0         0.33        149.6 
      1205.0         0.50         84.9 
      1206.0         0.27         66.1 
      1207.0         0.33         50.8 
      1208.0         0.23         47.7 
      1209.0         0.27         47.5 
      1210.0         0.20         46.4 
      1211.0         0.33         42.8 
