~Version Information
 VERS.                                  2.0 : CWLS LAS VERSION
 WRAP.                                   NO : WRAPING MODE
 SWARE .                 MController 2.5.0J : SOFTWARE VERSION
~Well Information
 WELL.                      McDaniel 09-34V : WELL
 COMP.                Petrogulf Corporation : COMPANY
 FLD.                      Purgatoire River : FIELD
 LOC.                SW/SE Sec 09 T33S R67W : LOCATION
 DATE.                             09/27/05 : DATE(S) LOGGED
 SRVC.       BLANCO Geological Services LLC : SERVICE COMPANY
 STAT.                                   CO : STATE
 CNTY.                           Las Animas : COUNTY
 CTRY.                                  USA : COUNTRY
 API.                       05-071-08333-00 : API NUMBER
 STRT.FT                               0.00 : START DEPTH
 STOP.FT                             2433.0 : STOP DEPTH 775.00
 STEP.FT                               1.00 : DEPTH INCREMENT
 NULL.                                -9999 : NULL VALUE
~Curve information
 DEPTH.FT                                   :
 ROP.MIN/FT                                 :
 GAS.UNITS                                  :
~ASCII Log data
# ...
      1400.0         0.30        539.4 
      1401.0         0.23        529.5 
      1402.0         0.10        526.1 
      1403.0         0.13        526.4 
      1404.0         0.17        557.2 
      1405.0         0.23        588.6 
      1406.0         0.27        578.1 
      1407.0         0.23        479.1 
      1408.0         0.23        510.8 
      1409.0         0.32        613.0 
      1410.0         3.22       1773.1 
      1411.0         0.50        903.7 
      1412.0         0.60        834.9 
      1413.0         0.33        679.7 
      1414.0         0.27        614.0 
      1415.0         0.27        523.8 
      1416.0         0.53        633.0 
      1417.0         0.50        647.3 
      1418.0         0.32        670.8 
      1419.0         0.23        669.8 
      1420.0         0.17        653.0 
      1421.0         0.23        632.7 
      1422.0         0.33        599.7 
      1423.0         0.37        576.5 
      1424.0         0.37        571.1 
      1425.0         0.33        591.8 
      1426.0         0.23        598.4 
      1427.0         0.30        601.9 
      1428.0         0.33        601.0 
      1429.0         0.45        596.8 
      1430.0         0.33        586.4 
      1431.0         0.27        607.0 
      1432.0         0.23        635.6 
      1433.0         0.23        641.3 
      1434.0         0.20        636.2 
      1435.0         0.27        609.2 
      1436.0         0.33        597.8 
      1437.0         0.40        595.6 
      1438.0         0.50        522.9 
      1439.0         0.35        645.4 
      1440.0         2.00       1908.6 
      1441.0         0.27       1576.0 
      1442.0         0.43       1316.7 
      1443.0         0.37        918.0 
      1444.0         0.48        878.0 
      1445.0         0.33        876.1 
      1446.0         0.40        820.6 
      1447.0         0.30        791.7 
      1448.0         0.27        780.6 
      1449.0         0.23        782.8 
      1450.0         0.20        792.3 
      1451.0         0.23        796.5 
      1452.0         0.30        772.7 
      1453.0         0.33        710.1 
      1454.0         0.27        622.2 
      1455.0         0.48        607.0 
      1456.0         0.13        568.6 
      1457.0         0.23        566.0 
      1458.0         0.27        554.9 
      1459.0         0.23        503.5 
      1460.0         0.20        457.8 
      1461.0         0.23        440.0 
      1462.0         0.23         49.0 
      1463.0         0.20         47.1 
      1464.0         0.17         44.0 
      1465.0         0.17         42.2 
      1466.0         0.27         39.2 
      1467.0         0.30         36.9 
      1468.0         0.25         32.5 
      1469.0         0.23         77.5 
      1470.0         3.45       2147.9 
      1471.0         0.47       1004.0 
      1472.0         0.53        824.1 
      1473.0         0.73        718.4 
      1474.0         0.38        697.1 
      1475.0         0.27        660.9 
      1476.0         0.37        678.4 
      1477.0         0.30        697.4 
      1478.0         0.33        700.3 
      1479.0         0.17        700.6 
      1480.0         0.30        699.0 
      1481.0         0.27        687.0 
      1482.0         0.33        672.4 
      1483.0         0.37        653.6 
      1484.0         0.28        650.2 
      1485.0         0.43        666.3 
      1486.0         0.30        668.6 
      1487.0         0.33        652.4 
      1488.0         0.30        623.5 
      1489.0         0.27        607.0 
      1490.0         0.30        605.4 
      1491.0         0.33        638.7 
      1492.0         0.27        646.3 
      1493.0         0.23        652.1 
      1494.0         0.32        676.2 
      1495.0         0.37        693.3 
      1496.0         0.27        692.4 
      1497.0         0.33        595.6 
      1498.0         0.20        522.9 
      1499.0         0.37        659.4 
      1500.0         3.42       3383.8 
      1501.0         0.48       1023.4 
      1502.0         0.37        730.5 
      1503.0         0.33        664.4 
      1504.0         0.43        635.9 
      1505.0         0.43        721.9 
      1506.0         0.37        741.6 
      1507.0         0.30        757.4 
      1508.0         0.30        760.0 
      1509.0         0.23        757.7 
      1510.0         0.25        739.0 
      1511.0         0.20        739.3 
      1512.0         0.20        748.5 
      1513.0         0.17        757.7 
      1514.0         0.17        764.7 
      1515.0         0.17        775.2 
      1516.0         0.17        782.5 
      1517.0         0.17        784.1 
      1518.0         0.17        788.2 
      1519.0         0.17        785.7 
      1520.0         0.17        783.1 
      1521.0         0.20        785.0 
      1522.0         0.20        786.3 
      1523.0         0.33        793.6 
      1524.0         0.27        796.8 
      1525.0         0.13        795.5 
      1526.0         0.15        788.5 
      1527.0         0.27        728.5 
      1528.0         0.33        631.4 
      1529.0         0.37        745.7 
      1530.0         2.98       2388.1 
      1531.0         0.43       1070.7 
      1532.0         0.27        893.6 
      1533.0         0.30        824.1 
      1534.0         0.33        777.4 
      1535.0         0.37        713.9 
      1536.0         0.28        611.1 
      1537.0         0.23        571.8 
      1538.0         0.23        529.5 
      1539.0         0.27        512.1 
      1540.0         0.30        520.7 
      1541.0         0.27        569.5 
      1542.0         0.23        625.7 
      1543.0         0.20        677.4 
      1544.0         0.27        704.4 
      1545.0         0.23        713.0 
      1546.0         0.20        721.9 
      1547.0         0.27        722.8 
      1548.0         0.35        710.5 
      1549.0         0.23        704.7 
      1550.0         0.20        703.8 
      1551.0         0.27        698.1 
      1552.0         0.23        687.3 
      1553.0         0.23        677.4 
      1554.0         0.30        672.1 
      1555.0         0.27        655.9 
      1556.0         0.27        569.9 
      1557.0         0.23        479.7 
      1558.0         0.23        525.4 
      1559.0         0.37        736.8 
      1560.0         3.25       3567.2 
      1561.0         0.62        782.8 
      1562.0         0.47        801.5 
      1563.0         0.57        806.0 
      1564.0         0.47        735.5 
      1565.0         0.33        716.2 
      1566.0         0.60        704.7 
      1567.0         0.58        719.0 
      1568.0         0.53        706.3 
      1569.0         0.50        703.8 
      1570.0         0.37        707.6 
      1571.0         0.23        704.7 
      1572.0         0.23        693.3 
      1573.0         0.20        672.4 
      1574.0         0.23        654.6 
      1575.0         0.30        625.4 
      1576.0         0.23        606.7 
      1577.0         0.23        605.1 
      1578.0         0.22        598.1 
      1579.0         0.23        580.0 
      1580.0         0.20        550.5 
      1581.0         0.23        554.6 
      1582.0         0.23        603.2 
      1583.0         0.20        652.4 
      1584.0         0.23        706.0 
      1585.0         0.23        723.5 
      1586.0         0.20        687.9 
      1587.0         0.30        586.4 
      1588.0         0.27        553.0 
      1589.0         0.37        681.9 
      1590.0         2.35       2052.4 
      1591.0         0.37       1409.6 
      1592.0         0.42       1100.5 
      1593.0         0.33        842.5 
      1594.0         0.47        729.2 
      1595.0         0.50        711.4 
      1596.0         0.27        744.7 
      1597.0         0.33        769.8 
      1598.0         0.33        774.9 
      1599.0         0.28        762.8 
