~Version Information
VERS.                      2.0: CWLS Log ASCII Standard - VERSION 2.0
WRAP.                       NO: One line per depth step
~Well Information Block
STRT.FT               -11.0000: 
STOP.FT              2634.5000: 
STEP.FT                 0.2500: 
NULL.                -999.2500: 
COMP.          Evergreen Operating Corporation: COMPANY
WELL.          Sand PebbleS 13-33: WELL
FLD.           Purgatorie River: FIELD
LOC.           1883' FSL & 63' FWL--: LOCATION
PROV.                 Colorado: PROVINCE
CNTY.               Las Animas: COUNTRY
SRVC.          Patterson Wireline: SERVICE COMPANY
DATE.          Fri Mar 18 09:37:20 2005: LOG DATE
UWI.          005 071 08224 : UNIQUE WELL ID
~Curve Information Block
DEPT.FT            0 000 00 00: Depth
CCL.                          : Casing Collar Locator
TT3.usec                      : CBL 3' Travel Time
AMP3.mV                       : CBL 3' Amplitude
GR.GAPI                       : Gamma Ray
~Parameter Information Block
~A  Depth       CCL         TT3         AMP3         GR     
# ...
  1396.0000      0.0000    724.9282      4.1159    125.5957
  1396.2500      0.0000    721.9212      4.0639    126.3597
  1396.5000      0.0000    717.5550      3.9884    123.9643
  1396.7500      0.0000    712.7430      3.9023    118.9450
  1397.0000      0.0000    707.8542      3.7997    112.1238
  1397.2500      0.0000    703.0651      3.6681    104.0318
  1397.5000      0.0000    699.0123      3.5280     95.3871
  1397.7500      0.0000    696.8950      3.4421     87.3032
  1398.0000      0.0000    697.5546      3.4603     80.6450
  1398.2500      0.0000    700.2512      3.5651     75.4906
  1398.5000      2.0000    702.5615      3.6900     71.4813
  1398.7500      2.0000    702.0081      3.7804     68.6115
  1399.0000      0.0000    697.9170      3.8261     67.3368
  1399.2500      0.0000    691.5299      3.8494     67.7352
  1399.5000      0.0000    684.8229      3.8769     68.8287
  1399.7500      0.0000    680.0164      3.9153     69.1588
  1400.0000      0.0000    679.7168      3.9475     68.0698
  1400.2500      0.0000    685.8645      3.9609     66.3276
  1400.5000      0.0000    697.7316      3.9717     65.5296
  1400.7500      0.0000    711.6856      4.0069     66.8760
  1401.0000      0.0000    723.7052      4.0637     70.1720
  1401.2500      0.0000    732.1551      4.1096     73.8166
  1401.5000      0.0000    738.1990      4.1221     75.9295
  1401.7500      0.0000    744.0114      4.1179     75.8976
  1402.0000      0.0000    750.6974      4.1392     74.9496
  1402.2500      0.0000    757.4004      4.2131     74.9387
  1402.5000      0.0000    761.9927      4.3264     76.3457
  1402.7500      0.0000    762.7440      4.4415     77.6981
  1403.0000      0.0000    759.7413      4.5319     77.1086
  1403.2500      0.0000    754.9480      4.5966     74.3058
  1403.5000      0.0000    750.7143      4.6515     71.1277
  1403.7500      0.0000    748.0087      4.7181     69.9669
  1404.0000      0.0000    746.1613      4.8110     71.5578
  1404.2500      0.0000    744.2513      4.9178     74.5044
  1404.5000      0.0000    742.2564      4.9959     77.2584
  1404.7500      0.0000    740.7897      5.0129     80.1723
  1405.0000      0.0000    740.4172      4.9827     85.0874
  1405.2500      0.0000    741.7786      4.9427     93.2495
  1405.5000      0.0000    745.9629      4.9063    104.1847
  1405.7500      0.0000    753.7914      4.8541    116.5222
  1406.0000      0.0000    764.0829      4.7627    129.3289
  1406.2500      0.0000    773.0418      4.6324    142.2523
  1406.5000      0.0000    776.6314      4.4945    154.4428
  1406.7500      0.0000    774.1996      4.3972    163.9986
  1407.0000      0.0000    769.2340      4.3752    169.3225
  1407.2500      0.0000    766.1049      4.4254    171.0144
  1407.5000      0.0000    766.4678      4.5089    171.3209
  1407.7500      0.0000    768.9403      4.5731    171.2518
  1408.0000      0.0000    771.3234      4.5841    169.3168
  1408.2500      0.0000    772.2915      4.5470    163.9608
  1408.5000      0.0000    771.5316      4.4943    156.4286
  1408.7500      0.0000    769.6097      4.4578    150.2648
  1409.0000      0.0000    768.0082      4.4550    148.4049
  1409.2500      0.0000    768.1950      4.4927    151.3613
  1409.5000      0.0000    769.7802      4.5701    157.3743
  1409.7500      0.0000    770.3204      4.6724    163.4103
  1410.0000      0.0000    767.9527      4.7658    166.4791
  1410.2500      0.0000    763.8411      4.8096    164.9594
  1410.5000      0.0000    761.3214      4.7804    159.1358
  1410.7500      0.0000    763.0704      4.6907    150.7710
  1411.0000      0.0000    769.3372      4.5877    142.3214
  1411.2500      0.0000    777.8873      4.5258    136.0832
  1411.5000      0.0000    785.0115      4.5290    133.1479
  1411.7500      0.0000    787.5659      4.5752    132.6279
  1412.0000      0.0000    785.0729      4.6156    132.1974
  1412.2500      0.0000    779.8200      4.6052    130.0619
  1412.5000      0.0000    774.9058      4.5301    126.4802
  1412.7500      0.0000    772.6398      4.4183    123.1149
  1413.0000      0.0000    774.4449      4.3165    121.1797
  1413.2500      0.0000    780.6122      4.2516    120.7778
  1413.5000      0.0000    789.1215      4.2168    121.7785
  1413.7500      0.0000    795.8083      4.1908    124.2178
  1414.0000      0.0000    797.1284      4.1569    127.1476
  1414.2500      0.0000    792.9168      4.1056    127.8084
  1414.5000      0.0000    786.0804      4.0299    123.1118
  1414.7500      0.0000    779.7396      3.9259    112.3390
  1415.0000      0.0000    775.0420      3.7979     98.0005
  1415.2500      0.0000    771.5037      3.6594     83.8598
  1415.5000      0.0000    768.3374      3.5285     72.5896
  1415.7500      0.0000    764.9349      3.4267     65.3259
  1416.0000      0.0000    760.9365      3.3759     62.4979
  1416.2500      0.0000    756.7949      3.3839     64.3204
  1416.5000      0.0000    754.1111      3.4361     70.7677
  1416.7500      0.0000    754.9115      3.5119     81.4541
  1417.0000      0.0000    760.0432      3.6052     95.2730
  1417.2500      0.0000    767.6953      3.7214    109.9571
  1417.5000      0.0000    773.9239      3.8579    122.6334
  1417.7500      0.0000    775.7744      3.9963    131.4888
  1418.0000      0.0000    773.6696      4.1149    136.7108
  1418.2500      0.0000    769.9332      4.2040    139.4980
  1418.5000      0.0000    765.8654      4.2702    140.8207
  1418.7500      0.0000    761.6722      4.3297    141.9343
  1419.0000      0.0000    758.6326      4.3938    145.0201
  1419.2500      0.0000    759.5485      4.4541    151.7960
  1419.5000      0.0000    766.3297      4.4876    161.6181
  1419.7500      0.0000    777.4854      4.4828    171.5293
  1420.0000      0.0000    788.1886      4.4522    177.7993
  1420.2500      0.0000    792.9254      4.4124    177.6788
  1420.5000      0.0000    788.8052      4.3641    171.1730
  1420.7500      0.0000    777.7072      4.2977    161.5554
  1421.0000      0.0000    765.6075      4.2110    153.3263
  1421.2500      0.0000    758.6490      4.1113    149.2543
  1421.5000      0.0000    758.7553      4.0070    149.1757
  1421.7500      0.0000    763.0752      3.9033    150.8638
  1422.0000      0.0000    767.3014      3.8080    151.7051
  1422.2500      0.0000    768.7649      3.7351    150.1909
  1422.5000      0.0000    767.1823      3.6962    146.4441
  1422.7500      0.0000    764.0923      3.6891    141.6840
  1423.0000      0.0000    761.6963      3.7015    137.4587
  1423.2500      0.0000    761.2037      3.7284    135.3639
  1423.5000      0.0000    761.6604      3.7789    136.5354
  1423.7500      0.0000    760.4628      3.8612    140.5441
  1424.0000      0.0000    755.7021      3.9591    145.1164
  1424.2500      0.0000    748.7963      4.0361    147.7096
  1424.5000      0.0000    744.5290      4.0658    147.2577
  1424.7500      0.0000    747.5614      4.0493    144.2283
  1425.0000      0.0000    758.2553      4.0022    139.7481
  1425.2500      0.0000    771.9951      3.9376    135.1792
  1425.5000      0.0000    783.0375      3.8648    131.8151
  1425.7500      0.0000    789.2520      3.7942    130.2184
  1426.0000      0.0000    792.6638      3.7393    130.0823
  1426.2500      0.0000    795.4220      3.7186    130.9650
  1426.5000      0.0000    796.5552      3.7552    132.6448
  1426.7500      0.0000    793.6494      3.8614    134.6961
  1427.0000      0.0000    786.8352      4.0179    136.4251
  1427.2500      0.0000    779.7719      4.1682    137.3261
  1427.5000      0.0000    776.7233      4.2455    137.0256
  1427.7500      0.0000    779.5053      4.2146    135.1791
  1428.0000      0.0000    786.9915      4.0958    132.2741
  1428.2500      0.0000    796.1538      3.9437    130.1584
  1428.5000      0.0000    803.3696      3.8015    130.7943
  1428.7500      0.0000    806.2695      3.6755    134.4180
  1429.0000      0.0000    805.3022      3.5523    139.3095
  1429.2500      0.0000    803.2493      3.4370    143.1011
