~Version Information
VERS.                      2.0: CWLS Log ASCII Standard - VERSION 2.0
WRAP.                       NO: One line per depth step
~Well Information Block
STRT.FT               -14.2500: 
STOP.FT              2177.5000: 
STEP.FT                 0.2500: 
NULL.                -999.2500: 
COMP.          Evergreen Operating Corp.: COMPANY
WELL.            Triumph 13-10: WELL
FLD.           Purgatorie River: FIELD
LOC.           1551' FSL & 522' FWL--: LOCATION
PROV.                       CO: PROVINCE
CNTY.               Las Animas: COUNTRY
SRVC.                         : SERVICE COMPANY
DATE.          Sat Aug 21 09:27:32 2004: LOG DATE
UWI.           005 071 08108 : UNIQUE WELL ID
~Curve Information Block
DEPT.FT            0 000 00 00: Depth
CCL.                          : Casing Collar Locator
TT3.usec                      : CBL 3' Travel Time
AMP3.mV                       : CBL 3' Amplitude
GR.GAPI                       : Gamma Ray
~Parameter Information Block
~A  Depth       CCL         TT3         AMP3         GR     
# ...
   421.2500      0.0000    754.6146      7.7176    114.6998
   421.5000      0.0000    754.1959      7.6992    120.9209
   421.7500      0.0000    759.9239      7.6403    127.4061
   422.0000      0.0000    769.4379      7.5763    133.6642
   422.2500      0.0000    777.9957      7.5662    139.8011
   422.5000      0.0000    782.3397      7.6401    145.7476
   422.7500      0.0000    782.7765      7.7638    151.4373
   423.0000      0.0000    781.9408      7.8458    157.5024
   423.2500      0.0000    782.1594      7.7845    164.8519
   423.5000      0.0000    783.8481      7.5311    173.2965
   423.7500      0.0000    785.8006      7.1312    180.7903
   424.0000      0.0000    786.6978      6.7166    184.0476
   424.2500      0.0000    786.2875      6.4271    180.5831
   424.5000      0.0000    785.0568      6.3173    171.0136
   424.7500      0.0000    782.8698      6.3386    159.1664
   425.0000      0.0000    778.4010      6.3938    149.5092
   425.2500      0.0000    770.2482      6.3935    144.6320
   425.5000      0.0000    758.3651      6.2833    144.6021
   425.7500      0.0000    744.0277      6.0604    147.4727
   426.0000      0.0000    728.7905      5.7812    150.3777
   426.2500      0.0000    714.1597      5.5441    151.3591
   426.5000      0.0000    702.1328      5.4430    150.5540
   426.7500      0.0000    695.2957      5.5104    149.1026
   427.0000      0.0000    695.8763      5.6894    147.2724
   427.2500      0.0000    704.1844      5.8636    144.6649
   427.5000      0.0000    717.5019      5.9441    142.0188
   427.7500      0.0000    730.9276      5.9443    141.4926
   428.0000      0.0000    740.2550      5.9614    144.6776
   428.2500      0.0000    744.1786      6.0781    150.8105
   428.5000      0.0000    744.0605      6.2908    157.0414
   428.7500      0.0000    742.9645      6.5265    160.4030
   429.0000      0.0000    744.8837      6.7116    160.0939
   429.2500      0.0000    752.5532      6.8144    158.0945
   429.5000      0.0000    764.7456      6.8475    156.7854
   429.7500      0.0000    776.5813      6.8548    155.7894
   430.0000      0.0000    783.0714      6.8867    152.2793
   430.2500      0.0000    782.2490      6.9733    144.7535
   430.5000      0.0000    775.7677      7.1126    135.2326
   430.7500      0.0000    767.5320      7.2742    127.0715
   431.0000      0.0000    761.2464      7.4131    121.5349
   431.2500      0.0000    758.1475      7.4883    117.1604
   431.5000      0.0000    756.9879      7.4778    112.0709
   431.7500      0.0000    756.3130      7.3838    106.4484
   432.0000      0.0000    756.1078      7.2199    102.5497
   432.2500      0.0000    756.9971      6.9973    102.4574
   432.5000      0.0000    758.6752      6.7274    106.1854
   432.7500      0.0000    759.3715      6.4467    111.8057
   433.0000      0.0000    755.5659      6.2372    116.8399
   433.2500      0.0000    742.4508      6.2017    119.4703
   433.5000      0.0000    717.8493      6.3908    118.8440
   433.7500      0.0000    687.6149      6.7273    114.9141
   434.0000      0.0000    664.5604      7.0161    108.5967
   434.2500      0.0000    658.6566      7.0757    101.7123
   434.5000      0.0000    668.7340      6.8840     95.8441
   434.7500      0.0000    684.7505      6.5884     91.1799
   435.0000      0.0000    696.7703      6.3740     86.8443
   435.2500     -2.0000    701.1771      6.3282     82.2429
   435.5000      0.0000    700.3817      6.4222     77.8971
   435.7500      0.0000    697.5408      6.5937     75.1657
   436.0000      0.0000    691.7774      6.8141     75.1052
   436.2500      0.0000    680.9462      7.0620     77.3069
   436.5000      0.0000    669.7981      7.2614     79.7485
   436.7500      0.0000    669.9560      7.2961     79.9574
   437.0000      0.0000    687.6011      7.1216     76.7309
   437.2500      0.0000    715.2624      6.8334     71.1920
   437.5000      0.0000    739.3973      6.5852     66.1016
   437.7500      0.0000    752.6457      6.4607     63.8070
   438.0000      0.0000    756.2394      6.4344     64.7533
   438.2500      0.0000    754.6584      6.4095     67.9112
   438.5000      0.0000    751.9730      6.2758     72.2680
   438.7500      0.0000    751.4929      5.9759     77.5562
   439.0000      0.0000    755.0889      5.5588     83.5440
   439.2500      0.0000    761.7885      5.1680     89.2326
   439.5000      0.0000    768.4622      4.9475     93.3883
   439.7500      0.0000    772.6733      4.9484     95.8061
   440.0000      0.0000    774.4660      5.1315     97.6867
   440.2500      0.0000    775.0432      5.4423    100.8111
   440.5000      0.0000    774.5602      5.8625    106.4157
   440.7500      0.0000    772.0083      6.3925    114.4311
   441.0000      0.0000    767.0495      6.9964    123.2309
   441.2500      0.0000    761.4737      7.5723    130.1380
   441.5000      0.0000    758.5958      7.9913    132.9042
   441.7500      0.0000    760.8091      8.1737    131.5195
   442.0000      0.0000    767.2988      8.1397    128.6085
   442.2500      0.0000    773.9230      8.0194    127.5012
   442.5000      0.0000    774.9218      8.0130    129.6273
   442.7500      0.0000    763.8097      8.2887    133.8819
   443.0000      0.0000    733.0426      8.8767    138.0965
   443.2500      0.0000    676.3267      9.6625    140.5328
   443.5000      0.0000    595.3628     10.4761    140.3233
   443.7500      0.0000    504.1992     11.1941    137.6192
   444.0000      0.0000    423.0021     11.7829    133.7812
   444.2500      0.0000    365.4776     12.2558    131.0655
   444.5000      0.0000    332.7044     12.5994    131.4738
   444.7500      0.0000    317.4547     12.7681    135.3578
   445.0000      0.0000    311.5741     12.7521    141.0778
   445.2500      0.0000    309.6888     12.6374    146.1072
   445.5000      0.0000    309.1708     12.5928    148.5191
   445.7500      0.0000    308.9623     12.7779    148.0196
   446.0000      0.0000    308.7299     13.2193    146.2161
   446.2500      0.0000    308.4519     13.7860    145.4811
   446.5000      0.0000    308.2310     14.3262    146.8303
   446.7500      0.0000    308.1279     14.8132    149.2084
   447.0000      0.0000    308.1104     15.3082    151.0534
   447.2500      0.0000    308.1051     15.8188    151.7460
   447.5000      0.0000    308.0809     16.2738    151.2170
   447.7500      0.0000    308.0705     16.6232    149.3116
   448.0000      0.0000    308.1223     16.8822    146.3845
   448.2500      0.0000    308.2484     17.0903    143.9521
   448.5000      0.0000    308.4134     17.3074    143.7664
   448.7500      0.0000    308.5551     17.6358    146.0397
   449.0000      0.0000    308.6163     18.1513    148.9121
   449.2500      0.0000    308.5765     18.7880    149.8947
   449.5000      0.0000    308.4639     19.3403    147.9456
   449.7500      0.0000    308.3370     19.5867    144.2566
   450.0000      0.0000    308.2576     19.3983    141.0622
   450.2500      0.0000    308.2804     18.7758    139.6846
   450.5000      0.0000    308.4423     17.8446    139.5215
   450.7500      0.0000    308.7326     16.8030    138.5497
   451.0000      0.0000    309.0781     15.8394    134.8074
   451.2500      0.0000    309.3844     15.0928    127.9270
   451.5000      0.0000    309.5941     14.6579    119.5734
   451.7500      0.0000    309.7029     14.5432    112.2796
   452.0000      0.0000    309.7361     14.6043    107.6280
   452.2500      0.0000    309.7281     14.6045    105.3904
   452.5000      0.0000    309.7087     14.4042    104.2971
   452.7500      0.0000    309.6938     14.0579    103.5110
   453.0000      0.0000    309.6873     13.6884    103.1996
   453.2500      0.0000    309.6984     13.3228    103.8034
   453.5000      0.0000    309.7516     12.9104    105.3241
   453.7500      0.0000    309.8684     12.4538    107.6720
   454.0000      0.0000    310.0368     12.0429    111.1848
   454.2500      0.0000    310.2338     11.7624    116.1027
   454.5000      0.0000    310.5326     11.6270    121.6863
