~Version Information
VERS.                      2.0: CWLS Log ASCII Standard - VERSION 2.0
WRAP.                       NO: One line per depth step
~Well Information Block
STRT.FT                17.7500: 
STOP.FT              1139.0000: 
STEP.FT                 0.2500: 
NULL.                -999.2500: 
COMP.          El Paso E&P Company L.P.: COMPANY
WELL.              VPR "ST" 38: WELL
FLD.           Purgatorie River: FIELD
LOC.           687' FNL & 2121' FEL: LOCATION
CNTY.               Las Animas: COUNTY
SRVC.          Superior Well Services: SERVICE COMPANY
DATE.          Sat Oct 13 22-40-21 2007: LOG DATE
UWI.           05-071-08357-00: UNIQUE WELL ID
STAT.                       CO: STATE
~Curve Information Block
DEPT.FT            0 000 00 00: Depth
CCL.                          : Casing Collar Locator
TT3.usec                      : CBL 3' Travel Time
AMP3.mV                       : CBL 3' Amplitude
GR.GAPI                       : Gamma Ray
~Parameter Information Block
~A  Depth       CCL         TT3         AMP3         GR     
# ...
   721.2500      0.0000    718.2774      3.9223     87.4356
   721.5000      0.0000    719.7732      3.9298     88.5549
   721.7500      0.0000    720.6947      3.8798     95.3106
   722.0000      0.0000    720.5496      3.7854    101.7649
   722.2500      0.0000    719.7066      3.6720    110.5239
   722.5000      0.0000    718.4207      3.5671    113.9555
   722.7500      0.0000    716.3954      3.4930    114.5753
   723.0000      0.0000    713.4738      3.4604    112.5719
   723.2500      0.0000    709.9948      3.4640    107.9539
   723.5000      0.0000    706.3138      3.4895    105.0916
   723.7500      0.0000    702.4636      3.5281    102.8389
   724.0000      0.0000    698.3491      3.5796    102.9119
   724.2500      0.0000    693.9984      3.6410    104.1650
   724.5000      0.0000    689.6818      3.6998    104.9240
   724.7500      0.0000    685.9186      3.7410    106.3108
   725.0000      0.0000    683.2325      3.7578    108.6543
   725.2500      0.0000    681.8024      3.7537    115.6871
   725.5000      0.0000    681.3989      3.7368    121.8858
   725.7500      0.0000    681.6713      3.7159    130.0556
   726.0000      0.0000    682.5756      3.6984    133.2612
   726.2500      0.0000    684.7696      3.6887    134.7014
   726.5000      0.0000    689.6732      3.6851    134.2587
   726.7500      0.0000    698.7129      3.6818    132.3669
   727.0000      0.0000    711.8370      3.6755    130.3900
   727.2500      0.0000    726.6191      3.6705    127.1943
   727.5000      0.0000    739.2242      3.6752    125.8691
   727.7500      0.0000    746.4300      3.6942    125.6661
   728.0000      0.0000    746.7019      3.7226    125.8587
   728.2500      0.0000    740.0509      3.7480    124.6312
   728.5000      0.0000    727.9863      3.7563    122.3577
   728.7500      0.0000    713.6115      3.7405    117.2582
   729.0000      0.0000    700.6143      3.7054    113.2588
   729.2500      0.0000    691.3865      3.6656    107.5531
   729.5000      0.0000    686.1328      3.6360    104.8908
   729.7500      0.0000    683.7269      3.6229    104.0234
   730.0000      0.0000    683.1695      3.6230    105.6105
   730.2500      0.0000    684.4964      3.6290    109.7710
   730.5000      0.0000    688.8157      3.6365    112.6395
   730.7500      0.0000    697.4050      3.6477    116.9037
   731.0000      0.0000    710.1626      3.6685    120.7225
   731.2500      0.0000    724.7185      3.7010    128.7857
   731.5000      0.0000    737.4556      3.7411    134.4076
   731.7500      0.0000    745.4572      3.7835    139.5384
   732.0000      0.0000    747.1187      3.8273    139.9034
   732.2500      0.0000    741.0888      3.8743    137.3642
   732.5000      0.0000    725.9932      3.9222    134.6310
   732.7500      0.0000    702.5881      3.9606    129.0204
   733.0000      0.0000    675.6084      3.9737    124.0183
   733.2500      0.0000    651.1686      3.9470    115.3614
   733.5000      0.0000    632.1103      3.8765    109.7694
   733.7500      0.0000    618.5295      3.7748    102.9230
   734.0000      0.0000    612.5757      3.6699     99.7395
   734.2500      0.0000    618.1448      3.5922     97.1624
   734.5000      0.0000    634.7523      3.5573     96.7618
   734.7500      0.0000    655.7704      3.5599     97.8273
   735.0000      0.0000    674.1921      3.5828     99.6532
   735.2500      0.0000    687.7263      3.6123    104.1677
   735.5000      0.0000    697.9474      3.6464    108.1145
   735.7500      0.0000    706.8996      3.6883    114.3709
   736.0000      0.0000    715.3431      3.7354    118.0957
   736.2500      0.0000    722.6672      3.7748    122.5420
   736.5000      0.0000    727.4879      3.7932    125.0346
   736.7500      0.0000    729.0281      3.7872    129.0239
   737.0000      0.0000    728.5457      3.7633    132.1288
   737.2500      0.0000    728.9036      3.7325    136.6840
   737.5000      0.0000    732.2126      3.7071    138.4812
   737.7500      0.0000    738.0672      3.6989    137.0701
   738.0000      0.0000    744.2483      3.7141    132.9187
   738.2500      0.0000    748.6990      3.7490    123.9115
   738.5000      0.0000    750.5117      3.7930    118.4447
   738.7500      0.0000    749.4952      3.8338    114.1998
   739.0000      0.0000    745.7262      3.8620    113.9800
   739.2500      0.0000    740.0308      3.8721    115.1087
   739.5000      0.0000    734.5629      3.8621    115.7006
   739.7500      0.0000    732.0392      3.8329    116.9350
   740.0000      0.0000    733.7723      3.7901    119.1838
   740.2500      0.0000    738.4376      3.7448    125.2173
   740.5000      0.0000    742.8755      3.7112    129.5257
   740.7500      0.0000    744.0201      3.6993    132.5593
   741.0000      0.0000    740.3597      3.7128    131.2851
   741.2500      0.0000    732.5345      3.7505    126.4286
   741.5000      0.0000    723.2004      3.8073    123.2750
   741.7500      0.0000    715.8715      3.8740    120.3188
   742.0000      0.0000    712.9346      3.9390    119.0063
   742.2500      0.0000    714.2402      3.9916    116.3039
   742.5000      0.0000    716.7797      4.0256    113.5657
   742.7500      0.0000    715.5590      4.0413    109.0635
   743.0000      0.0000    706.7502      4.0434    107.0305
   743.2500      0.0000    692.3326      4.0367    106.8620
   743.5000      0.0000    680.2584      4.0218    108.4606
   743.7500      0.0000    676.8356      3.9968    111.6156
   744.0000      0.0000    678.9610      3.9626    112.9333
   744.2500      0.0000    676.0038      3.9280    112.3706
   744.5000      0.0000    660.1929      3.9053    110.5690
   744.7500      0.0000    635.5796      3.8988    107.6174
   745.0000      0.0000    616.7935      3.8974    106.3350
   745.2500      0.0000    617.1851      3.8823    105.2898
   745.5000      0.0000    637.1972      3.8438    104.8193
   745.7500      0.0000    665.1799      3.7893    105.0949
   746.0000      0.0000    688.6012      3.7343    106.8291
   746.2500      0.0000    702.5746      3.6884    112.1616
   746.5000      0.0000    709.1777      3.6555    116.5707
   746.7500      0.0000    712.6309      3.6409    122.0455
   747.0000      0.0000    716.1171      3.6536    124.1333
   747.2500      0.0000    720.8157      3.6987    124.8408
   747.5000      0.0000    725.7556      3.7735    123.8945
   747.7500      0.0000    728.4291      3.8757    121.0299
   748.0000      0.0000    726.3890      4.0098    119.0705
   748.2500      0.0000    719.0490      4.1773    117.8855
   748.5000      0.0000    708.9342      4.3568    118.6139
   748.7500      0.0000    701.4717      4.5044    120.8914
   749.0000      0.0000    702.0618      4.5847    122.1968
   749.2500      0.0000    711.7590      4.5983    122.5368
   749.5000      0.0000    726.3293      4.5737    121.1775
   749.7500     -2.0000    740.3801      4.5395    116.3243
   750.0000      2.0000    751.4982      4.5078    111.7042
   750.2500      0.0000    759.4329      4.4765    105.3842
   750.5000     -2.0000    762.8317      4.4384    103.5122
   750.7500      0.0000    759.4529      4.3878    105.7999
   751.0000      0.0000    749.7875      4.3177    110.1214
   751.2500      0.0000    738.3521      4.2166    118.4579
   751.5000      0.0000    730.4377      4.0768    124.0954
   751.7500      0.0000    728.3282      3.9129    131.4133
   752.0000      0.0000    730.8546      3.7611    134.8640
   752.2500      0.0000    735.3234      3.6560    137.0041
   752.5000      0.0000    739.1125      3.6101    136.5413
   752.7500      0.0000    740.4229      3.6141    134.2441
   753.0000      0.0000    739.0581      3.6465    132.1531
   753.2500      0.0000    736.5394      3.6808    128.1162
   753.5000      0.0000    734.5062      3.6920    124.9387
   753.7500      0.0000    732.8588      3.6669    120.8655
   754.0000      0.0000    730.1677      3.6137    119.6012
   754.2500      0.0000    725.8022      3.5598    120.2908
   754.5000      0.0000    720.8345      3.5351    121.8737
