~Version Information
VERS.                      2.0: CWLS Log ASCII Standard - VERSION 2.0
WRAP.                       NO: One line per depth step
~Well Information Block
STRT.FT               953.8000: 
STOP.FT              2226.0000: 
STEP.FT                 0.1000: 
NULL.                -999.2500: 
COMP.          Petrogulf Corporation: COMPANY
WELL.             Burson 8-13R: WELL
FLD.           Purgatorie River: FIELD
LOC.           1045' FNL & 2189' FEL: LOCATION
CNTY.               Las Animas: COUNTY
SRVC.                         : SERVICE COMPANY
DATE.          Fri Apr 30 07:30:36 2004: LOG DATE
UWI.           05 071 08039 00: UNIQUE WELL ID
STAT.                 Colorado: STATE
~Curve Information Block
DEPT.FT            0 000 00 00: Depth
DCAL.in                       : CDL Caliper
RHOB.g/cc                     : CDL Bulk Density
RHOC.g/cc                     : CDL Density Correction
DPOR.pu                       : CDL Density Porosity
NPOR.pu                       : Neutron Porosity
GR.GAPI                       : Gamma Ray
~Parameter Information Block
~A  Depth       DCAL        RHOB        RHOC        DPOR        NPOR         GR     
# ...
  1040.2000      8.0897      1.2841      0.0575     82.7840      7.6985     52.6418
  1040.3000      8.0775      1.2951      0.0821     82.1152      7.8891     52.2061
  1040.4000      8.0775      1.3086      0.0690     81.2950      7.9982     53.3909
  1040.5000      8.0409      1.3246      0.0524     80.3268      8.0307     56.2285
  1040.6000      8.0409      1.3516      0.0324     78.6894      7.9782     60.3530
  1040.7000      8.0409      1.3935      0.0740     76.1526      7.7716     64.3412
  1040.8000      8.0262      1.4451      0.0722     73.0266      7.6502     66.0916
  1040.9000      8.0262      1.5063      0.0953     69.3149      7.9020     65.3389
  1041.0000      8.0220      1.5826      0.1369     64.6884      8.4069     64.6911
  1041.1000      8.0220      1.6734      0.1697     59.1898      8.8770     69.5040
  1041.2000      8.0220      1.7734      0.1658     53.1274      9.4800     81.0102
  1041.3000      8.0236      1.8722      0.1941     47.1420     10.4500     93.6640
  1041.4000      8.0236      1.9523      0.1914     42.2870     11.5861    101.4320
  1041.5000      8.0452      2.0141      0.1438     38.5381     12.5795    104.8971
  1041.6000      8.0452      2.0853      0.1108     34.2234     13.4940    107.2649
  1041.7000      8.0452      2.1864      0.1252     28.0988     14.7712    108.4079
  1041.8000      8.0017      2.3073      0.1836     20.7668     16.6085    108.6394
  1041.9000      8.0017      2.4353      0.1338     13.0142     18.7828    108.8369
  1042.0000      7.9910      2.5711      0.1244      4.7812     21.0406    107.9058
  1042.1000      7.9910      2.6986      0.1877     -2.9426     23.3140    104.6077
  1042.2000      7.9910      2.7884      0.1890     -8.3904     25.6556     99.5741
  1042.3000      7.9871      2.8340      0.1556    -11.1533     28.3523     95.4227
  1042.4000      7.9871      2.8389      0.1177    -11.4493     31.7933     92.4666
  1042.5000      7.9894      2.8042      0.0583     -9.3484     35.1811     89.1456
  1042.6000      7.9894      2.7499     -0.0311     -6.0525     37.3286     88.7581
  1042.7000      7.9894      2.7047     -0.0587     -3.3171     38.6800     93.1709
  1042.8000      7.9822      2.6765     -0.1095     -1.6047     39.8918     96.7842
  1042.9000      7.9822      2.6461     -0.0730      0.2379     40.6266     98.0050
  1043.0000      7.9808      2.5852     -0.0833      3.9256     40.5420    101.1543
  1043.1000      7.9808      2.4975     -0.1448      9.2418     39.7603    105.3158
  1043.2000      7.9808      2.4114     -0.0778     14.4576     38.3701    108.6683
  1043.3000      7.9797      2.3423     -0.0700     18.6478     36.1118    112.9859
  1043.4000      7.9797      2.3006     -0.0250     21.1743     33.2085    121.4861
  1043.5000      7.9898      2.2847      0.1103     22.1407     30.5121    133.5874
  1043.6000      7.9898      2.2660      0.1393     23.2706     28.4138    141.7798
  1043.7000      7.9898      2.2231      0.1636     25.8710     26.4555    143.6969
  1043.8000      7.9969      2.1671      0.1078     29.2696     24.3867    143.8798
  1043.9000      7.9969      2.1238      0.1270     31.8882     22.4928    144.9087
  1044.0000      8.0263      2.1169      0.0287     32.3114     20.9996    146.9917
  1044.1000      8.0263      2.1583      0.0473     29.8002     20.0270    148.8473
  1044.2000      8.0263      2.2293      0.0778     25.4978     19.5190    147.6463
  1044.3000      8.0420      2.2990      0.1561     21.2743     19.2562    140.8880
  1044.4000      8.0420      2.3549      0.2214     17.8865     19.3858    132.9203
  1044.5000      8.0492      2.3958      0.2687     15.4064     20.2764    131.0804
  1044.6000      8.0492      2.4209      0.2841     13.8853     21.7159    135.5539
  1044.7000      8.0492      2.4286      0.2864     13.4169     22.7516    141.4105
  1044.8000      8.0926      2.4170      0.2667     14.1188     22.8058    142.7925
  1044.9000      8.0926      2.3941      0.1771     15.5090     22.4808    138.2863
  1045.0000      8.2636      2.3839      0.0909     16.1291     22.5587    135.2081
  1045.1000      8.2636      2.4055      0.0186     14.8153     22.8729    136.0619
  1045.2000      8.2636      2.4485      0.1050     12.2098     22.7869    135.0107
  1045.3000      8.1298      2.4790      0.1258     10.3623     22.2659    133.1117
  1045.4000      8.1298      2.4814      0.1145     10.2201     21.8808    134.8120
  1045.5000      8.1133      2.4784      0.0588     10.3986     21.9842    136.8897
  1045.6000      8.1133      2.4967      0.0626      9.2918     22.4945    135.4681
  1045.7000      8.1133      2.5251      0.0858      7.5703     23.2733    132.1078
  1045.8000      8.1142      2.5315      0.1116      7.1834     24.0003    129.6613
  1045.9000      8.1142      2.5092      0.0523      8.5304     24.3392    129.9182
  1046.0000      8.1207      2.4869      0.0180      9.8819     24.5798    133.7236
  1046.1000      8.1207      2.4905     -0.0190      9.6673     25.2697    138.3142
  1046.2000      8.1207      2.5089      0.0403      8.5488     26.2321    140.1001
  1046.3000      8.1187      2.5116      0.0289      8.3878     27.0731    138.7027
  1046.4000      8.1187      2.4910     -0.0081      9.6386     27.7774    134.1049
  1046.5000      8.1193      2.4639      0.0108     11.2788     28.1271    128.2750
  1046.6000      8.1193      2.4479     -0.0492     12.2480     28.0787    126.4140
  1046.7000      8.1193      2.4470     -0.0175     12.3033     28.1838    131.9315
  1046.8000      8.1184      2.4430      0.0347     12.5424     28.5418    140.7547
  1046.9000      8.1184      2.4238     -0.0130     13.7109     28.6213    145.2107
  1047.0000      8.1237      2.4054     -0.0370     14.8261     28.0841    144.1378
  1047.1000      8.1237      2.3950      0.0208     15.4537     27.1107    141.8873
  1047.2000      8.1237      2.3774     -0.0245     16.5230     26.0940    140.8064
  1047.3000      8.1180      2.3498     -0.0183     18.1929     24.9574    140.4543
  1047.4000      8.1180      2.3335     -0.0169     19.1816     23.5112    143.9284
  1047.5000      8.1197      2.3468      0.0151     18.3741     22.2160    150.8640
  1047.6000      8.1197      2.3732      0.0748     16.7785     21.5502    154.1758
  1047.7000      8.1197      2.3841      0.0464     16.1176     21.5220    153.7947
  1047.8000      8.1412      2.3926     -0.0299     15.6024     21.5266    154.1410
  1047.9000      8.1412      2.4161      0.1113     14.1759     21.0109    153.1150
  1048.0000      8.1278      2.4304      0.1095     13.3105     20.4011    148.6107
  1048.1000      8.1278      2.4189      0.1141     14.0085     20.2429    144.4720
  1048.2000      8.1278      2.4011      0.0416     15.0872     20.7338    142.6734
  1048.3000      8.1186      2.4016      0.1294     15.0546     21.8025    142.0435
  1048.4000      8.1186      2.4204      0.2337     13.9164     22.9148    142.3992
  1048.5000      8.0959      2.4409      0.1471     12.6740     23.6101    141.5236
  1048.6000      8.0959      2.4521      0.0944     11.9921     23.9140    137.3818
  1048.7000      8.0959      2.4512      0.0645     12.0455     23.7085    133.3969
  1048.8000      8.0637      2.4359      0.1153     12.9737     23.0247    131.9806
  1048.9000      8.0637      2.4036      0.0789     14.9329     22.5135    130.6772
  1049.0000      8.0299      2.3653      0.0634     17.2536     22.5386    127.8155
  1049.1000      8.0299      2.3395      0.0432     18.8155     22.7378    122.1927
  1049.2000      8.0299      2.3285      0.1150     19.4868     22.9119    118.2443
  1049.3000      8.0238      2.3213      0.1065     19.9222     23.1335    123.0218
  1049.4000      8.0238      2.3122      0.0589     20.4740     23.1327    131.7759
  1049.5000      8.0187      2.2994      0.0909     21.2470     22.8995    135.4127
  1049.6000      8.0187      2.2760      0.1116     22.6660     22.5514    132.7561
  1049.7000      8.0187      2.2355      0.0670     25.1207     22.1378    127.3339
