~Version Information
VERS.                      2.0: CWLS Log ASCII Standard - VERSION 2.0
WRAP.                       NO: One line per depth step
~Well Information Block
STRT.FT               298.0000: 
STOP.FT              1325.5000: 
STEP.FT                 0.2500: 
NULL.                -999.2500: 
COMP.          Pioneer Natural Resources: COMPANY
WELL.          Santa Fe 43-27 Tr: WELL
FLD.           Purgatoire River: FIELD
LOC.           2018' FSL & 534' FEL: LOCATION
PROV.                 Colorado: PROVINCE
CNTY.               Las Animas: COUNTRY
SRVC.                Patterson: SERVICE COMPANY
DATE.          Tue Mar 08 10:44:11 2005: LOG DATE
UWI.           05 071 08303 00: UNIQUE WELL ID
~Curve Information Block
DEPT.FT            0 000 00 00: Depth
SN.Ohm-m                      : IEL Short Normal
SP.mV                         : IEL Spontaneous Potential
DIR.Ohm-m                     : IEL Induction Resistivity
GR.GAPI                       : Gamma Ray
~Parameter Information Block
~A  Depth        SN          SP         DIR          GR     
# ...
   499.0000   2000.0000   2000.0000     26.7203    123.4329
   499.2500   2000.0000   2000.0000     27.7981    124.9305
   499.5000   2000.0000   2000.0000     28.9144    123.7454
   499.7500   2000.0000   2000.0000     29.9963    120.9446
   500.0000   2000.0000   2000.0000     31.0203    114.8344
   500.2500   2000.0000   2000.0000     32.0409    110.2482
   500.5000   2000.0000   2000.0000     33.1689    103.5691
   500.7500   2000.0000   2000.0000     34.5107     99.3613
   501.0000   2000.0000   2000.0000     36.1130     92.9460
   501.2500   2000.0000   2000.0000     37.9458     88.3216
   501.5000   2000.0000   2000.0000     39.9347     80.9381
   501.7500   2000.0000   2000.0000     42.0178     76.0555
   502.0000   2000.0000   2000.0000     44.1792     69.4296
   502.2500   2000.0000   2000.0000     46.4162     65.6721
   502.5000   2000.0000   2000.0000     48.6584     60.9443
   502.7500   2000.0000   2000.0000     50.7020     58.2084
   503.0000   2000.0000   2000.0000     52.2355     54.4832
   503.2500   2000.0000   2000.0000     52.9799     52.3145
   503.5000   2000.0000   2000.0000     52.8577     49.9271
   503.7500   2000.0000   2000.0000     52.0472     49.0616
   504.0000   2000.0000   2000.0000     50.8650     48.6366
   504.2500   2000.0000   2000.0000     49.6050     48.6560
   504.5000   2000.0000   2000.0000     48.4692     48.8494
   504.7500   2000.0000   2000.0000     47.6110     49.0858
   505.0000   2000.0000   2000.0000     47.2370     49.6158
   505.2500   2000.0000   2000.0000     47.6615     50.0153
   505.5000   2000.0000   2000.0000     49.2455     50.5489
   505.7500   2000.0000   2000.0000     52.1838     50.8058
   506.0000   2000.0000   2000.0000     56.1262     50.8251
   506.2500   2000.0000   2000.0000     59.8047     50.4216
   506.5000   2000.0000   2000.0000     61.4157     49.2556
   506.7500   2000.0000   2000.0000     60.1614     48.4452
   507.0000   2000.0000   2000.0000     57.0842     47.7857
   507.2500   2000.0000   2000.0000     53.8494     47.7368
   507.5000   2000.0000   2000.0000     51.4420     47.7674
   507.7500   2000.0000   2000.0000     50.0305     47.6581
   508.0000   2000.0000   2000.0000     49.3506     47.6295
   508.2500   2000.0000   2000.0000     49.0440     48.1687
   508.5000   2000.0000   2000.0000     48.8506     50.3770
   508.7500   2000.0000   2000.0000     48.6571     52.7175
   509.0000   2000.0000   2000.0000     48.4484     56.9282
   509.2500   2000.0000   2000.0000     48.2558     59.7664
   509.5000   2000.0000   2000.0000     48.1421     63.1612
   509.7500   2000.0000   2000.0000     48.1911     64.1455
   510.0000   2000.0000   2000.0000     48.4732     62.6639
   510.2500   2000.0000   2000.0000     49.0189     59.6688
   510.5000   2000.0000   2000.0000     49.8400     53.3631
   510.7500   2000.0000   2000.0000     50.9513     48.9977
   511.0000   2000.0000   2000.0000     52.3212     43.5783
   511.2500   2000.0000   2000.0000     53.7609     41.0556
   511.5000   2000.0000   2000.0000     54.8752     39.0425
   511.7500   2000.0000   2000.0000     55.2030     38.9240
   512.0000   2000.0000   2000.0000     54.5102     40.5429
   512.2500   2000.0000   2000.0000     52.9708     42.5262
   512.5000   2000.0000   2000.0000     51.0576     45.7982
   512.7500   2000.0000   2000.0000     49.2673     47.5963
   513.0000   2000.0000   2000.0000     47.9064     49.8225
   513.2500   2000.0000   2000.0000     47.0200     51.8453
   513.5000   2000.0000   2000.0000     46.4279     57.4521
   513.7500   2000.0000   2000.0000     45.8205     63.3514
   514.0000   2000.0000   2000.0000     44.8982     74.7905
   514.2500   2000.0000   2000.0000     43.5123     83.2827
   514.5000   2000.0000   2000.0000     41.7333     95.8104
   514.7500   2000.0000   2000.0000     39.7905    103.3215
   515.0000   2000.0000   2000.0000     37.9289    112.5637
   515.2500   2000.0000   2000.0000     36.2935    117.2206
   515.5000   2000.0000   2000.0000     34.9004    122.1863
   515.7500   2000.0000   2000.0000     33.6819    124.5801
   516.0000   2000.0000   2000.0000     32.5586    127.9282
   516.2500   2000.0000   2000.0000     31.4831    130.5724
   516.5000   2000.0000   2000.0000     30.4388    135.1762
   516.7500   2000.0000   2000.0000     29.4210    138.0876
   517.0000   2000.0000   2000.0000     28.4345    141.1328
   517.2500   2000.0000   2000.0000     27.5092    142.0543
   517.5000   2000.0000   2000.0000     26.7072    142.1248
   517.7500   2000.0000   2000.0000     26.1040    141.6838
   518.0000   2000.0000   2000.0000     25.7586    140.7018
   518.2500   2000.0000   2000.0000     25.6973    139.7556
   518.5000   2000.0000   2000.0000     25.9165    137.4866
   518.7500   2000.0000   2000.0000     26.3932    135.2830
   519.0000   2000.0000   2000.0000     27.0913    131.0712
   519.2500   2000.0000   2000.0000     27.9605    127.7331
   519.5000   2000.0000   2000.0000     28.9415    121.4840
   519.7500   2000.0000   2000.0000     29.9830    115.7842
   520.0000   2000.0000   2000.0000     31.0655    103.7385
   520.2500   2000.0000   2000.0000     32.2145     93.4213
   520.5000   2000.0000   2000.0000     33.4937     76.2920
   520.7500   2000.0000   2000.0000     34.9869     65.2477
   521.0000   2000.0000   2000.0000     36.7841     51.1823
   521.2500   2000.0000   2000.0000     38.9733     43.9280
   521.5000   2000.0000   2000.0000     41.6173     36.0813
   521.7500   2000.0000   2000.0000     44.6921     32.5702
   522.0000   2000.0000   2000.0000     47.9844     29.4794
   522.2500   2000.0000   2000.0000     51.0174     28.7102
   522.5000   2000.0000   2000.0000     53.1224     29.0584
   522.7500   2000.0000   2000.0000     53.6992     29.8912
   523.0000   2000.0000   2000.0000     52.4831     31.3725
   523.2500   2000.0000   2000.0000     49.6017     32.3170
   523.5000   2000.0000   2000.0000     45.4606     33.7340
   523.7500   2000.0000   2000.0000     40.6102     34.8899
   524.0000   2000.0000   2000.0000     35.6210     37.5337
   524.2500   2000.0000   2000.0000     30.9525     40.3793
   524.5000   2000.0000   2000.0000     26.8753     47.2079
   524.7500   2000.0000   2000.0000     23.4780     53.9424
   525.0000   2000.0000   2000.0000     20.7255     67.5709
   525.2500   2000.0000   2000.0000     18.5224     78.5332
   525.5000   2000.0000   2000.0000     16.7576     95.7765
   525.7500   2000.0000   2000.0000     15.3293    106.4184
   526.0000   2000.0000   2000.0000     14.1543    119.7512
   526.2500   2000.0000   2000.0000     13.1688    126.8761
   526.5000   2000.0000   2000.0000     12.3280    135.2408
   526.7500   2000.0000   2000.0000     11.6045    139.2430
   527.0000   2000.0000   2000.0000     10.9852    142.9168
   527.2500   2000.0000   2000.0000     10.4644    144.1761
   527.5000   2000.0000   2000.0000     10.0365    145.1839
   527.7500   2000.0000   2000.0000      9.6920    145.7135
   528.0000   2000.0000   2000.0000      9.4181    147.1003
   528.2500   2000.0000   2000.0000      9.2025    148.9513
   528.5000   2000.0000   2000.0000      9.0367    153.4556
   528.7500   2000.0000   2000.0000      8.9164    157.1536
   529.0000   2000.0000   2000.0000      8.8402    162.2850
   529.2500   2000.0000   2000.0000      8.8091    164.6587
   529.5000   2000.0000   2000.0000      8.8267    165.9074
   529.7500   2000.0000   2000.0000      8.8991    165.1335
   530.0000   2000.0000   2000.0000      9.0319    162.0813
   530.2500   2000.0000   2000.0000      9.2256    159.3957
   530.5000   2000.0000   2000.0000      9.4717    155.5561
   530.7500   2000.0000   2000.0000      9.7538    153.5303
   531.0000   2000.0000   2000.0000     10.0555    151.1004
   531.2500   2000.0000   2000.0000     10.3692    149.4195
   531.5000   2000.0000   2000.0000     10.6984    146.1062
   531.7500   2000.0000   2000.0000     11.0532    143.2602
   532.0000   2000.0000   2000.0000     11.4439    138.3498
   532.2500   2000.0000   2000.0000     11.8776    134.9765
