~Version Information
VERS.                      2.0: CWLS Log ASCII Standard - VERSION 2.0
WRAP.                       NO: One line per depth step
~Well Information Block
STRT.FT               340.0000: 
STOP.FT              1542.5000: 
STEP.FT                 0.1000: 
NULL.                -999.2500: 
COMP.          Petrogulf Corporation: COMPANY
WELL.            Montoya 7-21R: WELL
FLD.           Purgatorie River: FIELD
LOC.           445' FNL & 1942' FWL: LOCATION
PROV.                 Colorado: PROVINCE
CNTY.               Las Animas: COUNTRY
SRVC.                Patterson: SERVICE COMPANY
DATE.          Thu Sep 15 10:33:27 2005: LOG DATE
UWI.                          : UNIQUE WELL ID
~Curve Information Block
DEPT.FT            0 000 00 00: Depth
DCAL.in                       : CDL Caliper
RHOB.g/cc                     : CDL Bulk Density
RHOC.g/cc                     : CDL Density Correction
DPOR.pu                       : CDL Density Porosity
GR.GAPI                       : Gamma Ray
NPOR.pu                       : Neutron Porosity
~Parameter Information Block
~A  Depth       DCAL        RHOB        RHOC        DPOR         GR         NPOR    
# ...
   656.8000      8.1618      2.4958      0.0841      9.3426    169.3092     28.5403
   656.9000      8.1618      2.5297      0.1200      7.2923    167.8186     28.7333
   657.0000      8.1595      2.5517      0.1579      5.9577    163.8068     28.9324
   657.1000      8.1595      2.5504      0.1094      6.0344    158.9533     29.2809
   657.2000      8.1595      2.5385      0.0524      6.7583    155.4333     29.5836
   657.3000      8.1537      2.5343      0.0334      7.0149    153.4747     29.6034
   657.4000      8.1537      2.5439      0.0378      6.4296    151.7157     29.5717
   657.5000      8.1484      2.5599      0.0660      5.4622    150.6811     29.6766
   657.6000      8.1484      2.5669      0.0650      5.0369    149.2449     29.7536
   657.7000      8.1484      2.5596      0.0166      5.4780    145.0283     29.6698
   657.8000      8.1436      2.5531     -0.0387      5.8732    140.0584     29.5015
   657.9000      8.1436      2.5611      0.0299      5.3896    136.8707     29.2737
   658.0000      8.1318      2.5742      0.0622      4.5945    133.8492     28.9197
   658.1000      8.1318      2.5820      0.0537      4.1224    130.0893     28.5330
   658.2000      8.1318      2.5885      0.0634      3.7294    126.7586     28.2077
   658.3000      8.1085      2.6005      0.0465      3.0017    123.4259     27.9745
   658.4000      8.1085      2.6208      0.0643      1.7699    120.6330     27.8208
   658.5000      8.1079      2.6415      0.1013      0.5127    121.0493     27.6302
   658.6000      8.1079      2.6530      0.0632     -0.1823    122.7997     27.3045
   658.7000      8.1079      2.6609      0.0759     -0.6597    121.6739     27.0074
   658.8000      8.0966      2.6754      0.1316     -1.5398    117.9044     26.9505
   658.9000      8.0966      2.6924      0.1583     -2.5694    114.5519     26.9735
   659.0000      8.0988      2.7016      0.1098     -3.1246    113.4186     26.9024
   659.1000      8.0988      2.7024      0.1072     -3.1728    113.4786     26.8524
   659.2000      8.0988      2.6994      0.1056     -2.9920    113.5246     26.8836
   659.3000      8.0971      2.6921      0.1027     -2.5513    113.7446     26.8226
   659.4000      8.0971      2.6732      0.1111     -1.4066    113.1129     26.4820
   659.5000      8.0966      2.6452      0.0529      0.2894    111.9225     25.9537
   659.6000      8.0966      2.6258     -0.0007      1.4665    114.7669     25.4328
   659.7000      8.0966      2.6232      0.0288      1.6213    122.9395     25.1623
   659.8000      8.1020      2.6231      0.0428      1.6287    130.3088     25.2876
   659.9000      8.1020      2.6101      0.0554      2.4154    133.2798     25.4583
   660.0000      8.0989      2.5922     -0.0013      3.5027    134.3881     25.2260
   660.1000      8.0989      2.5852      0.0394      3.9271    136.1306     24.6698
   660.2000      8.0989      2.5847      0.0305      3.9559    138.2935     24.3390
   660.3000      8.1094      2.5807      0.0322      4.2026    140.3660     24.5221
   660.4000      8.1094      2.5728      0.0425      4.6784    143.3528     24.8794
   660.5000      8.1249      2.5668      0.0464      5.0424    148.2406     25.1048
   660.6000      8.1249      2.5653      0.0570      5.1356    153.5628     25.2445
   660.7000      8.1249      2.5660      0.0199      5.0918    155.8127     25.4204
   660.8000      8.1339      2.5696      0.0490      4.8707    154.0386     25.7404
   660.9000      8.1339      2.5738      0.0404      4.6196    149.3277     26.1124
   661.0000      8.1431      2.5736      0.0607      4.6308    141.7086     26.4182
   661.1000      8.1431      2.5756      0.0303      4.5104    134.8966     26.7121
   661.2000      8.1431      2.5909      0.0638      3.5833    135.5916     27.0581
   661.3000      8.1528      2.6220      0.0468      1.6972    141.5244     27.4635
   661.4000      8.1528      2.6646      0.0565     -0.8830    145.1931     27.8517
   661.5000      8.1573      2.7079      0.0757     -3.5094    145.1919     28.0850
   661.6000      8.1573      2.7440      0.0581     -5.6963    143.2533     28.2076
   661.7000      8.1573      2.7759      0.0883     -7.6290    140.4880     28.6105
   661.8000      8.1612      2.8070      0.0832     -9.5133    135.8013     29.3041
   661.9000      8.1612      2.8323      0.1486    -11.0472    129.1231     29.8342
   662.0000      8.1731      2.8438      0.0751    -11.7474    125.3538     30.1775
   662.1000      8.1731      2.8395      0.0619    -11.4845    126.2295     30.5055
   662.2000      8.1731      2.8134      0.0812     -9.9023    128.6212     30.6046
   662.3000      8.1781      2.7673     -0.0315     -7.1071    131.4352     30.2871
   662.4000      8.1781      2.7238     -0.0638     -4.4711    133.1069     29.8514
   662.5000      8.1382      2.6944     -0.0167     -2.6927    131.6847     29.6889
   662.6000      8.1382      2.6672     -0.0184     -1.0443    129.9974     29.6567
   662.7000      8.1382      2.6376     -0.0070      0.7513    130.7065     29.3072
   662.8000      8.1443      2.6101      0.0249      2.4202    132.4935     28.5990
   662.9000      8.1443      2.5860      0.0192      3.8815    135.8448     27.9022
   663.0000      8.1637      2.5744      0.0344      4.5846    140.9167     27.3492
   663.1000      8.1637      2.5761      0.0777      4.4818    144.6649     26.8754
   663.2000      8.1637      2.5753      0.0791      4.5246    146.2907     26.4910
   663.3000      8.1643      2.5645      0.0502      5.1837    146.6888     26.1394
   663.4000      8.1643      2.5505      0.0532      6.0296    147.6694     25.7117
   663.5000      8.1759      2.5404      0.0805      6.6419    151.2312     25.3669
   663.6000      8.1759      2.5324      0.0861      7.1256    154.9020     25.4314
   663.7000      8.1759      2.5214      0.0827      7.7958    155.7027     25.9053
   663.8000      8.2041      2.5085      0.1261      8.5770    154.5760     26.5062
   663.9000      8.2041      2.5003      0.0813      9.0724    154.4645     27.0758
   664.0000      8.1975      2.4996      0.1528      9.1155    156.7679     27.4805
   664.1000      8.1975      2.5071      0.0461      8.6615    160.5019     27.6448
   664.2000      8.1975      2.5225      0.0633      7.7274    163.8139     27.6802
   664.3000      8.1652      2.5346      0.0640      6.9962    163.9579     27.7252
   664.4000      8.1652      2.5409      0.0278      6.6112    158.4639     27.8915
   664.5000      8.1573      2.5502      0.0776      6.0483    148.5569     28.1139
   664.6000      8.1573      2.5602      0.0503      5.4421    138.9571     28.3685
   664.7000      8.1573      2.5722      0.0620      4.7177    133.7152     28.6586
   664.8000      8.1515      2.5964      0.0429      3.2461    134.1425     28.7388
   664.9000      8.1515      2.6310      0.1336      1.1521    137.9506     28.5554
   665.0000      8.1420      2.6577      0.1354     -0.4638    139.3001     28.2585
   665.1000      8.1420      2.6678      0.1465     -1.0801    135.6538     27.8782
   665.2000      8.1420      2.6706      0.1455     -1.2500    132.2824     27.6052
   665.3000      8.1436      2.6782      0.1425     -1.7091    132.5074     27.5985
   665.4000      8.1436      2.6909      0.1651     -2.4792    132.7452     27.7443
   665.5000      8.1425      2.6967      0.1549     -2.8293    132.3201     27.9710
   665.6000      8.1425      2.6857      0.1330     -2.1651    132.4736     28.2161
   665.7000      8.1425      2.6657      0.0955     -0.9498    130.1572     28.4070
   665.8000      8.1450      2.6541      0.0664     -0.2513    124.5775     28.4128
   665.9000      8.1450      2.6521      0.0578     -0.1289    121.3708     28.1096
   666.0000      8.1345      2.6474      0.0510      0.1566    122.6275     27.6777
   666.1000      8.1345      2.6366      0.0457      0.8131    125.1766     27.3957
   666.2000      8.1345      2.6214      0.0444      1.7354    127.0842     27.3177
   666.3000      8.1297      2.6042     -0.0040      2.7737    129.6278     27.3808
