~Version Information
VERS.                      2.0: CWLS Log ASCII Standard - VERSION 2.0
WRAP.                       NO: One line per depth step
~Well Information Block
STRT.FT               -10.0000: 
STOP.FT              2297.5000: 
STEP.FT                 0.2500: 
NULL.                -999.2500: 
COMP.          Pioneer Natural Resources: COMPANY
WELL.              Bobsy 34-11: WELL
FLD.           Purgatorie River: FIELD
LOC.           1937' FEL & 451' FSL----------: LOCATION
PROV.                       CO: PROVINCE
CNTY.               Las Animas: COUNTRY
SRVC.          Patterson Wireline: SERVICE COMPANY
DATE.          Mon Apr 18 09:37:11 2005: LOG DATE
UWI.           05 071 08330 00: UNIQUE WELL ID
~Curve Information Block
DEPT.FT            0 000 00 00: Depth
CCL.                          : Casing Collar Locator
TT3.usec                      : CBL 3' Travel Time
AMP3.mV                       : CBL 3' Amplitude
GR.GAPI                       : Gamma Ray
~Parameter Information Block
~A  Depth       CCL         TT3         AMP3         GR     
# ...
  1062.0000      0.0000    720.0344      4.2574     77.9033
  1062.2500      0.0000    729.6012      4.1307     77.8989
  1062.5000      0.0000    741.8763      4.2059     80.5846
  1062.7500      0.0000    744.8689      4.3824     84.6750
  1063.0000      0.0000    727.5064      4.5394     89.7126
  1063.2500     -2.0000    687.3885      4.6310     95.9307
  1063.5000     -2.0000    634.7984      4.6725    103.3652
  1063.7500      0.0000    588.5084      4.6771    111.2706
  1064.0000      0.0000    563.9420      4.6451    118.3392
  1064.2500      0.0000    562.2899      4.6075    123.2178
  1064.5000      0.0000    572.5679      4.6392    124.8810
  1064.7500      0.0000    585.4470      4.8031    123.0436
  1065.0000      0.0000    600.9094      5.0814    118.3611
  1065.2500      0.0000    619.9200      5.3678    111.8660
  1065.5000      0.0000    635.2321      5.5365    104.3382
  1065.7500      0.0000    637.4767      5.5323     96.7348
  1066.0000      0.0000    627.4834      5.4025     91.0008
  1066.2500      0.0000    617.0922      5.2370     89.5031
  1066.5000      0.0000    619.6575      5.0861     93.3046
  1066.7500      0.0000    642.6053      4.9534    101.2323
  1067.0000      0.0000    684.6752      4.8540    110.7311
  1067.2500      0.0000    734.8376      4.8314    119.4639
  1067.5000      0.0000    776.1078      4.9065    126.1153
  1067.7500      0.0000    795.3611      5.0387    129.9483
  1068.0000      0.0000    791.2144      5.1501    130.2283
  1068.2500      0.0000    772.8505      5.1710    126.7012
  1068.5000      0.0000    752.2635      5.0733    120.5461
  1068.7500      0.0000    737.2385      4.8937    114.3608
  1069.0000      0.0000    729.6618      4.7274    111.0044
  1069.2500      0.0000    728.1423      4.6622    112.0850
  1069.5000      0.0000    731.0214      4.7014    116.9384
  1069.7500      0.0000    737.5641      4.7687    123.0579
  1070.0000      0.0000    747.7888      4.7923    127.9327
  1070.2500      0.0000    761.7778      4.7654    130.4066
  1070.5000      0.0000    778.7231      4.7245    130.2614
  1070.7500      0.0000    796.6104      4.6947    127.4088
  1071.0000      0.0000    812.8790      4.6599    122.3875
  1071.2500      0.0000    824.8162      4.5737    117.1663
  1071.5000      0.0000    829.0723      4.4143    114.3640
  1071.7500      0.0000    822.3206      4.2378    115.1964
  1072.0000      0.0000    804.5629      4.1479    118.4302
  1072.2500      0.0000    781.8239      4.1943    121.5599
  1072.5000      0.0000    762.6998      4.3245    122.8115
  1072.7500      0.0000    750.0978      4.4533    122.0010
  1073.0000      0.0000    738.2571      4.5453    120.0524
  1073.2500      0.0000    719.9709      4.6115    118.2138
  1073.5000      0.0000    695.6047      4.6628    117.5375
  1073.7500      0.0000    674.3749      4.7063    118.4451
  1074.0000      0.0000    667.4744      4.7678    120.3092
  1074.2500      0.0000    679.0137      4.8734    121.5449
  1074.5000      0.0000    702.6232      5.0136    120.5426
  1074.7500      0.0000    727.1951      5.1591    116.9087
  1075.0000      0.0000    745.3003      5.3120    111.8980
  1075.2500      0.0000    755.5908      5.5092    107.5698
  1075.5000      0.0000    759.4488      5.7640    105.3986
  1075.7500      0.0000    758.3126      6.0342    105.4222
  1076.0000      0.0000    754.2874      6.2769    106.4214
  1076.2500      0.0000    751.0998      6.5220    106.9529
  1076.5000      0.0000    752.5283      6.8502    106.4766
  1076.7500      0.0000    759.1848      7.2741    105.5342
  1077.0000      0.0000    767.2999      7.6600    104.7909
  1077.2500      0.0000    771.4131      7.8056    104.1530
  1077.5000      0.0000    768.7481      7.5985    102.8483
  1077.7500      0.0000    761.4476      7.0800     99.8718
  1078.0000      0.0000    754.6887      6.3718     94.2864
  1078.2500      0.0000    752.1846      5.5893     85.7464
  1078.5000      0.0000    753.3759      4.8294     75.0045
  1078.7500      0.0000    755.0067      4.1842     63.6298
  1079.0000      0.0000    754.6340      3.7201     53.2453
  1079.2500      0.0000    752.3425      3.4512     45.2960
  1079.5000      0.0000    750.2505      3.3552     41.1895
  1079.7500      0.0000    751.1003      3.4135     41.9221
  1080.0000      0.0000    756.3594      3.6270     47.4702
  1080.2500      0.0000    764.4988      4.0050     56.8817
  1080.5000      0.0000    771.0671      4.5498     68.7907
  1080.7500      0.0000    771.0677      5.2390     81.5354
  1081.0000      0.0000    762.3948      6.0220     93.2145
  1081.2500      0.0000    747.8502      6.8656    102.4467
  1081.5000      0.0000    733.5688      7.7986    109.1220
  1081.7500      0.0000    724.6182      8.8579    113.9286
  1082.0000      0.0000    721.1395      9.9565    117.1171
  1082.2500      0.0000    718.0073     10.8448    118.3269
  1082.5000      0.0000    709.4423     11.2583    117.7314
  1082.7500      0.0000    696.1485     11.1155    116.4103
  1083.0000      0.0000    687.3135     10.5638    114.9981
  1083.2500      0.0000    692.8239      9.8528    112.8823
  1083.5000      0.0000    713.3008      9.1689    109.6338
  1083.7500      0.0000    739.7600      8.5542    106.5865
  1084.0000      0.0000    761.9011      7.9414    105.9526
  1084.2500      0.0000    774.1043      7.2626    108.4551
  1084.5000      0.0000    774.7429      6.5415    112.5409
  1084.7500      0.0000    764.3163      5.8946    116.0624
  1085.0000      0.0000    746.6476      5.4512    118.2437
  1085.2500      0.0000    730.3464      5.2608    119.6399
  1085.5000      0.0000    725.2607      5.2558    120.4447
  1085.7500      0.0000    734.6326      5.2977    119.6681
  1086.0000      0.0000    750.5102      5.2659    116.4310
  1086.2500      0.0000    757.8008      5.1157    111.6918
  1086.5000      0.0000    743.9767      4.8771    108.0726
  1086.7500      0.0000    708.0554      4.6225    107.7609
  1087.0000      0.0000    662.5511      4.4255    110.6452
  1087.2500      0.0000    624.3143      4.3276    114.4480
  1087.5000      0.0000    600.4661      4.3306    116.5012
  1087.7500      0.0000    584.6098      4.4163    115.5548
  1088.0000      0.0000    567.6155      4.5650    112.4522
  1088.2500      0.0000    548.2723      4.7474    109.5192
  1088.5000      0.0000    531.3152      4.9058    109.0636
  1088.7500      0.0000    519.5516      4.9651    111.7392
  1089.0000      0.0000    511.7156      4.8862    115.9907
  1089.2500      0.0000    505.8663      4.7169    119.2633
  1089.5000      0.0000    501.8361      4.5783    119.8493
  1089.7500      0.0000    501.1038      4.5730    117.6350
  1090.0000      0.0000    506.2946      4.6927    113.6400
  1090.2500      0.0000    520.7914      4.8237    109.3642
  1090.5000      0.0000    546.8480      4.8483    106.1842
  1090.7500      0.0000    582.6129      4.7430    104.6756
  1091.0000      0.0000    621.3083      4.5895    104.4611
  1091.2500      0.0000    654.7976      4.4993    104.9512
  1091.5000      0.0000    678.5634      4.5219    106.0871
  1091.7500      0.0000    693.2789      4.6205    107.9985
  1092.0000      0.0000    702.3271      4.7254    109.9704
  1092.2500      0.0000    708.6137      4.7904    110.2842
  1092.5000      0.0000    713.3758      4.7977    107.4944
  1092.7500      0.0000    716.9271      4.7420    101.8688
  1093.0000      0.0000    719.7548      4.6340     95.4194
  1093.2500      0.0000    722.6952      4.5182     90.4302
  1093.5000      0.0000    726.1771      4.4720     87.9020
  1093.7500      0.0000    729.5397      4.5689     87.3178
  1094.0000      0.0000    731.5078      4.8157     87.6041
  1094.2500      0.0000    731.6373      5.1217     88.0487
  1094.5000      0.0000    731.0466      5.3490     88.4030
  1094.7500      0.0000    731.3045      5.4028     88.4909
  1095.0000      0.0000    732.8076      5.2846     88.0605
  1095.2500      0.0000    734.7244      5.0850     87.0765
