~Version Information
VERS.                      2.0: CWLS Log ASCII Standard - VERSION 2.0
WRAP.                       NO: One line per depth step
~Well Information Block
STRT.FT                15.0000: 
STOP.FT              2565.5000: 
STEP.FT                 0.2500: 
NULL.                -999.2500: 
COMP.          Pioneer Natural Resources: COMPANY
WELL.           Costello 44-24: WELL
FLD.           Purgatoire River: FIELD
LOC.           327' FSL & 378' FEL: LOCATION
PROV.                 Colorado: PROVINCE
CNTY.               Las Animas: COUNTRY
SRVC.                Patterson: SERVICE COMPANY
DATE.          Mon Jul 25 10:15:19 2005: LOG DATE
UWI.           05 071 08413 00: UNIQUE WELL ID
~Curve Information Block
DEPT.FT            0 000 00 00: Depth
GR.GAPI                       : Gamma Ray
CCL.                          : Casing Collar Locator
TT3.usec                      : CBL 3' Travel Time
AMP3.mV                       : CBL 3' Amplitude
~Parameter Information Block
~A  Depth        GR         CCL         TT3         AMP3    
# ...
  1355.0000     92.4919      0.0000    607.7902      5.1937
  1355.2500     91.1996      0.0000    584.4367      5.1160
  1355.5000     90.7651      0.0000    574.2674      5.0378
  1355.7500     90.9002      0.0000    574.1495      4.9706
  1356.0000     92.0267      0.0000    574.3810      4.9179
  1356.2500     94.2706      0.0000    565.7169      4.8729
  1356.5000     96.9791      0.0000    545.8379      4.8235
  1356.7500     99.4288      0.0000    520.6880      4.7638
  1357.0000    101.6296      0.0000    500.1494      4.7003
  1357.2500    104.1571      0.0000    491.3115      4.6469
  1357.5000    107.4865      0.0000    493.7042      4.6151
  1357.7500    111.6729      0.0000    499.3300      4.6060
  1358.0000    116.3805      0.0000    498.3388      4.6105
  1358.2500    120.9786      0.0000    487.2328      4.6145
  1358.5000    124.8635      0.0000    472.2355      4.6104
  1358.7500    127.8614      0.0000    464.3685      4.6034
  1359.0000    129.9672      0.0000    471.8743      4.6071
  1359.2500    130.4568      0.0000    496.3096      4.6333
  1359.5000    127.6857      0.0000    532.2753      4.6833
  1359.7500    120.3167      0.0000    569.4473      4.7455
  1360.0000    108.9277      0.0000    597.5907      4.8005
  1360.2500     96.4415      0.0000    612.2360      4.8321
  1360.5000     86.9025      0.0000    615.6968      4.8366
  1360.7500     83.2794      0.0000    612.6037      4.8220
  1361.0000     85.7141      0.0000    605.0798      4.7986
  1361.2500     91.6088      0.0000    591.7456      4.7708
  1361.5000     97.5975      0.0000    570.4235      4.7370
  1361.7500    101.7112      0.0000    541.9855      4.6983
  1362.0000    103.9620      0.0000    512.2193      4.6676
  1362.2500    105.2725      0.0000    489.9927      4.6663
  1362.5000    106.3549      0.0000    482.8376      4.7065
  1362.7500    107.6116      0.0000    492.9480      4.7772
  1363.0000    109.3148      0.0000    515.9561      4.8486
  1363.2500    111.2323      0.0000    543.4844      4.8919
  1363.5000    112.3344      0.0000    568.0049      4.8958
  1363.7500    111.3801      0.0000    586.0378      4.8677
  1364.0000    107.9125      0.0000    597.5751      4.8246
  1364.2500    102.6095      0.0000    603.9786      4.7825
  1364.5000     96.8701      0.0000    606.9210      4.7478
  1364.7500     92.1892      0.0000    608.2358      4.7178
  1365.0000     89.6018      0.0000    609.8431      4.6922
  1365.2500     89.3685      0.0000    613.6885      4.6861
  1365.5000     91.0859      0.0000    621.3896      4.7215
  1365.7500     94.0350      0.0000    633.1617      4.8035
  1366.0000     97.4517      0.0000    646.7177      4.9098
  1366.2500    100.7054      0.0000    657.9385      5.0092
  1366.5000    103.4719      0.0000    663.5248      5.0872
  1366.7500    105.7705      0.0000    663.2097      5.1484
  1367.0000    107.9110      0.0000    659.1407      5.1962
  1367.2500    110.3843      0.0000    653.4124      5.2218
  1367.5000    113.3806      0.0000    646.7990      5.2152
  1367.7500    116.1587      0.0000    639.6833      5.1810
  1368.0000    117.4162      0.0000    633.1568      5.1388
  1368.2500    116.7499      0.0000    628.5071      5.1096
  1368.5000    115.4107      0.0000    626.0234      5.1034
  1368.7500    115.0661      0.0000    624.8972      5.1169
  1369.0000    115.9932      0.0000    624.0740      5.1404
  1369.2500    117.0061      0.0000    622.9601      5.1637
  1369.5000    117.0798      0.0000    621.7036      5.1814
  1369.7500    116.5795      0.0000    620.8918      5.1934
  1370.0000    116.6619      0.0000    620.5995      5.2012
  1370.2500    117.6944      0.0000    619.9554      5.2020
  1370.5000    118.7424      0.0000    618.1089      5.1821
  1370.7500    118.7466      0.0000    615.3040      5.1177
  1371.0000    117.7679      0.0000    612.5588      4.9859
  1371.2500    116.8952      0.0000    610.5664      4.7874
  1371.5000    117.3771      0.0000    609.2348      4.5648
  1371.7500    119.9668      0.0000    607.4992      4.3847
  1372.0000    124.5686      0.0000    602.6778      4.2822
  1372.2500    130.0537      0.0000    590.8818      4.2290
  1372.5000    134.5696      0.0000    570.8848      4.1779
  1372.7500    136.5460      0.0000    548.1708      4.1218
  1373.0000    135.8908      0.0000    531.5110      4.0870
  1373.2500    134.2792      0.0000    523.1661      4.0850
  1373.5000    133.9491      0.0000    515.8846      4.1010
  1373.7500    135.9327      0.0000    502.8488      4.1191
  1374.0000    139.3866      0.0000    488.1498      4.1443
  1374.2500    142.5067      0.0000    484.6997      4.2040
  1374.5000    143.7919      0.0000    503.2671      4.3249
  1374.7500    142.3448      0.0000    544.0931      4.4950
  1375.0000    137.5527      0.0000    596.5240      4.6559
  1375.2500    129.4399      0.0000    645.6207      4.7540
  1375.5000    119.7161      0.0000    680.6964      4.7869
  1375.7500    111.8308      0.0000    699.3824      4.7843
  1376.0000    108.9062      0.0000    705.5704      4.7634
  1376.2500    111.2185      0.0000    704.8786      4.7211
  1376.5000    116.1137      0.0000    701.5660      4.6525
  1376.7500    120.5206      0.0000    697.9586      4.5614
  1377.0000    123.2561      0.0000    695.5024      4.4622
  1377.2500    125.1338      0.0000    695.6461      4.3743
  1377.5000    127.7158      0.0000    699.5984      4.3145
  1377.7500    132.1743      0.0000    707.5389      4.2877
  1378.0000    138.6059      0.0000    718.2568      4.2860
  1378.2500    145.8391      0.0000    729.4240      4.2937
  1378.5000    151.9839      0.0000    738.4228      4.2941
  1378.7500    155.4443      0.0000    743.3126      4.2752
  1379.0000    155.7596      0.0000    743.2195      4.2317
  1379.2500    153.8856      0.0000    738.2015      4.1632
  1379.5000    151.6482      0.0000    729.3131      4.0716
  1379.7500    150.3521      0.0000    718.7386      3.9615
  1380.0000    149.5678      0.0000    709.1077      3.8402
  1380.2500    147.3979      0.0000    702.1646      3.7202
  1380.5000    141.9686      0.0000    698.1137      3.6155
  1380.7500    132.6550      0.0000    696.1644      3.5349
  1381.0000    120.3635      0.0000    695.4173      3.4775
  1381.2500    107.1319      0.0000    695.2673      3.4346
  1381.5000     95.2517      0.0000    695.3474      3.3947
  1381.7500     86.2048      0.0000    695.4047      3.3471
  1382.0000     80.1866      0.0000    695.2811      3.2842
  1382.2500     76.4907      0.0000    694.9338      3.2029
  1382.5000     74.0746      0.0000    694.4193      3.1043
  1382.7500     71.8037      0.0000    693.8410      2.9954
  1383.0000     68.7348      0.0000    693.3167      2.8898
  1383.2500     64.5987      0.0000    692.9578      2.8032
  1383.5000     59.9232      0.0000    692.8325      2.7457
  1383.7500     55.5756      0.0000    692.9360      2.7185
  1384.0000     52.3121      0.0000    693.2237      2.7142
  1384.2500     50.6286      0.0000    693.6769      2.7232
  1384.5000     50.6292      0.0000    694.2963      2.7407
  1384.7500     52.0108      0.0000    695.0027      2.7729
  1385.0000     54.5740      0.0000    695.5981      2.8309
  1385.2500     58.9107      0.0000    695.8704      2.9184
  1385.5000     66.2552      0.0000    695.6749      3.0255
  1385.7500     77.3051      0.0000    694.8176      3.1343
  1386.0000     91.1759      0.0000    692.9526      3.2292
  1386.2500    105.5803      0.0000    689.9276      3.3037
  1386.5000    118.0615      0.0000    686.4718      3.3600
  1386.7500    127.1790      0.0000    684.2715      3.4037
  1387.0000    132.7312      0.0000    684.8122      3.4380
  1387.2500    134.9257      0.0000    688.0166      3.4642
  1387.5000    133.5334      0.0000    692.3245      3.4858
  1387.7500    128.3019      0.0000    696.1161      3.5083
  1388.0000    120.0948      0.0000    698.7933      3.5357
  1388.2500    110.8163      0.0000    700.6142      3.5673
