~Version Information
VERS.                      2.0: CWLS Log ASCII Standard - VERSION 2.0
WRAP.                       NO: One line per depth step
~Well Information Block
STRT.FT                 5.5000: 
STOP.FT              1635.7500: 
STEP.FT                 0.2500: 
NULL.                -999.2500: 
COMP.          Pioneer Natural Resources: COMPANY
WELL.                Mead 11-9: WELL
FLD.           Purgatoire River: FIELD
LOC.           1127' FNL & 668' FWL: LOCATION
PROV.                 Colorado: PROVINCE
CNTY.               Las Animas: COUNTRY
SRVC.                Patterson: SERVICE COMPANY
DATE.          Wed Mar 02 13:48:38 2005: LOG DATE
UWI.           05 071 08160 00: UNIQUE WELL ID
~Curve Information Block
DEPT.FT            0 000 00 00: Depth
CCL.                          : Casing Collar Locator
TT3.usec                      : CBL 3' Travel Time
AMP3.mV                       : CBL 3' Amplitude
GR.GAPI                       : Gamma Ray
~Parameter Information Block
~A  Depth       CCL         TT3         AMP3         GR     
# ...
   106.0000      0.0000    701.6791      4.4760     86.6847
   106.2500      0.0000    703.9285      4.4303     89.1701
   106.5000      0.0000    706.2239      4.3955     91.4348
   106.7500      0.0000    707.7298      4.3709     91.5629
   107.0000      0.0000    708.3835      4.3567     89.0297
   107.2500      0.0000    708.4616      4.3580     85.4709
   107.5000      0.0000    708.0853      4.3827     82.9071
   107.7500      0.0000    707.0102      4.4324     81.7235
   108.0000      0.0000    704.7342      4.4970     80.9603
   108.2500      0.0000    701.0376      4.5586     80.0284
   108.5000      0.0000    696.8016      4.6026     79.5191
   108.7500      0.0000    694.1580      4.6257     80.6724
   109.0000      0.0000    695.4979      4.6358     84.3712
   109.2500      0.0000    702.4283      4.6471     90.2984
   109.5000      0.0000    716.1740      4.6721     96.8035
   109.7500      0.0000    737.7727      4.7151    101.8495
   110.0000      0.0000    765.1016      4.7699    104.3549
   110.2500      0.0000    789.2874      4.8242    104.6954
   110.5000      0.0000    798.1657      4.8695    104.0201
   110.7500      0.0000    786.8969      4.9044    103.2082
   111.0000      0.0000    763.7608      4.9311    102.3862
   111.2500      0.0000    743.8495      4.9517    101.2514
   111.5000      0.0000    739.6537      4.9708     99.7126
   111.7500      0.0000    758.6739      4.9960     98.1483
   112.0000      0.0000    804.9736      5.0340     97.0402
   112.2500      0.0000    877.6932      5.0885     96.3730
   112.5000      0.0000    967.9465      5.1623     95.5089
   112.7500      0.0000   1059.0117      5.2580     93.8034
   113.0000      0.0000   1130.3861      5.3740     91.2562
   113.2500      0.0000   1166.3903      5.4993     88.4661
   113.5000      0.0000   1169.1757      5.6171     86.1085
   113.7500      0.0000   1162.8322      5.7172     84.5694
   114.0000      0.0000   1173.8381      5.8026     83.9842
   114.2500      0.0000   1203.3438      5.8807     84.4545
   114.5000      0.0000   1226.7744      5.9502     85.9738
   114.7500      0.0000   1223.1449      5.9997     87.9988
   115.0000      0.0000   1195.9744      6.0177     89.3820
   115.2500      0.0000   1162.2581      5.9985     89.0659
   115.5000      0.0000   1131.1290      5.9372     86.9108
   115.7500      0.0000   1101.0748      5.8275     83.8816
   116.0000      0.0000   1070.9880      5.6710     81.3519
   116.2500      0.0000   1043.7145      5.4863     80.0596
   116.5000      0.0000   1019.5579      5.3054     79.7214
   116.7500      0.0000    992.6020      5.1589     79.5068
   117.0000      0.0000    955.4627      5.0640     78.7102
   117.2500      0.0000    906.9501      5.0198     77.2622
   117.5000      0.0000    854.9293      5.0133     75.9456
   117.7500      0.0000    811.5663      5.0291     75.8549
   118.0000      0.0000    785.5983      5.0567     77.3701
   118.2500      0.0000    778.4054      5.0917     79.9598
   118.5000      0.0000    784.8148      5.1362     83.0927
   118.7500      0.0000    795.4377      5.1995     86.6533
   119.0000      0.0000    800.5970      5.2939     90.1336
   119.2500      0.0000    796.5723      5.4255     92.2151
   119.5000      0.0000    789.7142      5.5879     91.9521
   119.7500      0.0000    794.5980      5.7635     90.0453
   120.0000      0.0000    827.8304      5.9252     88.2648
   120.2500      0.0000    898.7323      6.0398     87.7119
   120.5000      0.0000    996.8251      6.0805     87.9636
   120.7500      0.0000   1086.3582      6.0453     87.6677
   121.0000      0.0000   1122.9930      5.9603     85.7521
   121.2500      0.0000   1086.1802      5.8617     82.3847
   121.5000      0.0000    995.9943      5.7737     79.0457
   121.7500      0.0000    895.4975      5.6998     77.2711
   122.0000      0.0000    817.9526      5.6282     77.0510
   122.2500      0.0000    771.2051      5.5445     76.7940
   122.5000      0.0000    746.3888      5.4460     75.0718
   122.7500      0.0000    733.2162      5.3458     72.0986
   123.0000      0.0000    726.6786      5.2628     69.3869
   123.2500      0.0000    725.1824      5.2069     68.1797
   123.5000      0.0000    726.8651      5.1789     68.3896
   123.7500      0.0000    728.5585      5.1781     68.9325
   124.0000      0.0000    727.6370      5.2028     68.7942
   124.2500      0.0000    724.7873      5.2423     67.7822
   124.5000      0.0000    725.2119      5.2764     66.5963
   124.7500      0.0000    737.0184      5.2838     66.2322
   125.0000      0.0000    766.1079      5.2513     66.9466
   125.2500      0.0000    809.6100      5.1790     67.7877
   125.5000      0.0000    854.6606      5.0831     67.5117
   125.7500      0.0000    887.1280      4.9936     65.8411
   126.0000      0.0000    902.6492      4.9392     63.4911
   126.2500      0.0000    907.4578      4.9316     61.2683
   126.5000      0.0000    909.0472      4.9609     59.6613
   126.7500      0.0000    909.2504      5.0095     59.0008
   127.0000      0.0000    907.1459      5.0704     59.3362
   127.2500      0.0000    905.3661      5.1504     60.1610
   127.5000      0.0000    909.4159      5.2533     60.8072
   127.7500      0.0000    920.7853      5.3622     61.2741
   128.0000      0.0000    933.7276      5.4455     62.4096
   128.2500      0.0000    941.2135      5.4794     65.0720
   128.5000      0.0000    943.8962      5.4621     69.2035
   128.7500      0.0000    950.9523      5.4088     73.8963
   129.0000      0.0000    968.5475      5.3391     78.2988
   129.2500      0.0000    988.2328      5.2715     82.2835
   129.5000      0.0000    990.8444      5.2232     86.0782
   129.7500      0.0000    963.0159      5.2046     89.3012
   130.0000      0.0000    909.0639      5.2088     90.9566
   130.2500      0.0000    847.4285      5.2123     90.6856
   130.5000      0.0000    796.2200      5.1893     89.2553
   130.7500      0.0000    762.1392      5.1267     87.2658
   131.0000      0.0000    741.5759      5.0270     84.3143
   131.2500      0.0000    728.6090      4.9033     80.1833
   131.5000      0.0000    719.9315      4.7729     76.0042
   131.7500      0.0000    714.4772      4.6523     73.3946
   132.0000      0.0000    711.5239      4.5530     72.9993
   132.2500      0.0000    710.1762      4.4797     74.5036
   132.5000      0.0000    709.6655      4.4308     77.5956
   132.7500      0.0000    709.7681      4.4011     82.1931
   133.0000      0.0000    710.8445      4.3849     87.9072
   133.2500      0.0000    713.6204      4.3768     93.7773
   133.5000      0.0000    718.5848      4.3732     98.5090
   133.7500      0.0000    725.0870      4.3720    100.8730
   134.0000      0.0000    730.9224      4.3713    100.1956
   134.2500      0.0000    733.3464      4.3724     96.7854
   134.5000      0.0000    731.0817      4.3825     91.9711
   134.7500      0.0000    725.3863      4.4135     87.5073
   135.0000      0.0000    719.0018      4.4709     84.5877
   135.2500      0.0000    714.1154      4.5459     83.2878
   135.5000      0.0000    711.3497      4.6211     82.9585
   135.7500      0.0000    710.2209      4.6841     82.9357
   136.0000      0.0000    710.0276      4.7364     82.8454
   136.2500      0.0000    710.1647      4.7906     82.5713
   136.5000      0.0000    710.1760      4.8539     82.1407
   136.7500      0.0000    710.6094      4.9023     81.4994
   137.0000      0.0000    714.8588      4.8685     80.2612
   137.2500      0.0000    729.1238      4.6832     77.7391
   137.5000      0.0000    757.1139      4.3525     73.3758
   137.7500      0.0000    792.7252      3.9809     67.2835
   138.0000      0.0000    821.2910      3.6924     60.4657
   138.2500      0.0000    832.6609      3.5373     54.5117
   138.5000     -2.1674    831.8075      3.4859     50.9094
   138.7500     -3.0000    831.9424      3.4897     50.3202
   139.0000      3.0000    838.3729      3.5347     52.2407
   139.2500      0.0000    844.5867      3.6503     55.3670
