~Version Information
VERS.                      2.0: CWLS Log ASCII Standard - VERSION 2.0
WRAP.                       NO: One line per depth step
~Well Information Block
STRT.FT               546.0000: 
STOP.FT              1771.5000: 
STEP.FT                 0.2500: 
NULL.                -999.2500: 
COMP.          Petrogulf Corporation: COMPANY
WELL.             McLeod 9-42R: WELL
FLD.           Purgatorie River: FIELD
LOC.           1748' FNL & 372' FEL: LOCATION
PROV.                 Colorado: PROVINCE
CNTY.               Las Animas: COUNTRY
SRVC.                Patterson: SERVICE COMPANY
DATE.          Tue Aug 16 11:11:38 2005: LOG DATE
UWI.           071 08092  : UNIQUE WELL ID
~Curve Information Block
DEPT.FT            0 000 00 00: Depth
SP.mV                         : DIL Spontaneous Potential
RILD.Ohm-m                    : DIL Deep Resistivity
RILM.Ohm-m                    : DIL Medium Resistivity
RLL3.Ohm-m                    : DIL Shallow Resistivity
GR.GAPI                       : Gamma Ray
~Parameter Information Block
~A  Depth        SP         RILD        RILM        RLL3         GR     
# ...
  1162.0000    -50.4583     55.0216     33.8917     66.0067     44.3451
  1162.2500    -50.9674     55.1675     31.7918     62.9946     43.5176
  1162.5000    -50.7651     62.2318     33.8227     61.3601     46.1437
  1162.7500    -51.2985     70.7605     35.7977     60.6274     48.9164
  1163.0000    -50.9120     67.9243     35.9468     58.8760     49.1697
  1163.2500    -50.9829     61.5258     37.4244     57.8055     48.3571
  1163.5000    -51.2505     61.0839     37.9593     57.0099     48.1159
  1163.7500    -52.0709     66.7187     38.7601     56.1999     50.5258
  1164.0000    -53.1170     58.6396     40.1339     57.8506     50.6472
  1164.2500    -54.6026     48.8654     39.3787     59.2603     50.9055
  1164.5000    -56.3445     50.1395     37.1022     58.5200     52.0285
  1164.7500    -57.6434     45.3571     35.7832     59.6050     52.8161
  1165.0000    -58.8931     45.7692     36.9624     60.1672     54.4484
  1165.2500    -58.1850     48.4992     35.3955     59.5550     56.6496
  1165.5000    -57.0057     39.5212     35.9666     58.0904     63.0830
  1165.7500    -55.4630     36.6861     34.4010     56.2822     66.4229
  1166.0000    -53.1548     30.5102     35.1935     56.2720     77.4256
  1166.2500    -51.3785     26.0557     34.2906     55.9796     71.2457
  1166.5000    -50.1046     26.1770     32.7328     55.3123     75.3419
  1166.7500    -46.2259     25.1795     30.8443     50.6025     79.6173
  1167.0000    -42.1957     22.8839     30.3459     39.0493     64.9920
  1167.2500    -36.1669     20.0394     29.4943     30.9420     57.8267
  1167.5000    -29.1461     16.6066     27.8686     43.0522     64.6949
  1167.7500    -22.3855     16.2352     23.3905     77.8287     70.7785
  1168.0000    -15.3640     15.3888     21.0816    105.0114     89.0855
  1168.2500     -6.3580     14.0409     16.9516     83.6681     99.7722
  1168.5000      3.3534     13.0680     15.0687     37.0047    124.5232
  1168.7500     10.7179     13.1784     12.9691     17.8421    132.8246
  1169.0000     17.0589     11.9069     11.6608     11.9770    128.5226
  1169.2500     20.8504     12.2059     10.5098     11.0657    130.5457
  1169.5000     24.9381     12.1522     10.3557     10.9487    134.8603
  1169.7500     28.1737     11.6692     10.3258     11.0722    138.3003
  1170.0000     31.2062     10.9911     10.3646     11.0919    135.9591
  1170.2500     33.8968     11.0005      9.9917     10.7426    130.1190
  1170.5000     35.7414     10.8210     10.0855     10.2777    132.0829
  1170.7500     37.2131     10.9050     10.2827      9.9371    112.9537
  1171.0000     38.7799     10.5931     10.6824      9.9628    104.1719
  1171.2500     40.8556     10.5324     12.2587     12.7977     97.0659
  1171.5000     41.9997     11.4318     12.7343     20.4907     92.5821
  1171.7500     44.1011     11.8162     13.0781     31.6273     95.1099
  1172.0000     45.9893     12.6047     13.8118     39.5741     99.6369
  1172.2500     48.3062     12.6068     14.5459     42.8237    101.1548
  1172.5000     48.8375     12.7057     15.0589     35.8417    110.4078
  1172.7500     50.0019     14.1991     15.6298     27.9661    106.7267
  1173.0000     51.8410     16.2729     16.1825     27.0341    106.1977
  1173.2500     54.0851     17.0737     18.0354     27.1381    110.8225
  1173.5000     55.6760     17.9724     19.5852     27.0236    116.1742
  1173.7500     56.9932     20.3531     21.1833     27.2623    105.2944
  1174.0000     57.0966     19.6331     22.4985     27.1827    112.4043
  1174.2500     55.6057     20.2846     23.0226     28.7847    102.4670
  1174.5000     54.7538     21.2988     25.0130     30.9433     98.6837
  1174.7500     53.6001     22.3276     28.8565     29.0915     94.4517
  1175.0000     53.0167     21.5326     30.4394     27.9284    100.2554
  1175.2500     52.8381     21.5673     29.1007     30.9611     97.7225
  1175.5000     52.0025     20.6575     28.7512     35.5311     99.2298
  1175.7500     52.7888     23.0722     24.2620     35.9610    104.7291
  1176.0000     51.9273     21.5353     23.8966     33.2279    102.6611
  1176.2500     51.3741     22.2428     24.9806     29.4509    105.9610
  1176.5000     49.2437     20.1633     25.3015     29.3343    106.2956
  1176.7500     46.6427     20.5171     23.3636     32.5263    105.2423
  1177.0000     43.9731     22.0515     23.7920     32.4243    114.0278
  1177.2500     42.1567     21.1344     22.7353     30.0881    115.4255
  1177.5000     36.7514     20.0551     20.7804     28.0404    109.7979
  1177.7500     33.9624     19.4872     21.5057     27.2358    111.4292
  1178.0000     41.5435     17.3883     18.6825     27.2814    113.5899
  1178.2500     41.2642     15.3019     17.4395     26.5445    115.6090
  1178.5000     40.2170     14.8972     16.5214     25.2242    127.1018
  1178.7500     39.6593     15.5105     15.9916     22.3315    133.0078
  1179.0000     41.6217     15.5183     15.0999     21.2696    139.1888
  1179.2500     41.3301     14.8056     14.0438     18.8461    147.6842
  1179.5000     37.3219     13.1775     12.6206     17.4821    147.8472
  1179.7500     28.4261     12.6131     12.2114     16.0887    141.6189
  1180.0000     26.8881     12.5153     11.6586     14.7274    146.4639
  1180.2500     26.2833     12.0330     11.0874     13.6068    140.5757
  1180.5000     26.0880     11.8467     10.3298     13.2636    133.7242
  1180.7500     25.9904     11.3882      9.7536     12.7618    134.6708
  1181.0000     27.2495     11.5746      9.6910     11.3546    132.8728
  1181.2500     27.7880     11.3295      9.6879     10.7253    138.9082
  1181.5000     29.8319     11.5054      9.7739     11.2828    121.5598
  1181.7500     29.7161     11.2321      9.6990     12.8092    129.2047
  1182.0000     28.2774     11.5481     10.3620     15.3207    128.3798
  1182.2500     28.2419     11.4606     10.1318     14.3523    130.2652
  1182.5000     28.7394     11.6404      9.9474     12.6511    124.8317
  1182.7500     29.4399     11.8924      9.8033     13.6424    114.3092
  1183.0000     30.7537     11.9792     10.1539     15.7928    109.9123
  1183.2500     31.8789     12.0529     10.4727     16.1986    111.2770
  1183.5000     33.5184     12.7073     11.1453     15.3566    101.0120
  1183.7500     36.2384     12.0712     11.5227     15.5924     90.7282
  1184.0000     38.3949     11.7265     12.3267     17.5098     87.0294
  1184.2500     42.1152     11.7531     12.2569     25.3994     90.0002
  1184.5000     46.6873     12.4869     12.1242     36.7103     83.5808
  1184.7500     50.9205     13.1443     11.6755     33.0802     85.9023
  1185.0000     54.1966     12.8726     11.5000     21.8608     86.5431
  1185.2500     57.2080     13.0079     11.1712     15.3284     89.5478
  1185.5000     57.5460     12.6875     10.9849     14.0735     96.4336
  1185.7500     58.7661     12.6120     11.1740     14.0545     97.5668
  1186.0000     58.0684     11.3412     11.2861     14.6153    102.2284
  1186.2500     58.6668     12.2850     11.1112     15.7296    107.6726
  1186.5000     58.2359     13.3606     10.8275     16.6360    106.7828
  1186.7500     58.1143     12.5223     10.8458     16.6829    105.2766
  1187.0000     57.2913     13.0805     10.9155     16.1748    101.4208
  1187.2500     56.6802     13.5702     10.9138     15.4493    106.6978
  1187.5000     55.7509     14.4144     11.7212     14.5606    105.5259
  1187.7500     55.3464     14.6878     12.2680     14.3017     99.6837
  1188.0000     53.7259     14.9482     13.0258     15.2500     92.7574
  1188.2500     52.5016     14.5941     14.2186     17.3841     92.1531
  1188.5000     51.4733     14.3221     14.6613     22.2306     83.9653
  1188.7500     50.1722     13.5031     16.7842     30.2004     81.7440
  1189.0000     49.0622     14.7047     17.2991     40.9612     79.6494
  1189.2500     45.0389     14.9137     19.0239     46.4157     81.9003
  1189.5000     42.7295     15.2341     20.0270     50.2890     86.8432
  1189.7500     40.0882     15.5148     22.2629     50.6524     85.0713
